[{"lat":"36.979389446","long":"127.27837415","items":[{"name":"꿈동산어린이집[아이행복]","tel":"031-676-2676","addr":"경기도 안성시 중리동 258번지","category":"학원 - 유아원"}]},{"lat":"36.971527841","long":"127.28403948","items":[{"name":"대한제당(주)티에스인재개발원","tel":"070-7775-0394","addr":"경기도 안성시 중리동 136-1번지","category":"학원 - 기타 교육기관"}]},{"lat":"36.980614412","long":"127.26668664","items":[{"name":"동광세탁소","tel":"031-676-7075","addr":"경기도 안성시 중리동 161-1동광상가105호","category":"수리서비스 - 세탁소"},{"name":"동광태권도","tel":"031-671-1102","addr":"경기도 안성시 중리동 616-1 동강@상가3층","category":"학원 - 예·체능계학원"},{"name":"미래학원","tel":"031-677-3303","addr":"경기도 안성시 중리동 616-1번지 동광상가401~402호 401호","category":"학원 - 보습학원"},{"name":"앗싸마늘닭","tel":"031-677-2232","addr":"경기도 안성시 중리동 616-1번지 동광아파트 201호","category":"일반휴게음식 - 스넥"}]},{"lat":"36.989082833","long":"127.27143361","items":[{"name":"동양강철 안성총판","tel":"031-675-9970","addr":"경기도 안성시 중리동 148-2번지","category":"건축자재 - 보일러·펌프·샷시"}]},{"lat":"36.977664389","long":"127.27621158","items":[{"name":"설봉사무기","tel":"031-634-0202","addr":"경기도 안성시 중리동 191 1층상가","category":"사무통신 - 사무용 OA기기"}]},{"lat":"36.988885362","long":"127.27109593","items":[{"name":"아름다운어린이집","tel":"031-671-1333","addr":"경기도 안성시 중리동 148-7번지","category":"학원 - 유아원"}]},{"lat":"36.985939853","long":"127.27065877","items":[{"name":"안성신진자동차운전전문학원","tel":"031-676-5454","addr":"경기도 안성시 중리동 407-6번지","category":"학원 - 기능학원"}]},{"lat":"36.971915556","long":"127.28009912","items":[{"name":"유진건설중기공업사","tel":"031-676-7586","addr":"경기도 안성시 중리동 491-6번지","category":"수리서비스 - 기타수리서비스"}]},{"lat":"36.987168682","long":"127.26915793","items":[{"name":"주은하우징","tel":"031-675-0422","addr":"경기도 안성시 중리동 176-4번지","category":"건축자재 - 인테리어전문"}]},{"lat":"36.982079214","long":"127.26845507","items":[{"name":"청룡자동차정비공업(주)","tel":"031-675-1364","addr":"경기도 안성시 중리동 307번지","category":"자동차정비 유지 - 자동차정비"}]},{"lat":"36.983162137","long":"127.27568089","items":[{"name":"평택 벽과창","tel":"031-651-5121","addr":"경기도 안성시 중리동 356-6번지","category":"건축자재 - 인테리어전문"}]},{"lat":"36.988884168","long":"127.27162386","items":[{"name":"퓨리스샘물","tel":"031-675-0675","addr":"경기도 안성시 중리동 148-3번지","category":"유통업 영리 - 기타유통업"}]}]