[{"lat":"37.211740716","long":"126.75453117","items":[{"name":"(주)천일씨존레저서비스","tel":"031-355-1222","addr":"경기도 화성시 송산면 삼존리 778번지","category":"여행 - 여객선"}]},{"lat":"37.223178185","long":"126.73141823","items":[{"name":"A.S지게차","tel":"031-499-1746","addr":"경기도 화성시 송산면 삼존리 1-10번지 18.-21","category":"자동차정비 유지 - 중장비수리"}]},{"lat":"37.211738183","long":"126.75764049","items":[{"name":"RV블랙박스 내비게이션","tel":"031-357-2858","addr":"경기도 화성시 송산면 삼존리 750-3번지 105호","category":"자동차정비 유지 - 자동차부품"},{"name":"성신콤프레샤","tel":"031-355-0999","addr":"경기도 화성시 송산면 삼존리 750-3번지","category":"기타 - 기계공구"},{"name":"야르풍력","tel":"031-366-7107","addr":"경기도 화성시 송산면 삼존리 750-3번지 5호","category":"건축자재 - 보일러·펌프·샷시"},{"name":"야르풍력","tel":"","addr":"경기도 화성시 송산면 삼존리 750-3번지 5,6호","category":"기타 - 기계공구"}]},{"lat":"37.211827072","long":"126.75705439","items":[{"name":"건영카센터.타이어","tel":"031-355-2734","addr":"경기도 화성시 송산면 삼존리 750-1번지","category":"자동차정비 유지 - 자동차시트·타이어"},{"name":"대명철망","tel":"031-366-7340","addr":"경기도 화성시 송산면 삼존리 750-1번지","category":"건축자재 - 기타건축자재"}]},{"lat":"37.21162849","long":"126.75258259","items":[{"name":"굿셀","tel":"031-358-2454","addr":"경기도 화성시 송산면 삼존리 779-7번지","category":"자동차판매 - 기타운송"}]},{"lat":"37.218215168","long":"126.76577652","items":[{"name":"금강천막","tel":"031-944-2249","addr":"경기도 화성시 송산면 삼존리 649-486","category":"직물 - 카페트,커튼,천막,지물"}]},{"lat":"37.211628813","long":"126.74850445","items":[{"name":"남원추어탕","tel":"031-356-2736","addr":"경기도 화성시 송산면 삼존리 534-22번지","category":"일반휴게음식 - 일반한식"}]},{"lat":"37.223127271","long":"126.75333331","items":[{"name":"노블레스 디엠(D.M)","tel":"031-357-7928","addr":"경기도 화성시 송산면 삼존리 621-66번지","category":"용역 서비스 - 종합용역"}]},{"lat":"37.211987125","long":"126.7560287","items":[{"name":"대복","tel":"031-357-7513","addr":"경기도 화성시 송산면 삼존리 728-3번지","category":"일반휴게음식 - 일반한식"},{"name":"대복설렁탕","tel":"031-357-8533","addr":"경기도 화성시 송산면 삼존리 728-3번지","category":"일반휴게음식 - 일반한식"}]},{"lat":"37.22365113","long":"126.74550075","items":[{"name":"더툴샵","tel":"070-4244-3233","addr":"경기도 화성시 송산면 삼존리 313-3번지","category":"전기제품 - 기타전기제품"}]},{"lat":"37.211771791","long":"126.74795195","items":[{"name":"마도상사","tel":"031-356-4389","addr":"경기도 화성시 송산면 삼존리 529-1번지","category":"건축자재 - 기타건축자재"}]},{"lat":"37.212157334","long":"126.75555498","items":[{"name":"마도카센타","tel":"031-357-8325","addr":"경기도 화성시 송산면 삼존리 728-5번지","category":"자동차정비 유지 - 자동차시트·타이어"}]},{"lat":"37.21107308","long":"126.75411654","items":[{"name":"미가차이나","tel":"031-356-4565","addr":"경기도 화성시 송산면 삼존리 780-16번지","category":"일반휴게음식 - 중국식"}]},{"lat":"37.221793902","long":"126.73286538","items":[{"name":"미래곤충농장","tel":"","addr":"경기도 화성시 송산면 삼존리 1226-11번지","category":"학원 - 기타 교육기관"}]},{"lat":"37.219651574","long":"126.72986478","items":[{"name":"성현하우징","tel":"031-956-8657","addr":"경기도 화성시 송산면 삼존리 54-8번지","category":"건축자재 - 기타건축자재"}]},{"lat":"37.211766919","long":"126.75413679","items":[{"name":"송산가마솥순대국","tel":"031-355-8667","addr":"경기도 화성시 송산면 삼존리 778-4번지 1층 105-106호","category":"일반휴게음식 - 일반한식"}]},{"lat":"37.222348658","long":"126.73913922","items":[{"name":"송산어린이집[아이행복]","tel":"031-357-5539","addr":"경기도 화성시 송산면 삼존리 237번지","category":"학원 - 유아원"}]},{"lat":"37.217124216","long":"126.73581129","items":[{"name":"순천오가네묵은지와생선구이","tel":"031-355-3325","addr":"경기도 화성시 송산면 삼존리 184-1번지","category":"일반휴게음식 - 일반한식"}]},{"lat":"37.211128535","long":"126.75478102","items":[{"name":"쌍용서비스프라자송산코너","tel":"031-357-9610","addr":"경기도 화성시 송산면 삼존리 782번지","category":"자동차정비 유지 - 자동차정비"}]},{"lat":"37.211711223","long":"126.75335965","items":[{"name":"씨유송산나들목점","tel":"031-357-9166","addr":"경기도 화성시 송산면 삼존리 779번지 1층","category":"유통업 영리 - 편 의 점"},{"name":"한방전주콩나물국밥","tel":"031-357-8829","addr":"경기도 화성시 송산면 삼존리 779번지","category":"일반휴게음식 - 일반한식"}]},{"lat":"37.211050165","long":"126.76044783","items":[{"name":"씨유화성삼존점","tel":"031-898-6569","addr":"경기도 화성시 송산면 삼존리 769-11번지 101,102호","category":"유통업 영리 - 편 의 점"},{"name":"완도참전복","tel":"070-4649-1101","addr":"경기도 화성시 송산면 삼존리 769-11번지 1층 107,108호","category":"음료식품 - 농·축·수산품"},{"name":"하이공조닥트","tel":"","addr":"경기도 화성시 송산면 삼존리 769-11번지 1층 110호","category":"용역 서비스 - 기타용역서비스"},{"name":"한빛용접기","tel":"031-366-8203","addr":"경기도 화성시 송산면 삼존리 769-11번지 1층","category":"기타 - 기계공구"}]},{"lat":"37.211129125","long":"126.75506266","items":[{"name":"언니네순대국","tel":"031-357-2090","addr":"경기도 화성시 송산면 삼존리 783 (송산면화성로600)","category":"일반휴게음식 - 일반한식"}]},{"lat":"37.217548302","long":"126.74836064","items":[{"name":"엄나무집","tel":"031-357-4763","addr":"경기도 화성시 송산면 삼존리 453번지 1층","category":"일반휴게음식 - 일반한식"}]},{"lat":"37.218429543","long":"126.7393106","items":[{"name":"엘림농원","tel":"031-357-0521","addr":"경기도 화성시 송산면 삼존리 206-2번지","category":"음료식품 - 농·축·수산품"}]},{"lat":"37.211934002","long":"126.75647949","items":[{"name":"위드유 편의점","tel":"070-7653-9872","addr":"경기도 화성시 송산면 삼존리 750-2번지 103호","category":"유통업 영리 - 편 의 점"},{"name":"학표농자재마트","tel":"031-357-8541","addr":"경기도 화성시 송산면 삼존리 750-2번지","category":"농업 - 농기계"}]},{"lat":"37.218596724","long":"126.72958692","items":[{"name":"육일떡방앗간","tel":"031-357-6770","addr":"경기도 화성시 송산면 삼존리 54-14번지","category":"음료식품 - 기타음료식품"}]},{"lat":"37.211382923","long":"126.76014259","items":[{"name":"윤활유마트(송산점)","tel":"031-356-5928","addr":"경기도 화성시 송산면 삼존리 769-12번지","category":"자동차정비 유지 - 윤활유 전문 판매"},{"name":"주식회사 철공소","tel":"031-000-0000","addr":"경기도 화성시 송산면 삼존리 769-12번지","category":"기타 - 기계공구"}]},{"lat":"37.221793798","long":"126.75336024","items":[{"name":"주식회사 유진에너지산업","tel":"031-356-9802","addr":"경기도 화성시 송산면 삼존리 621-28번지","category":"건축자재 - 기타건축자재"},{"name":"파워컨테이너","tel":"031-356-4071","addr":"경기도 화성시 송산면 삼존리 621-28번지","category":"건축자재 - 기타건축자재"}]},{"lat":"37.213959461","long":"126.76888798","items":[{"name":"준마플랜트","tel":"031-355-3168","addr":"경기도 화성시 송산면 삼존리 649-288 외3필지","category":"용역 서비스 - 기타용역서비스"}]},{"lat":"37.221127309","long":"126.73692387","items":[{"name":"차전식품","tel":"031-356-5449","addr":"경기도 화성시 송산면 삼존리 254-4번지","category":"음료식품 - 기타음료식품"}]},{"lat":"37.211796522","long":"126.75536464","items":[{"name":"토박이우리밀칼국수","tel":"031-357-5693","addr":"경기도 화성시 송산면 삼존리 776-1번지 외1필지","category":"일반휴게음식 - 일반한식"}]},{"lat":"37.210793607","long":"126.77183804","items":[{"name":"퍼지시스템","tel":"070-7604-3316","addr":"경기도 화성시 송산면 삼존리 649-340","category":"건축자재 - 보일러·펌프·샷시"}]},{"lat":"37.225762089","long":"126.73847381","items":[{"name":"한누리영농조합법인","tel":"031-357-7253","addr":"경기도 화성시 송산면 삼존리 1236-2번지","category":"문화.취미 - 화원"}]},{"lat":"37.223236226","long":"126.72923216","items":[{"name":"해송가든","tel":"031-356-0028","addr":"경기도 화성시 송산면 삼존리 4-1번지 1층","category":"일반휴게음식 - 일반한식"}]},{"lat":"37.219960321","long":"126.74294446","items":[{"name":"화성세차","tel":"","addr":"경기도 화성시 송산면 삼존리 206-19번지","category":"자동차정비 유지 - 세차장"}]},{"lat":"37.2119332","long":"126.74759091","items":[{"name":"화성자재","tel":"070-8709-8708","addr":"경기도 화성시 송산면 삼존리 528-3번지","category":"건축자재 - 기타건축자재"}]}]