[{"lat":"37.667186323","long":"126.80123675","items":[{"name":"BYC","tel":"031-906-9711","addr":"경기도 고양시 일산동구 숲속마을로","category":"의류 - 내의판매"}]},{"lat":"37.667299728","long":"126.79907163","items":[{"name":"Y수학","tel":"031-906-7978","addr":"경기도 고양시 일산동구 숲속마을로","category":"회원제형태 - 학원"}]},{"lat":"37.665881398","long":"126.79687673","items":[{"name":"밀라노피아노교습소","tel":"031-908-1191","addr":"경기도 고양시 일산동구 숲속마을로","category":"학원 - 예·체능계학원"}]},{"lat":"37.667239528","long":"126.80073791","items":[{"name":"백쌤영어박쌤수학학원","tel":"031-909-1255","addr":"경기도 고양시 일산동구 숲속마을로","category":"회원제형태 - 학원"}]},{"lat":"37.667938823","long":"126.79872986","items":[{"name":"봉구스밥버거","tel":"031-907-8159","addr":"경기도 고양시 일산동구 숲속마을로","category":"일반휴게음식 - 일반한식"},{"name":"예음클래식피아노학원","tel":"031-906-5979","addr":"경기도 고양시 일산동구 숲속마을로","category":"학원 - 예·체능계학원"}]},{"lat":"37.667709017","long":"126.80131468","items":[{"name":"북경성","tel":"031-904-5482","addr":"경기도 고양시 일산동구 숲속마을로","category":"일반휴게음식 - 중국식"}]},{"lat":"37.667848491","long":"126.79859409","items":[{"name":"빈체레(Vincere)축구클럽","tel":"031-907-7733","addr":"경기도 고양시 일산동구 숲속마을로","category":"레저업소 - 기타레져업소"}]},{"lat":"37.667378792","long":"126.797904","items":[{"name":"살롱드박","tel":"031-907-3395","addr":"경기도 고양시 일산동구 숲속마을로","category":"보건위생 - 미용원"}]},{"lat":"37.667130815","long":"126.79015216","items":[{"name":"샤브홀리","tel":"031-907-7849","addr":"경기도 고양시 일산동구 숲속마을로 85","category":"일반휴게음식 - 일반한식"}]},{"lat":"37.674172801","long":"126.8035869","items":[{"name":"소리교육","tel":"031-903-2664","addr":"경기도 고양시 일산동구 숲속마을로","category":"학원 - 예·체능계학원"}]},{"lat":"37.667325835","long":"126.79853885","items":[{"name":"아이끌레르미술학원","tel":"031-902-0357","addr":"경기도 고양시 일산동구 숲속마을로","category":"학원 - 예·체능계학원"}]},{"lat":"37.667326267","long":"126.7987882","items":[{"name":"이상수최강수학학원","tel":"031-905-9918","addr":"경기도 고양시 일산동구 숲속마을로","category":"학원 - 보습학원"},{"name":"행복을그리는아이미술교습소","tel":"070-8863-1581","addr":"경기도 고양시 일산동구 숲속마을로","category":"학원 - 예·체능계학원"}]},{"lat":"37.667758611","long":"126.79871902","items":[{"name":"투다리","tel":"031-932-5792","addr":"경기도 고양시 일산동구 숲속마을로","category":"일반휴게음식 - 일반한식"}]},{"lat":"37.667238906","long":"126.80037522","items":[{"name":"허니베이커리","tel":"031-907-8810","addr":"경기도 고양시 일산동구 숲속마을로","category":"음료식품 - 제과점"}]},{"lat":"37.667519815","long":"126.80131519","items":[{"name":"홍익사회복지원","tel":"031-907-5900","addr":"경기도 고양시 일산동구 숲속마을로","category":"기타의료기관 - 기타의료기관 및 기타"}]},{"lat":"37.667659681","long":"126.79882129","items":[{"name":"힐링키즈교육","tel":"031-904-0532","addr":"경기도 고양시 일산동구 숲속마을로","category":"학원 - 기타 교육기관"}]}]