[{"lat":"37.349165916","long":"126.85812599","items":[{"name":"(주)그린푸드서버","tel":"031-402-1705","addr":"경기도 안산시 상록구 장하동 250-9번지","category":"음료식품 - 기타음료식품"}]},{"lat":"37.358168916","long":"126.85965508","items":[{"name":"(주)승마","tel":"","addr":"경기도 안산시 상록구 장하동 177-2번지","category":"용역 서비스 - 사무서비스"},{"name":"에이스승마랜드","tel":"031-405-8584","addr":"경기도 안산시 상록구 장하동 177-2번지","category":"레저업소 - 기타레져업소"}]},{"lat":"37.34672249","long":"126.8567651","items":[{"name":"(주)좋은아침 pastry 가든점","tel":"031-411-0095","addr":"경기도 안산시 상록구 장하동 239-1번지","category":"일반휴게음식 - 서양음식"}]},{"lat":"37.361580862","long":"126.87274266","items":[{"name":"(주)한양인더스트리/원격지","tel":"031-486-3000","addr":"경기도 안산시 상록구 장하동 351-1번지","category":"기타 - 기타 전문점"}]},{"lat":"37.349831683","long":"126.85732339","items":[{"name":"(주)휴렉스","tel":"031-483-7900","addr":"경기도 안산시 상록구 장하동 231번지","category":"전기제품 - 기타전기제품"},{"name":"(주)휴렉스/원격지","tel":"031-483-7900","addr":"경기도 안산시 상록구 장하동 231번지","category":"기타 - 기타 전문점"}]},{"lat":"37.349499028","long":"126.85791091","items":[{"name":"가마야식품","tel":"031-485-3874","addr":"경기도 안산시 상록구 장하동 230-4번지 1층","category":"음료식품 - 기타음료식품"}]},{"lat":"37.350056487","long":"126.86445587","items":[{"name":"경안냉동","tel":"031-520-8804","addr":"경기도 안산시 상록구 장하동 124번지","category":"용역 서비스 - 기타용역서비스"}]},{"lat":"37.355228025","long":"126.86420935","items":[{"name":"길사랑장학사업단 (주)서서울하이패스센터","tel":"031-477-8515","addr":"경기도 안산시 상록구 장하동 158번지","category":"자동차정비 유지 - 자동차부품"}]},{"lat":"37.350561337","long":"126.85718654","items":[{"name":"농업회사법인 대원에프씨 주식회사","tel":"031-410-3753","addr":"경기도 안산시 상록구 장하동 229번지","category":"음료식품 - 기타음료식품"},{"name":"주식회사 신은에프엔씨","tel":"070-8831-2254","addr":"경기도 안산시 상록구 장하동 229번지 외1필지","category":"음료식품 - 기타음료식품"}]},{"lat":"37.360028147","long":"126.87007015","items":[{"name":"대박수거","tel":"031-411-1138","addr":"경기도 안산시 상록구 장하동 39-2번지","category":"의류 - 기타의류"}]},{"lat":"37.348448267","long":"126.86073443","items":[{"name":"대원카페트","tel":"031-479-2646","addr":"경기도 안산시 상록구 장하동 266-3번지","category":"직물 - 카페트,커튼,천막,지물"}]},{"lat":"37.363388643","long":"126.86981588","items":[{"name":"두민식품","tel":"031-451-9480","addr":"경기도 안산시 상록구 장하동 4번지","category":"음료식품 - 기타음료식품"}]},{"lat":"37.360638034","long":"126.86759703","items":[{"name":"드림게이트","tel":"070-8849-8387","addr":"경기도 안산시 상록구 장하동 340-77번지","category":"건축자재 - 인테리어전문"}]},{"lat":"37.349779926","long":"126.85920828","items":[{"name":"레인보우아트텍","tel":"031-483-2288","addr":"경기도 안산시 상록구 장하동 274-1번지 가동","category":"건축자재 - 목재·석재·철물"},{"name":"미소그린마트","tel":"031-403-8191","addr":"경기도 안산시 상록구 장하동 274-1번지","category":"유통업 영리 - 슈퍼마켓"},{"name":"원조설악추어탕","tel":"031-401-5388","addr":"경기도 안산시 상록구 장하동 274-1번지 나동 1층","category":"일반휴게음식 - 일반한식"}]},{"lat":"37.361616105","long":"126.87202017","items":[{"name":"만주카","tel":"031-484-2588","addr":"경기도 안산시 상록구 장하동 10번지","category":"자동차정비 유지 - 자동차정비"}]},{"lat":"37.361976934","long":"126.87240334","items":[{"name":"바첸","tel":"031-417-0391","addr":"경기도 안산시 상록구 장하동 9번지","category":"주방용구 - 주방용구"}]},{"lat":"37.36022239","long":"126.86657059","items":[{"name":"서경푸드(주)","tel":"031-480-7478","addr":"경기도 안산시 상록구 장하동 60-1","category":"음료식품 - 정육점"}]},{"lat":"37.34941831","long":"126.85821579","items":[{"name":"서울프라즈마","tel":"031-413-0416","addr":"경기도 안산시 상록구 장하동 251-4번지","category":"기타 - 기계공구"}]},{"lat":"37.358414065","long":"126.86121229","items":[{"name":"선경유통","tel":"031-416-5578","addr":"경기도 안산시 상록구 장하동 180-4번지","category":"신변잡화 - 기타잡화"}]},{"lat":"37.358143554","long":"126.86876412","items":[{"name":"세계승마클럽","tel":"031-411-3200","addr":"경기도 안산시 상록구 장하동 45번지","category":"레저업소 - 기타레져업소"}]},{"lat":"37.348529127","long":"126.86054242","items":[{"name":"솔밭분재예술원","tel":"031-480-8488","addr":"경기도 안산시 상록구 장하동 267","category":"건축자재 - 인테리어전문"}]},{"lat":"37.347943169","long":"126.86029523","items":[{"name":"수양버들","tel":"031-405-8517","addr":"경기도 안산시 상록구 장하동 265번지","category":"일반휴게음식 - 일반한식"}]},{"lat":"37.3479431691","long":"126.8602952348","items":[{"name":"수양버들","tel":"031-405-8517","addr":"경기도 안산시 상록구 장하동 265번지","category":"숙박 및 음식점업 - 한식"}]},{"lat":"37.353862471","long":"126.86765434","items":[{"name":"스마일농장","tel":"","addr":"경기도 안산시 상록구 장하동 80-4번지","category":"농업 - 비료,사료,종자"}]},{"lat":"37.349364484","long":"126.85840776","items":[{"name":"신양큐비스","tel":"031-403-7395","addr":"경기도 안산시 상록구 장하동 251-8번지","category":"건축자재 - 인테리어전문"}]},{"lat":"37.358637811","long":"126.85995895","items":[{"name":"안산승마클럽","tel":"031-405-8584","addr":"경기도 안산시 상록구 장하동 178-1번지","category":"레저업소 - 기타레져업소"}]},{"lat":"37.359366363","long":"126.8665157","items":[{"name":"에스테크","tel":"031-365-4740","addr":"경기도 안산시 상록구 장하동 63-9번지","category":"유통업 영리 - 기타유통업"}]},{"lat":"37.361554005","long":"126.87290074","items":[{"name":"영재","tel":"031-480-9666","addr":"경기도 안산시 상록구 장하동 351-2번지 1층 2호","category":"유통업 영리 - 슈퍼마켓"},{"name":"웰빙식당(수암점)","tel":"031-405-2898","addr":"경기도 안산시 상록구 장하동 351-2번지 1층 1,2호","category":"일반휴게음식 - 일반한식"}]},{"lat":"37.358478026","long":"126.86195715","items":[{"name":"우리소정육식당","tel":"031-403-7747","addr":"경기도 안산시 상록구 장하동 180-5번지 2층","category":"일반휴게음식 - 일반한식"},{"name":"우리소정육점","tel":"031-403-7747","addr":"경기도 안산시 상록구 장하동 180-5번지 2층","category":"음료식품 - 정육점"}]},{"lat":"37.3497799259","long":"126.8592082839","items":[{"name":"원조설악추어탕","tel":"031-401-5388","addr":"경기도 안산시 상록구 장하동 274-1번지","category":"숙박 및 음식점업 - 한식점업"}]},{"lat":"37.34859052","long":"126.85915412","items":[{"name":"월드농산","tel":"031-486-6964","addr":"경기도 안산시 상록구 장하동 258번지","category":"음료식품 - 농·축·수산품"}]},{"lat":"37.349832707","long":"126.85815856","items":[{"name":"웰도어","tel":"031-405-7090","addr":"경기도 안산시 상록구 장하동 230-26번지","category":"가구 - 일반가구"},{"name":"주식회사웰도어하우징","tel":"031-405-7090","addr":"경기도 안산시 상록구 장하동 230-26번지","category":"가구 - 일반가구"}]},{"lat":"37.3499766622","long":"126.8579889939","items":[{"name":"웰도어","tel":"031-405-7090","addr":"경기도 안산시 상록구 장하동 230-25번지","category":"도매 및 소매업 - 가구"}]},{"lat":"37.3615540053","long":"126.8729007431","items":[{"name":"웰빙식당","tel":"031-405-2898","addr":"경기도 안산시 상록구 장하동 351-2번지","category":"숙박 및 음식점업 - 한식"}]},{"lat":"37.3500593086","long":"126.8592641829","items":[{"name":"제일한식부페","tel":"031-411-3614","addr":"경기도 안산시 상록구 장하동 221-6번지","category":"숙박 및 음식점업 - 부페"}]},{"lat":"37.350059309","long":"126.85926418","items":[{"name":"제일한식뷔페","tel":"031-411-3614","addr":"경기도 안산시 상록구 장하동 221-6번지 1층 1호","category":"일반휴게음식 - 서양음식"}]},{"lat":"37.349282536","long":"126.85770817","items":[{"name":"주식회사 리멤버플래너","tel":"031-487-0531","addr":"경기도 안산시 상록구 장하동 236번지","category":"서적문구 - 출판 및 인쇄물"}]},{"lat":"37.353473114","long":"126.8659846","items":[{"name":"주식회사 성호상사","tel":"031-483-9020","addr":"경기도 안산시 상록구 장하동 115-1번지","category":"신변잡화 - 기타잡화"}]},{"lat":"37.347725176","long":"126.85885105","items":[{"name":"주식회사 스마트냉열","tel":"","addr":"경기도 안산시 상록구 장하동 261-2번지","category":"전기제품 - 냉열기기"}]},{"lat":"37.350200931","long":"126.85718724","items":[{"name":"주식회사 하늘엠아이","tel":"031-487-0951","addr":"경기도 안산시 상록구 장하동 232번지","category":"기타 - 기계공구"}]},{"lat":"37.349750994","long":"126.85765084","items":[{"name":"주식회사파티시에","tel":"031-411-0149","addr":"경기도 안산시 상록구 장하동 230-21번지1층","category":"음료식품 - 제과점"}]},{"lat":"37.359303006","long":"126.86626749","items":[{"name":"주식회사한승석재","tel":"031-405-9431","addr":"경기도 안산시 상록구 장하동 63-5","category":"건축자재 - 기타건축자재"}]},{"lat":"37.350057005","long":"126.85737938","items":[{"name":"주식회사휴렉스파워(HURECXPOWER Co.,Ltd)","tel":"031-483-8727","addr":"경기도 안산시 상록구 장하동 231-1번지","category":"건축자재 - 보일러·펌프·샷시"}]},{"lat":"37.351085997","long":"126.85887849","items":[{"name":"캐리어에이피에이(주)","tel":"02-1111-0000","addr":"경기도 안산시 상록구 장하동 217-2번지","category":"전기제품 - 냉열기기"}]},{"lat":"37.349949217","long":"126.85765046","items":[{"name":"태성중문","tel":"031-411-7216","addr":"경기도 안산시 상록구 장하동 230-3번지","category":"건축자재 - 기타건축자재"}]},{"lat":"37.35494737","long":"126.86306988","items":[{"name":"푸드트럭","tel":"031-1111-1111","addr":"경기도 안산시 상록구 장하동 151번지 서서울TG(목포)졸음쉼터","category":"일반휴게음식 - 일반한식"}]},{"lat":"37.349500283","long":"126.85893795","items":[{"name":"플라워가든 매리골드","tel":"031-403-3110","addr":"경기도 안산시 상록구 장하동 253-9번지","category":"문화.취미 - 화원"}]},{"lat":"37.3495002825","long":"126.8589379485","items":[{"name":"플라워가든메리골드","tel":"031-403-3110","addr":"경기도 안산시 상록구 장하동 253-9번지","category":"도매 및 소매업 - 생화"}]},{"lat":"37.353221508","long":"126.8589647","items":[{"name":"피시통신","tel":"031-486-7388","addr":"경기도 안산시 상록구 장하동 산 36-1","category":"사무통신 - 전자(상우회)"}]},{"lat":"37.351612859","long":"126.86243273","items":[{"name":"해성조경","tel":"031-898-5777","addr":"경기도 안산시 상록구 장하동 142-1","category":"건축자재 - 인테리어전문"}]},{"lat":"37.362642734","long":"126.87154429","items":[{"name":"현재네 푸드트럭","tel":"","addr":"경기도 안산시 상록구 장하동 8-1번지 서서울톨게이트 서울방향 (99나6039)","category":"일반휴게음식 - 서양음식"}]},{"lat":"37.362694864","long":"126.86981711","items":[{"name":"호룡수도권사업소","tel":"031-484-2437","addr":"경기도 안산시 상록구 장하동 15-1번지","category":"자동차정비 유지 - 중장비수리"}]},{"lat":"37.359782704","long":"126.86815167","items":[{"name":"효성중전기","tel":"031-411-8616","addr":"경기도 안산시 상록구 장하동 49-2번지","category":"기타 - 기계공구"}]}]