[{"lat":"37.373207441","long":"127.58422188","items":[{"name":"GS25여주대신점","tel":"","addr":"경기도 여주시 대신면 율촌리 343-4번지 1층","category":"유통업 영리 - 편 의 점"}]},{"lat":"37.375065436","long":"127.58930537","items":[{"name":"LG희망점","tel":"031-882-8550","addr":"경기도 여주시 대신면 율촌리 281-4번지","category":"수리서비스 - 가정용품수리"}]},{"lat":"37.37598878","long":"127.59024963","items":[{"name":"경기관광고등학교","tel":"","addr":"경기도 여주시 대신면 율촌리 271번지 경기관광고등학교","category":"학원 - 초중고교육기관"},{"name":"창명여자중학교","tel":"","addr":"경기도 여주시 대신면 율촌리 271번지","category":"학원 - 초중고교육기관"}]},{"lat":"37.374203955","long":"127.58678105","items":[{"name":"계절먹거리","tel":"031-882-9778","addr":"경기도 여주시 대신면 율촌리 381-6번지","category":"일반휴게음식 - 일반한식"},{"name":"아띠미용실","tel":"031-884-1096","addr":"경기도 여주시 대신면 율촌리 381-6번지","category":"보건위생 - 미용원"}]},{"lat":"37.373898852","long":"127.58653031","items":[{"name":"곡수원조영양탕","tel":"031-884-7458","addr":"경기도 여주시 대신면 율촌리 338-12번지","category":"일반휴게음식 - 일반한식"}]},{"lat":"37.375314121","long":"127.59002986","items":[{"name":"구인재활의학과의원","tel":"031-882-7636","addr":"경기도 여주시 대신면 율촌리 269-7번지","category":"의원 - 의원"},{"name":"다애메디칼","tel":"031-882-7636","addr":"경기도 여주시 대신면 율촌리 269-7번지","category":"건강식품 - 기타건강식품"}]},{"lat":"37.373848079","long":"127.58586383","items":[{"name":"국밥집","tel":"031-886-2356","addr":"경기도 여주시 대신면 율촌리 338-10번지","category":"일반휴게음식 - 일반한식"}]},{"lat":"37.373653426","long":"127.58513978","items":[{"name":"금강떡방앗간","tel":"031-882-8601","addr":"경기도 여주시 대신면 율촌리 339-12번지","category":"음료식품 - 제과점"}]},{"lat":"37.373600201","long":"127.58497003","items":[{"name":"금강양품","tel":"031-884-4548","addr":"경기도 여주시 대신면 율촌리 340-8번지","category":"의류 - 정장"}]},{"lat":"37.37642897","long":"127.58869503","items":[{"name":"기쁜어린이집[아이행복]","tel":"031-883-0117","addr":"경기도 여주시 대신면 율촌리 275-2번지","category":"학원 - 유아원"}]},{"lat":"37.372319919","long":"127.58331188","items":[{"name":"길목","tel":"031-882-8504","addr":"경기도 여주시 대신면 율촌리 345-3번지","category":"일반휴게음식 - 일반한식"}]},{"lat":"37.373265325","long":"127.58344335","items":[{"name":"길손식당","tel":"031-881-5418","addr":"경기도 여주시 대신면 율촌리 363-15번지","category":"일반휴게음식 - 일반한식"},{"name":"이포보캠핑페스티벌","tel":"031-974-5811","addr":"경기도 여주시 대신면 율촌리 363-15번지","category":"문화.취미 - 티켓"},{"name":"중국성","tel":"031-884-8361","addr":"경기도 여주시 대신면 율촌리 363-15번지","category":"일반휴게음식 - 중국식"}]},{"lat":"37.373260666","long":"127.58439164","items":[{"name":"김밥마을","tel":"031-884-0103","addr":"경기도 여주시 대신면 율촌리 343-5번지","category":"일반휴게음식 - 일반한식"},{"name":"김선희헤어샵","tel":"031-883-6817","addr":"경기도 여주시 대신면 율촌리 343-5번지","category":"보건위생 - 미용원"}]},{"lat":"37.374516185","long":"127.58558675","items":[{"name":"꼬꼬가","tel":"031-883-4808","addr":"경기도 여주시 대신면 율촌리 380-5번지","category":"일반휴게음식 - 스넥"}]},{"lat":"37.373843295","long":"127.58500578","items":[{"name":"나드리헤어샵","tel":"031-883-6004","addr":"경기도 여주시 대신면 율촌리 364-6번지","category":"보건위생 - 미용원"}]},{"lat":"37.374151012","long":"127.58472591","items":[{"name":"남양미트","tel":"031-881-2310","addr":"경기도 여주시 대신면 율촌리 372-1번지 1층","category":"음료식품 - 정육점"}]},{"lat":"37.374403282","long":"127.5865568","items":[{"name":"느티나무","tel":"","addr":"경기도 여주시 대신면 율촌리 381-4번지 1층","category":"일반휴게음식 - 서양음식"}]},{"lat":"37.3741510124","long":"127.5847259107","items":[{"name":"단골집","tel":"031-884-7607","addr":"경기도 여주시 대신면 율촌리 372-1번지","category":"일반휴게음식 - 일반한식"}]},{"lat":"37.373568215","long":"127.58414564","items":[{"name":"대박포차","tel":"031-884-9553","addr":"경기도 여주시 대신면 율촌리 363-12번지","category":"일반휴게음식 - 일반한식"},{"name":"땡기오 분식","tel":"031-111-1111","addr":"경기도 여주시 대신면 율촌리 363-12번지","category":"일반휴게음식 - 스넥"},{"name":"땡기오 분식","tel":"031-884-2011","addr":"경기도 여주시 대신면 율촌리 363-12번지 1층","category":"일반휴게음식 - 스넥"},{"name":"성운세탁소","tel":"031-1111-1111","addr":"경기도 여주시 대신면 율촌리 363-12번지 1층","category":"수리서비스 - 세탁소"},{"name":"아카페라","tel":"","addr":"경기도 여주시 대신면 율촌리 363-12번지","category":"일반휴게음식 - 서양음식"},{"name":"약손한의원","tel":"031-882-1070","addr":"경기도 여주시 대신면 율촌리 363-12번지","category":"의원 - 한의원"}]},{"lat":"37.377429819","long":"127.59036247","items":[{"name":"대신고물상","tel":"031-883-7617","addr":"경기도 여주시 대신면 율촌리 238-51번지","category":"신변잡화 - 기타잡화"}]},{"lat":"37.372762224","long":"127.58314594","items":[{"name":"대신농자재","tel":"031-882-2512","addr":"경기도 여주시 대신면 율촌리 363-38번지","category":"농업 - 비료,사료,종자"}]},{"lat":"37.374953595","long":"127.5864143","items":[{"name":"대신면사무소","tel":"031-887-3942","addr":"경기도 여주시 대신면 율촌리 390번지","category":"용역 서비스 - 사무서비스"},{"name":"대신면새마을지도자협의회","tel":"031-881-4439","addr":"경기도 여주시 대신면 율촌리 390번지","category":"유통업 영리 - 슈퍼마켓"}]},{"lat":"37.375566672","long":"127.58997538","items":[{"name":"대신반점","tel":"031-882-5554","addr":"경기도 여주시 대신면 율촌리 270-1번지","category":"일반휴게음식 - 중국식"},{"name":"산골짝건강원","tel":"031-881-5551","addr":"경기도 여주시 대신면 율촌리 270-1번지","category":"건강식품 - 기타건강식품"}]},{"lat":"37.374456671","long":"127.58669269","items":[{"name":"대신사","tel":"031-882-7708","addr":"경기도 여주시 대신면 율촌리 381-11번지","category":"수리서비스 - 세탁소"},{"name":"페리카나(대신점)","tel":"031-884-3669","addr":"경기도 여주시 대신면 율촌리 381-1번지","category":"일반휴게음식 - 일반한식"}]},{"lat":"37.374681601","long":"127.58857983","items":[{"name":"대신삼화페인트","tel":"031-881-2679","addr":"경기도 여주시 대신면 율촌리 282-2번지","category":"건축자재 - 페인트"}]},{"lat":"37.37453681","long":"127.58688524","items":[{"name":"대신솥뚜껑삼겹살","tel":"031-881-1729","addr":"경기도 여주시 대신면 율촌리 382-3번지","category":"일반휴게음식 - 일반한식"},{"name":"피자와치킨의러브레터(대신점)","tel":"031-884-4919","addr":"경기도 여주시 대신면 율촌리 382-3번지","category":"일반휴게음식 - 서양음식"}]},{"lat":"37.373012223","long":"127.58361074","items":[{"name":"대신에서 놀자","tel":"031-883-5951","addr":"경기도 여주시 대신면 율촌리 363-10번지","category":"일반휴게음식 - 주점"}]},{"lat":"37.375654643","long":"127.5885874","items":[{"name":"대신우체국","tel":"031-882-8004","addr":"경기도 여주시 대신면 율촌리 278-3번지 대신우체국","category":"용역 서비스 - 공공요금대행서비스/소"}]},{"lat":"37.373068995","long":"127.58305799","items":[{"name":"대신자동차부분정비공업사","tel":"031-883-3627","addr":"경기도 여주시 대신면 율촌리 363-1번지","category":"자동차정비 유지 - 자동차정비"}]},{"lat":"37.374120594","long":"127.58541435","items":[{"name":"대신장여관","tel":"031-883-4195","addr":"경기도 여주시 대신면 율촌리 377-6번지","category":"숙박업 - 여관/기타숙박업"}]},{"lat":"37.373737512","long":"127.58453079","items":[{"name":"대신전기조명","tel":"031-883-6601","addr":"경기도 여주시 대신면 율촌리 364-4번지","category":"용역 서비스 - 기타용역서비스"},{"name":"시장정육점","tel":"031-886-3339","addr":"경기도 여주시 대신면 율촌리 364-4번지","category":"음료식품 - 정육점"},{"name":"이가네김밥돈까스","tel":"031-883-9981","addr":"경기도 여주시 대신면 율촌리 364-4번지","category":"일반휴게음식 - 일반한식"}]},{"lat":"37.374043007","long":"127.58653143","items":[{"name":"대신종합할인매장","tel":"031-883-8376","addr":"경기도 여주시 대신면 율촌리 338-2번지","category":"유통업 영리 - 슈퍼마켓"}]},{"lat":"37.373759763","long":"127.58550188","items":[{"name":"대신체육사","tel":"031-882-8142","addr":"경기도 여주시 대신면 율촌리 339-5번지","category":"서적문구 - 문구용품"}]},{"lat":"37.375238058","long":"127.5871955","items":[{"name":"대신초등학교","tel":"","addr":"경기도 여주시 대신면 율촌리 285번지 대신초등학교","category":"학원 - 초중고교육기관"},{"name":"대신초등학교병셜유치원[아이행복]","tel":"031-882-7619","addr":"경기도 여주시 대신면 율촌리 285번지 대신초등학교","category":"학원 - 유치원"}]},{"lat":"37.373679788","long":"127.58527546","items":[{"name":"대신텔레콤","tel":"031-773-8520","addr":"경기도 여주시 대신면 율촌리 339-10번지","category":"사무통신 - 통신기기"}]},{"lat":"37.372485139","long":"127.58269223","items":[{"name":"대신할인마트정육코너","tel":"031-884-4399","addr":"경기도 여주시 대신면 율촌리 360번지","category":"음료식품 - 정육점"}]},{"lat":"37.37498558","long":"127.58905637","items":[{"name":"대한사","tel":"031-882-7973","addr":"경기도 여주시 대신면 율촌리 282-10번지","category":"서적문구 - 문구용품"}]},{"lat":"37.371735197","long":"127.5867845","items":[{"name":"대흥공업사","tel":"031-882-7612","addr":"경기도 여주시 대신면 율촌리 316-5번지","category":"농업 - 농기계"}]},{"lat":"37.374620992","long":"127.58808261","items":[{"name":"도니도니 제주산생고기 전문점","tel":"031-883-8751","addr":"경기도 여주시 대신면 율촌리 286-6번지","category":"일반휴게음식 - 일반한식"}]},{"lat":"37.373125133","long":"127.58446962","items":[{"name":"두메산골","tel":"031-881-4063","addr":"경기도 여주시 대신면 율촌리 344-7번지","category":"일반휴게음식 - 일반한식"},{"name":"산호체육관","tel":"031-882-7461","addr":"경기도 여주시 대신면 율촌리 344-7번지","category":"학원 - 예·체능계학원"},{"name":"신바람 노래연습장","tel":"031-884-0119","addr":"경기도 여주시 대신면 율촌리 344-7번지","category":"레저업소 - 노 래 방"}]},{"lat":"37.373705816","long":"127.58547888","items":[{"name":"또래오래","tel":"031-882-9293","addr":"경기도 여주시 대신면 율촌리 339-9번지 1층","category":"일반휴게음식 - 스넥"},{"name":"태양설비","tel":"031-882-7939","addr":"경기도 여주시 대신면 율촌리 339-9번지","category":"건축자재 - 보일러·펌프·샷시"}]},{"lat":"37.374315078","long":"127.58617227","items":[{"name":"멀띠분식","tel":"031-884-0725","addr":"경기도 여주시 대신면 율촌리 381-9번지","category":"일반휴게음식 - 스넥"}]},{"lat":"37.374905164","long":"127.58892027","items":[{"name":"명성B&J학원","tel":"070-7752-3589","addr":"경기도 여주시 대신면 율촌리 282-8번지 2층 1호","category":"학원 - 보습학원"},{"name":"이쁘다","tel":"070-4465-8605","addr":"경기도 여주시 대신면 율촌리 282-8번지","category":"의류 - 정장"}]},{"lat":"37.37334832","long":"127.58488906","items":[{"name":"미담터","tel":"031-884-0058","addr":"경기도 여주시 대신면 율촌리 343-9번지","category":"일반휴게음식 - 일반한식"}]},{"lat":"37.374372015","long":"127.58741458","items":[{"name":"미래인테리어","tel":"","addr":"경기도 여주시 대신면 율촌리 289-4번지","category":"용역 서비스 - 기타용역서비스"}]},{"lat":"37.373790237","long":"127.58480215","items":[{"name":"별이네베이커리","tel":"031-883-0775","addr":"경기도 여주시 대신면 율촌리 364-10번지","category":"음료식품 - 제과점"}]},{"lat":"37.372570971","long":"127.58356218","items":[{"name":"보람장의사","tel":"031-881-4450","addr":"경기도 여주시 대신면 율촌리 345번지","category":"용역 서비스 - 가례서비스업"}]},{"lat":"37.3719600867","long":"127.5831962102","items":[{"name":"부원자동차공업사","tel":"031-883-7608","addr":"경기도 여주시 대신면 율촌리 346번지","category":"자동차정비 유지 - 자동차정비"}]},{"lat":"37.373794856","long":"127.58569407","items":[{"name":"부흥이발관","tel":"031-883-7675","addr":"경기도 여주시 대신면 율촌리 339-4번지","category":"보건위생 - 이용원"}]},{"lat":"37.374317138","long":"127.58575456","items":[{"name":"불로한의원","tel":"031-884-2227","addr":"경기도 여주시 대신면 율촌리 379-6번지 1층","category":"의원 - 한의원"}]},{"lat":"37.373483853","long":"127.58481107","items":[{"name":"삼양가축약품","tel":"031-883-8386","addr":"경기도 여주시 대신면 율촌리 343-3번지","category":"문화.취미 - 애완동물"}]},{"lat":"37.37484765","long":"127.58597317","items":[{"name":"삼오정","tel":"031-883-5777","addr":"경기도 여주시 대신면 율촌리 391-2번지","category":"일반휴게음식 - 일반한식"}]},{"lat":"37.373176004","long":"127.5832846","items":[{"name":"상호공인중개사사무소","tel":"031-884-5937","addr":"경기도 여주시 대신면 율촌리 363-14번지","category":"용역 서비스 - 부동산 중개·임대"}]},{"lat":"37.373901191","long":"127.58605616","items":[{"name":"샘터찻집","tel":"031-884-1994","addr":"경기도 여주시 대신면 율촌리 338-4번지","category":"일반휴게음식 - 서양음식"},{"name":"세종노래방","tel":"031-882-6488","addr":"경기도 여주시 대신면 율촌리 338-4번지 지층","category":"레저업소 - 노 래 방"},{"name":"자기야호프","tel":"031-1111-1111","addr":"경기도 여주시 대신면 율촌리 338-4번지","category":"일반휴게음식 - 주점"}]},{"lat":"37.37448445","long":"127.58836379","items":[{"name":"소나무집(대신)","tel":"031-882-9080","addr":"경기도 여주시 대신면 율촌리 289-14번지","category":"일반휴게음식 - 일반한식"}]},{"lat":"37.373092478","long":"127.5837807","items":[{"name":"신광떡방앗간","tel":"031-882-8932","addr":"경기도 여주시 대신면 율촌리 363-7번지","category":"음료식품 - 제과점"}]},{"lat":"37.374266353","long":"127.58691701","items":[{"name":"신용가스","tel":"031-882-7959","addr":"경기도 여주시 대신면 율촌리 381-2번지","category":"연료판매점 - LPG 취급점"},{"name":"청초회무침전문점","tel":"031-883-5581","addr":"경기도 여주시 대신면 율촌리 381-2번지","category":"일반휴게음식 - 일반한식"}]},{"lat":"37.3740437308","long":"127.5863846695","items":[{"name":"신화당약국","tel":"031-882-7632","addr":"경기도 여주시 대신면 율촌리 338-11번지","category":"약국 - 약국"}]},{"lat":"37.373510382","long":"127.58491289","items":[{"name":"씨유여주대신중앙점","tel":"031-898-6568","addr":"경기도 여주시 대신면 율촌리 343-1번지","category":"유통업 영리 - 편 의 점"}]},{"lat":"37.374369783","long":"127.58786615","items":[{"name":"연경네","tel":"031-884-8004","addr":"경기도 여주시 대신면 율촌리 289-7번지","category":"일반휴게음식 - 일반한식"},{"name":"예림어린이집[아이행복]","tel":"031-882-0815","addr":"경기도 여주시 대신면 율촌리 289-7번지","category":"학원 - 유아원"},{"name":"예림어린이집[아이행복]","tel":"031-882-0815","addr":"경기도 여주시 대신면 율촌리 289-7번지","category":"학원 - 유아원"}]},{"lat":"37.373985949","long":"127.5853117","items":[{"name":"예은문화사","tel":"031-883-6657","addr":"경기도 여주시 대신면 율촌리 376번지","category":"서적문구 - 일반서적"},{"name":"원샷","tel":"031-884-8283","addr":"경기도 여주시 대신면 율촌리 376번지","category":"일반휴게음식 - 주점"},{"name":"한길주","tel":"031-584-6855","addr":"경기도 여주시 대신면 율촌리 376번지","category":"음료식품 - 주류 판매점"}]},{"lat":"37.373178053","long":"127.5828669","items":[{"name":"우두산","tel":"031-881-1130","addr":"경기도 여주시 대신면 율촌리 366-3번지","category":"일반휴게음식 - 일반한식"}]},{"lat":"37.375433712","long":"127.58953403","items":[{"name":"윙크","tel":"","addr":"경기도 여주시 대신면 율촌리 270-4번지","category":"보건위생 - 피부미용실"}]},{"lat":"37.374292713","long":"127.58705269","items":[{"name":"이서방양념치킨","tel":"031-882-8105","addr":"경기도 여주시 대신면 율촌리 382-4번지","category":"일반휴게음식 - 스넥"}]},{"lat":"37.375207406","long":"127.58974678","items":[{"name":"조은약국","tel":"031-884-7515","addr":"경기도 여주시 대신면 율촌리 269-10번지","category":"약국 - 약국"}]},{"lat":"37.373403322","long":"127.58469756","items":[{"name":"준당구장","tel":"031-882-1062","addr":"경기도 여주시 대신면 율촌리 343-7번지","category":"레저업소 - 당 구 장"},{"name":"쭈나아시아마트","tel":"","addr":"경기도 여주시 대신면 율촌리 343-7번지","category":"유통업 영리 - 슈퍼마켓"}]},{"lat":"37.371513409","long":"127.58608284","items":[{"name":"즐거운노래연습장","tel":"031-882-8535","addr":"경기도 여주시 대신면 율촌리 309-4번지","category":"레저업소 - 노 래 방"}]},{"lat":"37.375265821","long":"127.58521999","items":[{"name":"진미식당","tel":"031-884-7837","addr":"경기도 여주시 대신면 율촌리 424번지","category":"일반휴게음식 - 일반한식"}]},{"lat":"37.373655313","long":"127.58658487","items":[{"name":"프로파크","tel":"","addr":"경기도 여주시 대신면 율촌리 333-10번지","category":"숙박업 - 여관/기타숙박업"}]},{"lat":"37.375619777","long":"127.59016772","items":[{"name":"하나오토공업사","tel":"031-882-4454","addr":"경기도 여주시 대신면 율촌리 270-9번지","category":"자동차정비 유지 - 중장비수리"}]},{"lat":"37.374869853","long":"127.58877322","items":[{"name":"향촌왕족발추어탕","tel":"031-882-7720","addr":"경기도 여주시 대신면 율촌리 282-13","category":"일반휴게음식 - 일반한식"}]}]