[{"lat":"37.653912065","long":"126.84011904","items":[{"name":"동이칼국수","tel":"031-911-6733","addr":"경기도 고양시 덕양구 고양대로","category":"일반휴게음식 - 일반한식"}]},{"lat":"37.65401957","long":"126.83967685","items":[{"name":"동진상사","tel":"031-949-0940","addr":"경기도 고양시 덕양구 고양대로","category":"자동차정비 유지 - 자동차부품"}]},{"lat":"37.654744936","long":"126.83651358","items":[{"name":"신영","tel":"031-912-8407","addr":"경기도 고양시 덕양구 고양대로","category":"서적문구 - 출판 및 인쇄물"}]},{"lat":"37.655327167","long":"126.83412116","items":[{"name":"신원당요양원","tel":"031-9693-0815","addr":"경기도 고양시 덕양구 고양대로","category":"기타의료기관 - 기타의료기관 및 기타"},{"name":"신원당피부관리","tel":"031-966-0818","addr":"경기도 고양시 덕양구 고양대로","category":"회원제형태 - 기타4"}]},{"lat":"37.646692777","long":"126.90247793","items":[{"name":"엠엔소프트","tel":"02-353-2447","addr":"경기도 고양시 덕양구 고양대로","category":"전기제품 - 가전제품"}]},{"lat":"37.644576688","long":"126.89367684","items":[{"name":"엠텍","tel":"02-357-0280","addr":"경기도 고양시 덕양구 고양대로","category":"신변잡화 - 기타잡화"}]},{"lat":"37.655077236","long":"126.83576491","items":[{"name":"연세식당","tel":"031-965-7854","addr":"경기도 고양시 덕양구 고양대로","category":"일반휴게음식 - 일반한식"}]},{"lat":"37.654521176","long":"126.83756797","items":[{"name":"원당검도관","tel":"031-966-0101","addr":"경기도 고양시 덕양구 고양대로","category":"학원 - 예·체능계학원"}]},{"lat":"37.655049564","long":"126.83531168","items":[{"name":"원당연세장례식장","tel":"031-966-4444","addr":"경기도 고양시 덕양구 고양대로","category":"용역 서비스 - 가례서비스업"}]},{"lat":"37.649435446","long":"126.8698171","items":[{"name":"자연그대로 영농조합법인","tel":"031-965-6520","addr":"경기도 고양시 덕양구 고양대로","category":"음료식품 - 기타음료식품"}]},{"lat":"37.646747632","long":"126.90341833","items":[{"name":"장터국밥","tel":"02-355-5657","addr":"경기도 고양시 덕양구 고양대로 2022","category":""}]},{"lat":"37.653357495","long":"126.84306657","items":[{"name":"재단법인철도공익복지재단","tel":"031-965-7341","addr":"경기도 고양시 덕양구 고양대로","category":"보건위생 - 화장품"}]},{"lat":"37.655185545","long":"126.83590065","items":[{"name":"주막촌","tel":"031-963-1354","addr":"경기도 고양시 덕양구 고양대로","category":"일반휴게음식 - 일반한식"}]}]