[{"lat":"37.03443203","long":"127.09397729","items":[{"name":"(주)자연의힘","tel":"02-579-7003","addr":"경기도 평택시 칠괴동 576-1번지","category":"회원제형태 - 건강식품"}]},{"lat":"37.035791654","long":"127.09524899","items":[{"name":"(주)티케이로지스","tel":"031-647-3697","addr":"경기도 평택시 칠괴동 54-2번지","category":"용역 서비스 - 종합용역"}]},{"lat":"37.026627167","long":"127.0838086","items":[{"name":"GS25평택우림점","tel":"","addr":"경기도 평택시 칠괴동 601번지 평택칠괴동우림필유아파트 101호","category":"유통업 영리 - 편 의 점"}]},{"lat":"37.034961272","long":"127.09703506","items":[{"name":"HOON'S스포츠센터","tel":"031-658-1332","addr":"경기도 평택시 칠괴동 52-6번지","category":"회원제형태 - 레져업소"}]},{"lat":"37.026741509","long":"127.09958724","items":[{"name":"강촌매운탕","tel":"","addr":"경기도 평택시 칠괴동 588-2번지","category":"음식점 - 한식"},{"name":"경기실업","tel":"031-662-7704","addr":"경기도 평택시 칠괴동 588-2번지","category":"자동차정비 유지 - 주차장"},{"name":"대명아이씨티","tel":"031-667-9855","addr":"경기도 평택시 칠괴동 588-2번지 a동 2,3호","category":"전기제품 - 가전제품"},{"name":"더맨","tel":"031-665-7170","addr":"경기도 평택시 칠괴동 588-2번지","category":"보건위생 - 미용원"},{"name":"라이언체육교실","tel":"031-611-7987","addr":"경기도 평택시 칠괴동 588-2번지","category":"레저업소 - 기타레져업소"},{"name":"맥스체대입시","tel":"031-691-7710","addr":"경기도 평택시 칠괴동 588-2번지 1동","category":"학원 - 예·체능계학원"},{"name":"장수옥설렁탕","tel":"031-611-8991","addr":"경기도 평택시 칠괴동 588-2번지 1층","category":"일반휴게음식 - 일반한식"},{"name":"카페클레오","tel":"070-4300-0645","addr":"경기도 평택시 칠괴동 588-2번지","category":"일반휴게음식 - 서양음식"}]},{"lat":"37.034097541","long":"127.09539305","items":[{"name":"거성자동차공업사","tel":"031-666-9962","addr":"경기도 평택시 칠괴동 53번지","category":"자동차정비 유지 - 자동차정비"}]},{"lat":"37.03423947","long":"127.09822554","items":[{"name":"교동짬뽕평택쌍용점","tel":"070-7576-3262","addr":"경기도 평택시 칠괴동 52-1번지","category":"일반휴게음식 - 중국식"},{"name":"에코화학","tel":"031-666-3941","addr":"경기도 평택시 칠괴동 52-1번지 6호","category":"자동차정비 유지 - 윤활유 전문 판매"},{"name":"제이리무진(평택점)","tel":"","addr":"경기도 평택시 칠괴동 52-1번지 1층 4호 5호","category":"자동차정비 유지 - 카인테리어"},{"name":"차쟁이 디테일링","tel":"031-611-3679","addr":"경기도 평택시 칠괴동 52-1번지 라컨셉션 1층 1, 2호","category":"자동차정비 유지 - 세차장"}]},{"lat":"37.025907144","long":"127.08258288","items":[{"name":"금동이도자기","tel":"","addr":"경기도 평택시 칠괴동 443-5번지","category":"주방용구 - 주방용식기"},{"name":"금동이도자기","tel":"031-668-5848","addr":"경기도 평택시 칠괴동 443-5번지","category":"소매업 - 도자기"}]},{"lat":"37.026572495","long":"127.08469636","items":[{"name":"꽃자매","tel":"","addr":"경기도 평택시 칠괴동 572번지 태영빌딩","category":"음식점 - 커피"},{"name":"꽃자매","tel":"031-691-8223","addr":"경기도 평택시 칠괴동 572번지 태영빌딩 1층","category":"일반휴게음식 - 서양음식"},{"name":"주식회사뉴인텍정보기술","tel":"031-665-0673","addr":"경기도 평택시 칠괴동 572번지 태영빌딩 3층","category":"용역 서비스 - 소프트웨어"}]},{"lat":"37.042736347","long":"127.09841601","items":[{"name":"남선알미늄평택대리점","tel":"031-652-4721","addr":"경기도 평택시 칠괴동 3-1번지","category":"건축자재 - 인테리어전문"}]},{"lat":"37.034573859","long":"127.09697838","items":[{"name":"넘버원 스크린골프","tel":"031-668-0777","addr":"경기도 평택시 칠괴동 52-10번지 2층","category":"레저업소 - 스크린골프"},{"name":"텐토르","tel":"031-666-8212","addr":"경기도 평택시 칠괴동 52-10번지 효성프라자 108호","category":"자동차정비 유지 - 카인테리어"},{"name":"행복한식부페","tel":"031-667-1247","addr":"경기도 평택시 칠괴동 52-10번지 2층","category":"일반휴게음식 - 일반한식"}]},{"lat":"37.024154693","long":"127.08886302","items":[{"name":"대양특장","tel":"031-647-3177","addr":"경기도 평택시 칠괴동 371-4번지","category":"자동차판매 - 기타운송"}]},{"lat":"37.023548894","long":"127.09169426","items":[{"name":"동아대형세차장","tel":"031-000-0000","addr":"경기도 평택시 칠괴동 614번지","category":"자동차정비 유지 - 세차장"}]},{"lat":"37.03182038","long":"127.09208602","items":[{"name":"동원상회","tel":"031-611-8710","addr":"경기도 평택시 칠괴동 580번지","category":"음료식품 - 기타음료식품"},{"name":"삼부상사","tel":"031-664-4061","addr":"경기도 평택시 칠괴동 580번지","category":"유통업 영리 - 기타유통업"},{"name":"쌍용편의점","tel":"031-611-0184","addr":"경기도 평택시 칠괴동 580번지 쌍용자동차복지동 3층","category":"유통업 영리 - 편 의 점"},{"name":"중앙","tel":"031-610-3918","addr":"경기도 평택시 칠괴동 580번지","category":"유통업 영리 - 슈퍼마켓"}]},{"lat":"37.033154334","long":"127.09158181","items":[{"name":"럭슬주식회사(LUXL CO.LTD)","tel":"02-508-0436","addr":"경기도 평택시 칠괴동 577-6번지","category":"전기제품 - 기타전기제품"}]},{"lat":"37.023573817","long":"127.09447003","items":[{"name":"메디치코리아코스메틱","tel":"031-666-3120","addr":"경기도 평택시 칠괴동 584-3번지 칠괴산업단지","category":"보건위생 - 화장품"}]},{"lat":"37.02632321","long":"127.08020082","items":[{"name":"서정꽃도매","tel":"031-664-0094","addr":"경기도 평택시 칠괴동 428-5번지","category":"문화.취미 - 화원"}]},{"lat":"37.02513123","long":"127.08405425","items":[{"name":"세레부주식회사","tel":"031-657-6022","addr":"경기도 평택시 칠괴동 404번지","category":"신변잡화 - 기타잡화"}]},{"lat":"37.023716921","long":"127.09584121","items":[{"name":"에스엘텍(SL-TEC)","tel":"0503-6515-3644","addr":"경기도 평택시 칠괴동 585-3번지","category":"전기제품 - 기타전기제품"}]},{"lat":"37.034212753","long":"127.09783213","items":[{"name":"에이치자동차공업사","tel":"031-651-4650","addr":"경기도 평택시 칠괴동 52-2번지","category":"자동차정비 유지 - 자동차정비"}]},{"lat":"37.025658289","long":"127.07727824","items":[{"name":"제이케이 웰딩마스터","tel":"031-666-7646","addr":"경기도 평택시 칠괴동 483-7번지","category":"용역 서비스 - 기타용역서비스"}]},{"lat":"37.042096701","long":"127.09828032","items":[{"name":"티스테이션 평택칠괴점","tel":"031-652-9921","addr":"경기도 평택시 칠괴동 4-3번지","category":"자동차정비 유지 - 카인테리어"},{"name":"티스테이션평택칠괴점","tel":"031-666-5843","addr":"경기도 평택시 칠괴동 4-3번지","category":"서비스업 - 자동차정비"}]},{"lat":"37.037630276","long":"127.09466674","items":[{"name":"하이브특장","tel":"031-666-1480","addr":"경기도 평택시 칠괴동 193-2번지","category":"기타 - 기계공구"}]}]