[{"lat":"37.27592503","long":"126.88534935","items":[{"name":"(주)아이에프2공장","tel":"031-1577-9203","addr":"경기도 화성시 매송면 원리 35-2번지","category":"건축자재 - 기타건축자재"}]},{"lat":"37.277619104","long":"126.8854933","items":[{"name":"(주)웹플래인","tel":"031-668-3350","addr":"경기도 화성시 매송면 원리 196-1번지","category":"전기제품 - 기타전기제품"},{"name":"농업회사법인 주식회사 쥬라기","tel":"070-7704-7542","addr":"경기도 화성시 매송면 원리 196-1번지","category":"문화.취미 - 애완동물"}]},{"lat":"37.275681114","long":"126.88470704","items":[{"name":"고려타일","tel":"031-409-1755","addr":"경기도 화성시 매송면 원리 43-1번지","category":"건축자재 - 건축용 요업제품"}]},{"lat":"37.275897719","long":"126.88506751","items":[{"name":"공간사랑","tel":"031-295-9256","addr":"경기도 화성시 매송면 원리 35-3번지","category":"가구 - 기타가구"}]},{"lat":"37.275400152","long":"126.88307259","items":[{"name":"대림농장","tel":"031-295-5180","addr":"경기도 화성시 매송면 원리 99-1번지","category":"음료식품 - 농·축·수산품"}]},{"lat":"37.278846031","long":"126.88704743","items":[{"name":"대현유통","tel":"031-298-8038","addr":"경기도 화성시 매송면 원리 189","category":"신변잡화 - 기타잡화"}]},{"lat":"37.276818636","long":"126.87809793","items":[{"name":"룡화사","tel":"031-111-1111","addr":"경기도 화성시 매송면 원리 152번지","category":"보건위생 - 기타대인서비스"}]},{"lat":"37.275430258","long":"126.88615065","items":[{"name":"매송마트","tel":"070-4206-7177","addr":"경기도 화성시 매송면 원리 38-2번지","category":"유통업 영리 - 편 의 점"}]},{"lat":"37.27834662","long":"126.88318068","items":[{"name":"미래특장","tel":"031-391-8609","addr":"경기도 화성시 매송면 원리 157번지","category":"수리서비스 - 기타수리서비스"}]},{"lat":"37.277015417","long":"126.88549423","items":[{"name":"반촌설렁탕","tel":"031-296-0147","addr":"경기도 화성시 매송면 원리 30-1번지","category":"일반휴게음식 - 일반한식"}]},{"lat":"37.277375983","long":"126.88565153","items":[{"name":"신일정공","tel":"070-7865-8995","addr":"경기도 화성시 매송면 원리 196-2번지","category":"수리서비스 - 기타수리서비스"}]},{"lat":"37.277925004","long":"126.8850418","items":[{"name":"아방궁","tel":"031-293-5879","addr":"경기도 화성시 매송면 원리 173-1번지 1층","category":"일반휴게음식 - 중국식"},{"name":"원리반월당약국","tel":"031-296-7005","addr":"경기도 화성시 매송면 원리 173-1","category":"약국 - 약국"}]},{"lat":"37.27668178","long":"126.88523542","items":[{"name":"영원판금","tel":"031-292-1841","addr":"경기도 화성시 매송면 원리 31-4","category":"기타 - 기계공구"}]},{"lat":"37.278096143","long":"126.88498516","items":[{"name":"유정헤어샵","tel":"031-295-8959","addr":"경기도 화성시 매송면 원리 174-6번지","category":"보건위생 - 미용원"}]},{"lat":"37.276646565","long":"126.88606985","items":[{"name":"유한회사 원석유통","tel":"031-1522-5422","addr":"경기도 화성시 매송면 원리 29-8번지","category":"신변잡화 - 기타잡화"},{"name":"주식회사 택이네","tel":"031-293-0877","addr":"경기도 화성시 매송면 원리 29-8번지 나동","category":"음료식품 - 농·축·수산품"}]},{"lat":"37.278982556","long":"126.88845667","items":[{"name":"이레씽크","tel":"031-502-7897","addr":"경기도 화성시 매송면 원리 242번지","category":"주방용구 - 주방용구"}]},{"lat":"37.278960689","long":"126.88454406","items":[{"name":"정원","tel":"031-295-9011","addr":"경기도 화성시 매송면 원리 179-8","category":"기타 - 기계공구"},{"name":"현대오일","tel":"031-295-0203","addr":"경기도 화성시 매송면 원리 179-8번지","category":"자동차정비 유지 - 윤활유 전문 판매"}]},{"lat":"37.27687161","long":"126.88585527","items":[{"name":"추미정남원추어탕","tel":"031-293-2933","addr":"경기도 화성시 매송면 원리 29-1 (푸른들판로 2014)","category":"일반휴게음식 - 일반한식"}]},{"lat":"37.278177325","long":"126.88507523","items":[{"name":"칠원농장","tel":"031-295-4165","addr":"경기도 화성시 매송면 원리 174-2번지","category":"음료식품 - 기타음료식품"}]},{"lat":"37.282540421","long":"126.88723346","items":[{"name":"펠리체 승마클럽","tel":"031-483-3060","addr":"경기도 화성시 매송면 원리 288-3번지","category":"용역 서비스 - 종합용역"}]},{"lat":"37.275815488","long":"126.88392885","items":[{"name":"한국텍(주)","tel":"031-296-2725","addr":"경기도 화성시 매송면 원리 112-6번지","category":"자동차정비 유지 - 자동차부품"}]},{"lat":"37.277538224","long":"126.88570765","items":[{"name":"현대천막공사","tel":"031-298-5369","addr":"경기도 화성시 매송면 원리 200번지","category":"직물 - 카페트,커튼,천막,지물"}]},{"lat":"37.276313541","long":"126.88643117","items":[{"name":"현대철재(주)","tel":"031-296-9171","addr":"경기도 화성시 매송면 원리 27-12","category":"건축자재 - 기타건축자재"}]},{"lat":"37.27890061","long":"126.8875773","items":[{"name":"화천 CMS","tel":"","addr":"경기도 화성시 매송면 원리 238번지","category":"기타 - 기계공구"}]}]