[{"lat":"37.000019882","long":"127.16916124","items":[{"name":"(신)가장맛있는족발","tel":"031-658-0008","addr":"경기도 안성시 공도읍 만정리 814-6번지","category":"일반휴게음식 - 일반한식"}]},{"lat":"37.005109097","long":"127.17672228","items":[{"name":"(주)신세계푸드퍼시스","tel":"02-3397-6176","addr":"경기도 안성시 공도읍 만정리 701번지","category":"일반휴게음식 - 위탁급식업"},{"name":"아싸유통","tel":"031-659-0280","addr":"경기도 안성시 공도읍 만정리 701번지 1층 구내식당","category":"음료식품 - 기타음료식품"}]},{"lat":"37.023826447","long":"127.1752141","items":[{"name":"(주)신원포장","tel":"031-653-5405","addr":"경기도 안성시 공도읍 만정리 3","category":"유통업 영리 - 기타유통업"}]},{"lat":"37.003971298","long":"127.18438189","items":[{"name":"(주)안성종합폐차장","tel":"031-653-0047","addr":"경기도 안성시 공도읍 만정리 304-13","category":"자동차정비 유지 - 가타자동차서비스"}]},{"lat":"37.004301931","long":"127.18024822","items":[{"name":"(주)파인코리아","tel":"031-651-4978","addr":"경기도 안성시 공도읍 만정리 299-4","category":"연료판매점 - 현대정유(오일뱅크)"}]},{"lat":"37.001046514","long":"127.16957915","items":[{"name":"119엽기떡볶이","tel":"031-653-5119","addr":"경기도 안성시 공도읍 만정리 804-7번지","category":"일반휴게음식 - 일반한식"},{"name":"꼬모(COMO)","tel":"031-655-2554","addr":"경기도 안성시 공도읍 만정리 804-7","category":"의류 - 정장"},{"name":"루비케이크","tel":"031-676-7644","addr":"경기도 안성시 공도읍 만정리 804-7번지 1층","category":"음료식품 - 제과점"}]},{"lat":"36.998828864","long":"127.17030453","items":[{"name":"25시노래방","tel":"031-654-5603","addr":"경기도 안성시 공도읍 만정리 424-24번지 지하1층","category":"레저업소 - 노 래 방"},{"name":"공도사진관","tel":"031-653-2723","addr":"경기도 안성시 공도읍 만정리 424-24번지","category":"광학제품 - 사진관"},{"name":"조희정스킨케어","tel":"031-657-2464","addr":"경기도 안성시 공도읍 만정리 424-24번지","category":"보건위생 - 피부미용실"},{"name":"최고을맛집","tel":"031-655-1748","addr":"경기도 안성시 공도읍 만정리 424-24번지","category":"일반휴게음식 - 일반한식"}]},{"lat":"37.001354241","long":"127.17493868","items":[{"name":"59쌀피자공도점","tel":"031-656-5982","addr":"경기도 안성시 공도읍 만정리 274-3번지 114호","category":"일반휴게음식 - 서양음식"},{"name":"ktigers 삼성태권도","tel":"031-616-7777","addr":"경기도 안성시 공도읍 만정리 274-3번지 골드일번가 402호","category":"학원 - 예·체능계학원"},{"name":"공터영어길수학학원","tel":"031-653-9007","addr":"경기도 안성시 공도읍 만정리 274-3번지 403 골드1번가","category":"학원 - 보습학원"},{"name":"길수학","tel":"031-653-9007","addr":"경기도 안성시 공도읍 만정리 274-3","category":"학원 - 보습학원"},{"name":"길한의원","tel":"031-652-7511","addr":"경기도 안성시 공도읍 만정리 274-3번지 305호 골드일번가","category":"의원 - 한의원"},{"name":"도담건강식품","tel":"031-955-0852","addr":"경기도 안성시 공도읍 만정리 274-3번지 골드일번가 304호","category":"건강식품 - 기타건강식품"},{"name":"도담소아청소년과","tel":"031-655-0852","addr":"경기도 안성시 공도읍 만정리 274-3번지 304호","category":"의원 - 의원"},{"name":"라엘헤어","tel":"031-655-5677","addr":"경기도 안성시 공도읍 만정리 274-3번지 203호","category":"보건위생 - 미용원"},{"name":"롯데리아(주)대민","tel":"031-658-8202","addr":"경기도 안성시 공도읍 만정리 274-3번지 골드일번가 103호","category":"일반휴게음식 - 서양음식"},{"name":"맞춤비타민","tel":"031-653-5579","addr":"경기도 안성시 공도읍 만정리 274-3번지","category":"건강식품 - 기타건강식품"},{"name":"명인만두 안성공도점","tel":"031-651-0917","addr":"경기도 안성시 공도읍 만정리 274-3번지 110호 나호","category":"일반휴게음식 - 스넥"},{"name":"모자속코끼리미술학원","tel":"031-655-4666","addr":"경기도 안성시 공도읍 만정리 274-3","category":"학원 - 예·체능계학원"},{"name":"베리짐","tel":"031-692-3604","addr":"경기도 안성시 공도읍 만정리 274-3번지 지하1층","category":"레저업소 - 헬스클럽"},{"name":"빚은안성공도점","tel":"031-652-5988","addr":"경기도 안성시 공도읍 만정리 274-3번지 골든일번가 112호","category":"음료식품 - 제과점"},{"name":"빵빚는 고을","tel":"031-653-9616","addr":"경기도 안성시 공도읍 만정리 274-3번지 1층 104호","category":"음료식품 - 제과점"},{"name":"빽다방 안성공도골드점","tel":"031-618-6367","addr":"경기도 안성시 공도읍 만정리 274-3번지 113호","category":"일반휴게음식 - 서양음식"},{"name":"소리숲음악학원","tel":"031-616-1111","addr":"경기도 안성시 공도읍 만정리 274-3번지 골드일번가 상가 401호","category":"학원 - 예·체능계학원"},{"name":"아이피아안경원","tel":"031-616-1000","addr":"경기도 안성시 공도읍 만정리 274-3번지 골드일번가 118호","category":"보건위생 - 안경"},{"name":"안성연세의원","tel":"031-653-5579","addr":"경기도 안성시 공도읍 만정리 274-3번지 303호 골드1번가","category":"의원 - 의원"},{"name":"케이에스티(KST) 삼성태권도","tel":"031-616-7777","addr":"경기도 안성시 공도읍 만정리 274-3번지 302호","category":"학원 - 예·체능계학원"},{"name":"토니모리 안성공도점","tel":"031-618-5705","addr":"경기도 안성시 공도읍 만정리 274-3번지 105호 골드일번가","category":"보건위생 - 화장품"},{"name":"햇살약국","tel":"031-618-0171","addr":"경기도 안성시 공도읍 만정리 274-3번지 110호","category":"약국 - 약국"},{"name":"화이트치과","tel":"031-691-2275","addr":"경기도 안성시 공도읍 만정리 274-3","category":"의원 - 치과의원"}]},{"lat":"37.001242084","long":"127.17146697","items":[{"name":"5대천왕","tel":"031-618-0916","addr":"경기도 안성시 공도읍 만정리 809-2번지 지하1층 101호","category":"일반휴게음식 - 일반한식"},{"name":"SnJ 영어학원","tel":"031-658-1105","addr":"경기도 안성시 공도읍 만정리 809-2번지","category":"학원 - 외국어학원"},{"name":"공도독서실","tel":"031-654-3080","addr":"경기도 안성시 공도읍 만정리 809-2번지 2층","category":"학원 - 독서실"},{"name":"알파문구만정점","tel":"031-692-5252","addr":"경기도 안성시 공도읍 만정리 809-2번지","category":"서적문구 - 문구용품"},{"name":"옥경이 수학 영어학원","tel":"031-674-0789","addr":"경기도 안성시 공도읍 만정리 809-2번지 3층","category":"학원 - 보습학원"}]},{"lat":"36.999912325","long":"127.17508148","items":[{"name":"60계안성공도점","tel":"031-658-8260","addr":"경기도 안성시 공도읍 만정리 880번지 디자인시티블루밍 상가2동 108,109호","category":"일반휴게음식 - 스넥"},{"name":"BBQ올리브떡볶이","tel":"031-618-7277","addr":"경기도 안성시 공도읍 만정리 880 디자인시티블루밍상가-109","category":"일반휴게음식 - 스넥"},{"name":"VIP헤어살롱","tel":"031-357-6550","addr":"경기도 안성시 공도읍 만정리 880번지 디자인시티블루밍 105호 (상가2동B)","category":"보건위생 - 미용원"},{"name":"고운소리 음악학원","tel":"031-653-2211","addr":"경기도 안성시 공도읍 만정리 880번지 디자인시티블루밍 상가동 3층 301-A호","category":"학원 - 예·체능계학원"},{"name":"국선생(안성점)","tel":"031-651-9455","addr":"경기도 안성시 공도읍 만정리 880번지 디자인시티블루밍 제1상가-107","category":"일반휴게음식 - 일반한식"},{"name":"까페위드","tel":"031-691-6558","addr":"경기도 안성시 공도읍 만정리 880번지 디자인시티블루밍 지하1층 104호 비","category":"일반휴게음식 - 서양음식"},{"name":"꽃돼지돌판구이","tel":"031-656-8833","addr":"경기도 안성시 공도읍 만정리 880번지 디자인시티블루밍 상가 1동 2층 201B호","category":"일반휴게음식 - 일반한식"},{"name":"더블샵피아노교습소","tel":"031-651-3501","addr":"경기도 안성시 공도읍 만정리 880번지 디자인시티블루밍상가2동 101,102호","category":"학원 - 예·체능계학원"},{"name":"디자인시티블루밍입주자대표회의","tel":"031-618-8106","addr":"경기도 안성시 공도읍 만정리 880번지 디자인시티블루밍 관리사무소","category":"회원제형태 - 레져업소"},{"name":"발레가든학원","tel":"031-653-6424","addr":"경기도 안성시 공도읍 만정리 880번지 디자인시티블루밍 상가 3018호","category":"학원 - 예·체능계학원"},{"name":"벽산블루밍세탁소","tel":"031-618-5877","addr":"경기도 안성시 공도읍 만정리 880번지 1동 110호 (디자인시티블루밍상가)","category":"수리서비스 - 세탁소"},{"name":"벽산한우마을","tel":"031-657-0882","addr":"경기도 안성시 공도읍 만정리 880 벽산블루밍상가1층105호","category":"음료식품 - 정육점"},{"name":"부어치킨","tel":"031-657-9545","addr":"경기도 안성시 공도읍 만정리 880번지 디자인시티블루밍 상가동 101D호","category":"일반휴게음식 - 주점"},{"name":"부자철판두루치기","tel":"031-691-1836","addr":"경기도 안성시 공도읍 만정리 880 디자인시티블루밍상가1동 101C호","category":"일반휴게음식 - 일반한식"},{"name":"블럭제빵소","tel":"031-652-0582","addr":"경기도 안성시 공도읍 만정리 880번지 디자인시티블루밍 상가1동 상가 1동 106호","category":"음료식품 - 제과점"},{"name":"블루밍어린이집[아이행복]","tel":"031-692-5007","addr":"경기도 안성시 공도읍 만정리 880번지","category":"학원 - 유아원"},{"name":"사바사바치킨호프","tel":"031-653-7192","addr":"경기도 안성시 공도읍 만정리 880번지 상가1동 2층 205호 ~ 207호","category":"일반휴게음식 - 스넥"},{"name":"시매쓰공도학원","tel":"031-656-7909","addr":"경기도 안성시 공도읍 만정리 880번지 디자인시티블루밍 상가 2동 204호","category":"학원 - 보습학원"},{"name":"씨유안성공도벽산점","tel":"031-652-9448","addr":"경기도 안성시 공도읍 만정리 880번지 디자인시티블루밍 2동 B101호","category":"유통업 영리 - 편 의 점"},{"name":"안성 종로엠 학원","tel":"031-692-3223","addr":"경기도 안성시 공도읍 만정리 880번지 디자인시티블루밍 2동 3층 301호","category":"학원 - 보습학원"},{"name":"연세본치과의원","tel":"031-654-2879","addr":"경기도 안성시 공도읍 만정리 880번지 1동2층 202호,203호,204호","category":"의원 - 치과의원"},{"name":"영어숲윤선생교실,안성공도만정학원","tel":"031-692-0555","addr":"경기도 안성시 공도읍 만정리 880번지 디자인시티블루밍상가제1동303,304,305","category":"학원 - 보습학원"},{"name":"예쁨주의보","tel":"","addr":"경기도 안성시 공도읍 만정리 880번지 디자인시티블루밍 2동 1층 110호","category":"보건위생 - 피부미용실"},{"name":"오레시피","tel":"031-111-1111","addr":"경기도 안성시 공도읍 만정리 880번지 디자인시티블루밍 제2상가동 지하 103호","category":"음료식품 - 기타음료식품"},{"name":"오월의 꿀벌(May bee)","tel":"","addr":"경기도 안성시 공도읍 만정리 880번지 디자인시티블루밍 상가1동 상가 2동 107호","category":"의류 - 정장"},{"name":"올후레쉬","tel":"031-691-6977","addr":"경기도 안성시 공도읍 만정리 880번지 디자인시티블루밍 130호","category":"음료식품 - 농·축·수산품"},{"name":"카페위드앤마카롱","tel":"031-691-6558","addr":"경기도 안성시 공도읍 만정리 880번지 디자인시티블루밍 상가 2동 지하1층 비104호","category":"일반휴게음식 - 서양음식"},{"name":"키즈팡팡","tel":"031-651-4510","addr":"경기도 안성시 공도읍 만정리 880번지 디자인시티블루밍 상가 2동 B1층 B106호","category":"레저업소 - 기타레져업소"},{"name":"키즈팡팡","tel":"031-651-4510","addr":"경기도 안성시 공도읍 만정리 880번지 (디자인시티블루밍제상가2동비106호)","category":"레저업소 - 기타레져업소"},{"name":"투다리공도블루밍점","tel":"031-654-8592","addr":"경기도 안성시 공도읍 만정리 880번지 블루밍 제1 상가 1010호","category":"일반휴게음식 - 일반한식"},{"name":"펀(FUN)바이크","tel":"031-541-6415","addr":"경기도 안성시 공도읍 만정리 880번지 블루밍 상가 2동 109호","category":"레져용품 - 스포츠·레져용품"},{"name":"푸른마을농수산(구평안과일)","tel":"031-691-5527","addr":"경기도 안성시 공도읍 만정리 880,1-102","category":"음료식품 - 농·축·수산품"},{"name":"헤어명가","tel":"031-656-2577","addr":"경기도 안성시 공도읍 만정리 880 디자인시티 1-106","category":"보건위생 - 미용원"}]},{"lat":"36.999992378","long":"127.16949821","items":[{"name":"79대포안성공도점","tel":"070-4268-8836","addr":"경기도 안성시 공도읍 만정리 815-1번지 107호","category":"일반휴게음식 - 일반한식"},{"name":"815빌딩","tel":"02-000-0000","addr":"경기도 안성시 공도읍 만정리 815-1번지","category":"자동차정비 유지 - 주차장"},{"name":"리얼야구존안성공도점","tel":"031-654-9007","addr":"경기도 안성시 공도읍 만정리 815-1번지 201 ,202, 203호","category":"레저업소 - 기타레져업소"},{"name":"이차돌 안성공도점","tel":"031-655-0092","addr":"경기도 안성시 공도읍 만정리 815-1번지 1층 108호","category":"일반휴게음식 - 일반한식"},{"name":"족발야시장 안성공도점","tel":"031-652-4969","addr":"경기도 안성시 공도읍 만정리 815-1번지 103,104호","category":"일반휴게음식 - 일반한식"},{"name":"카페달콩","tel":"031-651-1218","addr":"경기도 안성시 공도읍 만정리 815-1번지 101호","category":"일반휴게음식 - 서양음식"}]},{"lat":"37.001352687","long":"127.16971463","items":[{"name":"BHC치킨 공도점","tel":"031-654-1203","addr":"경기도 안성시 공도읍 만정리 804-5번지","category":"일반휴게음식 - 스넥"},{"name":"국화솔루션","tel":"031-618-2050","addr":"경기도 안성시 공도읍 만정리 804-5번지","category":"사무통신 - 기타 사무용품"},{"name":"엔조이런치엔디너","tel":"031-656-9445","addr":"경기도 안성시 공도읍 만정리 804-5번지","category":"일반휴게음식 - 일반한식"},{"name":"오늘도 자수","tel":"070-4046-4716","addr":"경기도 안성시 공도읍 만정리 804-5번지 101호","category":"문화.취미 - 문화취미기타"}]},{"lat":"36.999550934","long":"127.16944107","items":[{"name":"CAFE D (카페디)","tel":"031-676-0090","addr":"경기도 안성시 공도읍 만정리 417-18번지","category":"일반휴게음식 - 서양음식"},{"name":"공도 김명곤 복싱다이어트짐","tel":"031-692-2643","addr":"경기도 안성시 공도읍 만정리 417-18번지","category":"레저업소 - 헬스클럽"},{"name":"공도약국","tel":"031-657-1880","addr":"경기도 안성시 공도읍 만정리 417-18 1층3,4호","category":"약국 - 약국"},{"name":"샤방샤방 노래연습장","tel":"031-656-0999","addr":"경기도 안성시 공도읍 만정리 417-18번지 지하1층","category":"레저업소 - 노 래 방"},{"name":"서울스타비뇨기과의원","tel":"031-651-0889","addr":"경기도 안성시 공도읍 만정리 417-18번지","category":"의원 - 의원"},{"name":"연탄돼지","tel":"031-657-3255","addr":"경기도 안성시 공도읍 만정리 417-18번지 다동 우호","category":"일반휴게음식 - 일반한식"},{"name":"이야기한의원","tel":"031-657-1275","addr":"경기도 안성시 공도읍 만정리 417-18번지 나동","category":"의원 - 한의원"},{"name":"정관장 (공도점)","tel":"031-655-2304","addr":"경기도 안성시 공도읍 만정리 417-18번지 6호","category":"건강식품 - 홍삼제품"},{"name":"청담동말자 안성공도점","tel":"031-652-0618","addr":"경기도 안성시 공도읍 만정리 417-18번지 다동좌호","category":"일반휴게음식 - 일반한식"},{"name":"퍼펙트당구장","tel":"","addr":"경기도 안성시 공도읍 만정리 417-18번지 3층","category":"레저업소 - 당 구 장"},{"name":"푸른이비인후과","tel":"031-657-4835","addr":"경기도 안성시 공도읍 만정리 417-18번지 2층","category":"의원 - 의원"},{"name":"하나합기도","tel":"031-651-8506","addr":"경기도 안성시 공도읍 만정리 417-18번지","category":"학원 - 예·체능계학원"}]},{"lat":"37.001964272","long":"127.17052486","items":[{"name":"Daisy&(데이지앤)","tel":"031-665-7780","addr":"경기도 안성시 공도읍 만정리 799-3번지 1층","category":"일반휴게음식 - 서양음식"},{"name":"리리","tel":"031-654-0118","addr":"경기도 안성시 공도읍 만정리 799-3번지 샤인빌상가동","category":"음료식품 - 기타음료식품"},{"name":"마가의 다락방","tel":"031-111-1111","addr":"경기도 안성시 공도읍 만정리 799-3번지 상가","category":"음료식품 - 기타음료식품"}]},{"lat":"37.00031373","long":"127.17786851","items":[{"name":"FBI수학공부방","tel":"070-4402-2835","addr":"경기도 안성시 공도읍 만정리 877번지 KCC스위첸 114동 301호","category":"회원제형태 - 학원"}]},{"lat":"37.003554466","long":"127.17996561","items":[{"name":"GO#garage (고샵게라지)","tel":"070-8031-4038","addr":"경기도 안성시 공도읍 만정리 205-2번지","category":"자동차정비 유지 - 카인테리어"},{"name":"공도손세차","tel":"031-111-1111","addr":"경기도 안성시 공도읍 만정리 205-2번지","category":"자동차정비 유지 - 세차장"}]},{"lat":"37.00588325","long":"127.18327415","items":[{"name":"GS25공도부영점","tel":"","addr":"경기도 안성시 공도읍 만정리 302-23번지 1동 101호","category":"유통업 영리 - 편 의 점"},{"name":"크린토피아 안성지사","tel":"031-656-5565","addr":"경기도 안성시 공도읍 만정리 302-23번지","category":"수리서비스 - 세탁소"}]},{"lat":"37.001856573","long":"127.17022129","items":[{"name":"GS25공도사랑점","tel":"","addr":"경기도 안성시 공도읍 만정리 799-1번지 1층","category":"유통업 영리 - 편 의 점"},{"name":"불날개닭발","tel":"031-654-2811","addr":"경기도 안성시 공도읍 만정리 799-1번지","category":"일반휴게음식 - 일반한식"},{"name":"불날개닭발","tel":"031-654-2811","addr":"경기도 안성시 공도읍 만정리 799-1번지 1층","category":"일반휴게음식 - 일반한식"}]},{"lat":"36.999749562","long":"127.16916065","items":[{"name":"GS25안성공도점","tel":"","addr":"경기도 안성시 공도읍 만정리 417-170번지","category":"유통업 영리 - 편 의 점"}]},{"lat":"37.007329084","long":"127.17441285","items":[{"name":"GS25안성폴리텍점","tel":"","addr":"경기도 안성시 공도읍 만정리 781-4번지 101동 102호","category":"유통업 영리 - 편 의 점"},{"name":"스텔라 피아노 음악교습소","tel":"","addr":"경기도 안성시 공도읍 만정리 781-4번지 103호","category":"학원 - 예·체능계학원"}]},{"lat":"37.000181795","long":"127.17566627","items":[{"name":"HS이엔씨","tel":"","addr":"경기도 안성시 공도읍 만정리 880번지 디자인시티블루밍 110동 1201호","category":"건축자재 - 인테리어전문"},{"name":"미소미용재료","tel":"031-655-3866","addr":"경기도 안성시 공도읍 만정리 880번지 디자인시티블루밍 110동 401호","category":"보건위생 - 미용재료"},{"name":"한나어린이집[아이행복]","tel":"070-4220-2933","addr":"경기도 안성시 공도읍 만정리 880번지 벽산브루밍 110동 101호","category":"학원 - 유아원"}]},{"lat":"37.00327217","long":"127.18194228","items":[{"name":"JS산업","tel":"031-111-1111","addr":"경기도 안성시 공도읍 만정리 197-6번지 2층","category":"농업 - 농기계"},{"name":"유니언중기","tel":"031-708-2816","addr":"경기도 안성시 공도읍 만정리 197-6번지 1층","category":"기타 - 기계공구"},{"name":"지움건축","tel":"031-658-4541","addr":"경기도 안성시 공도읍 만정리 197-6","category":"용역 서비스 - 기타용역서비스"}]},{"lat":"37.007638527","long":"127.18445802","items":[{"name":"J헤어","tel":"031-657-9935","addr":"경기도 안성시 공도읍 만정리 149-7번지 A동 106호","category":"보건위생 - 미용원"}]},{"lat":"37.000953851","long":"127.17762281","items":[{"name":"KCC마트","tel":"031-656-3888","addr":"경기도 안성시 공도읍 만정리 877번지 KCC스위첸 상가 106호","category":"유통업 영리 - 슈퍼마켓"},{"name":"MoonSalon (문살롱)","tel":"031-651-3333","addr":"경기도 안성시 공도읍 만정리 877번지 KCC스위첸 주상가동 1층 112호","category":"보건위생 - 피부미용실"},{"name":"공도스위첸어린이집[아이행복]","tel":"031-658-1598","addr":"경기도 안성시 공도읍 만정리 877번지 케이씨씨스위첸","category":"학원 - 유아원"},{"name":"길 사진관","tel":"031-657-7563","addr":"경기도 안성시 공도읍 만정리 877번지 케이씨씨스위첸 주상가 1층 108호","category":"광학제품 - 사진관"},{"name":"더프라임학원","tel":"031-656-6684","addr":"경기도 안성시 공도읍 만정리 877번지 케이씨씨스위첸 상가동 202,203호","category":"학원 - 보습학원"},{"name":"또래오래","tel":"031-655-0028","addr":"경기도 안성시 공도읍 만정리 877번지 KCC스위첸 상가 101호","category":"일반휴게음식 - 주점"},{"name":"윤네일샵","tel":"","addr":"경기도 안성시 공도읍 만정리 877번지 102호 (스위첸,주상가동)","category":"보건위생 - 피부미용실"},{"name":"이마트24 스위첸점","tel":"","addr":"경기도 안성시 공도읍 만정리 877번지 키이씨씨스위첸 제주상가동 1층 109-111호","category":"유통업 영리 - 편 의 점"},{"name":"찰밥과 반찬","tel":"031-653-3379","addr":"경기도 안성시 공도읍 만정리 877번지 113호 케이씨씨스위첸 상가","category":"일반휴게음식 - 일반한식"},{"name":"타요(TAYO)","tel":"031-618-8379","addr":"경기도 안성시 공도읍 만정리 877번지 KCC스위첸 주상가 205호","category":"레저업소 - 헬스클럽"},{"name":"토론하는아이들논술교습소","tel":"031-656-7010","addr":"경기도 안성시 공도읍 만정리 877번지 케이씨씨스위첸 주상가동 106호","category":"학원 - 보습학원"},{"name":"헤어스케치","tel":"031-657-7783","addr":"경기도 안성시 공도읍 만정리 877번지 케이씨씨스위첸부 상가동 102호","category":"보건위생 - 미용원"}]},{"lat":"37.00076967","long":"127.17416219","items":[{"name":"KC네트웍스","tel":"031-653-2021","addr":"경기도 안성시 공도읍 만정리 274-7번지","category":"연료판매점 - 주유소"}]},{"lat":"37.007357039","long":"127.17377249","items":[{"name":"Nature Music","tel":"","addr":"경기도 안성시 공도읍 만정리 781-1번지 엘리시아 401호","category":"학원 - 기타 교육기관"}]},{"lat":"37.000413406","long":"127.17125169","items":[{"name":"OK 노래연습장","tel":"031-618-5060","addr":"경기도 안성시 공도읍 만정리 816-5번지 201호","category":"레저업소 - 노 래 방"},{"name":"밤이면 밤마다","tel":"","addr":"경기도 안성시 공도읍 만정리 816-5번지 2층 X4-X5호","category":"일반휴게음식 - 주점"},{"name":"순수치킨 공도점","tel":"031-653-3393","addr":"경기도 안성시 공도읍 만정리 816-5번지","category":"일반휴게음식 - 스넥"},{"name":"열정닭발","tel":"031-654-5167","addr":"경기도 안성시 공도읍 만정리 816-5번지 1층 101호","category":"일반휴게음식 - 일반한식"}]},{"lat":"37.011108218","long":"127.17185954","items":[{"name":"SMART셀프세차타운","tel":"031-654-0405","addr":"경기도 안성시 공도읍 만정리 377-10번지","category":"자동차정비 유지 - 세차장"},{"name":"차닦는남자","tel":"031-652-0313","addr":"경기도 안성시 공도읍 만정리 377-10번지","category":"자동차정비 유지 - 세차장"}]},{"lat":"37.003467194","long":"127.17805549","items":[{"name":"W_ORIGIN","tel":"031-673-1964","addr":"경기도 안성시 공도읍 만정리 205-7","category":"서적문구 - 완구점"},{"name":"우먼센스","tel":"031-656-7544","addr":"경기도 안성시 공도읍 만정리 205-7번지","category":"직물 - 침구·수예점"},{"name":"조아침장(에코숨)","tel":"053-326-8508","addr":"경기도 안성시 공도읍 만정리 205-7번지","category":"직물 - 침구·수예점"}]},{"lat":"37.003188784","long":"127.1711904","items":[{"name":"간식칭구","tel":"031-651-7372","addr":"경기도 안성시 공도읍 만정리 786-1번지 금호어울림 상가동 104호","category":"일반휴게음식 - 스넥"},{"name":"뚱's","tel":"031-654-0076","addr":"경기도 안성시 공도읍 만정리 786-1번지 안성공도금호어울림 상가동 102호","category":"일반휴게음식 - 스넥"},{"name":"미헤어","tel":"031-656-9311","addr":"경기도 안성시 공도읍 만정리 786-1번지 1층","category":"보건위생 - 미용원"},{"name":"세븐일레븐안성공도플러스점","tel":"031-1577-0711","addr":"경기도 안성시 공도읍 만정리 786-1번지 안성공도금호어울림 상가동 1층 101호","category":"유통업 영리 - 편 의 점"},{"name":"어울림세탁소","tel":"031-658-1096","addr":"경기도 안성시 공도읍 만정리 786-1번지 안성공도금호어울림 상가동 105호","category":"수리서비스 - 세탁소"},{"name":"와이블랙","tel":"031-000-0000","addr":"경기도 안성시 공도읍 만정리 786-1번지 안성공도금호어울림 1층 102호","category":"일반휴게음식 - 일반한식"}]},{"lat":"37.002271031","long":"127.17024467","items":[{"name":"강박사아구찜","tel":"031-655-8533","addr":"경기도 안성시 공도읍 만정리 798-4","category":"일반휴게음식 - 일반한식"}]},{"lat":"37.000385192","long":"127.17208297","items":[{"name":"갤러리당구장","tel":"031-656-0092","addr":"경기도 안성시 공도읍 만정리 817-2번지","category":"레저업소 - 당 구 장"},{"name":"갤러리당구장","tel":"031-656-0092","addr":"경기도 안성시 공도읍 만정리 817-2번지 우성메디컬프라자 405호","category":"레저업소 - 당 구 장"},{"name":"공도 마음나무 심리상담센터","tel":"031-651-0245","addr":"경기도 안성시 공도읍 만정리 817-2번지 우성메디컬프라자 1동 201호","category":"보건위생 - 기타대인서비스"},{"name":"공도오케이치과","tel":"031-691-2877","addr":"경기도 안성시 공도읍 만정리 817-2번지 우성메디컬상가 304동 305호","category":"의원 - 치과의원"},{"name":"공도텔레콤","tel":"031-655-1093","addr":"경기도 안성시 공도읍 만정리 817-2번지 우성메디칼 1동 112호","category":"사무통신 - 통신기기"},{"name":"나무와숲주식회사","tel":"031-1544-2262","addr":"경기도 안성시 공도읍 만정리 817-2번지 우성메디컬프라자 1동 205호","category":"회원제형태 - 건강식품"},{"name":"눈사람안과의원","tel":"031-618-6477","addr":"경기도 안성시 공도읍 만정리 817-2번지 우성메디컬프라자 306호","category":"의원 - 의원"},{"name":"당신의 인생사진","tel":"031-656-7903","addr":"경기도 안성시 공도읍 만정리 817-2번지 우성메디컬프라자 202호","category":"광학제품 - 사진관"},{"name":"더 네일홀릭 2호점","tel":"031-654-3946","addr":"경기도 안성시 공도읍 만정리 817-2번지 우성메디컬프라자 111호","category":"보건위생 - 피부미용실"},{"name":"동경","tel":"031-655-9813","addr":"경기도 안성시 공도읍 만정리 817-2번지 우성메디컬프라자 805호","category":"레저업소 - 헬스클럽"},{"name":"드림의원","tel":"031-655-7958","addr":"경기도 안성시 공도읍 만정리 817-2 우성메디칼307호,308호","category":"의원 - 의원"},{"name":"라마","tel":"031-651-8850","addr":"경기도 안성시 공도읍 만정리 817-2번지 우성메디컬프라자 303호","category":"보건위생 - 화장품"},{"name":"라인무용학원","tel":"031-618-1032","addr":"경기도 안성시 공도읍 만정리 817-2번지 우성메디컬 206호 상가","category":"학원 - 예·체능계학원"},{"name":"럭셔리","tel":"","addr":"경기도 안성시 공도읍 만정리 817-2번지 우성메디컬프라자 506호","category":"레저업소 - 헬스클럽"},{"name":"루차이 주식회사","tel":"031-692-5300","addr":"경기도 안성시 공도읍 만정리 817-2번지 우성메디컬프라자 7층","category":"일반휴게음식 - 일반한식"},{"name":"말타니 노래연습장","tel":"031-658-0363","addr":"경기도 안성시 공도읍 만정리 817-2번지 우성메디컬프라자 4층 401~403호","category":"레저업소 - 노 래 방"},{"name":"말타니비엔비","tel":"031-646-0092","addr":"경기도 안성시 공도읍 만정리 817-2번지 우성메디컬프라자 401호","category":"일반휴게음식 - 주점"},{"name":"맘스터치 안성공도점","tel":"031-651-9070","addr":"경기도 안성시 공도읍 만정리 817-2번지 1층 우성메디컬 102,103호","category":"일반휴게음식 - 서양음식"},{"name":"법무사이종석사무소","tel":"031-399-8007","addr":"경기도 안성시 공도읍 만정리 817-2번지 우성메디컬프라자 201호","category":"용역 서비스 - 법률회계서비스(개인)"},{"name":"보민에스테틱","tel":"031-651-6711","addr":"경기도 안성시 공도읍 만정리 817-2번지 우성메디컬프라자 607호","category":"회원제형태 - 기타4"},{"name":"비어사케","tel":"031-653-8403","addr":"경기도 안성시 공도읍 만정리 817-2번지 우성메디컬프라자 120호","category":"일반휴게음식 - 주점"},{"name":"비유어학원","tel":"031-652-8205","addr":"경기도 안성시 공도읍 만정리 817-2번지 우성메디컬프라자 606호","category":"회원제형태 - 학원"},{"name":"살롱드2835","tel":"031-653-2835","addr":"경기도 안성시 공도읍 만정리 817-2번지 우성메디컬프라자 119호","category":"보건위생 - 미용원"},{"name":"세무사김용선사무소","tel":"031-658-1161","addr":"경기도 안성시 공도읍 만정리 817-2번지 우성메디컬프라자 202호","category":"용역 서비스 - 법률회계서비스(개인)"},{"name":"수온누리약국","tel":"031-652-0360","addr":"경기도 안성시 공도읍 만정리 817-2번지 우성메디컬프라자 1동 105호","category":"약국 - 약국"},{"name":"숨 요가원","tel":"031-652-3324","addr":"경기도 안성시 공도읍 만정리 817-2번지 우성메디컬프라자 507호","category":"레저업소 - 헬스클럽"},{"name":"스텔라 미용학원","tel":"031-653-3369","addr":"경기도 안성시 공도읍 만정리 817-2번지 우성메디컬프라자 801호","category":"학원 - 기능학원"},{"name":"아카데미트라이 스크린골프","tel":"031-655-8993","addr":"경기도 안성시 공도읍 만정리 817-2번지 우성메디컬프라자 8층 803호","category":"레저업소 - 스크린골프"},{"name":"앤비(ENVY)","tel":"070-7018-5391","addr":"경기도 안성시 공도읍 만정리 817-2번지 우성메디컬프라자 1동 117호","category":"의류 - 정장"},{"name":"얼룩말영어학원","tel":"070-4036-1494","addr":"경기도 안성시 공도읍 만정리 817-2번지 우성메디컬프라자 605호","category":"학원 - 외국어학원"},{"name":"영훈수학전문학원","tel":"031-652-9797","addr":"경기도 안성시 공도읍 만정리 817-2번지 우성프라자 603호","category":"학원 - 보습학원"},{"name":"월드바리스타학원(안성점)","tel":"031-654-1773","addr":"경기도 안성시 공도읍 만정리 817-2번지 (제1동우성메디컬602호)","category":"회원제형태 - 학원"},{"name":"이승훈 남성헤어","tel":"031-655-9919","addr":"경기도 안성시 공도읍 만정리 817-2번지 우성메디컬프라자 1층 109호","category":"보건위생 - 이용원"},{"name":"쟁이마을미술학원","tel":"031-691-0821","addr":"경기도 안성시 공도읍 만정리 817-2번지 우성메디컬프라자 604호","category":"학원 - 예·체능계학원"},{"name":"제니의파워요가","tel":"031-676-9647","addr":"경기도 안성시 공도읍 만정리 817-2번지 우성프라자 507호","category":"레저업소 - 헬스클럽"},{"name":"제우스PC","tel":"070-4198-2150","addr":"경기도 안성시 공도읍 만정리 817-2번지 4층 406,407호","category":"레저업소 - 기타레져업소"},{"name":"쩐쿵푸 마라탕","tel":"031-655-4442","addr":"경기도 안성시 공도읍 만정리 817-2번지 우성메디컬프라자 1층 118호","category":"일반휴게음식 - 중국식"},{"name":"최수연스킨라떼","tel":"031-657-9198","addr":"경기도 안성시 공도읍 만정리 817-2번지","category":"보건위생 - 피부미용실"},{"name":"커피마마 공도점","tel":"031-658-1860","addr":"경기도 안성시 공도읍 만정리 817-2번지 우성메디컬프라자 1동 104호","category":"일반휴게음식 - 서양음식"},{"name":"케이에스짐(KS.GYM)","tel":"","addr":"경기도 안성시 공도읍 만정리 817-2번지 우성메디컬프라자 505호","category":"레저업소 - 헬스클럽"}]},{"lat":"37.004606305","long":"127.18157465","items":[{"name":"경기닥트공사","tel":"031-618-3404","addr":"경기도 안성시 공도읍 만정리 302-13번지","category":"용역 서비스 - 기타용역서비스"},{"name":"다진전기공사주식회사","tel":"031-653-3666","addr":"경기도 안성시 공도읍 만정리 302-13번지","category":"용역 서비스 - 기타용역서비스"},{"name":"면대장찌개대장","tel":"031-677-8290","addr":"경기도 안성시 공도읍 만정리 302-13번지","category":"일반휴게음식 - 일반한식"},{"name":"무봉리토종순대국(안성공도점)","tel":"031-656-5842","addr":"경기도 안성시 공도읍 만정리 302-13번지","category":"일반휴게음식 - 일반한식"},{"name":"이마트24 안성서동점","tel":"031-000-0000","addr":"경기도 안성시 공도읍 만정리 302-13번지","category":"유통업 영리 - 편 의 점"},{"name":"이모네","tel":"031-655-3550","addr":"경기도 안성시 공도읍 만정리 302-13번지","category":"일반휴게음식 - 일반한식"},{"name":"카앤덴트","tel":"031-654-0092","addr":"경기도 안성시 공도읍 만정리 302-13번지","category":"자동차정비 유지 - 카인테리어"}]},{"lat":"36.998748591","long":"127.16972018","items":[{"name":"경기원예사","tel":"031-655-6538","addr":"경기도 안성시 공도읍 만정리 417-185번지","category":"농업 - 비료,사료,종자"},{"name":"김밥왕국","tel":"070-000-0000","addr":"경기도 안성시 공도읍 만정리 417-184번지","category":"일반휴게음식 - 일반한식"},{"name":"김밥왕국","tel":"031-653-8380","addr":"경기도 안성시 공도읍 만정리 417-184번지","category":"일반휴게음식 - 일반한식"},{"name":"희노래연습장","tel":"031-618-5506","addr":"경기도 안성시 공도읍 만정리 417-184번지","category":"레저업소 - 노 래 방"},{"name":"힐링하우스","tel":"031-691-6664","addr":"경기도 안성시 공도읍 만정리 417-184번지 2층","category":"보건위생 - 화장품"}]},{"lat":"37.001908009","long":"127.17207511","items":[{"name":"경기창조고등학교","tel":"031-646-2200","addr":"경기도 안성시 공도읍 만정리 789번지 경기창조고등학교","category":"학원 - 초중고교육기관"},{"name":"경기창조고등학교_수업료","tel":"031-646-2200","addr":"경기도 안성시 공도읍 만정리 789번지 경기창조고등학교","category":"학원 - 초중고교육기관"}]},{"lat":"37.000108616","long":"127.17013882","items":[{"name":"고기어때","tel":"031-652-5631","addr":"경기도 안성시 공도읍 만정리 815-6번지","category":"일반휴게음식 - 일반한식"},{"name":"껍데기클라쓰","tel":"031-654-6009","addr":"경기도 안성시 공도읍 만정리 815-6번지 1층","category":"일반휴게음식 - 일반한식"},{"name":"알로하(ALOHA)","tel":"031-656-3131","addr":"경기도 안성시 공도읍 만정리 815-6번지 가동 1층","category":"일반휴게음식 - 주점"},{"name":"청정한우마을","tel":"031-651-3646","addr":"경기도 안성시 공도읍 만정리 815-6번지","category":"일반휴게음식 - 일반한식"},{"name":"힐링투유","tel":"031-691-9959","addr":"경기도 안성시 공도읍 만정리 815-6번지","category":"일반휴게음식 - 서양음식"}]},{"lat":"37.000190265","long":"127.1697458","items":[{"name":"곱창가","tel":"031-651-0777","addr":"경기도 안성시 공도읍 만정리 815-2번지 1층","category":"일반휴게음식 - 일반한식"},{"name":"새찬축산식당","tel":"031-692-9289","addr":"경기도 안성시 공도읍 만정리 815-2번지","category":"일반휴게음식 - 일반한식"},{"name":"새찬축산식당","tel":"031-692-9289","addr":"경기도 안성시 공도읍 만정리 815-2번지","category":"음료식품 - 정육점"},{"name":"연길양꼬치","tel":"031-654-8385","addr":"경기도 안성시 공도읍 만정리 815-2번지","category":"일반휴게음식 - 중국식"},{"name":"장어야","tel":"","addr":"경기도 안성시 공도읍 만정리 815-2번지","category":"일반휴게음식 - 일반한식"}]},{"lat":"37.001659239","long":"127.16958049","items":[{"name":"공국수","tel":"031-656-0270","addr":"경기도 안성시 공도읍 만정리 801-3번지 1층 102호","category":"일반휴게음식 - 일반한식"},{"name":"신길옷수선","tel":"031-658-0984","addr":"경기도 안성시 공도읍 만정리 801-3번지 101호","category":"수리서비스 - 세탁소"},{"name":"풍기인견","tel":"031-618-0012","addr":"경기도 안성시 공도읍 만정리 801-3번지","category":"의류 - 정장"}]},{"lat":"37.000270934","long":"127.1700493","items":[{"name":"공도 차이나로 중국어학원","tel":"031-657-5551","addr":"경기도 안성시 공도읍 만정리 815-3번지 3층","category":"학원 - 외국어학원"},{"name":"공도스카이학원","tel":"031-671-1295","addr":"경기도 안성시 공도읍 만정리 815-3번지 2층","category":"학원 - 보습학원"},{"name":"공도정상어학원","tel":"031-673-0579","addr":"경기도 안성시 공도읍 만정리 815-3번지 201호,302호","category":"회원제형태 - 학원"},{"name":"꽃남","tel":"031-691-9937","addr":"경기도 안성시 공도읍 만정리 815-3번지","category":"일반휴게음식 - 일식·회집"},{"name":"무한사케(무사)","tel":"031-691-9937","addr":"경기도 안성시 공도읍 만정리 815-3번지 1층3-4호","category":"일반휴게음식 - 주점"},{"name":"빠통 안성공도점","tel":"031-692-8111","addr":"경기도 안성시 공도읍 만정리 815-3번지","category":"일반휴게음식 - 스넥"},{"name":"주당","tel":"031-691-9937","addr":"경기도 안성시 공도읍 만정리 815-3번지 1층","category":"일반휴게음식 - 주점"},{"name":"청담주막","tel":"031-654-5622","addr":"경기도 안성시 공도읍 만정리 815-3번지","category":"일반휴게음식 - 일반한식"},{"name":"호객잔","tel":"031-675-5664","addr":"경기도 안성시 공도읍 만정리 815-3번지","category":"일반휴게음식 - 중국식"}]},{"lat":"36.999548351","long":"127.17127225","items":[{"name":"공도1번가","tel":"031-656-7050","addr":"경기도 안성시 공도읍 만정리 421-2번지","category":"사무통신 - 통신기기"}]},{"lat":"37.000326245","long":"127.16916191","items":[{"name":"공도2호점굽네치킨","tel":"031-691-9294","addr":"경기도 안성시 공도읍 만정리 814-1번지 1층","category":"일반휴게음식 - 스넥"}]},{"lat":"37.003158333","long":"127.17974","items":[{"name":"공도가구공단","tel":"","addr":"경기도 안성시 공도읍 만정리 205-10번지 1층","category":"가구 - 일반가구"}]},{"lat":"36.99921675","long":"127.17000205","items":[{"name":"공도강약국","tel":"031-618-1963","addr":"경기도 안성시 공도읍 만정리 417-88번지","category":"약국 - 약국"},{"name":"공도꽃식물원","tel":"031-651-5506","addr":"경기도 안성시 공도읍 만정리 417-88번지","category":"문화.취미 - 화원"},{"name":"두꺼비광고사","tel":"031-654-1571","addr":"경기도 안성시 공도읍 만정리 417-88","category":"건축자재 - 인테리어전문"},{"name":"성바오로의원","tel":"031-651-9150","addr":"경기도 안성시 공도읍 만정리 417-88번지","category":"의원 - 의원"},{"name":"편백힐링","tel":"031-653-1811","addr":"경기도 안성시 공도읍 만정리 417-88번지","category":"보건위생 - 화장품"},{"name":"핑크아트","tel":"031-653-1811","addr":"경기도 안성시 공도읍 만정리 417-88번지","category":"가구 - 기타가구"}]},{"lat":"36.99865965","long":"127.16888866","items":[{"name":"공도떡방앗간","tel":"031-654-4982","addr":"경기도 안성시 공도읍 만정리 417-58","category":"음료식품 - 제과점"},{"name":"기쁜소리사","tel":"031-653-2073","addr":"경기도 안성시 공도읍 만정리 417-58번지","category":"건축자재 - 조명기구"}]},{"lat":"37.001386445","long":"127.17133248","items":[{"name":"공도문고","tel":"031-618-2228","addr":"경기도 안성시 공도읍 만정리 809-1","category":"서적문구 - 일반서적"},{"name":"네일볼까","tel":"031-655-5841","addr":"경기도 안성시 공도읍 만정리 809-1번지 1층","category":"보건위생 - 피부미용실"},{"name":"석봉토스트(공도점)","tel":"031-655-2325","addr":"경기도 안성시 공도읍 만정리 809-1번지","category":"일반휴게음식 - 일반한식"},{"name":"안성중앙간호학원","tel":"031-675-7006","addr":"경기도 안성시 공도읍 만정리 809-1번지 2층","category":"회원제형태 - 학원"}]},{"lat":"37.001720238","long":"127.17105235","items":[{"name":"공도실용음악학원","tel":"031-653-8030","addr":"경기도 안성시 공도읍 만정리 808-2번지 4층","category":"회원제형태 - 학원"},{"name":"늘푸른치과","tel":"031-652-7524","addr":"경기도 안성시 공도읍 만정리 808-2","category":"의원 - 치과의원"},{"name":"도미노피자 공도점","tel":"031-651-3082","addr":"경기도 안성시 공도읍 만정리 808-2","category":"일반휴게음식 - 서양음식"},{"name":"메쓰키 (Math Key)학원","tel":"031-654-0913","addr":"경기도 안성시 공도읍 만정리 808-2번지 3층 301호","category":"학원 - 보습학원"}]},{"lat":"37.00299212","long":"127.17635795","items":[{"name":"공도아이미소아동발달센타","tel":"031-691-1005","addr":"경기도 안성시 공도읍 만정리 709-2번지 한일타운 상가 302호","category":"기타의료기관 - 기타의료기관 및 기타"},{"name":"신나는점핑","tel":"031-654-4660","addr":"경기도 안성시 공도읍 만정리 709-2번지 302호","category":"건강식품 - 기타건강식품"},{"name":"오목촌전통뼈해장국","tel":"031-657-5980","addr":"경기도 안성시 공도읍 만정리 709-2번지 한일타운 상가 102호","category":"일반휴게음식 - 일반한식"},{"name":"타운호프","tel":"031-653-7563","addr":"경기도 안성시 공도읍 만정리 709-2번지 한일타운 상가동 202호","category":"일반휴게음식 - 주점"},{"name":"하카전자담배 안성공도점","tel":"031-654-0999","addr":"경기도 안성시 공도읍 만정리 709-2번지 한일타운 101호 한일타운상가","category":"기타 - 기타 전문점"}]},{"lat":"37.008104437","long":"127.17411123","items":[{"name":"공도어울림해법영어","tel":"031-611-0594","addr":"경기도 안성시 공도읍 만정리 779-2번지 그랜드캐슬 106동 401호","category":"학원 - 보습학원"},{"name":"김자매","tel":"070-4117-7989","addr":"경기도 안성시 공도읍 만정리 779-2번지 그랜드캐슬 105동 204호","category":"의류 - 기타의류"},{"name":"몽키스테이크","tel":"","addr":"경기도 안성시 공도읍 만정리 779-2번지 그랜드캐슬 102동 101호","category":"일반휴게음식 - 서양음식"}]},{"lat":"37.001079684","long":"127.17161266","items":[{"name":"공도열쇠","tel":"031-651-2032","addr":"경기도 안성시 공도읍 만정리 809-3번지 예일 상가 104호","category":"건축자재 - 목재·석재·철물"},{"name":"박군치킨","tel":"031-691-9991","addr":"경기도 안성시 공도읍 만정리 809-3번지 1층","category":"일반휴게음식 - 스넥"},{"name":"헤어안(Hair An)","tel":"031-656-1123","addr":"경기도 안성시 공도읍 만정리 809-3번지 102호","category":"보건위생 - 미용원"}]},{"lat":"37.004802944","long":"127.18263121","items":[{"name":"공도자동차공업(주)","tel":"031-652-9890","addr":"경기도 안성시 공도읍 만정리 302-10번지","category":"자동차정비 유지 - 자동차정비"}]},{"lat":"36.998579369","long":"127.16830431","items":[{"name":"공도전기","tel":"031-653-2896","addr":"경기도 안성시 공도읍 만정리 426-5번지","category":"전기제품 - 기타전기제품"},{"name":"어여와포장마차","tel":"031-111-1111","addr":"경기도 안성시 공도읍 만정리 426-5번지","category":"일반휴게음식 - 일반한식"}]},{"lat":"37.001941945","long":"127.17354692","items":[{"name":"공도중학교","tel":"031-612-7270","addr":"경기도 안성시 공도읍 만정리 418-1번지 공도중학교","category":"학원 - 초중고교육기관"}]},{"lat":"37.005802615","long":"127.18297061","items":[{"name":"공도패션아울렛","tel":"031-656-0755","addr":"경기도 안성시 공도읍 만정리 302-12 공도패션타운C동103,104호","category":"레져용품 - 스포츠·레져용품"},{"name":"스매싱탁구클럽","tel":"031-655-5597","addr":"경기도 안성시 공도읍 만정리 302-12번지 공도패션타운 C동","category":"레저업소 - 기타레져업소"}]},{"lat":"36.99885812","long":"127.16872058","items":[{"name":"교촌치킨(공도1호점)","tel":"031-655-8295","addr":"경기도 안성시 공도읍 만정리 417-98","category":"일반휴게음식 - 주점"}]},{"lat":"37.004355339","long":"127.18068651","items":[{"name":"귀빈","tel":"070-9144-2497","addr":"경기도 안성시 공도읍 만정리 299-10번지 2층","category":"보건위생 - 미용재료"},{"name":"김여사의밥상","tel":"","addr":"경기도 안성시 공도읍 만정리 299-10번지","category":"일반휴게음식 - 일반한식"},{"name":"장쓰족발","tel":"","addr":"경기도 안성시 공도읍 만정리 299-10번지","category":"일반휴게음식 - 일반한식"},{"name":"조은친구","tel":"031-691-3373","addr":"경기도 안성시 공도읍 만정리 299-10번지","category":"신변잡화 - 기타잡화"},{"name":"홍익돈까스","tel":"031-653-9179","addr":"경기도 안성시 공도읍 만정리 299-10번지","category":"일반휴게음식 - 일반한식"}]},{"lat":"37.026769271","long":"127.17771564","items":[{"name":"그린에코우드","tel":"031-618-3536","addr":"경기도 안성시 공도읍 만정리 645-1번지","category":"건축자재 - 기타건축자재"}]},{"lat":"36.999692202","long":"127.17149725","items":[{"name":"글라스스토리","tel":"031-656-8181","addr":"경기도 안성시 공도읍 만정리 420-5번지","category":"보건위생 - 안경"}]},{"lat":"37.005159809","long":"127.18496894","items":[{"name":"금강자동차정비공업사","tel":"031-655-9535","addr":"경기도 안성시 공도읍 만정리 304-11번지","category":"자동차정비 유지 - 자동차정비"}]},{"lat":"37.000522139","long":"127.17082502","items":[{"name":"김가네(안성공도점)","tel":"031-618-1388","addr":"경기도 안성시 공도읍 만정리 816-1번지 107호","category":"일반휴게음식 - 스넥"},{"name":"까치골","tel":"031-654-8533","addr":"경기도 안성시 공도읍 만정리 816-1번지","category":"일반휴게음식 - 일반한식"},{"name":"대박포차","tel":"031-655-0132","addr":"경기도 안성시 공도읍 만정리 816-1","category":"일반휴게음식 - 일반한식"},{"name":"맥주BOX","tel":"031-654-0121","addr":"경기도 안성시 공도읍 만정리 816-1번지 108호","category":"일반휴게음식 - 주점"},{"name":"씨유공도베스트점","tel":"080-080-3663","addr":"경기도 안성시 공도읍 만정리 816-1번지 104,105호","category":"유통업 영리 - 편 의 점"},{"name":"오늘도 곱쏘","tel":"031-657-8253","addr":"경기도 안성시 공도읍 만정리 816-1번지","category":"일반휴게음식 - 일반한식"},{"name":"요거트맨 안성점","tel":"070-000-0000","addr":"경기도 안성시 공도읍 만정리 816-1번지 1층 우측호","category":"일반휴게음식 - 서양음식"},{"name":"진배기할매순대국","tel":"031-618-3550","addr":"경기도 안성시 공도읍 만정리 816-1","category":"일반휴게음식 - 일반한식"}]},{"lat":"37.000026187","long":"127.17108232","items":[{"name":"김내과의원","tel":"031-691-7975","addr":"경기도 안성시 공도읍 만정리 821 성지프라자 2층","category":"의원 - 의원"},{"name":"대성LED","tel":"031-618-8588","addr":"경기도 안성시 공도읍 만정리 821-1번지","category":"건축자재 - 조명기구"},{"name":"머커 주식회사","tel":"031-6959-8505","addr":"경기도 안성시 공도읍 만정리 821-1번지 성지프라자 303호","category":"전기제품 - 기타전기제품"},{"name":"미쓰양","tel":"031-653-5918","addr":"경기도 안성시 공도읍 만정리 821-1번지 성지프라자 107호","category":"일반휴게음식 - 일반한식"},{"name":"생활커피안성공도점","tel":"070-8877-0469","addr":"경기도 안성시 공도읍 만정리 821-1번지 성지프라자 1층 104호","category":"일반휴게음식 - 서양음식"},{"name":"샵필라테스","tel":"031-618-3300","addr":"경기도 안성시 공도읍 만정리 821-1번지 성지프라자 5층 502호","category":"레저업소 - 헬스클럽"},{"name":"서울소아청소년과의원","tel":"031-6584-7600","addr":"경기도 안성시 공도읍 만정리 821-1번지 성지프라자 2층 202호","category":"의원 - 의원"},{"name":"수내닭꼬치","tel":"031-658-8878","addr":"경기도 안성시 공도읍 만정리 821-1번지 성지프라자 1층 107호","category":"일반휴게음식 - 일반한식"},{"name":"스포데이 휘트니스 3호점","tel":"031-618-3300","addr":"경기도 안성시 공도읍 만정리 821-1번지 성지프라자 5층","category":"레저업소 - 헬스클럽"},{"name":"아라시","tel":"031-655-7702","addr":"경기도 안성시 공도읍 만정리 821-1번지","category":"보건위생 - 화장품"},{"name":"아라시헤어","tel":"031-655-7702","addr":"경기도 안성시 공도읍 만정리 821-1번지 성지프라자 203호","category":"보건위생 - 미용원"},{"name":"얌얌불닭발","tel":"031-618-8248","addr":"경기도 안성시 공도읍 만정리 821-1번지 성지프라자 1층 108호","category":"일반휴게음식 - 일반한식"},{"name":"얌얌불닭발","tel":"031-618-8248","addr":"경기도 안성시 공도읍 만정리 821-1번지 성지프라자 1층 108호","category":"일반휴게음식 - 일반한식"},{"name":"은유약국","tel":"031-657-5673","addr":"경기도 안성시 공도읍 만정리 821-1번지 성지프라자 103호","category":"약국 - 약국"},{"name":"탑정보통신","tel":"031-655-1887","addr":"경기도 안성시 공도읍 만정리 821-1번지 성지프라자 1층 106호","category":"사무통신 - 통신기기"},{"name":"파리바게뜨 안성공도","tel":"031-658-0455","addr":"경기도 안성시 공도읍 만정리 821-1번지 성지프라자 105호","category":"음료식품 - 제과점"},{"name":"플로라제이","tel":"070-4922-1261","addr":"경기도 안성시 공도읍 만정리 821-1번지 성지프라자 109-2호","category":"문화.취미 - 화원"},{"name":"피자스쿨(안성공도점)","tel":"031-618-7798","addr":"경기도 안성시 공도읍 만정리 821-1번지 성지프라자 102호","category":"일반휴게음식 - 서양음식"},{"name":"홍춘천치즈닭갈비 공도점","tel":"031-618-5969","addr":"경기도 안성시 공도읍 만정리 821-1번지 성지프라자 1층 101호","category":"일반휴게음식 - 일반한식"},{"name":"힐링노래연습장","tel":"070-8960-8982","addr":"경기도 안성시 공도읍 만정리 821-1번지 4층 403,404호","category":"레저업소 - 노 래 방"}]},{"lat":"36.999775031","long":"127.1702729","items":[{"name":"김밥나라","tel":"031-658-2289","addr":"경기도 안성시 공도읍 만정리 820-2","category":"일반휴게음식 - 스넥"},{"name":"대동집","tel":"031-655-5987","addr":"경기도 안성시 공도읍 만정리 820-2번지 1층 106호","category":"일반휴게음식 - 일반한식"},{"name":"본죽공도점","tel":"031-658-6288","addr":"경기도 안성시 공도읍 만정리 820-2번지 1층","category":"일반휴게음식 - 일반한식"},{"name":"연세올바른내과의원","tel":"","addr":"경기도 안성시 공도읍 만정리 820-2번지 3층","category":"의원 - 의원"}]},{"lat":"37.001414654","long":"127.17050118","items":[{"name":"까페뉴욕","tel":"031-653-2100","addr":"경기도 안성시 공도읍 만정리 806-6번지","category":"일반휴게음식 - 일반한식"},{"name":"백강양꼬치","tel":"031-691-9291","addr":"경기도 안성시 공도읍 만정리 806-6번지","category":"일반휴게음식 - 중국식"}]},{"lat":"36.998857381","long":"127.16924858","items":[{"name":"꼬꼬네","tel":"031-652-5556","addr":"경기도 안성시 공도읍 만정리 425-2번지","category":"일반휴게음식 - 일반한식"},{"name":"라파엘","tel":"","addr":"경기도 안성시 공도읍 만정리 425-2번지 2층","category":"건강식품 - 기타건강식품"},{"name":"만정장","tel":"031-652-8647","addr":"경기도 안성시 공도읍 만정리 425-2","category":"숙박업 - 여관/기타숙박업"},{"name":"뷔페식당","tel":"031-111-1111","addr":"경기도 안성시 공도읍 만정리 425-2번지","category":"일반휴게음식 - 일반한식"}]},{"lat":"37.000137524","long":"127.168802","items":[{"name":"꼬꼬상회","tel":"070-0000-0000","addr":"경기도 안성시 공도읍 만정리 813-6번지 1층","category":"일반휴게음식 - 스넥"}]},{"lat":"36.999991904","long":"127.16983524","items":[{"name":"꼬지사께 안성공도점","tel":"031-654-1593","addr":"경기도 안성시 공도읍 만정리 815-5번지 나동 1층","category":"일반휴게음식 - 주점"},{"name":"대구막창","tel":"031-618-9238","addr":"경기도 안성시 공도읍 만정리 815-5번지 105호","category":"일반휴게음식 - 일반한식"},{"name":"대구불노리왕막창","tel":"031-618-9238","addr":"경기도 안성시 공도읍 만정리 815-5번지","category":"일반휴게음식 - 일반한식"},{"name":"안성맛집 감자탕","tel":"031-652-3378","addr":"경기도 안성시 공도읍 만정리 815-5번지","category":"일반휴게음식 - 일반한식"},{"name":"안성보쌈 공도점","tel":"031-653-5323","addr":"경기도 안성시 공도읍 만정리 815-5번지 102,103호","category":"일반휴게음식 - 일반한식"},{"name":"와우 소문난감자탕","tel":"031-652-3378","addr":"경기도 안성시 공도읍 만정리 815-5번지","category":"일반휴게음식 - 일반한식"}]},{"lat":"37.000686482","long":"127.1692975","items":[{"name":"꽃담","tel":"031-656-1143","addr":"경기도 안성시 공도읍 만정리 811-1번지","category":"일반휴게음식 - 일반한식"}]},{"lat":"37.002994506","long":"127.17471768","items":[{"name":"꿀보닭강정","tel":"031-657-5801","addr":"경기도 안성시 공도읍 만정리 788-4번지 경기도시공사참아름 101호","category":"일반휴게음식 - 스넥"},{"name":"이마트24 안성공도참아름점","tel":"","addr":"경기도 안성시 공도읍 만정리 788-4번지 (단지내상가102호,103호)","category":"유통업 영리 - 편 의 점"},{"name":"이마트24 안성공도참아름점","tel":"031-651-0220","addr":"경기도 안성시 공도읍 만정리 788-4번지 경기도시공사참아름 단지내상가 102~103호","category":"유통업 영리 - 편 의 점"},{"name":"참아름어린이집[아이행복]","tel":"031-657-1466","addr":"경기도 안성시 공도읍 만정리 788-4번지","category":"학원 - 유아원"}]},{"lat":"37.000038995","long":"127.17472227","items":[{"name":"꿈꾸는영어공부방","tel":"02-000-0000","addr":"경기도 안성시 공도읍 만정리 880번지 디자인시티블루밍 114동 2001호","category":"학원 - 기타 교육기관"},{"name":"바른생각어린이집[아이행복]","tel":"031-692-8898","addr":"경기도 안성시 공도읍 만정리 880번지 디자인시티블루밍 114동 1층","category":"학원 - 유아원"},{"name":"최상위 과외방","tel":"031-616-7087","addr":"경기도 안성시 공도읍 만정리 880번지 디자인시티블루밍 114동 1402호","category":"학원 - 보습학원"}]},{"lat":"37.006910054","long":"127.18354623","items":[{"name":"꿈예뜰 어린이집[아이행복]","tel":"","addr":"경기도 안성시 공도읍 만정리 307-16번지","category":"학원 - 유아원"},{"name":"미예뜰어린이집[아이행복]","tel":"031-652-7546","addr":"경기도 안성시 공도읍 만정리 307-16번지","category":"학원 - 유아원"}]},{"lat":"37.005413393","long":"127.17191435","items":[{"name":"끌레르","tel":"070-5022-4846","addr":"경기도 안성시 공도읍 만정리 783-2번지 경기도시공사참아름 208동 1201호","category":"신변잡화 - 기타잡화"}]},{"lat":"36.999882683","long":"127.17061016","items":[{"name":"나고야","tel":"031-658-7712","addr":"경기도 안성시 공도읍 만정리 820-3번지 1층 103호","category":"일반휴게음식 - 일식·회집"},{"name":"달봉감자","tel":"031-655-3026","addr":"경기도 안성시 공도읍 만정리 820-3번지 103호","category":"일반휴게음식 - 일반한식"},{"name":"명랑핫도그(안성공도점)","tel":"070-7721-9990","addr":"경기도 안성시 공도읍 만정리 820-3번지 1층 106호","category":"일반휴게음식 - 스넥"},{"name":"명랑핫도그(안성공도점)","tel":"070-7721-9990","addr":"경기도 안성시 공도읍 만정리 820-3번지 1층 106호","category":"일반휴게음식 - 스넥"},{"name":"미스리햄버거","tel":"031-652-7711","addr":"경기도 안성시 공도읍 만정리 820-3번지 110호","category":"일반휴게음식 - 스넥"},{"name":"세븐일레븐안성공도읍점","tel":"02-3284-8168","addr":"경기도 안성시 공도읍 만정리 820-3번지 1층 101,102호","category":"유통업 영리 - 편 의 점"},{"name":"아리따움공도점","tel":"031-653-5607","addr":"경기도 안성시 공도읍 만정리 820-3번지 1층 109호","category":"보건위생 - 화장품"},{"name":"중독곱창","tel":"070-4649-1101","addr":"경기도 안성시 공도읍 만정리 820-3번지 1층 110호","category":"일반휴게음식 - 일반한식"},{"name":"중독곱창","tel":"031-618-9242","addr":"경기도 안성시 공도읍 만정리 820-3번지 1층 110호","category":"일반휴게음식 - 일반한식"},{"name":"홍짜장 안성공도점","tel":"031-618-9101","addr":"경기도 안성시 공도읍 만정리 820-3번지 1층 105호","category":"일반휴게음식 - 중국식"}]},{"lat":"37.00343333","long":"127.17657242","items":[{"name":"나빌레라","tel":"031-656-3553","addr":"경기도 안성시 공도읍 만정리 279-35번지 가동 3층","category":"용역 서비스 - 혼례서비스"},{"name":"모노뷰티","tel":"","addr":"경기도 안성시 공도읍 만정리 279-35번지 3층","category":"보건위생 - 피부미용실"},{"name":"보라살롱","tel":"031-657-5228","addr":"경기도 안성시 공도읍 만정리 279-35번지 가동 104호","category":"보건위생 - 미용원"},{"name":"스포데이안성점","tel":"031-656-9067","addr":"경기도 안성시 공도읍 만정리 279-35번지 3층 308-312","category":"레저업소 - 헬스클럽"},{"name":"아이센스PC","tel":"070-8816-1183","addr":"경기도 안성시 공도읍 만정리 279-35번지 가동 3층 306 307호","category":"레저업소 - 기타레져업소"},{"name":"안성코리안주짓수종합격투기공권유슬","tel":"031-691-1316","addr":"경기도 안성시 공도읍 만정리 279-35번지 반도프라자 3층 303호 304호","category":"레저업소 - 헬스클럽"},{"name":"이든네이처(안성공도지사)","tel":"031-654-4044","addr":"경기도 안성시 공도읍 만정리 279-35번지 2층 208호","category":"건강식품 - 기타건강식품"},{"name":"전주콩나루콩나물국밥","tel":"031-618-9599","addr":"경기도 안성시 공도읍 만정리 279-35번지 2층","category":"일반휴게음식 - 일반한식"},{"name":"클라임팩토리","tel":"031-652-7989","addr":"경기도 안성시 공도읍 만정리 279-35번지 2층 203호","category":"레저업소 - 기타레져업소"}]},{"lat":"37.002352902","long":"127.16969435","items":[{"name":"남동현스시","tel":"031-656-7009","addr":"경기도 안성시 공도읍 만정리 797-2번지 1층","category":"일반휴게음식 - 일식·회집"}]},{"lat":"36.998802038","long":"127.17015843","items":[{"name":"남자만들기","tel":"070-8184-3027","addr":"경기도 안성시 공도읍 만정리 417-33번지 1층","category":"보건위생 - 미용원"},{"name":"신시골밥상","tel":"031-656-2463","addr":"경기도 안성시 공도읍 만정리 417-33번지 외1필지","category":"일반휴게음식 - 일반한식"}]},{"lat":"37.002605011","long":"127.16982971","items":[{"name":"네네치킨","tel":"031-652-8279","addr":"경기도 안성시 공도읍 만정리 796-2번지 가동 1층 우호","category":"일반휴게음식 - 스넥"},{"name":"피크닉테이블","tel":"031-651-8882","addr":"경기도 안성시 공도읍 만정리 796-2번지 가동 1층","category":"음료식품 - 기타음료식품"}]},{"lat":"37.007719606","long":"127.18446945","items":[{"name":"네일맑음","tel":"","addr":"경기도 안성시 공도읍 만정리 149-7번지 A동 Y6~Y7호","category":"보건위생 - 피부미용실"},{"name":"대영조명","tel":"031-658-4535","addr":"경기도 안성시 공도읍 만정리 149-7번지 107호","category":"건축자재 - 기타건축자재"},{"name":"비비고말고","tel":"031-675-8905","addr":"경기도 안성시 공도읍 만정리 149-7번지","category":"일반휴게음식 - 일반한식"},{"name":"엔하우스(NHouse)","tel":"031-691-3686","addr":"경기도 안성시 공도읍 만정리 149-7번지 106호","category":"건축자재 - 인테리어전문"},{"name":"케익하우스","tel":"031-655-3094","addr":"경기도 안성시 공도읍 만정리 149-7번지 107호","category":"음료식품 - 제과점"}]},{"lat":"36.998714686","long":"127.16819226","items":[{"name":"네일해","tel":"","addr":"경기도 안성시 공도읍 만정리 426-2번지 102호","category":"보건위생 - 피부미용실"},{"name":"하나인테리어","tel":"031-658-0010","addr":"경기도 안성시 공도읍 만정리 426-2번지","category":"건축자재 - 목재·석재·철물"},{"name":"한세열쇠","tel":"031-655-1304","addr":"경기도 안성시 공도읍 만정리 426-2","category":"기타 - 기계공구"}]},{"lat":"36.998687043","long":"127.16863033","items":[{"name":"노걸대위드유공도점","tel":"031-654-1187","addr":"경기도 안성시 공도읍 만정리 417-60번지 1층","category":"일반휴게음식 - 일반한식"},{"name":"뮤직아카데미 연 학원","tel":"070-4125-0739","addr":"경기도 안성시 공도읍 만정리 417-60번지 3층","category":"학원 - 예·체능계학원"},{"name":"성우광고기획","tel":"031-691-0087","addr":"경기도 안성시 공도읍 만정리 417-60번지","category":"용역 서비스 - 종합용역"},{"name":"연실용음악학원","tel":"070-4125-0739","addr":"경기도 안성시 공도읍 만정리 417-60번지 3층","category":"회원제형태 - 학원"}]},{"lat":"37.001387162","long":"127.17082692","items":[{"name":"노맥","tel":"070-8789-6494","addr":"경기도 안성시 공도읍 만정리 807-2번지","category":"일반휴게음식 - 주점"},{"name":"철판닭삼","tel":"031-657-0741","addr":"경기도 안성시 공도읍 만정리 807-2번지 1층 101호","category":"일반휴게음식 - 일반한식"}]},{"lat":"37.00929759","long":"127.17149599","items":[{"name":"농민사랑","tel":"031-664-6645","addr":"경기도 안성시 공도읍 만정리 383번지 건물 나동 1층","category":"농업 - 비료,사료,종자"},{"name":"배드민턴매니아","tel":"031-654-3515","addr":"경기도 안성시 공도읍 만정리 383번지 나동 1층 2호","category":"레져용품 - 스포츠·레져용품"},{"name":"안성명가","tel":"031-656-7373","addr":"경기도 안성시 공도읍 만정리 383번지","category":"일반휴게음식 - 일반한식"}]},{"lat":"37.029546502","long":"127.1763846","items":[{"name":"농업회사법인주식회사지에스바이오","tel":"02-3448-4500","addr":"경기도 안성시 공도읍 만정리 572-4번지","category":"음료식품 - 농·축·수산품"},{"name":"안성두원리퍼브","tel":"","addr":"경기도 안성시 공도읍 만정리 572-4번지 가동","category":"신변잡화 - 기타잡화"}]},{"lat":"37.004692905","long":"127.18388927","items":[{"name":"뉴리베라여관","tel":"031-654-6668","addr":"경기도 안성시 공도읍 만정리 304-15번지","category":"숙박업 - 여관/기타숙박업"}]},{"lat":"37.005882413","long":"127.18382468","items":[{"name":"다담","tel":"031-653-2494","addr":"경기도 안성시 공도읍 만정리 306번지 A동 1층","category":"일반휴게음식 - 일반한식"},{"name":"영풍","tel":"031-677-1482","addr":"경기도 안성시 공도읍 만정리 306번지","category":"음료식품 - 농·축·수산품"}]},{"lat":"37.000740892","long":"127.16905046","items":[{"name":"다라물돌솥쌈밥","tel":"031-655-9426","addr":"경기도 안성시 공도읍 만정리 810-3번지 1층","category":"일반휴게음식 - 일반한식"}]},{"lat":"37.000911622","long":"127.16938787","items":[{"name":"다모아","tel":"02-4480-0827","addr":"경기도 안성시 공도읍 만정리 804-4번지","category":"음료식품 - 기타음료식품"},{"name":"비바초이","tel":"070-8615-8581","addr":"경기도 안성시 공도읍 만정리 804-4번지","category":"의류 - 정장"},{"name":"헤이데이 (hey day)","tel":"","addr":"경기도 안성시 공도읍 만정리 804-4번지","category":"음료식품 - 기타음료식품"}]},{"lat":"37.001297887","long":"127.17651139","items":[{"name":"다온유통","tel":"","addr":"경기도 안성시 공도읍 만정리 880번지 디자인시티블루밍 117동 702호","category":"음료식품 - 기타음료식품"},{"name":"에코비어린이집[아이행복]","tel":"031-658-6085","addr":"경기도 안성시 공도읍 만정리 880번지 만정리벽산블루밍 117동 103호","category":"학원 - 유아원"},{"name":"조현지 개인과외","tel":"","addr":"경기도 안성시 공도읍 만정리 880번지 디자인시티블루밍 117동 2003호","category":"학원 - 기타 교육기관"},{"name":"치우쌤","tel":"031-616-0424","addr":"경기도 안성시 공도읍 만정리 880번지 디자인시티블루밍 117동 302호","category":"학원 - 기타 교육기관"}]},{"lat":"37.004941781","long":"127.17404796","items":[{"name":"달리는유아체육","tel":"031-691-1348","addr":"경기도 안성시 공도읍 만정리 785-6번지 안성공도금호어울림 101동 2001호","category":"학원 - 기타 교육기관"},{"name":"어울림어린이집[아이행복]","tel":"031-651-0980","addr":"경기도 안성시 공도읍 만정리 785-6번지 안성공도금호어울림 101동 102호","category":"학원 - 유아원"}]},{"lat":"37.007330928","long":"127.17313202","items":[{"name":"대자연어린이집[아이행복]","tel":"031-654-1929","addr":"경기도 안성시 공도읍 만정리 780-3번지","category":"학원 - 유아원"}]},{"lat":"37.002297667","long":"127.17052559","items":[{"name":"더 쉼","tel":"031-653-7341","addr":"경기도 안성시 공도읍 만정리 800-3번지 1층 102호","category":"일반휴게음식 - 서양음식"},{"name":"창조수학","tel":"031-618-0747","addr":"경기도 안성시 공도읍 만정리 800-3번지","category":"학원 - 보습학원"}]},{"lat":"37.005684973","long":"127.17102737","items":[{"name":"더드림","tel":"031-000-0000","addr":"경기도 안성시 공도읍 만정리 783-2번지 경기도시공사참아름 상가 1동 101호","category":"일반휴게음식 - 스넥"},{"name":"헤어터치","tel":"031-691-8580","addr":"경기도 안성시 공도읍 만정리 783-2번지 경기도시공사참아름 1층 102호","category":"보건위생 - 미용원"}]},{"lat":"36.998802386","long":"127.16991127","items":[{"name":"더불어cafe","tel":"070-8222-0246","addr":"경기도 안성시 공도읍 만정리 417-50번지 2층","category":"일반휴게음식 - 서양음식"},{"name":"드림오피스 안성공도점","tel":"031-653-8977","addr":"경기도 안성시 공도읍 만정리 417-50번지","category":"서적문구 - 문구용품"},{"name":"술빗","tel":"031-655-8966","addr":"경기도 안성시 공도읍 만정리 417-50번지","category":"일반휴게음식 - 주점"},{"name":"장원교육안성지점","tel":"031-653-0201","addr":"경기도 안성시 공도읍 만정리 417-50번지 2층","category":"회원제형태 - 서적"}]},{"lat":"37.006568748","long":"127.1705125","items":[{"name":"덕뫼","tel":"031-655-0428","addr":"경기도 안성시 공도읍 만정리 783-2번지 경기도시공사참아름 202동 408호","category":"건축자재 - 인테리어전문"},{"name":"핑크로켓","tel":"070-7175-5366","addr":"경기도 안성시 공도읍 만정리 783-2번지 경기도시공사참아름 202동 506호","category":"회원제형태 - 기타4"}]},{"lat":"37.007439924","long":"127.17252555","items":[{"name":"도쿄라멘3900","tel":"031-656-6212","addr":"경기도 안성시 공도읍 만정리 779-4번지 1동 108호","category":"일반휴게음식 - 일식·회집"},{"name":"리클모마미술학원","tel":"031-651-2356","addr":"경기도 안성시 공도읍 만정리 779-4번지 202호","category":"학원 - 예·체능계학원"},{"name":"메가커피안성공도점","tel":"070-1111-1111","addr":"경기도 안성시 공도읍 만정리 779-4번지 1층 102호","category":"일반휴게음식 - 서양음식"},{"name":"별이네","tel":"031-657-7981","addr":"경기도 안성시 공도읍 만정리 779-4번지 107호","category":"일반휴게음식 - 스넥"},{"name":"블럭고","tel":"070-4046-7012","addr":"경기도 안성시 공도읍 만정리 779-4번지 109동 110호","category":"서적문구 - 완구점"},{"name":"살롱드뷰티카일리","tel":"","addr":"경기도 안성시 공도읍 만정리 779-4번지 1동 105호","category":"보건위생 - 미용원"},{"name":"엘리제음악학원","tel":"031-655-5855","addr":"경기도 안성시 공도읍 만정리 779-4번지 3층 302호","category":"학원 - 예·체능계학원"},{"name":"인피치","tel":"031-655-7396","addr":"경기도 안성시 공도읍 만정리 779-4번지 103호","category":"일반휴게음식 - 스넥"},{"name":"초록별문구&팬시","tel":"031-618-5448","addr":"경기도 안성시 공도읍 만정리 779-4번지 만정타워 1동 106호","category":"서적문구 - 문구용품"},{"name":"치킨은 타이밍","tel":"031-618-9949","addr":"경기도 안성시 공도읍 만정리 779-4번지","category":"일반휴게음식 - 스넥"},{"name":"한울 랭귀지 아카데미(훌라 잉글리시)학원","tel":"031-653-6322","addr":"경기도 안성시 공도읍 만정리 779-4번지 201호","category":"학원 - 외국어학원"}]},{"lat":"36.999187797","long":"127.17136133","items":[{"name":"돈이축산","tel":"031-652-4567","addr":"경기도 안성시 공도읍 만정리 424-51번지 지층","category":"음료식품 - 농·축·수산품"},{"name":"와와 노래뱅크 노래연습장","tel":"031-651-9695","addr":"경기도 안성시 공도읍 만정리 424-51번지","category":"레저업소 - 노 래 방"}]},{"lat":"37.008053171","long":"127.18435789","items":[{"name":"동남지업사","tel":"031-656-0001","addr":"경기도 안성시 공도읍 만정리 149-18번지 102호","category":"직물 - 카페트,커튼,천막,지물"},{"name":"부영옛날통닭","tel":"031-653-9922","addr":"경기도 안성시 공도읍 만정리 149-18번지 1층","category":"일반휴게음식 - 스넥"},{"name":"순이네분식","tel":"031-653-1428","addr":"경기도 안성시 공도읍 만정리 149-18번지","category":"일반휴게음식 - 일반한식"}]},{"lat":"37.00133278","long":"127.17105149","items":[{"name":"동태마루","tel":"031-658-2388","addr":"경기도 안성시 공도읍 만정리 807-8번지","category":"일반휴게음식 - 일반한식"}]},{"lat":"37.0005244","long":"127.16921851","items":[{"name":"동태마을","tel":"031-658-4756","addr":"경기도 안성시 공도읍 만정리 811-2번지 1층","category":"일반휴게음식 - 일반한식"}]},{"lat":"37.000602789","long":"127.17113976","items":[{"name":"두찜 안성공도점","tel":"","addr":"경기도 안성시 공도읍 만정리 816-2번지 X5~X6호","category":"일반휴게음식 - 일반한식"},{"name":"신마포갈매기","tel":"031-652-6092","addr":"경기도 안성시 공도읍 만정리 816-2","category":"일반휴게음식 - 일반한식"},{"name":"엣지노래연습장","tel":"031-655-7747","addr":"경기도 안성시 공도읍 만정리 816-2번지","category":"레저업소 - 노 래 방"},{"name":"옥타곤  바(OCTAGON Bar)","tel":"00-0000-0000","addr":"경기도 안성시 공도읍 만정리 816-2번지 강남프라자 202호","category":"일반휴게음식 - 주점"},{"name":"옥타곤바(OCTAGON BAR)","tel":"","addr":"경기도 안성시 공도읍 만정리 816-2번지 2층 202호","category":"일반휴게음식 - 주점"},{"name":"주식회사 코엠아이에스이","tel":"000-1899-2360","addr":"경기도 안성시 공도읍 만정리 816-2번지 창희빌딩 508호","category":"회원제형태 - 기타3"},{"name":"참치세상","tel":"031-652-3076","addr":"경기도 안성시 공도읍 만정리 816-2번지 1층 3호","category":"일반휴게음식 - 일식·회집"}]},{"lat":"37.000407686","long":"127.16891493","items":[{"name":"두툼갈비","tel":"031-618-9281","addr":"경기도 안성시 공도읍 만정리 813-4번지 1층","category":"일반휴게음식 - 일반한식"}]},{"lat":"37.000443933","long":"127.16876896","items":[{"name":"둘박해장국전골","tel":"031-664-4203","addr":"경기도 안성시 공도읍 만정리 813-1번지 1동 1층","category":"일반휴게음식 - 일반한식"}]},{"lat":"37.002081141","long":"127.1707161","items":[{"name":"듀크헤어","tel":"031-618-4555","addr":"경기도 안성시 공도읍 만정리 800-5","category":"보건위생 - 미용원"},{"name":"선미쌤수학교습소","tel":"031-675-3478","addr":"경기도 안성시 공도읍 만정리 800-5번지 201호","category":"학원 - 보습학원"},{"name":"스탈링헤어","tel":"031-657-4756","addr":"경기도 안성시 공도읍 만정리 800-5번지 1층","category":"보건위생 - 미용원"},{"name":"원꽈배기","tel":"031-672-7644","addr":"경기도 안성시 공도읍 만정리 800-5번지 1층 2호","category":"일반휴게음식 - 일반한식"},{"name":"쭝일아찌5단계 빨강떡볶이","tel":"031-656-3449","addr":"경기도 안성시 공도읍 만정리 800-5번지","category":"일반휴게음식 - 스넥"}]},{"lat":"37.008101224","long":"127.17632462","items":[{"name":"디자인플랜","tel":"031-652-7942","addr":"경기도 안성시 공도읍 만정리 349-6번지 여성창업보육센터 116호","category":"용역 서비스 - 종합용역"},{"name":"세븐일레븐안성폴리텍점","tel":"","addr":"경기도 안성시 공도읍 만정리 349-6번지","category":"유통업 영리 - 편 의 점"},{"name":"우일폴리텍 안성","tel":"031-650-7220","addr":"경기도 안성시 공도읍 만정리 349-6번지 한국폴리텍여자대학","category":"음료식품 - 기타음료식품"},{"name":"한국폴리텍대학안성캠퍼스","tel":"031-651-4314","addr":"경기도 안성시 공도읍 만정리 349-6번지 한국폴리텍대학안성캠퍼스","category":"일반휴게음식 - 위탁급식업"}]},{"lat":"36.999494717","long":"127.17096881","items":[{"name":"뚜레쥬르안성공도점","tel":"031-657-0042","addr":"경기도 안성시 공도읍 만정리 421-6번지 1층","category":"음료식품 - 제과점"}]},{"lat":"37.001693921","long":"127.17054673","items":[{"name":"램프공인중개사","tel":"031-654-4849","addr":"경기도 안성시 공도읍 만정리 802-3","category":"용역 서비스 - 부동산 중개·임대"},{"name":"부추곱창","tel":"031-654-0068","addr":"경기도 안성시 공도읍 만정리 802-3번지 101호","category":"일반휴게음식 - 일반한식"}]},{"lat":"37.000519132","long":"127.17293708","items":[{"name":"루브살롱 (LUBSALON)","tel":"031-652-9777","addr":"경기도 안성시 공도읍 만정리 424-71번지","category":"보건위생 - 미용원"}]},{"lat":"36.999685431","long":"127.16991321","items":[{"name":"리&최 헤어뱅크","tel":"031-653-4646","addr":"경기도 안성시 공도읍 만정리 820-1번지 104호","category":"보건위생 - 미용원"},{"name":"베스킨라빈스/안성공도","tel":"031-653-0506","addr":"경기도 안성시 공도읍 만정리 820-1번지","category":"음료식품 - 제과점"},{"name":"빅쭌부대찌개","tel":"031-692-2234","addr":"경기도 안성시 공도읍 만정리 820-1번지 106호","category":"일반휴게음식 - 일반한식"},{"name":"올리브영 안성공도점","tel":"031-656-5290","addr":"경기도 안성시 공도읍 만정리 820-1번지 101,102호","category":"유통업 영리 - 편 의 점"},{"name":"임가네 숯불갈비","tel":"031-656-5882","addr":"경기도 안성시 공도읍 만정리 820-1번지","category":"일반휴게음식 - 일반한식"}]},{"lat":"37.009747211","long":"127.17213742","items":[{"name":"리더스여행사 주식회사","tel":"031-618-9046","addr":"경기도 안성시 공도읍 만정리 381번지","category":"여행 - 관광여행"},{"name":"매력쟁이","tel":"031-658-5009","addr":"경기도 안성시 공도읍 만정리 381","category":"보건위생 - 화장품"},{"name":"서안성농업협동조합","tel":"031-653-2921","addr":"경기도 안성시 공도읍 만정리 381","category":"문화.취미 - 문화취미기타"},{"name":"서안성농협하나로마트","tel":"031-653-1134","addr":"경기도 안성시 공도읍 만정리 381","category":"유통업 비영리 - 농,축협 직영매장"},{"name":"손톱쟁이","tel":"031-618-4756","addr":"경기도 안성시 공도읍 만정리 381번지 하나로마트 2층","category":"보건위생 - 피부미용실"},{"name":"에스더뷰티펠리스","tel":"031-656-6991","addr":"경기도 안성시 공도읍 만정리 381번지 서안성하나로마트 2층","category":"회원제형태 - 기타4"},{"name":"에스더뷰티펠리스","tel":"031-656-6991","addr":"경기도 안성시 공도읍 만정리 381번지 서안성농협하나로마트 2층","category":"회원제형태 - 기타4"},{"name":"주식회사 서안성아이웨딩컨벤션","tel":"031-658-5300","addr":"경기도 안성시 공도읍 만정리 381번지 3층","category":"용역 서비스 - 혼례서비스"}]},{"lat":"37.008135567","long":"127.17124625","items":[{"name":"리드인독서논술 공도교습소","tel":"070-8279-0624","addr":"경기도 안성시 공도읍 만정리 777-1번지 안성공도금호어울림 상가동2차 102호","category":"학원 - 보습학원"},{"name":"샵(#)예인피아노","tel":"","addr":"경기도 안성시 공도읍 만정리 777-1번지 안성공도금호어울림 상가동 103호","category":"학원 - 예·체능계학원"},{"name":"잉글리시아이 만정점영어교습소","tel":"031-655-5689","addr":"경기도 안성시 공도읍 만정리 777-1번지 안성공도금호어울림 상가동 1층 104호","category":"학원 - 외국어학원"}]},{"lat":"37.003582674","long":"127.17300008","items":[{"name":"리시오카페2호점","tel":"031-692-1061","addr":"경기도 안성시 공도읍 만정리 788-2번지 공도도서관내","category":"일반휴게음식 - 스넥"}]},{"lat":"37.001577559","long":"127.16999599","items":[{"name":"리얼매운갈비찜","tel":"031-691-0142","addr":"경기도 안성시 공도읍 만정리 801-6번지","category":"일반휴게음식 - 일반한식"},{"name":"못된송아지","tel":"031-657-7117","addr":"경기도 안성시 공도읍 만정리 801-6번지 1층","category":"일반휴게음식 - 일반한식"}]},{"lat":"36.999799819","long":"127.17185699","items":[{"name":"리얼안심탕수육&리얼하노이","tel":"031-658-1555","addr":"경기도 안성시 공도읍 만정리 424-30번지 1층","category":"일반휴게음식 - 일반한식"},{"name":"빈티지 초콜릿","tel":"070-8877-0469","addr":"경기도 안성시 공도읍 만정리 424-30번지 1동 101C호","category":"의류 - 정장"},{"name":"아르더헤어","tel":"031-657-0614","addr":"경기도 안성시 공도읍 만정리 424-30번지 1동 2층 16호","category":"보건위생 - 미용원"},{"name":"안성두레생협","tel":"031-691-2066","addr":"경기도 안성시 공도읍 만정리 424-30번지","category":"유통업 영리 - 슈퍼마켓"},{"name":"폼 나리","tel":"031-654-3880","addr":"경기도 안성시 공도읍 만정리 424-30번지 1층 109호","category":"의류 - 정장"}]},{"lat":"36.999215867","long":"127.17688862","items":[{"name":"마녀옷짱(5zzang)","tel":"031-671-3602","addr":"경기도 안성시 공도읍 만정리 880번지 디자인시티블루밍 107동 201호","category":"회원제형태 - 기타4"}]},{"lat":"36.999019068","long":"127.16960843","items":[{"name":"마시내탕수육","tel":"031-653-7752","addr":"경기도 안성시 공도읍 만정리 417-122번지 1층 좌측호","category":"일반휴게음식 - 중국식"},{"name":"해피안의료기","tel":"031-666-6653","addr":"경기도 안성시 공도읍 만정리 417-122번지 2층","category":"보건위생 - 의료용품"}]},{"lat":"37.001910399","long":"127.17038993","items":[{"name":"마실","tel":"031-000-0000","addr":"경기도 안성시 공도읍 만정리 799-2번지 1층","category":"일반휴게음식 - 일반한식"}]},{"lat":"37.008214084","long":"127.17305534","items":[{"name":"만정중학교","tel":"031-678-9700","addr":"경기도 안성시 공도읍 만정리 779-1번지 만정중학교","category":"학원 - 초중고교육기관"},{"name":"만정중학교_수업료","tel":"031-678-9700","addr":"경기도 안성시 공도읍 만정리 779-1번지 만정중학교","category":"학원 - 초중고교육기관"}]},{"lat":"37.006630231","long":"127.17163616","items":[{"name":"만정초등학교","tel":"031-692-5614","addr":"경기도 안성시 공도읍 만정리 783-1번지 만정초등학교","category":"학원 - 초중고교육기관"},{"name":"만정초등학교병설유치원[아이행복]","tel":"031-692-5619","addr":"경기도 안성시 공도읍 만정리 783-1번지 만정초등학교","category":"학원 - 유치원"}]},{"lat":"37.002416134","long":"127.16958214","items":[{"name":"메라키헤어","tel":"031-618-4900","addr":"경기도 안성시 공도읍 만정리 797-1번지 102호","category":"보건위생 - 미용원"},{"name":"위드미","tel":"02-6916-1500","addr":"경기도 안성시 공도읍 만정리 797-1번지","category":"유통업 영리 - 편 의 점"}]},{"lat":"36.998804369","long":"127.16849578","items":[{"name":"메리네애견샵","tel":"031-657-8882","addr":"경기도 안성시 공도읍 만정리 417-93번지","category":"문화.취미 - 애완동물"},{"name":"지지종합디자인","tel":"031-863-7772","addr":"경기도 안성시 공도읍 만정리 417-93번지 102호","category":"용역 서비스 - 사무서비스"}]},{"lat":"37.001632018","long":"127.16971524","items":[{"name":"멕시카나 안성공도점","tel":"031-651-9244","addr":"경기도 안성시 공도읍 만정리 801-4번지 101호","category":"일반휴게음식 - 스넥"},{"name":"부산막창","tel":"031-658-9233","addr":"경기도 안성시 공도읍 만정리 801-4","category":"일반휴게음식 - 일반한식"},{"name":"투존치킨","tel":"031-651-9244","addr":"경기도 안성시 공도읍 만정리 801-4번지 1층 101호","category":"일반휴게음식 - 스넥"}]},{"lat":"37.010936856","long":"127.17197152","items":[{"name":"명선기운찬","tel":"031-655-3773","addr":"경기도 안성시 공도읍 만정리 377-9번지","category":"일반휴게음식 - 일반한식"},{"name":"신일뼈해장국","tel":"031-656-5600","addr":"경기도 안성시 공도읍 만정리 377-9번지 1층 3-6호","category":"일반휴게음식 - 일반한식"}]},{"lat":"37.006464305","long":"127.17424238","items":[{"name":"모니카","tel":"070-7166-7189","addr":"경기도 안성시 공도읍 만정리 785-10번지 엘리시아 306호","category":"문화.취미 - 민예·공예품"},{"name":"카페모니카","tel":"031-1111-0000","addr":"경기도 안성시 공도읍 만정리 785-10번지 엘리시아 306호","category":"일반휴게음식 - 서양음식"}]},{"lat":"37.024240577","long":"127.17546227","items":[{"name":"모박사공도점","tel":"031-657-3396","addr":"경기도 안성시 공도읍 만정리 1번지","category":"일반휴게음식 - 일반한식"}]},{"lat":"37.00144333","long":"127.16933286","items":[{"name":"모섬","tel":"031-658-9560","addr":"경기도 안성시 공도읍 만정리 803-5번지","category":"일반휴게음식 - 일반한식"}]},{"lat":"37.005800717","long":"127.18421771","items":[{"name":"밀레쥬(Mille Zoo)","tel":"031-654-4785","addr":"경기도 안성시 공도읍 만정리 306-1번지","category":"문화.취미 - 애완동물"}]},{"lat":"36.999079509","long":"127.17147343","items":[{"name":"바디핏핫요가","tel":"031-691-4009","addr":"경기도 안성시 공도읍 만정리 424-47번지 2층","category":"회원제형태 - 레져업소"},{"name":"헤어테라스","tel":"032-657-2557","addr":"경기도 안성시 공도읍 만정리 424-47번지","category":"보건위생 - 미용원"}]},{"lat":"37.004078204","long":"127.17921409","items":[{"name":"반도산업안성공도점","tel":"031-651-7405","addr":"경기도 안성시 공도읍 만정리 294-4번지","category":"건축자재 - 기타건축자재"}]},{"lat":"37.005630747","long":"127.18340838","items":[{"name":"반도턱시 유한회사 공도점","tel":"031-651-9116","addr":"경기도 안성시 공도읍 만정리 302번지 제비동 105호 ,106호","category":"레져용품 - 스포츠·레져용품"},{"name":"티지(TG)패션","tel":"031-651-9116","addr":"경기도 안성시 공도읍 만정리 302번지 공도패션타운 TG패션 1층 105호 106호","category":"의류 - 정장"}]},{"lat":"37.001272206","long":"127.16927631","items":[{"name":"배달돼지","tel":"031-653-8700","addr":"경기도 안성시 공도읍 만정리 803-6번지","category":"일반휴게음식 - 일반한식"},{"name":"별이네솥뚜껑","tel":"031-658-4155","addr":"경기도 안성시 공도읍 만정리 803-6번지 1층","category":"일반휴게음식 - 일반한식"},{"name":"여기어때","tel":"031-618-1251","addr":"경기도 안성시 공도읍 만정리 803-6번지","category":"일반휴게음식 - 일반한식"}]},{"lat":"37.016520609","long":"127.18010806","items":[{"name":"백승타일","tel":"031-652-0094","addr":"경기도 안성시 공도읍 만정리 92-1번지","category":"건축자재 - 건축용 요업제품"}]},{"lat":"37.001630989","long":"127.17044549","items":[{"name":"베트남노상식당","tel":"031-652-5559","addr":"경기도 안성시 공도읍 만정리 802-2번지 101호","category":"일반휴게음식 - 서양음식"}]},{"lat":"37.000297412","long":"127.17044256","items":[{"name":"본가왕뼈감자탕","tel":"031-652-1344","addr":"경기도 안성시 공도읍 만정리 815-4번지 2층","category":"일반휴게음식 - 일반한식"}]},{"lat":"37.000632261","long":"127.16940973","items":[{"name":"봉미네  (봉)","tel":"031-653-3358","addr":"경기도 안성시 공도읍 만정리 811-3번지","category":"일반휴게음식 - 일반한식"}]},{"lat":"36.999470231","long":"127.17547368","items":[{"name":"블럭&프렌즈","tel":"031-651-0968","addr":"경기도 안성시 공도읍 만정리 880번지 디자인시티블루밍 111동 203호","category":"회원제형태 - 기타4"}]},{"lat":"36.999992081","long":"127.17600287","items":[{"name":"블루밍뽀로로어린이집[아이행복]","tel":"031-657-5791","addr":"경기도 안성시 공도읍 만정리 880번지 디자인시티블루밍 109동 103호","category":"학원 - 유아원"}]},{"lat":"37.003721414","long":"127.17048378","items":[{"name":"블루타임코칭센터","tel":"","addr":"경기도 안성시 공도읍 만정리 786-1번지 안성공도금호어울림 303동 1101호","category":"서적문구 - 기타서적문구"}]},{"lat":"37.001686429","long":"127.1694682","items":[{"name":"블링블링네일","tel":"031-653-1717","addr":"경기도 안성시 공도읍 만정리 801-2번지 1층","category":"보건위생 - 피부미용실"},{"name":"안성바른자세운동원","tel":"031-691-9847","addr":"경기도 안성시 공도읍 만정리 801-2번지 101호","category":"보건위생 - 기타대인서비스"}]},{"lat":"37.000884401","long":"127.16952262","items":[{"name":"비오","tel":"","addr":"경기도 안성시 공도읍 만정리 804-8번지 1동 1층","category":"일반휴게음식 - 서양음식"}]},{"lat":"37.005846942","long":"127.17118502","items":[{"name":"비젼은혜브리스","tel":"031-483-3060","addr":"경기도 안성시 공도읍 만정리 783-2번지 경기도시공사참아름 210동 1301호","category":"의류 - 내의판매"}]},{"lat":"37.000966033","long":"127.16914083","items":[{"name":"빈첼로","tel":"070-7793-1820","addr":"경기도 안성시 공도읍 만정리 803-8번지","category":"일반휴게음식 - 서양음식"}]},{"lat":"37.001855557","long":"127.1709403","items":[{"name":"빨간자전거","tel":"070-4044-0043","addr":"경기도 안성시 공도읍 만정리 808-1번지 103호","category":"일반휴게음식 - 스넥"},{"name":"스콜라스","tel":"031-618-7996","addr":"경기도 안성시 공도읍 만정리 808-1번지 202호","category":"학원 - 학습지 교육"},{"name":"창조1인독서실","tel":"031-654-0982","addr":"경기도 안성시 공도읍 만정리 808-1번지 4층","category":"학원 - 독서실"}]},{"lat":"36.998531238","long":"127.17676348","items":[{"name":"사랑의하모니어린이집[아이행복]","tel":"031-691-3275","addr":"경기도 안성시 공도읍 만정리 880번지 벽산블루밍 105동 104호","category":"학원 - 유아원"},{"name":"킹콩샵","tel":"070-8619-1978","addr":"경기도 안성시 공도읍 만정리 880번지 디자인시티블루밍(디자인시티블루밍) 105동 401호","category":"회원제형태 - 기타4"}]},{"lat":"36.99857976","long":"127.16802346","items":[{"name":"사랑케어 의료기","tel":"031-652-3315","addr":"경기도 안성시 공도읍 만정리 427-3번지 1층","category":"보건위생 - 의료용품"},{"name":"삼천리자전거공도대리점","tel":"031-653-3002","addr":"경기도 안성시 공도읍 만정리 427-3","category":"레져용품 - 스포츠·레져용품"},{"name":"코코네일","tel":"","addr":"경기도 안성시 공도읍 만정리 427-3번지 1층","category":"보건위생 - 피부미용실"}]},{"lat":"36.998856719","long":"127.16972041","items":[{"name":"사왔디마트","tel":"031-656-7644","addr":"경기도 안성시 공도읍 만정리 417-184번지","category":"유통업 영리 - 슈퍼마켓"},{"name":"설희스킨케어","tel":"031-691-6664","addr":"경기도 안성시 공도읍 만정리 417-184, 201호","category":"보건위생 - 화장품"},{"name":"연지카페","tel":"031-651-0300","addr":"경기도 안성시 공도읍 만정리 417-184 2층","category":"일반휴게음식 - 주점"},{"name":"지오헤어","tel":"031-655-3566","addr":"경기도 안성시 공도읍 만정리 417-184, 1층2호","category":"보건위생 - 미용원"}]},{"lat":"37.001938096","long":"127.16991813","items":[{"name":"산맛골","tel":"031-651-3451","addr":"경기도 안성시 공도읍 만정리 797-6번지","category":"일반휴게음식 - 일반한식"}]},{"lat":"37.027688519","long":"127.17760536","items":[{"name":"삼성콘크리트","tel":"031-692-4644","addr":"경기도 안성시 공도읍 만정리 648-4번지","category":"건축자재 - 기타건축자재"}]},{"lat":"36.99891083","long":"127.16968683","items":[{"name":"생활용품종합물류","tel":"031-653-2694","addr":"경기도 안성시 공도읍 만정리 417-13번지","category":"신변잡화 - 기타잡화"}]},{"lat":"37.004713755","long":"127.18202431","items":[{"name":"서가네바베큐","tel":"031-655-6321","addr":"경기도 안성시 공도읍 만정리 302-9번지 1층","category":"일반휴게음식 - 일반한식"},{"name":"장수돌침대 안성대리점","tel":"031-652-0033","addr":"경기도 안성시 공도읍 만정리 302-9번지","category":"가구 - 일반가구"},{"name":"직거래수산","tel":"031-651-8865","addr":"경기도 안성시 공도읍 만정리 302-9번지 1층","category":"음료식품 - 농·축·수산품"},{"name":"직거래수산","tel":"031-651-8865","addr":"경기도 안성시 공도읍 만정리 302-9번지","category":"일반휴게음식 - 일식·회집"}]},{"lat":"36.999605549","long":"127.16904799","items":[{"name":"성심인테리어","tel":"031-692-3151","addr":"경기도 안성시 공도읍 만정리 417-160번지 덕성빌라 101동 102호","category":"직물 - 카페트,커튼,천막,지물"}]},{"lat":"36.999270228","long":"127.17041784","items":[{"name":"성지파크","tel":"031-651-4551","addr":"경기도 안성시 공도읍 만정리 417-95번지","category":"숙박업 - 여관/기타숙박업"}]},{"lat":"37.00171365","long":"127.16933344","items":[{"name":"센스마용실","tel":"070-8201-5899","addr":"경기도 안성시 공도읍 만정리 801-1번지 1층 102호","category":"보건위생 - 미용원"}]},{"lat":"37.019520089","long":"127.18082297","items":[{"name":"소나무목장","tel":"031-653-2111","addr":"경기도 안성시 공도읍 만정리 50번지","category":"음료식품 - 농·축·수산품"}]},{"lat":"37.000578779","long":"127.16899394","items":[{"name":"소정팥칼국수","tel":"031-618-9560","addr":"경기도 안성시 공도읍 만정리 810-4번지","category":"일반휴게음식 - 일반한식"}]},{"lat":"37.004917935","long":"127.17182337","items":[{"name":"송샘입시연구소","tel":"031-691-5150","addr":"경기도 안성시 공도읍 만정리 783-2번지 경기도시공사참아름 207동 606호","category":"학원 - 기타 교육기관"}]},{"lat":"36.99988557","long":"127.16855429","items":[{"name":"송월문구","tel":"031-653-3664","addr":"경기도 안성시 공도읍 만정리 818-1","category":"서적문구 - 문구용품"},{"name":"송월이불","tel":"031-653-3664","addr":"경기도 안성시 공도읍 만정리 818-1","category":"직물 - 침구·수예점"},{"name":"스마트월드","tel":"031-651-3500","addr":"경기도 안성시 공도읍 만정리 818-1번지","category":"사무통신 - 통신기기"}]},{"lat":"36.99901962","long":"127.16921523","items":[{"name":"수 인테리어","tel":"031-658-1233","addr":"경기도 안성시 공도읍 만정리 417-51번지 105호","category":"건축자재 - 인테리어전문"},{"name":"스마트월드","tel":"031-651-6224","addr":"경기도 안성시 공도읍 만정리 417-51번지 102호","category":"사무통신 - 통신기기"},{"name":"엄마의 레시피","tel":"031-656-1231","addr":"경기도 안성시 공도읍 만정리 417-51번지 1층 101호","category":"음료식품 - 기타음료식품"},{"name":"우람테크","tel":"070-8724-2985","addr":"경기도 안성시 공도읍 만정리 417-51번지 2층","category":"사무통신 - 컴퓨터"},{"name":"원보","tel":"031-692-8858","addr":"경기도 안성시 공도읍 만정리 417-51번지 103호","category":"유통업 영리 - 슈퍼마켓"}]},{"lat":"37.001379909","long":"127.16957988","items":[{"name":"수신닭발","tel":"031-618-5582","addr":"경기도 안성시 공도읍 만정리 804-1번지 가동 1층","category":"일반휴게음식 - 일반한식"}]},{"lat":"36.99985835","long":"127.16868905","items":[{"name":"수제갈비 안성공도점","tel":"031-618-9234","addr":"경기도 안성시 공도읍 만정리 818-3번지","category":"일반휴게음식 - 일반한식"}]},{"lat":"37.000602327","long":"127.17146556","items":[{"name":"시그니쳐타워","tel":"031-374-7070","addr":"경기도 안성시 공도읍 만정리 816-3번지","category":"자동차정비 유지 - 주차장"},{"name":"주식회사 탑마트","tel":"031-625-1005","addr":"경기도 안성시 공도읍 만정리 816-3번지","category":"유통업 영리 - 슈퍼마켓"}]},{"lat":"36.998686226","long":"127.16921451","items":[{"name":"신김밥&신LA갈비","tel":"031-691-2329","addr":"경기도 안성시 공도읍 만정리 425-11번지","category":"일반휴게음식 - 일반한식"},{"name":"치킨플러스 공도점","tel":"031-692-0515","addr":"경기도 안성시 공도읍 만정리 425-11번지","category":"일반휴게음식 - 스넥"}]},{"lat":"36.998848479","long":"127.17548351","items":[{"name":"신보건설","tel":"","addr":"경기도 안성시 공도읍 만정리 880번지 디자인시티블루밍 103동 1301호","category":"건축자재 - 인테리어전문"}]},{"lat":"37.000106852","long":"127.17138582","items":[{"name":"신사동포차","tel":"031-747-8874","addr":"경기도 안성시 공도읍 만정리 821-2번지 2층 202호","category":"일반휴게음식 - 주점"},{"name":"픽미픽미","tel":"","addr":"경기도 안성시 공도읍 만정리 821-2번지 106호","category":"음료식품 - 기타음료식품"}]},{"lat":"37.000332788","long":"127.17091448","items":[{"name":"신전떡볶이","tel":"031-657-6552","addr":"경기도 안성시 공도읍 만정리 816-4번지 103호","category":"일반휴게음식 - 스넥"},{"name":"어화둥둥","tel":"031-657-3255","addr":"경기도 안성시 공도읍 만정리 816-4 101호-103호 101","category":"일반휴게음식 - 주점"},{"name":"족발탐구생활","tel":"031-618-5853","addr":"경기도 안성시 공도읍 만정리 816-4번지 1층 105호","category":"일반휴게음식 - 일반한식"},{"name":"카페 더블유","tel":"031-656-3263","addr":"경기도 안성시 공도읍 만정리 816-4번지 104호","category":"일반휴게음식 - 서양음식"}]},{"lat":"37.005469817","long":"127.1825766","items":[{"name":"신진농장","tel":"031-655-2494","addr":"경기도 안성시 공도읍 만정리 311-9번지","category":"음료식품 - 정육점"},{"name":"신진식당","tel":"031-651-2494","addr":"경기도 안성시 공도읍 만정리 311-9번지 1층","category":"일반휴게음식 - 일반한식"},{"name":"장비빔국수와편육","tel":"031-692-3535","addr":"경기도 안성시 공도읍 만정리 311-9","category":"일반휴게음식 - 일반한식"},{"name":"추억의7080","tel":"031-618-0123","addr":"경기도 안성시 공도읍 만정리 311-9번지 2층","category":"일반휴게음식 - 일반한식"}]},{"lat":"37.000191163","long":"127.16910544","items":[{"name":"신진성아구찜 공도만정점","tel":"031-656-3282","addr":"경기도 안성시 공도읍 만정리 814-2번지 101호","category":"일반휴게음식 - 일반한식"}]},{"lat":"36.998687841","long":"127.16805739","items":[{"name":"신헤어샵","tel":"031-652-8978","addr":"경기도 안성시 공도읍 만정리 427-2번지 1층","category":"보건위생 - 미용원"},{"name":"아트광고","tel":"","addr":"경기도 안성시 공도읍 만정리 427-2번지","category":"건축자재 - 인테리어전문"}]},{"lat":"36.999660226","long":"127.16860998","items":[{"name":"싸다 할인매장","tel":"031-653-8606","addr":"경기도 안성시 공도읍 만정리 818-4번지 1층","category":"신변잡화 - 기타잡화"}]},{"lat":"37.005051861","long":"127.17268877","items":[{"name":"아람어린이집[아이행복]","tel":"031-658-0656","addr":"경기도 안성시 공도읍 만정리 785-6번지 안성공도금호어울림 103동 101호","category":"학원 - 유아원"},{"name":"아람어린이집[아이행복]","tel":"031-658-0656","addr":"경기도 안성시 공도읍 만정리 785-6번지 안성공도금호어울림 103동 101호","category":"학원 - 유아원"},{"name":"아이큰숲어린이집[아이행복]","tel":"031-651-6115","addr":"경기도 안성시 공도읍 만정리 785-6번지 안성공도금호어울림 103동 103호","category":"학원 - 유아원"}]},{"lat":"36.999714446","long":"127.16849775","items":[{"name":"아리랑양꼬치","tel":"031-651-1814","addr":"경기도 안성시 공도읍 만정리 818-2번지","category":"일반휴게음식 - 일반한식"}]},{"lat":"37.002631647","long":"127.17011064","items":[{"name":"아울(OWL)","tel":"","addr":"경기도 안성시 공도읍 만정리 796-4번지","category":"일반휴게음식 - 서양음식"},{"name":"이가부대마루","tel":"031-656-7193","addr":"경기도 안성시 공도읍 만정리 796-4","category":"일반휴게음식 - 일반한식"}]},{"lat":"36.999241637","long":"127.17151873","items":[{"name":"아이림어린이집[아이행복]","tel":"031-652-0200","addr":"경기도 안성시 공도읍 만정리 424-7번지","category":"학원 - 유아원"}]},{"lat":"36.999108938","long":"127.16977714","items":[{"name":"안성 휴통재활의학과의원","tel":"031-651-3575","addr":"경기도 안성시 공도읍 만정리 417-36번지 외 1필지 201호","category":"의원 - 의원"},{"name":"제닉스아레나PC(공도점)","tel":"031-656-0000","addr":"경기도 안성시 공도읍 만정리 417-36번지 3층","category":"레저업소 - 기타레져업소"}]},{"lat":"37.001107274","long":"127.17121952","items":[{"name":"안성그집쭈꾸미","tel":"070-8869-3800","addr":"경기도 안성시 공도읍 만정리 807-10번지","category":"일반휴게음식 - 일반한식"}]},{"lat":"37.005612709","long":"127.18341957","items":[{"name":"안성마춤탁구교실","tel":"031-651-2631","addr":"경기도 안성시 공도읍 만정리 302번지 공도패션타운 B동 2층","category":"레저업소 - 기타레져업소"},{"name":"연지곤지","tel":"031-655-7889","addr":"경기도 안성시 공도읍 만정리 302번지 공도패션타운 B동 101호","category":"일반휴게음식 - 스넥"},{"name":"집밥","tel":"031-692-3322","addr":"경기도 안성시 공도읍 만정리 302번지 공도패션타운 B동 101호","category":"일반휴게음식 - 일반한식"}]},{"lat":"37.006303263","long":"127.1855559","items":[{"name":"어부의밥상","tel":"031-692-8585","addr":"경기도 안성시 공도읍 만정리 173-5번지","category":"일반휴게음식 - 일반한식"}]},{"lat":"37.001271149","long":"127.17002902","items":[{"name":"엄마사랑유치원[아이행복]","tel":"031-652-1125","addr":"경기도 안성시 공도읍 만정리 805-1번지","category":"학원 - 유치원"}]},{"lat":"37.002632232","long":"127.16969496","items":[{"name":"엄마손운동화손빨래방","tel":"031-655-5700","addr":"경기도 안성시 공도읍 만정리 796-1번지","category":"수리서비스 - 세탁소"}]},{"lat":"37.005802752","long":"127.18288073","items":[{"name":"에스앤에스노래연습장","tel":"031-692-0929","addr":"경기도 안성시 공도읍 만정리 302-12번지","category":"레저업소 - 노 래 방"}]},{"lat":"37.000479572","long":"127.17537485","items":[{"name":"에어컨설치","tel":"031-111-1111","addr":"경기도 안성시 공도읍 만정리 880번지 디자인시티블루밍 115동 1801호","category":"용역 서비스 - 기타용역서비스"},{"name":"행복한그림어린이집[아이행복]","tel":"031-618-3548","addr":"경기도 안성시 공도읍 만정리 880번지 디자인시티블루밍 115동 103호","category":"학원 - 유아원"}]},{"lat":"37.007383634","long":"127.17407591","items":[{"name":"에이플러스영재학원","tel":"031-656-2325","addr":"경기도 안성시 공도읍 만정리 781-2번지","category":"학원 - 보습학원"},{"name":"유투엠안성공도캠퍼스 수학학원","tel":"031-654-4848","addr":"경기도 안성시 공도읍 만정리 781-2번지 3층","category":"학원 - 보습학원"},{"name":"최강태권도장","tel":"031-653-3107","addr":"경기도 안성시 공도읍 만정리 781-2번지 4층","category":"학원 - 예·체능계학원"}]},{"lat":"37.001604195","long":"127.17027691","items":[{"name":"엘리자벳","tel":"031-655-5671","addr":"경기도 안성시 공도읍 만정리 802-1번지 1층","category":"일반휴게음식 - 서양음식"}]},{"lat":"37.003272581","long":"127.17558339","items":[{"name":"엘피스어린이집[아이행복]","tel":"031-651-3886","addr":"경기도 안성시 공도읍 만정리 709-1번지 한일타운 102동 107호","category":"학원 - 유아원"}]},{"lat":"37.018107234","long":"127.17960608","items":[{"name":"엠에이티플러스(주)/원격지","tel":"031-659-0600","addr":"경기도 안성시 공도읍 만정리 50-2","category":"기타 - 기타 전문점"}]},{"lat":"37.001829968","long":"127.1699179","items":[{"name":"여기가 조은데","tel":"031-654-8254","addr":"경기도 안성시 공도읍 만정리 797-7번지","category":"일반휴게음식 - 일반한식"}]},{"lat":"36.998713604","long":"127.16896741","items":[{"name":"영피아노학원","tel":"031-655-1233","addr":"경기도 안성시 공도읍 만정리 425-1번지 2층","category":"학원 - 예·체능계학원"}]},{"lat":"37.00685467","long":"127.18441122","items":[{"name":"예찬낙지","tel":"031-691-8252","addr":"경기도 안성시 공도읍 만정리 306-10번지","category":"일반휴게음식 - 일반한식"}]},{"lat":"37.001020254","long":"127.1690286","items":[{"name":"옛날통닭 부뚜막 공도1호점","tel":"031-656-9592","addr":"경기도 안성시 공도읍 만정리 803-4번지 1층 우측전면호","category":"일반휴게음식 - 스넥"},{"name":"이안컴퓨터","tel":"031-691-2580","addr":"경기도 안성시 공도읍 만정리 803-4번지 1층","category":"사무통신 - 컴퓨터"}]},{"lat":"37.002190442","long":"127.16988498","items":[{"name":"오가네족보삼","tel":"031-618-2080","addr":"경기도 안성시 공도읍 만정리 797-4번지","category":"일반휴게음식 - 일반한식"}]},{"lat":"37.002352285","long":"127.1701325","items":[{"name":"오성숯불갈비","tel":"031-653-5116","addr":"경기도 안성시 공도읍 만정리 798-1번지","category":"일반휴게음식 - 일반한식"},{"name":"우리and아이 반찬","tel":"031-655-4467","addr":"경기도 안성시 공도읍 만정리 798-1번지 1층","category":"음료식품 - 기타음료식품"}]},{"lat":"37.006189236","long":"127.18352205","items":[{"name":"오픈시크릿 (opensecret)","tel":"","addr":"경기도 안성시 공도읍 만정리 307-10번지","category":"일반휴게음식 - 서양음식"}]},{"lat":"37.001326475","long":"127.16913038","items":[{"name":"옷걸이","tel":"","addr":"경기도 안성시 공도읍 만정리 803-2번지 가동 102호","category":"의류 - 정장"}]},{"lat":"37.002217126","long":"127.1701322","items":[{"name":"우리동네고깃집","tel":"031-655-6932","addr":"경기도 안성시 공도읍 만정리 798-2번지","category":"일반휴게음식 - 일반한식"},{"name":"지니쌤 음악교습소","tel":"031-652-7983","addr":"경기도 안성시 공도읍 만정리 798-2번지 1층 102호","category":"학원 - 예·체능계학원"}]},{"lat":"36.999848963","long":"127.16895865","items":[{"name":"우리들공부방","tel":"031-655-7068","addr":"경기도 안성시 공도읍 만정리 417-156번지 덕성빌라 B동 201호","category":"학원 - 기타 교육기관"}]},{"lat":"36.998881912","long":"127.17102363","items":[{"name":"우리청과","tel":"","addr":"경기도 안성시 공도읍 만정리 424-42번지","category":"음료식품 - 농·축·수산품"}]},{"lat":"37.005753629","long":"127.17343185","items":[{"name":"윤샘영어과외","tel":"","addr":"경기도 안성시 공도읍 만정리 785-6번지 안성공도금호어울림 105동 104호","category":"학원 - 기타 교육기관"}]},{"lat":"37.00493662","long":"127.18360897","items":[{"name":"은정숯불구이","tel":"031-657-4975","addr":"경기도 안성시 공도읍 만정리 304-4번지","category":"일반휴게음식 - 일반한식"}]},{"lat":"37.001495401","long":"127.17074852","items":[{"name":"은해성","tel":"031-652-2882","addr":"경기도 안성시 공도읍 만정리 807-1번지","category":"일반휴게음식 - 중국식"}]},{"lat":"37.002523203","long":"127.1703351","items":[{"name":"이든수제치킨","tel":"031-651-2552","addr":"경기도 안성시 공도읍 만정리 800-1번지 1층","category":"일반휴게음식 - 스넥"},{"name":"이든치킨","tel":"031-651-2552","addr":"경기도 안성시 공도읍 만정리 800-1번지 1층","category":"일반휴게음식 - 스넥"}]},{"lat":"37.000991122","long":"127.17052272","items":[{"name":"이디야 안성공도점","tel":"031-652-7979","addr":"경기도 안성시 공도읍 만정리 806-4번지 1층","category":"일반휴게음식 - 서양음식"}]},{"lat":"37.002550757","long":"127.16996441","items":[{"name":"이심전심 전&막걸리","tel":"070-4256-0808","addr":"경기도 안성시 공도읍 만정리 796-3번지 1층","category":"일반휴게음식 - 주점"}]},{"lat":"37.00218938","long":"127.1706377","items":[{"name":"이익형 과외방","tel":"","addr":"경기도 안성시 공도읍 만정리 800-4번지 204호","category":"학원 - 기타 교육기관"},{"name":"코너스톤","tel":"","addr":"경기도 안성시 공도읍 만정리 800-4번지 201호","category":"학원 - 기타 교육기관"},{"name":"테디영어","tel":"","addr":"경기도 안성시 공도읍 만정리 800-4번지 202호","category":"학원 - 기타 교육기관"}]},{"lat":"37.005970407","long":"127.17924093","items":[{"name":"이지스에너지","tel":"","addr":"경기도 안성시 공도읍 만정리 290-1번지","category":"자동차정비 유지 - 세차장"}]},{"lat":"37.00049718","long":"127.16935326","items":[{"name":"임가네찜천하","tel":"031-651-3004","addr":"경기도 안성시 공도읍 만정리 811-4번지 1층","category":"일반휴게음식 - 일반한식"}]},{"lat":"36.999360462","long":"127.17032816","items":[{"name":"제일한의원","tel":"031-651-7533","addr":"경기도 안성시 공도읍 만정리 417-83번지","category":"의원 - 한의원"},{"name":"하얀이치과","tel":"031-691-2804","addr":"경기도 안성시 공도읍 만정리 417-83번지","category":"의원 - 치과의원"}]},{"lat":"37.001243579","long":"127.17041093","items":[{"name":"제주 농장","tel":"031-692-3592","addr":"경기도 안성시 공도읍 만정리 806-2번지","category":"일반휴게음식 - 일반한식"}]},{"lat":"37.005438729","long":"127.1792734","items":[{"name":"주식회사 이지스에너지","tel":"","addr":"경기도 안성시 공도읍 만정리 290-7번지","category":"연료판매점 - SK가스충전소"}]},{"lat":"37.012773291","long":"127.1731891","items":[{"name":"주식회사 제니스코리아","tel":"031-654-5070","addr":"경기도 안성시 공도읍 만정리 378번지 1층","category":"주방용구 - 주방용구"},{"name":"혜성리프트","tel":"031-667-6449","addr":"경기도 안성시 공도읍 만정리 378번지","category":"기타 - 기계공구"}]},{"lat":"37.026437051","long":"127.17691696","items":[{"name":"주식회사그루터기","tel":"031-652-9672","addr":"경기도 안성시 공도읍 만정리 642-2번지","category":"일반휴게음식 - 일반한식"}]},{"lat":"37.003054054","long":"127.17088676","items":[{"name":"준사운드","tel":"031-654-2029","addr":"경기도 안성시 공도읍 만정리 786-1번지 안성공도금호어울림 301동 903호","category":"회원제형태 - 기타1"}]},{"lat":"37.001441019","long":"127.17097309","items":[{"name":"중앙배드민턴","tel":"031-656-2068","addr":"경기도 안성시 공도읍 만정리 807-7번지 1층 101호","category":"레져용품 - 스포츠·레져용품"}]},{"lat":"37.001242912","long":"127.17088278","items":[{"name":"짬장정육상회","tel":"031-656-9285","addr":"경기도 안성시 공도읍 만정리 807-3","category":"일반휴게음식 - 일반한식"}]},{"lat":"37.001162165","long":"127.17063544","items":[{"name":"쪽갈비점문점 예감","tel":"031-618-0933","addr":"경기도 안성시 공도읍 만정리 806-8번지","category":"일반휴게음식 - 일반한식"}]},{"lat":"37.001747779","long":"127.1706929","items":[{"name":"쫄병부대찌개","tel":"031-692-9258","addr":"경기도 안성시 공도읍 만정리 802-4번지 1층","category":"일반휴게음식 - 일반한식"}]},{"lat":"36.998606604","long":"127.16815833","items":[{"name":"참선진녹즙","tel":"031-651-1224","addr":"경기도 안성시 공도읍 만정리 426-7","category":"건강식품 - 기타건강식품"}]},{"lat":"37.005743664","long":"127.1740947","items":[{"name":"천사어린이집[아이행복]","tel":"031-655-5242","addr":"경기도 안성시 공도읍 만정리 785-6번지 안성공도금호어울림 106동 103호","category":"학원 - 유아원"}]},{"lat":"37.001677008","long":"127.17605163","items":[{"name":"철거인 연합회","tel":"031-658-1550","addr":"경기도 안성시 공도읍 만정리 880번지 디자인시티블루밍 118동 1801호","category":"건축자재 - 인테리어전문"}]},{"lat":"37.000299055","long":"127.16927419","items":[{"name":"청년고기","tel":"031-653-8253","addr":"경기도 안성시 공도읍 만정리 814-4번지 1층","category":"일반휴게음식 - 일반한식"}]},{"lat":"37.002685553","long":"127.17022311","items":[{"name":"청학세무법인안성지점","tel":"031-691-9948","addr":"경기도 안성시 공도읍 만정리 796-5번지 2층","category":"용역 서비스 - 법률회계서비스(법인)"}]},{"lat":"37.002135745","long":"127.17033425","items":[{"name":"춘향전","tel":"031-658-2303","addr":"경기도 안성시 공도읍 만정리 798-5번지 1층","category":"일반휴게음식 - 일반한식"}]},{"lat":"37.00829651","long":"127.18432476","items":[{"name":"치킨줌","tel":"031-651-7666","addr":"경기도 안성시 공도읍 만정리 149-5번지","category":"일반휴게음식 - 스넥"}]},{"lat":"37.005523251","long":"127.18299243","items":[{"name":"커터앤벅","tel":"031-655-2494","addr":"경기도 안성시 공도읍 만정리 302-21번지 공도패션제에이동101화,102-1호","category":"의류 - 스포츠의류"},{"name":"한림 스크린골프존","tel":"031-652-1872","addr":"경기도 안성시 공도읍 만정리 302-21 A동201호~206호","category":"회원제형태 - 레져업소"}]},{"lat":"36.99959489","long":"127.17649628","items":[{"name":"케빈쌤의 영어교실","tel":"070-8851-0525","addr":"경기도 안성시 공도읍 만정리 880번지 디자인시티블루밍 108동 904호","category":"학원 - 보습학원"},{"name":"파인리베어린이집[아이행복]","tel":"031-658-9814","addr":"경기도 안성시 공도읍 만정리 880번지 디자인시티블루밍 108동 104호","category":"학원 - 유아원"},{"name":"파인리베어린이집[아이행복]","tel":"","addr":"경기도 안성시 공도읍 만정리 880번지 디자인시티블루밍 108동 104호","category":"학원 - 유아원"},{"name":"확인영어 안성공도센터","tel":"031-8050-8359","addr":"경기도 안성시 공도읍 만정리 880번지 디자인시티블루밍 108동 103호","category":"학원 - 기타 교육기관"}]},{"lat":"36.998687497","long":"127.16830454","items":[{"name":"콜세탁","tel":"031-655-2907","addr":"경기도 안성시 공도읍 만정리 426-6번지","category":"수리서비스 - 세탁소"}]},{"lat":"37.003220569","long":"127.18030188","items":[{"name":"큐브(CUBE)","tel":"","addr":"경기도 안성시 공도읍 만정리 205-32번지 전체","category":"자동차정비 유지 - 카인테리어"}]},{"lat":"36.999243513","long":"127.17019309","items":[{"name":"큰맘할매순대국 안성공도점","tel":"031-654-6188","addr":"경기도 안성시 공도읍 만정리 417-29번지 1층","category":"일반휴게음식 - 일반한식"}]},{"lat":"37.00147052","long":"127.16922057","items":[{"name":"클라라음악학원","tel":"031-658-0772","addr":"경기도 안성시 공도읍 만정리 803-1번지 1층","category":"학원 - 예·체능계학원"},{"name":"클라라음악학원","tel":"031-658-0772","addr":"경기도 안성시 공도읍 만정리 803-1번지 은성빌 101호","category":"학원 - 예·체능계학원"}]},{"lat":"37.003657443","long":"127.17735936","items":[{"name":"타이어 시즌","tel":"031-654-0000","addr":"경기도 안성시 공도읍 만정리 279-15번지","category":"자동차정비 유지 - 자동차시트·타이어"}]},{"lat":"36.998857931","long":"127.16885539","items":[{"name":"타이어공도점","tel":"031-653-9815","addr":"경기도 안성시 공도읍 만정리 417-117번지","category":"자동차정비 유지 - 자동차시트·타이어"}]},{"lat":"37.000163974","long":"127.16921772","items":[{"name":"토시래 공도점","tel":"031-651-7825","addr":"경기도 안성시 공도읍 만정리 814-5번지 1층","category":"일반휴게음식 - 일반한식"}]},{"lat":"37.003827005","long":"127.178472","items":[{"name":"토이박사","tel":"031-691-2260","addr":"경기도 안성시 공도읍 만정리 205-13번지 1층","category":"서적문구 - 완구점"}]},{"lat":"37.001190606","long":"127.16963564","items":[{"name":"토프레소 공도점","tel":"031-652-0387","addr":"경기도 안성시 공도읍 만정리 804-6번지 1층","category":"일반휴게음식 - 서양음식"}]},{"lat":"36.998757293","long":"127.17622476","items":[{"name":"튼튼어린이집[아이행복]","tel":"031-654-1551","addr":"경기도 안성시 공도읍 만정리 880번지 디자인시티블루밍 104동 102호","category":"학원 - 유아원"}]},{"lat":"37.000492341","long":"127.1727685","items":[{"name":"튼튼영어안성대리점","tel":"031-654-4058","addr":"경기도 안성시 공도읍 만정리 424-15번지 201호","category":"회원제형태 - 서적"}]},{"lat":"37.000047071","long":"127.16904895","items":[{"name":"티바두마리치킨","tel":"031-656-6578","addr":"경기도 안성시 공도읍 만정리 814-3번지 1층","category":"일반휴게음식 - 스넥"}]},{"lat":"37.000882914","long":"127.17057866","items":[{"name":"파도수산","tel":"031-691-8782","addr":"경기도 안성시 공도읍 만정리 806-5번지 1층","category":"일반휴게음식 - 일식·회집"}]},{"lat":"37.003578329","long":"127.18207782","items":[{"name":"팜스틸(주)","tel":"031-658-8200","addr":"경기도 안성시 공도읍 만정리 197","category":"농업 - 농기계"}]},{"lat":"36.99893591","long":"127.17731488","items":[{"name":"포시즌시스템","tel":"","addr":"경기도 안성시 공도읍 만정리 880번지 디자인시티블루밍 106동 802호","category":"용역 서비스 - 기타용역서비스"}]},{"lat":"37.000272605","long":"127.16885846","items":[{"name":"포트오브모카","tel":"070-8181-0655","addr":"경기도 안성시 공도읍 만정리 813-5번지 1층","category":"일반휴게음식 - 서양음식"}]},{"lat":"37.003626242","long":"127.17403378","items":[{"name":"풍년청과","tel":"031-573-8898","addr":"경기도 안성시 공도읍 만정리 788-4번지 경기도시공사참아름 502동 603호","category":"음료식품 - 농·축·수산품"}]},{"lat":"37.000777124","long":"127.16891573","items":[{"name":"피자에땅","tel":"031-651-8988","addr":"경기도 안성시 공도읍 만정리 810-1번지","category":"일반휴게음식 - 서양음식"},{"name":"호식이두마리치킨 공도점","tel":"031-692-9922","addr":"경기도 안성시 공도읍 만정리 810-1번지 1층","category":"일반휴게음식 - 스넥"}]},{"lat":"37.000164744","long":"127.16866724","items":[{"name":"피플컬러#","tel":"070-4153-1234","addr":"경기도 안성시 공도읍 만정리 813-3번지 상가 101호","category":"보건위생 - 미용재료"}]},{"lat":"37.001082746","long":"127.16944441","items":[{"name":"필라프에빠지다","tel":"031-618-1011","addr":"경기도 안성시 공도읍 만정리 804-3번지","category":"일반휴게음식 - 서양음식"}]},{"lat":"36.998935785","long":"127.17115856","items":[{"name":"하나약국","tel":"031-652-6368","addr":"경기도 안성시 공도읍 만정리 424-43번지 외1필지","category":"약국 - 약국"},{"name":"향기노래방","tel":"070-8964-6414","addr":"경기도 안성시 공도읍 만정리 424-43","category":"레저업소 - 노 래 방"}]},{"lat":"37.001549306","long":"127.17086098","items":[{"name":"하이트맥스비어뱅","tel":"031-652-5845","addr":"경기도 안성시 공도읍 만정리 807-6","category":"일반휴게음식 - 주점"}]},{"lat":"36.999242657","long":"127.17079974","items":[{"name":"한세유통내정육코너","tel":"031-651-8093","addr":"경기도 안성시 공도읍 만정리 422","category":"음료식품 - 정육점"}]},{"lat":"37.007413453","long":"127.17213225","items":[{"name":"한울유치원[아이행복]","tel":"031-653-5311","addr":"경기도 안성시 공도읍 만정리 777-3","category":"학원 - 유치원"}]},{"lat":"37.005330241","long":"127.17335226","items":[{"name":"해법독서논술","tel":"031-000-0000","addr":"경기도 안성시 공도읍 만정리 785-6번지 안성공도금호어울림 상가동 103호","category":"학원 - 보습학원"}]},{"lat":"37.000811969","long":"127.1760609","items":[{"name":"해피트리 공부방","tel":"031-618-3980","addr":"경기도 안성시 공도읍 만정리 880번지 디자인시티블루밍 116동 103호","category":"학원 - 기타 교육기관"}]},{"lat":"37.001604781","long":"127.16986123","items":[{"name":"헤어바이지니","tel":"031-655-9308","addr":"경기도 안성시 공도읍 만정리 801-5번지","category":"보건위생 - 미용원"}]},{"lat":"37.007323515","long":"127.18422133","items":[{"name":"헤어사랑","tel":"031-656-3828","addr":"경기도 안성시 공도읍 만정리 149-8번지","category":"보건위생 - 미용원"}]},{"lat":"36.999970076","long":"127.17252019","items":[{"name":"현대정형외과의원","tel":"031-656-3114","addr":"경기도 안성시 공도읍 만정리 424-55번지","category":"의원 - 의원"}]},{"lat":"37.000299826","long":"127.16872371","items":[{"name":"형님갈비 아우닭발","tel":"031-618-0556","addr":"경기도 안성시 공도읍 만정리 813-2번지 가동 1층","category":"일반휴게음식 - 일반한식"}]},{"lat":"37.006157636","long":"127.18649931","items":[{"name":"환영농원","tel":"031-691-1084","addr":"경기도 안성시 공도읍 만정리 746-3번지","category":"음료식품 - 농·축·수산품"}]},{"lat":"36.999163239","long":"127.16960874","items":[{"name":"흥진모바일","tel":"0031-0652-8588","addr":"경기도 안성시 공도읍 만정리 417-75번지","category":"별도관리 - 자체물품대금"}]}]