[{"lat":"37.086063904","long":"126.94159702","items":[{"name":"(주)서린환경과학","tel":"031-8043-2686","addr":"경기도 화성시 양감면 대양리 434번지","category":"용역 서비스 - 종합용역"}]},{"lat":"37.087479495","long":"126.92757059","items":[{"name":"(주)자연건강그신비를캐는사람들","tel":"031-8059-2733","addr":"경기도 화성시 양감면 대양리 698-11번지 (주)자연건강그신비를캐는사람들","category":"건강식품 - 기타건강식품"}]},{"lat":"37.088783116","long":"126.93788318","items":[{"name":"1급선영자동차공업사","tel":"031-353-1411","addr":"경기도 화성시 양감면 대양리 785-1번지","category":"자동차정비 유지 - 자동차정비"}]},{"lat":"37.094956083","long":"126.93923896","items":[{"name":"24시 카오딩 왕표","tel":"","addr":"경기도 화성시 양감면 대양리 979-3번지 B동","category":"자동차정비 유지 - 자동차부품"}]},{"lat":"37.088199592","long":"126.94195521","items":[{"name":"경기 천막 건축","tel":"031-366-3494","addr":"경기도 화성시 양감면 대양리 502-2번지 상가 1,2동","category":"직물 - 카페트,커튼,천막,지물"},{"name":"찌개전문점","tel":"031-352-3351","addr":"경기도 화성시 양감면 대양리 502-2번지","category":"일반휴게음식 - 일반한식"}]},{"lat":"37.083479247","long":"126.94432078","items":[{"name":"경기종합공기구상사","tel":"031-354-1120","addr":"경기도 화성시 양감면 대양리 396-34번지","category":"기타 - 기계공구"},{"name":"양감이발관","tel":"031-353-9355","addr":"경기도 화성시 양감면 대양리 396-34","category":"보건위생 - 이용원"},{"name":"양감전기모터","tel":"031-352-7625","addr":"경기도 화성시 양감면 대양리 396-34","category":"수리서비스 - 기타수리서비스"}]},{"lat":"37.088894116","long":"126.92751296","items":[{"name":"고갯마루 한식부페","tel":"031-8059-1191","addr":"경기도 화성시 양감면 대양리 698-15번지","category":"일반휴게음식 - 일반한식"}]},{"lat":"37.087956283","long":"126.94191042","items":[{"name":"공단진로마트","tel":"031-353-8380","addr":"경기도 화성시 양감면 대양리 502-7번지","category":"유통업 영리 - 슈퍼마켓"},{"name":"못말리는파닭","tel":"031-353-8222","addr":"경기도 화성시 양감면 대양리 502-7번지","category":"일반휴게음식 - 일반한식"},{"name":"못말리는파닭","tel":"031-353-8222","addr":"경기도 화성시 양감면 대양리 502-7번지","category":"일반휴게음식 - 일반한식"}]},{"lat":"37.093559478","long":"126.93929637","items":[{"name":"국제콘크리트","tel":"031-366-2169","addr":"경기도 화성시 양감면 대양리 947번지 외1필지","category":"건축자재 - 기타건축자재"}]},{"lat":"37.104864471","long":"126.93351577","items":[{"name":"금강엔지니어링","tel":"031-893-6357","addr":"경기도 화성시 양감면 대양리 1225-6번지","category":"기타 - 기계공구"}]},{"lat":"37.087702882","long":"126.93979614","items":[{"name":"달구지","tel":"031-354-2893","addr":"경기도 화성시 양감면 대양리 522-4","category":"자동차정비 유지 - 자동차정비"},{"name":"삼원루브켐","tel":"031-366-2937","addr":"경기도 화성시 양감면 대양리 522-4번지 가동","category":"기타 - 기타 전문점"},{"name":"현 동물약품","tel":"031-8059-6438","addr":"경기도 화성시 양감면 대양리 522-4번지","category":"기타의료기관 - 동물병원"}]},{"lat":"37.103981472","long":"126.93357283","items":[{"name":"대성산업가스","tel":"031-366-0195","addr":"경기도 화성시 양감면 대양리 1225-22번지","category":"연료판매점 - LPG 취급점"}]},{"lat":"37.087538868","long":"126.93645585","items":[{"name":"대한,대흥종합가스","tel":"031-359-8700","addr":"경기도 화성시 양감면 대양리 529-3번지 101호","category":"연료판매점 - LPG 취급점"}]},{"lat":"37.091173006","long":"126.94181786","items":[{"name":"대화천막건설","tel":"031-354-1981","addr":"경기도 화성시 양감면 대양리 849-4번지 (849-4,849-5,850-4)","category":"직물 - 카페트,커튼,천막,지물"}]},{"lat":"37.083812527","long":"126.94409559","items":[{"name":"동성농기계","tel":"031-352-7374","addr":"경기도 화성시 양감면 대양리 396-31번지","category":"수리서비스 - 기타수리서비스"}]},{"lat":"37.083650381","long":"126.94418569","items":[{"name":"맛있는아구찜","tel":"031-353-3959","addr":"경기도 화성시 양감면 대양리 396-25번지","category":"일반휴게음식 - 일반한식"},{"name":"원앙떡방아간","tel":"031-353-2390","addr":"경기도 화성시 양감면 대양리 396-25","category":"음료식품 - 제과점"}]},{"lat":"37.094564426","long":"126.94893529","items":[{"name":"명품마대산업","tel":"031-353-4330","addr":"경기도 화성시 양감면 대양리 79번지 1호","category":"유통업 영리 - 기타유통업"}]},{"lat":"37.101038308","long":"126.93943636","items":[{"name":"버섯농장","tel":"","addr":"경기도 화성시 양감면 대양리 1431번지","category":"음료식품 - 농·축·수산품"}]},{"lat":"37.085532964","long":"126.94293583","items":[{"name":"부돈식당","tel":"031-352-0054","addr":"경기도 화성시 양감면 대양리 423-1번지","category":"일반휴게음식 - 일반한식"}]},{"lat":"37.083283971","long":"126.93313057","items":[{"name":"삼정바이오솔루션(주)","tel":"031-8059-3244","addr":"경기도 화성시 양감면 대양리 555-3번지 5,6","category":"보건위생 - 의료용품"}]},{"lat":"37.098010024","long":"126.93806653","items":[{"name":"새벽부터해장국","tel":"031-352-7420","addr":"경기도 화성시 양감면 대양리 1189-1번지","category":"일반휴게음식 - 일반한식"},{"name":"올챙이가족노래연습장","tel":"031-353-1936","addr":"경기도 화성시 양감면 대양리 1189-1번지","category":"레저업소 - 노 래 방"},{"name":"올챙이수산","tel":"031-8059-0255","addr":"경기도 화성시 양감면 대양리 1189-1번지 1층","category":"일반휴게음식 - 일반한식"}]},{"lat":"37.095560251","long":"126.94010458","items":[{"name":"서스빌","tel":"031-354-7976","addr":"경기도 화성시 양감면 대양리 983번지","category":"자동차정비 유지 - 자동차부품"},{"name":"영진DPF클리닉","tel":"031-352-1980","addr":"경기도 화성시 양감면 대양리 983번지","category":"자동차정비 유지 - 자동차부품"}]},{"lat":"37.088782732","long":"126.93718584","items":[{"name":"선재포장","tel":"031-359-8593","addr":"경기도 화성시 양감면 대양리 778-5","category":"기타 - 기타 전문점"}]},{"lat":"37.086172348","long":"126.94221552","items":[{"name":"성진전기산업","tel":"031-8059-4040","addr":"경기도 화성시 양감면 대양리 421-1번지 1층","category":"전기제품 - 기타전기제품"},{"name":"장모밥상","tel":"031-359-8404","addr":"경기도 화성시 양감면 대양리 421-1","category":"일반휴게음식 - 일반한식"}]},{"lat":"37.09015001","long":"126.95062556","items":[{"name":"솔미어린이집[아이행복]","tel":"031-366-7766","addr":"경기도 화성시 양감면 대양리 196-1","category":"학원 - 유아원"}]},{"lat":"37.088063744","long":"126.94062814","items":[{"name":"씨유화성대양점","tel":"031-898-6567","addr":"경기도 화성시 양감면 대양리 511-1번지","category":"유통업 영리 - 편 의 점"},{"name":"채플린노래연습장","tel":"031-354-0809","addr":"경기도 화성시 양감면 대양리 511-1번지","category":"레저업소 - 노 래 방"}]},{"lat":"37.087451715","long":"126.94195581","items":[{"name":"양감플라워","tel":"031-353-2710","addr":"경기도 화성시 양감면 대양리 503-4번지","category":"문화.취미 - 화원"}]},{"lat":"37.096677618","long":"126.94021614","items":[{"name":"에이스타이어","tel":"031-8059-4661","addr":"경기도 화성시 양감면 대양리 1112-2번지","category":"자동차정비 유지 - 자동차시트·타이어"}]},{"lat":"37.088310287","long":"126.93049408","items":[{"name":"여물식당","tel":"031-354-3183","addr":"경기도 화성시 양감면 대양리 739","category":"일반휴게음식 - 일반한식"}]},{"lat":"37.089482683","long":"126.94940004","items":[{"name":"영진식품,기계","tel":"031-000-0000","addr":"경기도 화성시 양감면 대양리 200-1번지 B동","category":"음료식품 - 기타음료식품"}]},{"lat":"37.097703745","long":"126.93821302","items":[{"name":"오라편의점","tel":"031-366-0403","addr":"경기도 화성시 양감면 대양리 1180-1번지","category":"음료식품 - 기타음료식품"}]},{"lat":"37.097145898","long":"126.93970957","items":[{"name":"원일주유소","tel":"031-352-6699","addr":"경기도 화성시 양감면 대양리 1108-6번지","category":"연료판매점 - SK가스충전소"},{"name":"원일주유소","tel":"031-352-6699","addr":"경기도 화성시 양감면 대양리 1108-6번지","category":"연료판매점 - SK주유소"}]},{"lat":"37.095172618","long":"126.93976745","items":[{"name":"웰빙마트","tel":"070-4250-6664","addr":"경기도 화성시 양감면 대양리 982번지 C동 1층","category":"유통업 영리 - 슈퍼마켓"}]},{"lat":"37.094992473","long":"126.93989133","items":[{"name":"웰빙부페식당","tel":"031-352-6665","addr":"경기도 화성시 양감면 대양리 982번지 3동","category":"일반휴게음식 - 일반한식"}]},{"lat":"37.098566231","long":"126.93373525","items":[{"name":"유원이엔씨","tel":"031-8059-6457","addr":"경기도 화성시 양감면 대양리 1268-3번지","category":"용역 서비스 - 기타용역서비스"}]},{"lat":"37.086064502","long":"126.94276671","items":[{"name":"이모네식당","tel":"031-354-0998","addr":"경기도 화성시 양감면 대양리 426-5번지","category":"일반휴게음식 - 일반한식"}]},{"lat":"37.092060663","long":"126.93381989","items":[{"name":"주식회사지케이리싸이클링","tel":"031-663-0447","addr":"경기도 화성시 양감면 대양리 769-17번지","category":"신변잡화 - 기타잡화"}]},{"lat":"37.088455641","long":"126.93246223","items":[{"name":"창성중기","tel":"031-354-4745","addr":"경기도 화성시 양감면 대양리 749","category":"기타 - 기타 전문점"}]},{"lat":"37.086397882","long":"126.94274395","items":[{"name":"청호천막","tel":"031-366-5740","addr":"경기도 화성시 양감면 대양리 426-3","category":"직물 - 카페트,커튼,천막,지물"}]},{"lat":"37.087649663","long":"126.94140454","items":[{"name":"타이스마일","tel":"031-8059-1346","addr":"경기도 화성시 양감면 대양리 503-1번지","category":"일반휴게음식 - 서양음식"}]},{"lat":"37.097398634","long":"126.94054176","items":[{"name":"퓨전한식부페","tel":"031-352-8848","addr":"경기도 화성시 양감면 대양리 1114번지","category":"일반휴게음식 - 일반한식"},{"name":"퓨전한식부페","tel":"031-352-8848","addr":"경기도 화성시 양감면 대양리 1114번지","category":"일반휴게음식 - 일반한식"}]},{"lat":"37.088367357","long":"126.93560032","items":[{"name":"하이파츠","tel":"031-691-1316","addr":"경기도 화성시 양감면 대양리 782번지 나동","category":"자동차정비 유지 - 자동차부품"}]},{"lat":"37.087254601","long":"126.92815567","items":[{"name":"현대샤링","tel":"031-377-1003","addr":"경기도 화성시 양감면 대양리 698-13","category":"건축자재 - 목재·석재·철물"}]},{"lat":"37.095866651","long":"126.94018307","items":[{"name":"화성서비스","tel":"031-359-8812","addr":"경기도 화성시 양감면 대양리 1121번지","category":"자동차정비 유지 - 자동차정비"},{"name":"화성서비스","tel":"031-359-8812","addr":"경기도 화성시 양감면 대양리 1121번지","category":"자동차정비 유지 - 자동차부품"}]}]