[{"lat":"37.389113001","long":"126.95114145","items":[{"name":"(주)스킨포유안양지점/에스앤비코리아주식","tel":"031-478-5055","addr":"경기도 안양시 동안구 동안로","category":"회원제형태 - 기타1"},{"name":"베루스","tel":"031-380-1315","addr":"경기도 안양시 동안구 동안로","category":"의류 - 기타의류"}]},{"lat":"37.403473332","long":"126.94728023","items":[{"name":"S&K스포츠재활센터","tel":"031-381-1288","addr":"경기도 안양시 동안구 동안로","category":"기타의료기관 - 기타의료기관 및 기타"},{"name":"베짱이","tel":"031-384-5378","addr":"경기도 안양시 동안구 동안로","category":"일반휴게음식 - 주점"}]},{"lat":"37.388528368","long":"126.95353576","items":[{"name":"닥터하우스","tel":"031-381-0025","addr":"경기도 안양시 동안구 동안로","category":"건축자재 - 인테리어전문"}]},{"lat":"37.39422125","long":"126.95006511","items":[{"name":"달안어린이집[아이행복]","tel":"031-425-2644","addr":"경기도 안양시 동안구 동안로","category":"학원 - 유아원"}]},{"lat":"37.380086733","long":"126.95558492","items":[{"name":"매직플루트","tel":"031-388-1413","addr":"경기도 안양시 동안구 동안로","category":"레져용품 - 악기점"}]},{"lat":"37.396446217","long":"126.94890035","items":[{"name":"숙토탈","tel":"031-384-8959","addr":"경기도 안양시 동안구 동안로","category":"의류 - 정장"}]},{"lat":"37.402734303","long":"126.94685159","items":[{"name":"엘골프","tel":"070-8825-0570","addr":"경기도 안양시 동안구 동안로","category":"회원제형태 - 기타4"}]},{"lat":"37.38947385","long":"126.95216879","items":[{"name":"엠엔엠피부관리","tel":"070-4152-4144","addr":"경기도 안양시 동안구 동안로","category":"보건위생 - 화장품"}]},{"lat":"37.380330772","long":"126.95753808","items":[{"name":"우리집앞윤선생영어신기영어교습소","tel":"031-382-4004","addr":"경기도 안양시 동안구 동안로","category":"학원 - 보습학원"}]},{"lat":"37.402274062","long":"126.94533853","items":[{"name":"치킨마루삼호뉴타운점","tel":"031-382-0101","addr":"경기도 안양시 동안구 동안로","category":"일반휴게음식 - 스넥"}]},{"lat":"37.400219671","long":"126.94514811","items":[{"name":"코리아숯불바베큐","tel":"031-386-9229","addr":"경기도 안양시 동안구 동안로","category":"일반휴게음식 - 주점"}]},{"lat":"37.3961388","long":"126.94659676","items":[{"name":"튼튼어린이집[아이행복]","tel":"031-384-0369","addr":"경기도 안양시 동안구 동안로","category":"학원 - 유아원"}]},{"lat":"37.387779615","long":"126.95139079","items":[{"name":"한우리목련일단지논술교습소","tel":"031-381-6652","addr":"경기도 안양시 동안구 동안로","category":"회원제형태 - 학원"}]},{"lat":"37.388591687","long":"126.9541342","items":[{"name":"해맑음어린이집[아이행복]","tel":"031-382-5156","addr":"경기도 안양시 동안구 동안로","category":"학원 - 유아원"}]},{"lat":"37.401571912","long":"126.94666046","items":[{"name":"행복가득어린이집[아이행복]","tel":"031-381-9447","addr":"경기도 안양시 동안구 동안로","category":"학원 - 유아원"}]}]