[{"lat":"37.841412105","long":"126.78095029","items":[{"name":"(주)아워홈 LG이노텍파주공장점","tel":"02-6966-9049","addr":"경기도 파주시 문산읍 내포리 1633번지","category":"일반휴게음식 - 위탁급식업"},{"name":"LG마트","tel":"070-8276-7774","addr":"경기도 파주시 문산읍 내포리 1633번지","category":"음료식품 - 기타음료식품"},{"name":"LG이노텍어린이집[아이행복]","tel":"070-8725-4147","addr":"경기도 파주시 문산읍 내포리 1633번지","category":"학원 - 유아원"},{"name":"이노매점","tel":"031-937-0179","addr":"경기도 파주시 문산읍 내포리 1633번지","category":"음료식품 - 기타음료식품"},{"name":"이노카페","tel":"031-111-1111","addr":"경기도 파주시 문산읍 내포리 1633번지","category":"일반휴게음식 - 서양음식"}]},{"lat":"37.840717703","long":"126.74936992","items":[{"name":"(주)에이스글로벌","tel":"070-4245-8905","addr":"경기도 파주시 문산읍 내포리 889-2번지","category":"사무통신 - 컴퓨터"}]},{"lat":"37.846861101","long":"126.7707313","items":[{"name":"(주)현수건설","tel":"02-6340-5359","addr":"경기도 파주시 문산읍 내포리 391-1","category":"용역 서비스 - 기타용역서비스"}]},{"lat":"37.850888731","long":"126.76642378","items":[{"name":"52편의점","tel":"031-000-0000","addr":"경기도 파주시 문산읍 내포리 522-1번지","category":"유통업 영리 - 편 의 점"},{"name":"행복한육화축산","tel":"031-111-1111","addr":"경기도 파주시 문산읍 내포리 522-1번지","category":"음료식품 - 정육점"}]},{"lat":"37.840214418","long":"126.75417714","items":[{"name":"SNM화예조형디자인","tel":"031-906-3939","addr":"경기도 파주시 문산읍 내포리 762번지","category":"건축자재 - 인테리어전문"}]},{"lat":"37.847440052","long":"126.7673778","items":[{"name":"꼬마천국어린이집[아이행복]","tel":"031-953-2322","addr":"경기도 파주시 문산읍 내포리 533번지","category":"학원 - 유아원"}]},{"lat":"37.83774424","long":"126.77567881","items":[{"name":"나노7","tel":"070-7583-6663","addr":"경기도 파주시 문산읍 내포리 265-42","category":"광학제품 - 기타광학제품"}]},{"lat":"37.838551408","long":"126.7784596","items":[{"name":"내포반점","tel":"031-954-9931","addr":"경기도 파주시 문산읍 내포리 1634-2번지","category":"일반휴게음식 - 중국식"},{"name":"맛집고기배달 연희네동태매운탕","tel":"070-7717-3342","addr":"경기도 파주시 문산읍 내포리 1634-2번지","category":"일반휴게음식 - 일반한식"},{"name":"와우마트","tel":"031-1111-1111","addr":"경기도 파주시 문산읍 내포리 1634-2번지","category":"유통업 영리 - 슈퍼마켓"},{"name":"이첼","tel":"070-7817-1004","addr":"경기도 파주시 문산읍 내포리 1634-2번지","category":"신변잡화 - 기타잡화"},{"name":"이첼","tel":"070-7817-1004","addr":"경기도 파주시 문산읍 내포리 1634-2번지","category":"일반휴게음식 - 서양음식"},{"name":"전국노래연습장","tel":"031-953-9535","addr":"경기도 파주시 문산읍 내포리 1634-2번지","category":"레저업소 - 노 래 방"},{"name":"향가네닭한마리","tel":"031-952-3934","addr":"경기도 파주시 문산읍 내포리 1634-2번지","category":"일반휴게음식 - 일반한식"},{"name":"헬스리빙","tel":"031-954-0070","addr":"경기도 파주시 문산읍 내포리 1634-2번지","category":"신변잡화 - 기타잡화"}]},{"lat":"37.839167192","long":"126.78011635","items":[{"name":"노방빌","tel":"031-768-0708","addr":"경기도 파주시 문산읍 내포리 1635-3번지","category":"유통업 영리 - 편 의 점"}]},{"lat":"37.841802834","long":"126.75548965","items":[{"name":"더트리","tel":"031-944-7845","addr":"경기도 파주시 문산읍 내포리 866번지","category":"가구 - 일반가구"}]},{"lat":"37.845576879","long":"126.75506804","items":[{"name":"디엠지(DMZ)카페","tel":"031-952-7920","addr":"경기도 파주시 문산읍 내포리 821-10번지","category":"일반휴게음식 - 일반한식"},{"name":"따뜻한 집밥","tel":"031-953-0990","addr":"경기도 파주시 문산읍 내포리 821-10번지","category":"일반휴게음식 - 일반한식"}]},{"lat":"37.838022059","long":"126.77961995","items":[{"name":"마파치킨","tel":"031-953-7588","addr":"경기도 파주시 문산읍 내포리 1637-7번지","category":"일반휴게음식 - 스넥"}]},{"lat":"37.848189715","long":"126.76384192","items":[{"name":"메밀향","tel":"031-952-9293","addr":"경기도 파주시 문산읍 내포리 569-3번지","category":"일반휴게음식 - 일반한식"}]},{"lat":"37.841104223","long":"126.74895961","items":[{"name":"메탈디자인","tel":"031-855-9725","addr":"경기도 파주시 문산읍 내포리 890번지","category":"가구 - 기타가구"}]},{"lat":"37.84416669","long":"126.77503425","items":[{"name":"모모노리","tel":"031-953-4339","addr":"경기도 파주시 문산읍 내포리 236-1번지","category":"회원제형태 - 학원"}]},{"lat":"37.849164816","long":"126.7648727","items":[{"name":"산약초 한방백숙","tel":"031-952-1188","addr":"경기도 파주시 문산읍 내포리 554-6번지","category":"일반휴게음식 - 일반한식"}]},{"lat":"37.840883018","long":"126.75940078","items":[{"name":"산이담은집","tel":"031-957-1888","addr":"경기도 파주시 문산읍 내포리 781-2번지","category":"건강식품 - 기타건강식품"}]},{"lat":"37.838221104","long":"126.78006239","items":[{"name":"삼시세끼","tel":"031-947-0921","addr":"경기도 파주시 문산읍 내포리 1638-10번지","category":"일반휴게음식 - 일반한식"}]},{"lat":"37.851663098","long":"126.76620542","items":[{"name":"샤이니 스팀 카케어","tel":"","addr":"경기도 파주시 문산읍 내포리 517-1번지","category":"자동차정비 유지 - 카인테리어"},{"name":"홍카 (HONG CAR)","tel":"031-954-9954","addr":"경기도 파주시 문산읍 내포리 517-1번지","category":"자동차정비 유지 - 자동차정비"}]},{"lat":"37.845104955","long":"126.77570168","items":[{"name":"시우산업","tel":"054-634-1011","addr":"경기도 파주시 문산읍 내포리 230-17번지","category":"신변잡화 - 기타잡화"}]},{"lat":"37.841526705","long":"126.7485151","items":[{"name":"신비체테라피","tel":"02-518-9939","addr":"경기도 파주시 문산읍 내포리 891-1번지","category":"보건위생 - 화장품"}]},{"lat":"37.839104396","long":"126.75329476","items":[{"name":"신흥건조기대리점","tel":"031-953-2131","addr":"경기도 파주시 문산읍 내포리 758","category":"농업 - 농기계"}]},{"lat":"37.841298411","long":"126.77800821","items":[{"name":"아톰윤활유","tel":"031-944-1710","addr":"경기도 파주시 문산읍 내포리 249번지","category":"연료판매점 - 유류판매"}]},{"lat":"37.838498886","long":"126.77926634","items":[{"name":"이삭","tel":"031-954-8484","addr":"경기도 파주시 문산읍 내포리 1636-2번지","category":"보건위생 - 미용원"}]},{"lat":"37.838498303","long":"126.77895962","items":[{"name":"제이제이(JJ)당구클럽","tel":"031-953-0660","addr":"경기도 파주시 문산읍 내포리 1636-9번지","category":"레저업소 - 당 구 장"}]},{"lat":"37.838022898","long":"126.78006299","items":[{"name":"종로","tel":"031-952-9399","addr":"경기도 파주시 문산읍 내포리 1638-9번지","category":"일반휴게음식 - 일반한식"}]},{"lat":"37.846217367","long":"126.7686769","items":[{"name":"주식회사 스카이웍스","tel":"02-712-7284","addr":"경기도 파주시 문산읍 내포리 382-1번지","category":"사무통신 - 컴퓨터"}]},{"lat":"37.846942185","long":"126.77073104","items":[{"name":"주식회사 오블라디","tel":"031-954-1836","addr":"경기도 파주시 문산읍 내포리 391-21번지","category":"숙박업 - 여관/기타숙박업"}]},{"lat":"37.836774017","long":"126.77247827","items":[{"name":"주식회사 올마이카","tel":"031-1522-8216","addr":"경기도 파주시 문산읍 내포리 325번지","category":"용역 서비스 - 소프트웨어"}]},{"lat":"37.844492593","long":"126.76668278","items":[{"name":"주식회사 제이에스공연산업","tel":"02-525-9446","addr":"경기도 파주시 문산읍 내포리 592-3번지","category":"용역 서비스 - 기타용역서비스"}]},{"lat":"37.837580601","long":"126.77962128","items":[{"name":"착한식당","tel":"","addr":"경기도 파주시 문산읍 내포리 1640번지","category":"일반휴게음식 - 일반한식"}]},{"lat":"37.852519987","long":"126.76670263","items":[{"name":"청도건축","tel":"031-954-2377","addr":"경기도 파주시 문산읍 내포리 1096번지","category":"용역 서비스 - 기타용역서비스"}]},{"lat":"37.846082085","long":"126.77784599","items":[{"name":"초록별숲유치원","tel":"031-953-3011","addr":"경기도 파주시 문산읍 내포리 221-2번지","category":"학원 - 유치원"},{"name":"초록별숲유치원[아이행복]","tel":"031-953-3011","addr":"경기도 파주시 문산읍 내포리 221-2번지","category":"학원 - 유치원"}]},{"lat":"37.848916124","long":"126.76664595","items":[{"name":"캠프","tel":"031-111-1111","addr":"경기도 파주시 문산읍 내포리 534-3번지","category":"일반휴게음식 - 일반한식"}]},{"lat":"37.837580967","long":"126.7798144","items":[{"name":"파주커피공작소","tel":"031-954-1249","addr":"경기도 파주시 문산읍 내포리 1640-1번지","category":"일반휴게음식 - 서양음식"}]},{"lat":"37.847610066","long":"126.76234405","items":[{"name":"풍천뻘장어","tel":"031-952-0110","addr":"경기도 파주시 문산읍 내포리 574-1번지","category":"일반휴게음식 - 일반한식"}]},{"lat":"37.838191986","long":"126.77896054","items":[{"name":"후라멘","tel":"031-949-0000","addr":"경기도 파주시 문산읍 내포리 1636-8번지","category":"일반휴게음식 - 일식·회집"}]},{"lat":"37.849713948","long":"126.76465506","items":[{"name":"흑염소도마수육","tel":"031-952-0118","addr":"경기도 파주시 문산읍 내포리 553-4번지","category":"일반휴게음식 - 일반한식"}]}]