[{"lat":"37.395247741","long":"126.97433314","items":[{"name":"LYS컬렉션","tel":"031-426-9490","addr":"경기도 안양시 동안구 흥안대로","category":"레져용품 - 스포츠·레져용품"}]},{"lat":"37.382416215","long":"126.96994576","items":[{"name":"경기청과","tel":"031-422-0188","addr":"경기도 안양시 동안구 흥안대로","category":"음료식품 - 농·축·수산품"},{"name":"과일아지매","tel":"070-4245-5118","addr":"경기도 안양시 동안구 흥안대로","category":"음료식품 - 농·축·수산품"},{"name":"두현상회","tel":"","addr":"경기도 안양시 동안구 흥안대로","category":"유통업 영리 - 농축수산 가공품"},{"name":"미소유통","tel":"031-427-1711","addr":"경기도 안양시 동안구 흥안대로","category":"유통업 영리 - 농축수산 가공품"},{"name":"베스트상회","tel":"070-8776-4877","addr":"경기도 안양시 동안구 흥안대로","category":"유통업 영리 - 농축수산 가공품"},{"name":"싱싱가정의원","tel":"031-426-9505","addr":"경기도 안양시 동안구 흥안대로","category":"의원 - 의원"},{"name":"율이청과","tel":"031-344-9006","addr":"경기도 안양시 동안구 흥안대로","category":"음료식품 - 농·축·수산품"},{"name":"은진상회","tel":"031-421-9565","addr":"경기도 안양시 동안구 흥안대로","category":"음료식품 - 농·축·수산품"},{"name":"진도청과","tel":"031-340-9788","addr":"경기도 안양시 동안구 흥안대로","category":"음료식품 - 농·축·수산품"},{"name":"한밭상회","tel":"031-859-3232","addr":"경기도 안양시 동안구 흥안대로","category":"유통업 영리 - 농축수산 가공품"},{"name":"형제청과","tel":"070-7834-0935","addr":"경기도 안양시 동안구 흥안대로","category":"음료식품 - 농·축·수산품"},{"name":"호야청과","tel":"031-422-0122","addr":"경기도 안양시 동안구 흥안대로","category":"음료식품 - 농·축·수산품"},{"name":"흑산도수산","tel":"031-425-0784","addr":"경기도 안양시 동안구 흥안대로","category":"음료식품 - 농·축·수산품"}]},{"lat":"37.369364887","long":"126.95608838","items":[{"name":"광어2마리","tel":"031-442-7777","addr":"경기도 안양시 동안구 흥안대로","category":"일반휴게음식 - 일반한식"},{"name":"호계중고가전","tel":"070-8940-0231","addr":"경기도 안양시 동안구 흥안대로","category":"신변잡화 - 기타잡화"}]},{"lat":"37.399888392","long":"126.9762852","items":[{"name":"김밥과스파게티","tel":"031-424-0963","addr":"경기도 안양시 동안구 흥안대로","category":"일반휴게음식 - 스넥"}]},{"lat":"37.392220495","long":"126.97494409","items":[{"name":"더아이잗 인덕원점","tel":"031-426-6660","addr":"경기도 안양시 동안구 흥안대로","category":"의류 - 스포츠의류"},{"name":"링스골프","tel":"031-424-5945","addr":"경기도 안양시 동안구 흥안대로","category":"의류 - 스포츠의류"},{"name":"지센인덕원점","tel":"031-2246-5634","addr":"경기도 안양시 동안구 흥안대로","category":"의류 - 스포츠의류"},{"name":"클라스마골프 인덕원점","tel":"031-421-4022","addr":"경기도 안양시 동안구 흥안대로","category":"의류 - 스포츠의류"},{"name":"힐링노래연습장","tel":"031-424-9979","addr":"경기도 안양시 동안구 흥안대로","category":"레저업소 - 노 래 방"}]},{"lat":"37.369752724","long":"126.95711546","items":[{"name":"두근두근소야소(안양호계점)","tel":"031-451-7770","addr":"경기도 안양시 동안구 흥안대로","category":"일반휴게음식 - 일반한식"}]},{"lat":"37.394860725","long":"126.97611758","items":[{"name":"두리약국","tel":"031-423-7570","addr":"경기도 안양시 동안구 흥안대로","category":"약국 - 약국"},{"name":"삼성당","tel":"031-444-0736","addr":"경기도 안양시 동안구 흥안대로","category":"신변잡화 - 시계"}]},{"lat":"37.370834625","long":"126.9589211","items":[{"name":"디자인기와&기와코퍼레이션","tel":"031-451-1640","addr":"경기도 안양시 동안구 흥안대로","category":"건축자재 - 인테리어전문"},{"name":"이주선김밥","tel":"031-429-2139","addr":"경기도 안양시 동안구 흥안대로","category":"일반휴게음식 - 스넥"}]},{"lat":"37.368615948","long":"126.95339076","items":[{"name":"로젠호프","tel":"031-453-2939","addr":"경기도 안양시 동안구 흥안대로","category":"일반휴게음식 - 주점"}]},{"lat":"37.395247654","long":"126.97397177","items":[{"name":"마운티아평촌점","tel":"031-421-8236","addr":"경기도 안양시 동안구 흥안대로","category":"레져용품 - 스포츠·레져용품"}]},{"lat":"37.399969722","long":"126.97736937","items":[{"name":"명문한의원","tel":"031-421-9596","addr":"경기도 안양시 동안구 흥안대로","category":"의원 - 한의원"},{"name":"사조회참치(인덕원점)","tel":"031-425-2622","addr":"경기도 안양시 동안구 흥안대로","category":"일반휴게음식 - 일식·회집"},{"name":"올레당구클럽","tel":"031-422-8869","addr":"경기도 안양시 동안구 흥안대로","category":"레저업소 - 당 구 장"}]},{"lat":"37.400167925","long":"126.97727895","items":[{"name":"밀레노래연습장","tel":"031-423-6713","addr":"경기도 안양시 동안구 흥안대로","category":"레저업소 - 노 래 방"}]},{"lat":"37.40024875","long":"126.97608178","items":[{"name":"방아깐통골뱅이","tel":"031-423-2898","addr":"경기도 안양시 동안구 흥안대로","category":"일반휴게음식 - 일반한식"},{"name":"예인이비인후과의원","tel":"031-423-2345","addr":"경기도 안양시 동안구 흥안대로","category":"의원 - 의원"},{"name":"혜준온누리약국","tel":"031-423-7963","addr":"경기도 안양시 동안구 흥안대로","category":"약국 - 약국"}]},{"lat":"37.391300956","long":"126.97286662","items":[{"name":"볼로냐","tel":"031-478-3700","addr":"경기도 안양시 동안구 흥안대로","category":"일반휴게음식 - 서양음식"},{"name":"주식회사알펠로","tel":"031-478-2460","addr":"경기도 안양시 동안구 흥안대로","category":"기타 - 기계공구"}]},{"lat":"37.368778318","long":"126.95384222","items":[{"name":"서진유통","tel":"031-477-2977","addr":"경기도 안양시 동안구 흥안대로","category":"의류 - 내의판매"}]},{"lat":"37.400303083","long":"126.97731279","items":[{"name":"수목댄스스포츠","tel":"031-422-3113","addr":"경기도 안양시 동안구 흥안대로","category":"회원제형태 - 레져업소"}]},{"lat":"37.398690384","long":"126.97781025","items":[{"name":"아로마","tel":"031-422-7879","addr":"경기도 안양시 동안구 흥안대로","category":"보건위생 - 화장품"}]},{"lat":"37.391914139","long":"126.97488774","items":[{"name":"지니헤어(ZINI HAIR)","tel":"031-421-6611","addr":"경기도 안양시 동안구 흥안대로","category":"보건위생 - 미용원"}]},{"lat":"37.396022918","long":"126.97564286","items":[{"name":"코오롱스포츠 평촌점","tel":"031-423-8942","addr":"경기도 안양시 동안구 흥안대로","category":"레져용품 - 스포츠·레져용품"}]},{"lat":"37.398194519","long":"126.97638744","items":[{"name":"펄스캠생활과학","tel":"031-424-5060","addr":"경기도 안양시 동안구 흥안대로","category":"보건위생 - 의료용품"}]},{"lat":"37.37230464","long":"126.96275871","items":[{"name":"평촌라이온스클럽","tel":"031-384-4050","addr":"경기도 안양시 동안구 흥안대로","category":"기타 - 비영리/비대상"}]},{"lat":"37.394473221","long":"126.97581281","items":[{"name":"평촌문고","tel":"031-424-2258","addr":"경기도 안양시 동안구 흥안대로","category":"서적문구 - 일반서적"}]},{"lat":"37.394301682","long":"126.9743335","items":[{"name":"피앤티","tel":"070-8117-6001","addr":"경기도 안양시 동안구 흥안대로","category":"용역 서비스 - 사무서비스"}]}]