[{"lat":"37.809832156","long":"126.75726567","items":[{"name":"BBQ파주LCD단지점","tel":"031-942-6296","addr":"경기도 파주시 탄현면 금승리 11번지","category":"일반휴게음식 - 주점"},{"name":"수불수불","tel":"031-957-9295","addr":"경기도 파주시 탄현면 금승리 11번지","category":"일반휴게음식 - 일반한식"}]},{"lat":"37.809753269","long":"126.75832202","items":[{"name":"Beast Mode(비스트모드)","tel":"031-947-2701","addr":"경기도 파주시 탄현면 금승리 11-37번지","category":"레저업소 - 헬스클럽"},{"name":"연길백옥양꼬치","tel":"070-9980-8020","addr":"경기도 파주시 탄현면 금승리 11-37번지","category":"일반휴게음식 - 일반한식"}]},{"lat":"37.825862436","long":"126.73765353","items":[{"name":"Best OA","tel":"031-944-7745","addr":"경기도 파주시 탄현면 금승리 602-1 1층","category":"사무통신 - 사무용 OA기기"}]},{"lat":"37.825718415","long":"126.73771084","items":[{"name":"GS25파주금승점","tel":"","addr":"경기도 파주시 탄현면 금승리 602-2번지","category":"유통업 영리 - 편 의 점"}]},{"lat":"37.810113007","long":"126.75801423","items":[{"name":"JJ GYM(제이제이짐)","tel":"070-8841-9999","addr":"경기도 파주시 탄현면 금승리 11-59번지","category":"레저업소 - 헬스클럽"},{"name":"YES PC방","tel":"031-946-8315","addr":"경기도 파주시 탄현면 금승리 11-59번지","category":"레저업소 - 기타레져업소"},{"name":"계절따라수산","tel":"031-942-0008","addr":"경기도 파주시 탄현면 금승리 11-59번지","category":"일반휴게음식 - 일식·회집"},{"name":"등짝","tel":"031-942-7614","addr":"경기도 파주시 탄현면 금승리 11-59번지","category":"일반휴게음식 - 일반한식"},{"name":"뱅스테이블 (Bang's table)","tel":"031-826-6237","addr":"경기도 파주시 탄현면 금승리 11-59번지","category":"일반휴게음식 - 일반한식"},{"name":"월롱야시장","tel":"031-945-1205","addr":"경기도 파주시 탄현면 금승리 11-59번지","category":"일반휴게음식 - 일반한식"},{"name":"정담","tel":"070-8845-5858","addr":"경기도 파주시 탄현면 금승리 11-59번지","category":"일반휴게음식 - 일반한식"},{"name":"킴스ll","tel":"02-393-5921","addr":"경기도 파주시 탄현면 금승리 11-59번지","category":"자동차정비 유지 - 주차장"},{"name":"하림각","tel":"031-946-6767","addr":"경기도 파주시 탄현면 금승리 11-59번지","category":"일반휴게음식 - 일반한식"},{"name":"한선생","tel":"070-4849-0626","addr":"경기도 파주시 탄현면 금승리 11-59번지","category":"보건위생 - 미용원"}]},{"lat":"37.828279182","long":"126.73465755","items":[{"name":"SM피앤텍","tel":"031-908-5251","addr":"경기도 파주시 탄현면 금승리 586-2번지","category":"용역 서비스 - 사무서비스"}]},{"lat":"37.824661507","long":"126.7325126","items":[{"name":"sun바라기","tel":"031-948-9589","addr":"경기도 파주시 탄현면 금승리 498-7번지","category":"일반휴게음식 - 서양음식"},{"name":"더오고파","tel":"031-949-0598","addr":"경기도 파주시 탄현면 금승리 498-7번지","category":"일반휴게음식 - 일반한식"}]},{"lat":"37.825023006","long":"126.73696369","items":[{"name":"가마솥 양평해장국","tel":"031-944-4158","addr":"경기도 파주시 탄현면 금승리 391-3번지","category":"일반휴게음식 - 일반한식"},{"name":"빅뱅노래연습장","tel":"031-941-3242","addr":"경기도 파주시 탄현면 금승리 391-3번지","category":"레저업소 - 노 래 방"},{"name":"소래","tel":"031-945-0811","addr":"경기도 파주시 탄현면 금승리 391-3번지","category":"일반휴게음식 - 일반한식"}]},{"lat":"37.810526115","long":"126.75737693","items":[{"name":"가온스크린골프","tel":"","addr":"경기도 파주시 탄현면 금승리 11-66번지","category":"레저업소 - 스크린골프"}]},{"lat":"37.81014119","long":"126.75857057","items":[{"name":"가자pc방","tel":"031-000-0000","addr":"경기도 파주시 탄현면 금승리 11-3번지","category":"레저업소 - 기타레져업소"},{"name":"썸마을포차","tel":"031-944-6237","addr":"경기도 파주시 탄현면 금승리 11-3번지","category":"일반휴게음식 - 주점"},{"name":"썸마을포차","tel":"031-944-6237","addr":"경기도 파주시 탄현면 금승리 11-3번지","category":"일반휴게음식 - 주점"},{"name":"엄마손부대찌개(한식부페)","tel":"031-945-7929","addr":"경기도 파주시 탄현면 금승리 11-3번지","category":"일반휴게음식 - 일반한식"},{"name":"유화컴퍼니","tel":"031-913-6037","addr":"경기도 파주시 탄현면 금승리 11-3번지","category":"서적문구 - 출판 및 인쇄물"}]},{"lat":"37.825220776","long":"126.73676989","items":[{"name":"건아할인마트","tel":"031-943-7225","addr":"경기도 파주시 탄현면 금승리 392-3번지","category":"유통업 영리 - 슈퍼마켓"},{"name":"다담다 어시장","tel":"","addr":"경기도 파주시 탄현면 금승리 392-3번지","category":"일반휴게음식 - 일반한식"},{"name":"명태어장 파주점","tel":"031-948-0036","addr":"경기도 파주시 탄현면 금승리 392-3번지","category":"일반휴게음식 - 일반한식"}]},{"lat":"37.80975216","long":"126.7577883","items":[{"name":"고향집","tel":"031-948-6888","addr":"경기도 파주시 탄현면 금승리 11-10번지","category":"일반휴게음식 - 일반한식"},{"name":"탑바디","tel":"031-944-7372","addr":"경기도 파주시 탄현면 금승리 11-10번지","category":"레저업소 - 헬스클럽"}]},{"lat":"37.808780233","long":"126.75831388","items":[{"name":"구미막창","tel":"031-941-4796","addr":"경기도 파주시 탄현면 금승리 11-7번지","category":"일반휴게음식 - 일반한식"},{"name":"뻐꾸기 식당","tel":"031-944-9881","addr":"경기도 파주시 탄현면 금승리 11-7번지","category":"일반휴게음식 - 일반한식"}]},{"lat":"37.809752915","long":"126.75815169","items":[{"name":"국밥상회","tel":"031-995-9203","addr":"경기도 파주시 탄현면 금승리 11-36번지","category":"일반휴게음식 - 일반한식"},{"name":"엘지마트","tel":"031-000-0000","addr":"경기도 파주시 탄현면 금승리 11-36번지","category":"유통업 영리 - 슈퍼마켓"}]},{"lat":"37.825271925","long":"126.73548623","items":[{"name":"굽다","tel":"031-957-7969","addr":"경기도 파주시 탄현면 금승리 599-2번지","category":"일반휴게음식 - 서양음식"},{"name":"두배로마트 낙하점","tel":"031-949-9945","addr":"경기도 파주시 탄현면 금승리 599-2","category":"유통업 영리 - 슈퍼마켓"},{"name":"탄현면(  )","tel":"031-948-3585","addr":"경기도 파주시 탄현면 금승리 599-2번지","category":"일반휴게음식 - 일반한식"}]},{"lat":"37.810418924","long":"126.75782017","items":[{"name":"글라스스토리 (파주LGD점)","tel":"031-942-5051","addr":"경기도 파주시 탄현면 금승리 11-1번지","category":"보건위생 - 안경"},{"name":"비턴","tel":"031-948-8981","addr":"경기도 파주시 탄현면 금승리 11-1번지","category":"일반휴게음식 - 일반한식"},{"name":"세븐일레븐파주TOP점","tel":"031-1577-0711","addr":"경기도 파주시 탄현면 금승리 11-1번지","category":"유통업 영리 - 편 의 점"},{"name":"홍대칼국수와 족발","tel":"031-941-7787","addr":"경기도 파주시 탄현면 금승리 11-1번지","category":"일반휴게음식 - 일반한식"}]},{"lat":"37.825722082","long":"126.7353483","items":[{"name":"금돼지","tel":"031-942-1561","addr":"경기도 파주시 탄현면 금승리 594-4번지","category":"일반휴게음식 - 일반한식"}]},{"lat":"37.813248322","long":"126.7495093","items":[{"name":"금승식당","tel":"","addr":"경기도 파주시 탄현면 금승리 224-4번지","category":"일반휴게음식 - 일반한식"}]},{"lat":"37.82482959","long":"126.73510165","items":[{"name":"남원추어탕","tel":"031-934-2820","addr":"경기도 파주시 탄현면 금승리 422-13번지","category":"일반휴게음식 - 일반한식"}]},{"lat":"37.820634446","long":"126.74462304","items":[{"name":"다리목 옻닭","tel":"031-942-1740","addr":"경기도 파주시 탄현면 금승리 532-2번지","category":"일반휴게음식 - 일반한식"}]},{"lat":"37.821666495","long":"126.74690233","items":[{"name":"대의종합안전","tel":"031-944-9888","addr":"경기도 파주시 탄현면 금승리 163-1번지","category":"기타 - 기계공구"}]},{"lat":"37.809752514","long":"126.75795864","items":[{"name":"대주횟집","tel":"031-945-4428","addr":"경기도 파주시 탄현면 금승리 11-35번지 라페스타 3동 101호","category":"일반휴게음식 - 일식·회집"},{"name":"더블랭스(THE블랭스)","tel":"031-943-7770","addr":"경기도 파주시 탄현면 금승리 11-35번지","category":"일반휴게음식 - 일반한식"},{"name":"명가촌놈족발보쌈","tel":"031-944-5888","addr":"경기도 파주시 탄현면 금승리 11-35번지","category":"일반휴게음식 - 일반한식"},{"name":"세인트피씨방(PC방)","tel":"","addr":"경기도 파주시 탄현면 금승리 11-35번지","category":"레저업소 - 기타레져업소"}]},{"lat":"37.80939254","long":"126.75815288","items":[{"name":"대패광","tel":"031-945-0911","addr":"경기도 파주시 탄현면 금승리 11-32번지","category":"일반휴게음식 - 일반한식"}]},{"lat":"37.824971202","long":"126.7379634","items":[{"name":"대한타이어","tel":"031-942-6585","addr":"경기도 파주시 탄현면 금승리 389-3번지","category":"자동차정비 유지 - 자동차시트·타이어"}]},{"lat":"37.809391785","long":"126.75778949","items":[{"name":"더알찬쭈꾸미","tel":"031-947-3151","addr":"경기도 파주시 탄현면 금승리 11-9번지","category":"일반휴게음식 - 일반한식"},{"name":"창노래연습장","tel":"031-947-6996","addr":"경기도 파주시 탄현면 금승리 11-9번지","category":"레저업소 - 노 래 방"}]},{"lat":"37.824884575","long":"126.73551034","items":[{"name":"동산만두","tel":"","addr":"경기도 파주시 탄현면 금승리 422-3번지","category":"일반휴게음식 - 스넥"},{"name":"원영공구","tel":"031-924-8209","addr":"경기도 파주시 탄현면 금승리 422-3번지","category":"기타 - 기계공구"}]},{"lat":"37.824971463","long":"126.73410162","items":[{"name":"마을촌","tel":"031-942-8222","addr":"경기도 파주시 탄현면 금승리 494-3번지","category":"일반휴게음식 - 일반한식"}]},{"lat":"37.825078548","long":"126.73762227","items":[{"name":"만능공구수리","tel":"031-944-0777","addr":"경기도 파주시 탄현면 금승리 390번지","category":"수리서비스 - 기타수리서비스"},{"name":"한국천막공사","tel":"031-945-5415","addr":"경기도 파주시 탄현면 금승리 390번지","category":"직물 - 카페트,커튼,천막,지물"}]},{"lat":"37.813134973","long":"126.75126992","items":[{"name":"문객","tel":"031-949-3891","addr":"경기도 파주시 탄현면 금승리 226-7번지","category":"일반휴게음식 - 일반한식"}]},{"lat":"37.825773033","long":"126.73796053","items":[{"name":"민가네 치닭","tel":"031-942-9226","addr":"경기도 파주시 탄현면 금승리 601-9번지","category":"일반휴게음식 - 일반한식"}]},{"lat":"37.809664023","long":"126.75873113","items":[{"name":"백년불보쌈월롱야식","tel":"031-947-5200","addr":"경기도 파주시 탄현면 금승리 11-14번지","category":"일반휴게음식 - 일반한식"}]},{"lat":"37.829776872","long":"126.73165338","items":[{"name":"백제금속","tel":"031-944-3603","addr":"경기도 파주시 탄현면 금승리 445-8번지","category":"기타 - 기타 전문점"}]},{"lat":"37.809969426","long":"126.74975898","items":[{"name":"번창식당","tel":"031-947-0888","addr":"경기도 파주시 탄현면 금승리 269-6번지","category":"일반휴게음식 - 일반한식"}]},{"lat":"37.813251027","long":"126.75076985","items":[{"name":"사계절한식부페","tel":"031-946-1810","addr":"경기도 파주시 탄현면 금승리 226-1번지","category":"일반휴게음식 - 일반한식"}]},{"lat":"37.811279384","long":"126.75143521","items":[{"name":"삼도품딸기","tel":"","addr":"경기도 파주시 탄현면 금승리 229-5번지","category":"음료식품 - 농·축·수산품"}]},{"lat":"37.82527461","long":"126.73271481","items":[{"name":"삼성초등학교병설유치원[아이행복]","tel":"031-942-7326","addr":"경기도 파주시 탄현면 금승리 491번지","category":"학원 - 유치원"}]},{"lat":"37.809642604","long":"126.75709596","items":[{"name":"시크릿가든","tel":"031-945-5885","addr":"경기도 파주시 탄현면 금승리 11-39번지","category":"숙박업 - 여관/기타숙박업"}]},{"lat":"37.82830683","long":"126.73493006","items":[{"name":"신성M.D.M","tel":"031-949-8811","addr":"경기도 파주시 탄현면 금승리 586-3","category":"용역 서비스 - 종합용역"}]},{"lat":"37.812884665","long":"126.7479888","items":[{"name":"씨유파주어게인점","tel":"031-941-1748","addr":"경기도 파주시 탄현면 금승리 259-5번지","category":"유통업 영리 - 편 의 점"}]},{"lat":"37.799728268","long":"126.75520993","items":[{"name":"씨유파주월롱산점","tel":"031-949-2140","addr":"경기도 파주시 탄현면 금승리 583-9번지","category":"유통업 영리 - 편 의 점"}]},{"lat":"37.810831794","long":"126.7570693","items":[{"name":"아리가또맘마 파주엘씨디점","tel":"070-7730-4032","addr":"경기도 파주시 탄현면 금승리 11-64번지","category":"일반휴게음식 - 일식·회집"},{"name":"이디야 파주엘씨디로점","tel":"031-941-4289","addr":"경기도 파주시 탄현면 금승리 11-64번지","category":"일반휴게음식 - 서양음식"}]},{"lat":"37.809643196","long":"126.75737985","items":[{"name":"엉터리포차","tel":"03-944-6237","addr":"경기도 파주시 탄현면 금승리 11-45번지","category":"일반휴게음식 - 주점"},{"name":"육갑","tel":"031-944-0072","addr":"경기도 파주시 탄현면 금승리 11-45번지","category":"일반휴게음식 - 일반한식"},{"name":"이비자","tel":"","addr":"경기도 파주시 탄현면 금승리 11-45번지","category":"일반휴게음식 - 주점"},{"name":"정다운육갑","tel":"031-944-0072","addr":"경기도 파주시 탄현면 금승리 11-45번지","category":"일반휴게음식 - 일반한식"},{"name":"파주화로육가","tel":"031-946-8820","addr":"경기도 파주시 탄현면 금승리 11-45번지","category":"일반휴게음식 - 일반한식"}]},{"lat":"37.824695899","long":"126.73179691","items":[{"name":"엘피엘주유소","tel":"031-942-3801","addr":"경기도 파주시 탄현면 금승리 488-6번지","category":"연료판매점 - 주유소"},{"name":"오토오아시스탄현점","tel":"031-942-2592","addr":"경기도 파주시 탄현면 금승리 488-6번지","category":"자동차정비 유지 - 자동차정비"}]},{"lat":"37.813388771","long":"126.747794","items":[{"name":"오가밥집","tel":"031-946-0368","addr":"경기도 파주시 탄현면 금승리 236-3번지","category":"일반휴게음식 - 일반한식"}]},{"lat":"37.811583371","long":"126.74617629","items":[{"name":"용진테크","tel":"031-949-8658","addr":"경기도 파주시 탄현면 금승리 264-18번지","category":"기타 - 기계공구"}]},{"lat":"37.818191023","long":"126.73570484","items":[{"name":"웅지매점","tel":"031-942-7306","addr":"경기도 파주시 탄현면 금승리 536-2","category":"음료식품 - 기타음료식품"},{"name":"웅지세무대구내서점","tel":"031-941-9058","addr":"경기도 파주시 탄현면 금승리 536-2번지","category":"서적문구 - 일반서적"},{"name":"웅지세무대학교 산학협력단","tel":"031-940-3106","addr":"경기도 파주시 탄현면 금승리 536-2번지","category":"용역 서비스 - 사무서비스"},{"name":"트윈스","tel":"031-941-0314","addr":"경기도 파주시 탄현면 금승리 536-2번지","category":"일반휴게음식 - 일반한식"}]},{"lat":"37.825886696","long":"126.73642675","items":[{"name":"인서앤지니어링","tel":"031-946-1545","addr":"경기도 파주시 탄현면 금승리 597-12번지","category":"기타 - 기계공구"}]},{"lat":"37.824716526","long":"126.73293265","items":[{"name":"일성공업사","tel":"031-944-7104","addr":"경기도 파주시 탄현면 금승리 498-10","category":"자동차정비 유지 - 자동차정비"}]},{"lat":"37.824940228","long":"126.73621435","items":[{"name":"전주식당","tel":"031-944-9441","addr":"경기도 파주시 탄현면 금승리 424-13번지","category":"일반휴게음식 - 일반한식"},{"name":"해바라기 도시락","tel":"031-942-9688","addr":"경기도 파주시 탄현면 금승리 424-13번지","category":"일반휴게음식 - 일반한식"}]},{"lat":"37.822052092","long":"126.74607189","items":[{"name":"젊은친구세차타운","tel":"031-945-4355","addr":"경기도 파주시 탄현면 금승리 543번지","category":"자동차정비 유지 - 세차장"}]},{"lat":"37.826635626","long":"126.73693519","items":[{"name":"제이투그린","tel":"031-000-0000","addr":"경기도 파주시 탄현면 금승리 596-4번지","category":"문화.취미 - 화원"}]},{"lat":"37.828304435","long":"126.75015071","items":[{"name":"주식회사 다빈치기획","tel":"02-000-0000","addr":"경기도 파주시 탄현면 금승리 120번지","category":"전기제품 - 가전제품"}]},{"lat":"37.829223183","long":"126.72987207","items":[{"name":"주식회사 중앙카스포","tel":"031-942-1145","addr":"경기도 파주시 탄현면 금승리 467번지","category":"레져용품 - 스포츠·레져용품"}]},{"lat":"37.828743853","long":"126.73298613","items":[{"name":"주식회사윈스","tel":"031-947-9205","addr":"경기도 파주시 탄현면 금승리 469-11번지","category":"건축자재 - 기타건축자재"},{"name":"파주특장","tel":"031-944-0301","addr":"경기도 파주시 탄현면 금승리 469-11번지","category":"자동차판매 - 기타운송"}]},{"lat":"37.809392894","long":"126.75832321","items":[{"name":"지모바일","tel":"","addr":"경기도 파주시 탄현면 금승리 11-33번지","category":"사무통신 - 통신기기"}]},{"lat":"37.820328019","long":"126.75292641","items":[{"name":"지에스칼텍스(주)파주LCD주유소","tel":"031-948-5182","addr":"경기도 파주시 탄현면 금승리 67-7번지","category":"연료판매점 - GS주유소"}]},{"lat":"37.809392139","long":"126.75795983","items":[{"name":"지짐이","tel":"","addr":"경기도 파주시 탄현면 금승리 11-31번지","category":"일반휴게음식 - 주점"},{"name":"토평한우소곱창","tel":"031-944-7588","addr":"경기도 파주시 탄현면 금승리 11-31번지","category":"일반휴게음식 - 일반한식"}]},{"lat":"37.809417938","long":"126.75736924","items":[{"name":"참숯화로고기창고","tel":"031-747-8874","addr":"경기도 파주시 탄현면 금승리 11-48번지","category":"일반휴게음식 - 일반한식"},{"name":"초원","tel":"031-8071-3405","addr":"경기도 파주시 탄현면 금승리 11-48번지","category":"일반휴게음식 - 일반한식"}]},{"lat":"37.82169618","long":"126.73992862","items":[{"name":"창원목장","tel":"031-942-7229","addr":"경기도 파주시 탄현면 금승리 506","category":"음료식품 - 정육점"}]},{"lat":"37.824307975","long":"126.73157117","items":[{"name":"청석골생고기김치찜","tel":"031-946-1252","addr":"경기도 파주시 탄현면 금승리 488-3번지","category":"일반휴게음식 - 일반한식"}]},{"lat":"37.826277249","long":"126.73782243","items":[{"name":"커스텀디테일링","tel":"031-945-9391","addr":"경기도 파주시 탄현면 금승리 601-5번지","category":"자동차정비 유지 - 카인테리어"}]},{"lat":"37.822134685","long":"126.74676442","items":[{"name":"태성건재","tel":"031-942-0085","addr":"경기도 파주시 탄현면 금승리 162-2번지","category":"기타 - 기계공구"}]},{"lat":"37.828166735","long":"126.73276106","items":[{"name":"태현모터스","tel":"031-000-0000","addr":"경기도 파주시 탄현면 금승리 475-2번지","category":"자동차정비 유지 - 자동차부품"}]},{"lat":"37.826412313","long":"126.73778787","items":[{"name":"통일촌장단콩마을","tel":"031-942-2255","addr":"경기도 파주시 탄현면 금승리 601-4번지","category":"일반휴게음식 - 일반한식"}]},{"lat":"37.809060395","long":"126.75873312","items":[{"name":"파주메이트","tel":"031-945-1029","addr":"경기도 파주시 탄현면 금승리 11-6번지","category":"숙박업 - 여관/기타숙박업"}]},{"lat":"37.825105013","long":"126.73737229","items":[{"name":"판대장 두루치기","tel":"031-949-0177","addr":"경기도 파주시 탄현면 금승리 390-8번지","category":"일반휴게음식 - 일반한식"}]},{"lat":"37.830471818","long":"126.73218471","items":[{"name":"핀플러스","tel":"031-945-3580","addr":"경기도 파주시 탄현면 금승리 445-5번지","category":"전기제품 - 기타전기제품"}]},{"lat":"37.82539018","long":"126.73598556","items":[{"name":"하오치짬뽕","tel":"","addr":"경기도 파주시 탄현면 금승리 598-2번지","category":"일반휴게음식 - 중국식"}]},{"lat":"37.82486208","long":"126.73354546","items":[{"name":"할리스커피 파주탄현점","tel":"031-957-9477","addr":"경기도 파주시 탄현면 금승리 494-2번지","category":"일반휴게음식 - 서양음식"}]},{"lat":"37.809357705","long":"126.75873214","items":[{"name":"행복한밥상","tel":"031-957-0710","addr":"경기도 파주시 탄현면 금승리 11-5번지","category":"일반휴게음식 - 일반한식"}]},{"lat":"37.808779384","long":"126.75790507","items":[{"name":"호텔씨씨","tel":"031-948-7878","addr":"경기도 파주시 탄현면 금승리 11-16번지","category":"숙박업 - 여관/기타숙박업"}]},{"lat":"37.809112565","long":"126.75782448","items":[{"name":"화수목호텔","tel":"031-948-9195","addr":"경기도 파주시 탄현면 금승리 11-8번지","category":"숙박업 - 여관/기타숙박업"}]}]