[{"lat":"37.2207386","long":"126.95062574","items":[{"name":"(막퍼줘)한식부페","tel":"031-298-2029","addr":"경기도 화성시 봉담읍 동화리 425-8번지 1층","category":"일반휴게음식 - 일반한식"},{"name":"생극해장곰탕 봉담점","tel":"","addr":"경기도 화성시 봉담읍 동화리 425-8번지","category":"일반휴게음식 - 일반한식"},{"name":"쥬쥬노래연습장","tel":"031-278-7755","addr":"경기도 화성시 봉담읍 동화리 425-8번지 2층","category":"레저업소 - 노 래 방"}]},{"lat":"37.22087253","long":"126.97310331","items":[{"name":"(주)다온정보","tel":"031-268-1019","addr":"경기도 화성시 봉담읍 동화리 139-1번지 화성공구유통밸리 106동 213호","category":"사무통신 - 컴퓨터"},{"name":"대양문화사","tel":"031-222-1677","addr":"경기도 화성시 봉담읍 동화리 139-1번지 화성공구유통밸리 106동 223호","category":"서적문구 - 출판 및 인쇄물"},{"name":"대우금형부품공구","tel":"031-230-9797","addr":"경기도 화성시 봉담읍 동화리 139-1번지 화성유통공구 106동 114호","category":"기타 - 기계공구"},{"name":"대한윤활유","tel":"031-232-7102","addr":"경기도 화성시 봉담읍 동화리 139-1번지 화성공구유통밸리 106동 101호","category":"자동차정비 유지 - 윤활유 전문 판매"},{"name":"동원상사","tel":"031-230-9567","addr":"경기도 화성시 봉담읍 동화리 139-1번지 화성공구유통밸리 106동 215호","category":"유통업 영리 - 기타유통업"},{"name":"성인정밀","tel":"031-230-9644","addr":"경기도 화성시 봉담읍 동화리 139-1 106-119","category":"전기제품 - 기타전기제품"},{"name":"세이프랜드","tel":"031-230-9511","addr":"경기도 화성시 봉담읍 동화리 139-1번지 화성공구상가 106동 113호","category":"기타 - 기계공구"},{"name":"스마일종합공구","tel":"031-230-9609","addr":"경기도 화성시 봉담읍 동화리 139-1번지 화성공구유통밸리 106동 109호","category":"기타 - 기계공구"},{"name":"씨디아이","tel":"031-000-0000","addr":"경기도 화성시 봉담읍 동화리 139-1번지 화성공구유통밸리 106동 222호","category":"전기제품 - 기타전기제품"},{"name":"엘에스테크(LS TECH)","tel":"031-892-5540","addr":"경기도 화성시 봉담읍 동화리 139-1번지 화성공구유통밸리 106동 103호","category":"기타 - 기계공구"},{"name":"일신정밀","tel":"031-224-8713","addr":"경기도 화성시 봉담읍 동화리 139-1번지 외9필지 106동 102호","category":"기타 - 기계공구"},{"name":"중고나라종합기계","tel":"031-222-3820","addr":"경기도 화성시 봉담읍 동화리 139-1번지 화성공구유통단지 106동 126호","category":"기타 - 기계공구"},{"name":"태양모타체인","tel":"031-230-9541","addr":"경기도 화성시 봉담읍 동화리 139-1번지 화성공구상가 106동 107호","category":"기타 - 기타 전문점"}]},{"lat":"37.225326544","long":"126.95456626","items":[{"name":"(주)더존종합건설","tel":"031-8002-6777","addr":"경기도 화성시 봉담읍 동화리 340번지 3층","category":"용역 서비스 - 기타용역서비스"},{"name":"더존목조 건축학교","tel":"031-1644-3696","addr":"경기도 화성시 봉담읍 동화리 340번지","category":"학원 - 기타 교육기관"}]},{"lat":"37.216489028","long":"126.95878551","items":[{"name":"(주)예스에듀현산공교육지원센터","tel":"070-4324-1318","addr":"경기도 화성시 봉담읍 동화리 599-4번지 웅신아프프라자 802호","category":"학원 - 보습학원"},{"name":"공간미술학원","tel":"031-278-6077","addr":"경기도 화성시 봉담읍 동화리 599-4번지 웅신아트프라자 604호","category":"학원 - 예·체능계학원"},{"name":"뉴욕학원","tel":"031-297-4034","addr":"경기도 화성시 봉담읍 동화리 599-4번지 웅신아트프라자 804호","category":"학원 - 보습학원"},{"name":"디테일의원","tel":"031-893-4520","addr":"경기도 화성시 봉담읍 동화리 599-4번지 웅산아트프라자 7층 701호","category":"의원 - 의원"},{"name":"르하임스터디카페 화성봉담점","tel":"031-895-6465","addr":"경기도 화성시 봉담읍 동화리 599-4번지 웅신아트프라자 7층 703, 704, 705호","category":"용역 서비스 - 사무서비스"},{"name":"본죽","tel":"031-298-1517","addr":"경기도 화성시 봉담읍 동화리 599-4번지 웅신아트프라자 103호","category":"일반휴게음식 - 일반한식"},{"name":"숭문세무회계사무소","tel":"031-278-1671","addr":"경기도 화성시 봉담읍 동화리 599-4번지 웅신아트프라자 905호","category":"용역 서비스 - 법률회계서비스(개인)"},{"name":"시영컴퓨터학원","tel":"031-222-9997","addr":"경기도 화성시 봉담읍 동화리 599-4번지 웅신","category":"회원제형태 - 학원"},{"name":"유즈필라테스","tel":"","addr":"경기도 화성시 봉담읍 동화리 599-4번지 웅신아트프라자 601호 602호","category":"레저업소 - 헬스클럽"},{"name":"점핑다이어트","tel":"031-217-8825","addr":"경기도 화성시 봉담읍 동화리 599-4번지 903호","category":"건강식품 - 기타건강식품"},{"name":"정도학원","tel":"031-298-5872","addr":"경기도 화성시 봉담읍 동화리 599-4번지 웅신아트프라자 1동 702호","category":"학원 - 보습학원"},{"name":"참정형외과","tel":"031-278-7511","addr":"경기도 화성시 봉담읍 동화리 599-4번지 웅신아트프라자 501,502,053호","category":"의원 - 의원"},{"name":"타닉음악학원","tel":"031-278-1121","addr":"경기도 화성시 봉담읍 동화리 웅신아트프라자6층603호","category":"학원 - 예·체능계학원"},{"name":"피자스쿨 (봉담점)","tel":"031-298-3388","addr":"경기도 화성시 봉담읍 동화리 599-4번지 웅신프라자 1층 108호","category":"일반휴게음식 - 서양음식"}]},{"lat":"37.220601071","long":"126.9688445","items":[{"name":"(주)제일도어","tel":"031-898-7705","addr":"경기도 화성시 봉담읍 동화리 178-1번지 가동","category":"건축자재 - 목재·석재·철물"}]},{"lat":"37.217021098","long":"126.96003577","items":[{"name":"(주)종로엠스쿨 고등관학원","tel":"031-297-0505","addr":"경기도 화성시 봉담읍 동화리 600-1번지 701호","category":"학원 - 보습학원"},{"name":"TRY봉담점","tel":"031-298-7127","addr":"경기도 화성시 봉담읍 동화리 600-1 스타타워1제1층101,102호","category":"의류 - 내의판매"},{"name":"가마로강정(봉담동화점)","tel":"031-297-7292","addr":"경기도 화성시 봉담읍 동화리 600-1번지 스타타워 103호 1","category":"일반휴게음식 - 스넥"},{"name":"거인수학의힘교습소","tel":"031-292-3003","addr":"경기도 화성시 봉담읍 동화리 600-1번지 스타타워 603호 1","category":"회원제형태 - 학원"},{"name":"꽈배기패밀리","tel":"070-4351-0898","addr":"경기도 화성시 봉담읍 동화리 600-1번지 1층 105호","category":"일반휴게음식 - 일반한식"},{"name":"두찜 화성봉담점","tel":"031-227-5458","addr":"경기도 화성시 봉담읍 동화리 600-1번지 2층 201호","category":"일반휴게음식 - 일반한식"},{"name":"듀크헤어","tel":"031-298-4088","addr":"경기도 화성시 봉담읍 동화리 600-1번지 스타타워1 203호","category":"보건위생 - 미용원"},{"name":"루벤스 미술학원","tel":"031-298-5535","addr":"경기도 화성시 봉담읍 동화리 600-1번지 704,704A호","category":"학원 - 예·체능계학원"},{"name":"맑음소리샘음악학원","tel":"031-227-1064","addr":"경기도 화성시 봉담읍 동화리 600-1번지 703호 스타타워1제","category":"학원 - 예·체능계학원"},{"name":"모드니모바일","tel":"","addr":"경기도 화성시 봉담읍 동화리 600-1번지 1층 106호","category":"사무통신 - 통신기기"},{"name":"발리노래연습장","tel":"031-296-6820","addr":"경기도 화성시 봉담읍 동화리 600-1번지 301호","category":"레저업소 - 노 래 방"},{"name":"뷰티오앤오 (뷰티ono)","tel":"031-294-4736","addr":"경기도 화성시 봉담읍 동화리 600-1번지 스타타워 3층 304호","category":"보건위생 - 화장품"},{"name":"블루클럽","tel":"031-278-7790","addr":"경기도 화성시 봉담읍 동화리 93-16 스타타워110","category":"보건위생 - 미용원"},{"name":"서울학원","tel":"031-297-0052","addr":"경기도 화성시 봉담읍 동화리 600-1번지 6층","category":"학원 - 보습학원"},{"name":"아모레퍼시픽뷰레이터","tel":"031-227-2088","addr":"경기도 화성시 봉담읍 동화리 600-1번지 스타타워 501호","category":"보건위생 - 화장품"},{"name":"아모레퍼시픽화성지사뷰레이터","tel":"031-227-2088","addr":"경기도 화성시 봉담읍 동화리 600-1번지 스타타워1관 501호","category":"보건위생 - 화장품"},{"name":"아모레퍼시픽화성지사뷰레이터","tel":"031-227-2088","addr":"경기도 화성시 봉담읍 동화리 600-1번지 501(봉담택지지구내D-14블럭)","category":"보건위생 - 화장품"},{"name":"아모레퍼시픽화성지사뷰레이터","tel":"031-227-2088","addr":"경기도 화성시 봉담읍 동화리 600-1번지 501호","category":"보건위생 - 화장품"},{"name":"아이와카페(I WA 카페)","tel":"","addr":"경기도 화성시 봉담읍 동화리 600-1번지 스타타워 202호 1","category":"일반휴게음식 - 서양음식"},{"name":"에녹메소드영수보습학원","tel":"","addr":"경기도 화성시 봉담읍 동화리 600-1번지 6층 603호","category":"학원 - 보습학원"},{"name":"오뎅은내가사케","tel":"031-223-5214","addr":"경기도 화성시 봉담읍 동화리 600-1번지 스타타워 109호 1","category":"일반휴게음식 - 일식·회집"},{"name":"와와노래연습장/(주)케이지산업개발","tel":"031-296-4989","addr":"경기도 화성시 봉담읍 동화리 600-1번지 202호","category":"레저업소 - 노 래 방"},{"name":"와우돈까스","tel":"031-227-0755","addr":"경기도 화성시 봉담읍 동화리 600-1번지 스타타워 1층 107호,108호","category":"일반휴게음식 - 일반한식"},{"name":"우리아이키즈치과","tel":"031-297-7728","addr":"경기도 화성시 봉담읍 동화리 600-1번지 403호","category":"의원 - 치과의원"},{"name":"우리아이태권도장","tel":"031-222-2122","addr":"경기도 화성시 봉담읍 동화리 600-1번지 702호","category":"학원 - 예·체능계학원"},{"name":"이보영의토킹클럽봉담어학원","tel":"031-278-0582","addr":"경기도 화성시 봉담읍 동화리 600-1번지 스타타워2 8층","category":"회원제형태 - 학원"},{"name":"이제이 짐(EJ GYM)","tel":"031-298-7715","addr":"경기도 화성시 봉담읍 동화리 600-1번지 스타타워 202호 1","category":"레저업소 - 헬스클럽"},{"name":"제이리(KSEE)영어학원","tel":"031-298-0578","addr":"경기도 화성시 봉담읍 동화리 600-1번지 스타타워 1601호","category":"회원제형태 - 학원"},{"name":"주식회사 봉담종로엠스쿨","tel":"031-278-1881","addr":"경기도 화성시 봉담읍 동화리 600-1번지 쌍용프라자 701호","category":"학원 - 보습학원"},{"name":"참치먹고싶은마음참치마요","tel":"031-223-5214","addr":"경기도 화성시 봉담읍 동화리 600-1번지 5층 502A호","category":"일반휴게음식 - 일반한식"},{"name":"초록마을 화성봉담점","tel":"031-298-6285","addr":"경기도 화성시 봉담읍 동화리 600-1번지 스타타워 104호 l","category":"유통업 영리 - 슈퍼마켓"},{"name":"해법독서논술봉담명문교습소","tel":"031-227-1930","addr":"경기도 화성시 봉담읍 동화리 600-1번지 스타타워1빌딩 604호","category":"회원제형태 - 학원"}]},{"lat":"37.220271355","long":"126.95364559","items":[{"name":"(주)탑씨앤씨","tel":"031-298-2199","addr":"경기도 화성시 봉담읍 동화리 560-11번지","category":"사무통신 - 컴퓨터"}]},{"lat":"37.221016644","long":"126.97290044","items":[{"name":"(주)하나엘리베이터","tel":"031-221-7561","addr":"경기도 화성시 봉담읍 동화리 139-1번지 외9필지 화성공구유통밸리 105동 221호","category":"수리서비스 - 기타수리서비스"},{"name":"가온상사","tel":"031-230-9663","addr":"경기도 화성시 봉담읍 동화리 139-1번지 화성공구유통밸리 105동 102호","category":"기타 - 기계공구"},{"name":"그린산업","tel":"031-230-9655","addr":"경기도 화성시 봉담읍 동화리 139-1번지 화성공구유통밸리 105동 111호","category":"건축자재 - 보일러·펌프·샷시"},{"name":"다온명판조각","tel":"031-223-4455","addr":"경기도 화성시 봉담읍 동화리 139-1번지 화성공구유통밸리 105동 108호","category":"건축자재 - 목재·석재·철물"},{"name":"대호산업","tel":"031-230-9449","addr":"경기도 화성시 봉담읍 동화리 139-1번지 화성공구유통밸리 105동 122호","category":"건축자재 - 기타건축자재"},{"name":"동양유공압","tel":"031-230-9955","addr":"경기도 화성시 봉담읍 동화리 139-1번지 외9필지화성공구유통밸리 105동 121호","category":"기타 - 기타 전문점"},{"name":"미래종합공구","tel":"031-267-0902","addr":"경기도 화성시 봉담읍 동화리 139-1번지 외화성공구상가 105동 112호","category":"기타 - 기계공구"},{"name":"올쏘툴","tel":"031-230-9406","addr":"경기도 화성시 봉담읍 동화리 139-1번지 유통공구상가 105동 118호","category":"기타 - 기계공구"},{"name":"우양테크","tel":"031-223-9854","addr":"경기도 화성시 봉담읍 동화리 139-1번지 외8필지 105동 117호","category":"기타 - 기계공구"},{"name":"케미종합공구","tel":"031-239-0984","addr":"경기도 화성시 봉담읍 동화리 139-1번지 화성유통밸리 105동 107호","category":"기타 - 기계공구"},{"name":"하림안전산업","tel":"031-230-9601","addr":"경기도 화성시 봉담읍 동화리 139-1번지 화성공구유통밸리 105동 115호","category":"기타 - 기계공구"},{"name":"한일자동펌프","tel":"031-230-9466","addr":"경기도 화성시 봉담읍 동화리 139-1번지 유통공구상가 105동 116호","category":"전기제품 - 기타전기제품"}]},{"lat":"37.220662582","long":"126.96378561","items":[{"name":"(주)화성미트원","tel":"031-224-6653","addr":"경기도 화성시 봉담읍 동화리 269번지","category":"음료식품 - 정육점"}]},{"lat":"37.217246226","long":"126.95967511","items":[{"name":"180도뷰티샵","tel":"031-278-0184","addr":"경기도 화성시 봉담읍 동화리 597-3번지 3층 303호","category":"보건위생 - 피부미용실"},{"name":"3층카페","tel":"031-227-4009","addr":"경기도 화성시 봉담읍 동화리 597-3번지 스타타워 303호 2","category":"일반휴게음식 - 일반한식"},{"name":"나나더블유 (NANA.W)","tel":"031-378-0447","addr":"경기도 화성시 봉담읍 동화리 597-3번지 107호","category":"의류 - 정장"},{"name":"더바디핫요가","tel":"031-298-8330","addr":"경기도 화성시 봉담읍 동화리 597-3번지 604호 603 스타타워2","category":"회원제형태 - 레져업소"},{"name":"레브(REVE)","tel":"031-298-5563","addr":"경기도 화성시 봉담읍 동화리 597-3번지 스타타워2 901호","category":"일반휴게음식 - 서양음식"},{"name":"물향기","tel":"031-227-8898","addr":"경기도 화성시 봉담읍 동화리 597-3번지 4층 403,404호(스타타워11)","category":"일반휴게음식 - 주점"},{"name":"미래수학전문학원","tel":"031-298-4232","addr":"경기도 화성시 봉담읍 동화리 597-3번지 스타타워2 703호","category":"학원 - 보습학원"},{"name":"복싱클래스","tel":"070-8825-5353","addr":"경기도 화성시 봉담읍 동화리 597-3번지 스타타워2 401,402호","category":"레저업소 - 헬스클럽"},{"name":"봉담오락실","tel":"031-297-8765","addr":"경기도 화성시 봉담읍 동화리 597-3번지 스타타워 111,112,303,304호","category":"레저업소 - 기타레져업소"},{"name":"봉담요양보호사교육원","tel":"031-278-6686","addr":"경기도 화성시 봉담읍 동화리 597-3번지 5층 1호","category":"학원 - 기타 교육기관"},{"name":"스튜디오미르","tel":"031-278-7020","addr":"경기도 화성시 봉담읍 동화리 597-3번지 3층 302호","category":"광학제품 - 사진관"},{"name":"썬노래연습장","tel":"","addr":"경기도 화성시 봉담읍 동화리 597-3번지 스타타워LL 5층 503호","category":"레저업소 - 노 래 방"},{"name":"아이 러브 제이 (I Love J)","tel":"031-298-7747","addr":"경기도 화성시 봉담읍 동화리 597-3번지 104호","category":"의류 - 아동의류"},{"name":"아토플뢰르","tel":"070-7707-4800","addr":"경기도 화성시 봉담읍 동화리 597-3번지 스타타워 2, 301-1","category":"일반휴게음식 - 서양음식"},{"name":"언니네","tel":"031-294-2977","addr":"경기도 화성시 봉담읍 동화리 597-3번지 스타타워2,108호","category":"의류 - 정장"},{"name":"윤선생영어교실화성쎈타","tel":"031-227-0579","addr":"경기도 화성시 봉담읍 동화리 597-3번지 스타타워 2,7층 701호","category":"학원 - 외국어학원"},{"name":"주식회사 본가제이씨 동화점","tel":"031-292-7020","addr":"경기도 화성시 봉담읍 동화리 597-3번지 스타타워 1층 110호 2","category":"사무통신 - 통신기기"},{"name":"카페다함","tel":"","addr":"경기도 화성시 봉담읍 동화리 597-3번지 스타타워 1층 109호 2","category":"일반휴게음식 - 서양음식"},{"name":"카페레아","tel":"031-298-0070","addr":"경기도 화성시 봉담읍 동화리 597-3번지 스타타워 105호","category":"일반휴게음식 - 서양음식"},{"name":"크로커다일화성점","tel":"031-000-0000","addr":"경기도 화성시 봉담읍 동화리 597-3번지 스타타워 제1층 101,102호","category":"의류 - 스포츠의류"},{"name":"피부미인","tel":"031-297-9487","addr":"경기도 화성시 봉담읍 동화리 597-3번지 스타타워2빌딩 704호","category":"회원제형태 - 기타4"},{"name":"헤어팡팡","tel":"031-227-7473","addr":"경기도 화성시 봉담읍 동화리 597-3번지 201호","category":"보건위생 - 미용원"}]},{"lat":"37.223271435","long":"126.95276479","items":[{"name":"24시봉담우리애동물병원","tel":"031-293-0075","addr":"경기도 화성시 봉담읍 동화리 420-1번지 1층","category":"기타의료기관 - 동물병원"}]},{"lat":"37.216381099","long":"126.95931509","items":[{"name":"7080라이브","tel":"","addr":"경기도 화성시 봉담읍 동화리 600-6번지 지존타워 201호","category":"일반휴게음식 - 주점"},{"name":"까리뇨캐롬클럽","tel":"","addr":"경기도 화성시 봉담읍 동화리 600-6번지 지촌타워 4층 403호,404호","category":"레저업소 - 당 구 장"},{"name":"네일이야기","tel":"","addr":"경기도 화성시 봉담읍 동화리 600-6번지 지존타워 103호","category":"보건위생 - 피부미용실"},{"name":"동화루","tel":"031-297-0449","addr":"경기도 화성시 봉담읍 동화리 600-6번지 지존타워 101, 102호","category":"일반휴게음식 - 중국식"},{"name":"동화생고기","tel":"031-278-2797","addr":"경기도 화성시 봉담읍 동화리 600-6번지","category":"일반휴게음식 - 일반한식"},{"name":"띠아모","tel":"031-297-1003","addr":"경기도 화성시 봉담읍 동화리 600-6번지 지존타워 108호","category":"일반휴게음식 - 서양음식"},{"name":"미니스톱 봉담센터점","tel":"031-1577-9621","addr":"경기도 화성시 봉담읍 동화리 600-6번지 지존타워 1동 104호, 105호","category":"유통업 영리 - 편 의 점"},{"name":"미립 교육","tel":"031-297-2197","addr":"경기도 화성시 봉담읍 동화리 600-6번지 501호","category":"용역 서비스 - 사무서비스"},{"name":"숲","tel":"031-307-5525","addr":"경기도 화성시 봉담읍 동화리 600-6번지 지존타워 103호","category":"보건위생 - 화장품"},{"name":"스프링탑커피","tel":"070-4145-6472","addr":"경기도 화성시 봉담읍 동화리 600-6번지 1층 107호","category":"일반휴게음식 - 서양음식"},{"name":"웰빙","tel":"031-227-7003","addr":"경기도 화성시 봉담읍 동화리 600-6번지 Z-ZONE타워303","category":"회원제형태 - 레져업소"},{"name":"이삭토스트 봉담점","tel":"031-296-0560","addr":"경기도 화성시 봉담읍 동화리 600-6번지 1층 106호","category":"일반휴게음식 - 스넥"},{"name":"전재화보습학원","tel":"031-278-0401","addr":"경기도 화성시 봉담읍 동화리 600-6번지 지존타워 502호","category":"학원 - 기타 교육기관"},{"name":"창꼬","tel":"070-4254-0160","addr":"경기도 화성시 봉담읍 동화리 600-6번지 지존타워 103호","category":"의류 - 정장"},{"name":"최강학원","tel":"031-298-8118","addr":"경기도 화성시 봉담읍 동화리 600-6번지 지존타워 504호","category":"학원 - 보습학원"},{"name":"튼튼영어화성봉담지사","tel":"031-227-0906","addr":"경기도 화성시 봉담읍 동화리 600-6번지 지존타워 302호","category":"학원 - 보습학원"},{"name":"해법동화중국어학원","tel":"031-227-5033","addr":"경기도 화성시 봉담읍 동화리 600-6번지 401호","category":"학원 - 외국어학원"}]},{"lat":"37.21684984","long":"126.95986687","items":[{"name":"79대포 화성봉담점","tel":"031-298-4655","addr":"경기도 화성시 봉담읍 동화리 600-2번지 우신봉담빌딩 101,102호","category":"일반휴게음식 - 일반한식"},{"name":"강클럽","tel":"031-663-0447","addr":"경기도 화성시 봉담읍 동화리 600-2번지 301,302호","category":"레저업소 - 당 구 장"},{"name":"글리","tel":"031-298-0700","addr":"경기도 화성시 봉담읍 동화리 600-2번지 우신봉담빌딩 104호","category":"의류 - 정장"},{"name":"대파곱창","tel":"031-227-5853","addr":"경기도 화성시 봉담읍 동화리 600-2번지 우신봉담빌딩 108호","category":"일반휴게음식 - 일반한식"},{"name":"바른치킨화성봉담점","tel":"031-298-5158","addr":"경기도 화성시 봉담읍 동화리 600-2번지 105,106호","category":"일반휴게음식 - 스넥"},{"name":"본주짓수 봉담","tel":"031-291-0707","addr":"경기도 화성시 봉담읍 동화리 600-2번지 우신봉담빌딩 4층 403,404호","category":"레저업소 - 헬스클럽"},{"name":"봉담예스셈수학학원","tel":"031-298-3272","addr":"경기도 화성시 봉담읍 동화리 600-2번지 우신봉담빌딩 704호","category":"학원 - 보습학원"},{"name":"봉담특공무술","tel":"031-267-3366","addr":"경기도 화성시 봉담읍 동화리 600-2번지 우신봉담빌딩 601호","category":"레저업소 - 헬스클럽"},{"name":"뷰티퀸","tel":"031-295-0560","addr":"경기도 화성시 봉담읍 동화리 600-2번지 우신봉담빌딩 201호","category":"보건위생 - 화장품"},{"name":"어린음악대어린화가들봉담원음악미술학원","tel":"031-227-0034","addr":"경기도 화성시 봉담읍 동화리 600-2번지 우신봉담빌딩 6층 602호","category":"학원 - 예·체능계학원"},{"name":"엽기떡볶이 봉담점","tel":"031-227-8592","addr":"경기도 화성시 봉담읍 동화리 600-2번지 우신봉담빌딩 103호","category":"일반휴게음식 - 일반한식"},{"name":"오렌지노래방","tel":"","addr":"경기도 화성시 봉담읍 동화리 600-2번지 우신봉담빌딩 303,304호","category":"레저업소 - 노 래 방"},{"name":"와이비엠시사","tel":"031-298-0591","addr":"경기도 화성시 봉담읍 동화리 봉담택지개발지구D-13블럭우신봉담빌딩503호","category":"회원제형태 - 서적"},{"name":"자바미술학원","tel":"031-227-7821","addr":"경기도 화성시 봉담읍 동화리 600-2번지","category":"학원 - 예·체능계학원"},{"name":"쥬뗌헤어","tel":"031-278-5579","addr":"경기도 화성시 봉담읍 동화리 600-2번지 우신빌딩 202호","category":"보건위생 - 미용원"},{"name":"참조은 토르마린","tel":"031-663-0447","addr":"경기도 화성시 봉담읍 동화리 600-2번지 우신봉담빌딩 4층 402호","category":"전기제품 - 기타전기제품"},{"name":"커피에반하다","tel":"031-297-8922","addr":"경기도 화성시 봉담읍 동화리 600-2번지 우신봉담빌딩","category":"일반휴게음식 - 서양음식"},{"name":"해피코딩학원","tel":"031-294-2232","addr":"경기도 화성시 봉담읍 동화리 600-2번지 5층 504호","category":"학원 - 기타 교육기관"},{"name":"허브앤에프아이티(FIT)","tel":"031-000-0000","addr":"경기도 화성시 봉담읍 동화리 600-2번지 우신봉담빌딩 402호","category":"건강식품 - 기타건강식품"}]},{"lat":"37.218992633","long":"126.9554829","items":[{"name":"CGV 화성봉담/(주)원희캐슬봉담","tel":"031-216-5031","addr":"경기도 화성시 봉담읍 동화리 564번지 2층 221호","category":"문화.취미 - 영화관"},{"name":"두끼 화성봉담점","tel":"031-298-2771","addr":"경기도 화성시 봉담읍 동화리 564번지 2층 212호","category":"일반휴게음식 - 일반한식"},{"name":"리비드네일(La Vie de Nail)","tel":"","addr":"경기도 화성시 봉담읍 동화리 564번지 2층 201호 일부","category":"보건위생 - 피부미용실"},{"name":"맘스터치봉담점","tel":"031-682-8084","addr":"경기도 화성시 봉담읍 동화리 564번지 114,115호","category":"일반휴게음식 - 서양음식"},{"name":"메가엠지씨커피 봉담원희캐슬","tel":"","addr":"경기도 화성시 봉담읍 동화리 564번지 1층 142호 (프리미엄원희캐슬봉담)","category":"일반휴게음식 - 서양음식"},{"name":"메종드제이","tel":"031-278-2229","addr":"경기도 화성시 봉담읍 동화리 564번지 201호","category":"보건위생 - 미용원"},{"name":"명륜진사갈비 화성봉담동화점","tel":"031-293-3712","addr":"경기도 화성시 봉담읍 동화리 564번지 2층 218,219,220호","category":"일반휴게음식 - 일반한식"},{"name":"백채김치찌개 봉담CGV점","tel":"031-0000-0000","addr":"경기도 화성시 봉담읍 동화리 564번지 2층 216호","category":"일반휴게음식 - 일반한식"},{"name":"비어첸 화성봉담CGV점","tel":"031-5183-3807","addr":"경기도 화성시 봉담읍 동화리 564번지 프리미엄원희캐슬 봉담 1층 157호,158호","category":"일반휴게음식 - 주점"},{"name":"쏘자토스트","tel":"031-111-1111","addr":"경기도 화성시 봉담읍 동화리 564번지 2층 217호","category":"일반휴게음식 - 서양음식"},{"name":"쏭쏭돈까스 화성봉담점","tel":"","addr":"경기도 화성시 봉담읍 동화리 564번지 1층 135호","category":"일반휴게음식 - 서양음식"},{"name":"이마트24 봉담원희캐슬점","tel":"031-000-0000","addr":"경기도 화성시 봉담읍 동화리 564번지 1층 130호","category":"유통업 영리 - 편 의 점"},{"name":"이차돌 (화성봉담점)","tel":"","addr":"경기도 화성시 봉담읍 동화리 564번지 프리미엄원희캐슬 1층 101,102호","category":"일반휴게음식 - 일반한식"},{"name":"청년다방 봉담CGV점","tel":"031-5183-3890","addr":"경기도 화성시 봉담읍 동화리 564번지 1층 110호","category":"일반휴게음식 - 스넥"},{"name":"탕화쿵푸마라탕","tel":"031-747-8874","addr":"경기도 화성시 봉담읍 동화리 564번지 1층 145호","category":"일반휴게음식 - 중국식"},{"name":"할리스커피봉담원희캐슬점","tel":"","addr":"경기도 화성시 봉담읍 동화리 564번지 프리미엄원희캐슬 111동 113호","category":"일반휴게음식 - 서양음식"},{"name":"흥수산","tel":"070-1111-1111","addr":"경기도 화성시 봉담읍 동화리 564번지 1층 149호","category":"일반휴게음식 - 일식·회집"}]},{"lat":"37.21510305","long":"126.96337163","items":[{"name":"Do 헤어","tel":"031-298-1702","addr":"경기도 화성시 봉담읍 동화리 622번지 1층 101호 (중흥에스-스퀘어)","category":"보건위생 - 미용원"},{"name":"꼬치짱","tel":"070-8880-3494","addr":"경기도 화성시 봉담읍 동화리 622번지 중흥 에스스퀘어 106호","category":"일반휴게음식 - 일반한식"},{"name":"더 차이니즈","tel":"031-278-5255","addr":"경기도 화성시 봉담읍 동화리 622번지 중흥에스스퀘어 113호","category":"일반휴게음식 - 중국식"},{"name":"데이즈데이","tel":"070-7420-7612","addr":"경기도 화성시 봉담읍 동화리 622번지 중흥에스스퀘어 107호","category":"직물 - 카페트,커튼,천막,지물"},{"name":"마이펫식량창고","tel":"031-297-0225","addr":"경기도 화성시 봉담읍 동화리 622번지 1층 중흥에스스퀘어 105호","category":"문화.취미 - 애완동물"},{"name":"벽창호 인테리어 봉담점","tel":"031-278-2727","addr":"경기도 화성시 봉담읍 동화리 622번지 109호-110호 (중흥에스-스퀘어)","category":"건축자재 - 인테리어전문"},{"name":"퀴즈노스 봉담점","tel":"031-204-3300","addr":"경기도 화성시 봉담읍 동화리 622번지 중흥에스스퀘어 111호 112호","category":"일반휴게음식 - 서양음식"},{"name":"태후사랑","tel":"031-298-2987","addr":"경기도 화성시 봉담읍 동화리 622번지 중흥에스스퀘어 107호","category":"보건위생 - 미용원"},{"name":"플로랄데이","tel":"070-2926-8117","addr":"경기도 화성시 봉담읍 동화리 622번지 중흥에스스퀘어 111호","category":"문화.취미 - 화원"},{"name":"피자헛봉담점","tel":"070-7843-1290","addr":"경기도 화성시 봉담읍 동화리 622번지 102호 103호","category":"일반휴게음식 - 서양음식"}]},{"lat":"37.218491284","long":"126.96439513","items":[{"name":"FCBD 유소년 축구클럽","tel":"031-298-6546","addr":"경기도 화성시 봉담읍 동화리 245-12번지","category":"학원 - 예·체능계학원"}]},{"lat":"37.213463125","long":"126.96325983","items":[{"name":"GS25봉담솔향기점","tel":"","addr":"경기도 화성시 봉담읍 동화리 628번지 상가동 101,105호","category":"유통업 영리 - 편 의 점"},{"name":"브레인도만스쿨어린이집[아이행복]","tel":"031-893-2775","addr":"경기도 화성시 봉담읍 동화리 628번지","category":"학원 - 유아원"},{"name":"조이음악교습소","tel":"031-227-4007","addr":"경기도 화성시 봉담읍 동화리 628번지 휴먼시아5단지아파트 상가동 204호","category":"학원 - 예·체능계학원"}]},{"lat":"37.220019321","long":"126.95426544","items":[{"name":"GS25봉담캐슬점","tel":"","addr":"경기도 화성시 봉담읍 동화리 560-6번지","category":"유통업 영리 - 편 의 점"}]},{"lat":"37.217939224","long":"126.95753407","items":[{"name":"GS25봉담휴먼시아점","tel":"","addr":"경기도 화성시 봉담읍 동화리 594번지 휴먼시아동화마을아파트 상가동 101호","category":"유통업 영리 - 편 의 점"},{"name":"라벨르헤어","tel":"","addr":"경기도 화성시 봉담읍 동화리 594번지 (휴먼시아동화마을제상가동제104호 )","category":"보건위생 - 미용원"}]},{"lat":"37.225935945","long":"126.9715351","items":[{"name":"GS25화성클래식점","tel":"","addr":"경기도 화성시 봉담읍 동화리 91-1번지 신일,우남클래식타운 1층 107호","category":"유통업 영리 - 편 의 점"},{"name":"백옥피부샵","tel":"031-226-5969","addr":"경기도 화성시 봉담읍 동화리 91-1번지 신일우남클레식타운 202호 상가","category":"회원제형태 - 기타4"},{"name":"스테이 앤 플레이학원","tel":"","addr":"경기도 화성시 봉담읍 동화리 91-1번지 신일우남클래식타운 2층 206호, 207호","category":"학원 - 보습학원"},{"name":"은빛헤어","tel":"031-222-6711","addr":"경기도 화성시 봉담읍 동화리 91-1번지 신일우남클래식타운 상가 108호","category":"보건위생 - 미용원"},{"name":"인 스페이스","tel":"031-222-4211","addr":"경기도 화성시 봉담읍 동화리 91-1번지 신일우남클래식타운 상가동 1층 105호","category":"가구 - 일반가구"},{"name":"팔랑카음악학원","tel":"031-223-1307","addr":"경기도 화성시 봉담읍 동화리 91-1번지 신일우남클래식타운 상가 208호","category":"학원 - 예·체능계학원"}]},{"lat":"37.220855809","long":"126.95079466","items":[{"name":"GS배트맨","tel":"031-258-5252","addr":"경기도 화성시 봉담읍 동화리 425-18번지","category":"연료판매점 - 유류판매"},{"name":"봉담복싱체육관","tel":"031-298-1288","addr":"경기도 화성시 봉담읍 동화리 425-18번지","category":"회원제형태 - 레져업소"},{"name":"송담추어탕","tel":"031-297-4680","addr":"경기도 화성시 봉담읍 동화리 425-18번지 2층","category":"일반휴게음식 - 일반한식"},{"name":"카스토리","tel":"031-294-1333","addr":"경기도 화성시 봉담읍 동화리 425-18번지","category":"자동차정비 유지 - 자동차부품"},{"name":"팡팡노래연습장","tel":"031-292-8010","addr":"경기도 화성시 봉담읍 동화리 425-18번지","category":"레저업소 - 노 래 방"}]},{"lat":"37.216516317","long":"126.959484","items":[{"name":"Jin's블랙벨트태권도장","tel":"031-227-2224","addr":"경기도 화성시 봉담읍 동화리 600-5번지 쌍용프라자 501호","category":"학원 - 예·체능계학원"},{"name":"달콤한 하루","tel":"031-227-3977","addr":"경기도 화성시 봉담읍 동화리 600-5번지 102호","category":"음료식품 - 기타음료식품"},{"name":"동대문보다싸고이쁜옷집","tel":"","addr":"경기도 화성시 봉담읍 동화리 600-5번지 쌍용프라자 106호","category":"의류 - 정장"},{"name":"두레반찬","tel":"031-295-0944","addr":"경기도 화성시 봉담읍 동화리 600-5번지 105호","category":"음료식품 - 기타음료식품"},{"name":"메가엠지씨커피 봉담점","tel":"","addr":"경기도 화성시 봉담읍 동화리 600-5번지 쌍용프라자 108호","category":"일반휴게음식 - 서양음식"},{"name":"명랑시대 쌀 핫도그","tel":"031-278-6564","addr":"경기도 화성시 봉담읍 동화리 600-5번지 103호","category":"일반휴게음식 - 일반한식"},{"name":"미술이야기미술학원","tel":"031-222-6460","addr":"경기도 화성시 봉담읍 동화리 600-5번지 쌍용프라자 504호","category":"학원 - 예·체능계학원"},{"name":"미쓰봉","tel":"031-294-2340","addr":"경기도 화성시 봉담읍 동화리 600-5번지 107호","category":"의류 - 정장"},{"name":"봉담회관","tel":"031-227-1489","addr":"경기도 화성시 봉담읍 동화리 600-5번지 202,203-1호","category":"일반휴게음식 - 주점"},{"name":"신중현실용음악학원","tel":"031-227-7199","addr":"경기도 화성시 봉담읍 동화리 600-5번지 쌍용프라자 604호","category":"학원 - 예·체능계학원"},{"name":"쌈촌","tel":"031-297-8937","addr":"경기도 화성시 봉담읍 동화리 600-5번지 203,204호","category":"일반휴게음식 - 일반한식"},{"name":"아름","tel":"031-296-6488","addr":"경기도 화성시 봉담읍 동화리 600-5번지 쌍용프라자 302호","category":"보건위생 - 피부미용실"},{"name":"여우헤어","tel":"031-227-9566","addr":"경기도 화성시 봉담읍 동화리 600-5번지 쌍용프라자 3층 301호","category":"보건위생 - 미용원"},{"name":"와이앤케이학원","tel":"070-8283-9466","addr":"경기도 화성시 봉담읍 동화리 600-5번지 602호","category":"학원 - 보습학원"},{"name":"조안나음악학원","tel":"031-227-7449","addr":"경기도 화성시 봉담읍 동화리 600-5번지 5층 503호","category":"학원 - 예·체능계학원"},{"name":"조안나음악학원","tel":"031-480-8644","addr":"경기도 화성시 봉담읍 동화리 600-5번지 쌍용프라자 503호","category":"학원 - 예·체능계학원"},{"name":"죠스떡볶이화성봉담점","tel":"031-227-2979","addr":"경기도 화성시 봉담읍 동화리 600-5번지 109호","category":"일반휴게음식 - 스넥"},{"name":"찌개사랑","tel":"031-297-1755","addr":"경기도 화성시 봉담읍 동화리 600-5번지 1동 101호","category":"일반휴게음식 - 일반한식"},{"name":"테마노래연습장","tel":"031-278-9456","addr":"경기도 화성시 봉담읍 동화리 600-5번지 쌍용프라자 3층 303,304호","category":"레저업소 - 노 래 방"},{"name":"한방다원","tel":"031-000-0000","addr":"경기도 화성시 봉담읍 동화리 600-5번지 3층 301호","category":"일반휴게음식 - 서양음식"}]},{"lat":"37.220713266","long":"126.95462553","items":[{"name":"LYON(리옹)","tel":"070-3306-9878","addr":"경기도 화성시 봉담읍 동화리 556-8번지 1층","category":"일반휴게음식 - 서양음식"}]},{"lat":"37.221577132","long":"126.95193215","items":[{"name":"OK당구클럽","tel":"070-7718-0101","addr":"경기도 화성시 봉담읍 동화리 426-1번지 3층","category":"레저업소 - 당 구 장"},{"name":"가자주류화성총판","tel":"031-245-5527","addr":"경기도 화성시 봉담읍 동화리 426-1번지","category":"음료식품 - 주류 판매점"}]},{"lat":"37.230242219","long":"126.96908807","items":[{"name":"SK네트웍스(주) 동화주유소","tel":"031-295-5130","addr":"경기도 화성시 봉담읍 동화리 2-3번지","category":"연료판매점 - SK주유소"}]},{"lat":"37.221326713","long":"126.95648421","items":[{"name":"SK동화원평에너지","tel":"031-227-3309","addr":"경기도 화성시 봉담읍 동화리 439-7번지","category":"연료판매점 - 유류판매"}]},{"lat":"37.21974047","long":"126.9554261","items":[{"name":"THE헤어#","tel":"031-227-8626","addr":"경기도 화성시 봉담읍 동화리 558-6번지 103호","category":"보건위생 - 미용원"},{"name":"동화컴퓨터","tel":"031-295-5119","addr":"경기도 화성시 봉담읍 동화리 558-6","category":"사무통신 - 컴퓨터"},{"name":"예뿌다","tel":"031-223-1577","addr":"경기도 화성시 봉담읍 동화리 558-6번지 102호","category":"보건위생 - 피부미용실"},{"name":"일진회수산","tel":"031-227-2720","addr":"경기도 화성시 봉담읍 동화리 558-6번지 1층 101호","category":"음료식품 - 농·축·수산품"}]},{"lat":"37.217101652","long":"126.95857109","items":[{"name":"W에스테틱","tel":"031-278-6547","addr":"경기도 화성시 봉담읍 동화리 599-1번지 404-1호","category":"보건위생 - 피부미용실"},{"name":"갓맛족","tel":"031-296-0999","addr":"경기도 화성시 봉담읍 동화리 599-1번지 상도프라자 201호","category":"일반휴게음식 - 일반한식"},{"name":"끌림안경원","tel":"031-278-0039","addr":"경기도 화성시 봉담읍 동화리 599-1번지 상도프라자 105호","category":"보건위생 - 안경"},{"name":"다빈치스터디카페","tel":"031-295-4379","addr":"경기도 화성시 봉담읍 동화리 599-1번지 502호","category":"용역 서비스 - 사무서비스"},{"name":"뜨레모아","tel":"031-227-3339","addr":"경기도 화성시 봉담읍 동화리 599-1번지 상도프라자 103호","category":"음료식품 - 제과점"},{"name":"마스터피스(Masterpiece)명작미술학원","tel":"031-298-0360","addr":"경기도 화성시 봉담읍 동화리 599-1번지 702호","category":"학원 - 예·체능계학원"},{"name":"봉구스밥버거","tel":"031-297-7707","addr":"경기도 화성시 봉담읍 동화리 599-1번지 상도프라자 112호","category":"일반휴게음식 - 스넥"},{"name":"북경건강관리샵","tel":"031-292-1970","addr":"경기도 화성시 봉담읍 동화리 599-1번지 상도프라자 206호","category":"보건위생 - 피부미용실"},{"name":"뷰티예인헤어","tel":"031-245-1555","addr":"경기도 화성시 봉담읍 동화리 599-1번지 상도프라자 203호","category":"보건위생 - 미용원"},{"name":"성모키즈소아청소년과의원","tel":"","addr":"경기도 화성시 봉담읍 동화리 599-1번지 상도프라자 405, 406호","category":"의원 - 의원"},{"name":"성모피부과의원","tel":"031-298-1475","addr":"경기도 화성시 봉담읍 동화리 599-1번지 상도프라자 B-5호 302 봉담택지개발지구","category":"의원 - 의원"},{"name":"수아산부인과","tel":"031-297-3595","addr":"경기도 화성시 봉담읍 동화리 599-1번지 202호","category":"의원 - 의원"},{"name":"스페셜티커피교육학원","tel":"031-297-6969","addr":"경기도 화성시 봉담읍 동화리 599-1번지 상도프라자 705호","category":"학원 - 기능학원"},{"name":"아딸","tel":"031-297-6618","addr":"경기도 화성시 봉담읍 동화리 599-1번지 상도프라자 1층 102호","category":"일반휴게음식 - 일반한식"},{"name":"요거프레소","tel":"031-298-5485","addr":"경기도 화성시 봉담읍 동화리 599-1번지 104호","category":"일반휴게음식 - 서양음식"},{"name":"우리마음 아동발달센터","tel":"031-227-9674","addr":"경기도 화성시 봉담읍 동화리 599-1번지 상도프라자 5층 501호","category":"보건위생 - 기타대인서비스"},{"name":"정관장홍삼 봉담접","tel":"031-255-2304","addr":"경기도 화성시 봉담읍 동화리 599-1번지 상도프라자 1층 101호","category":"건강식품 - 홍삼제품"},{"name":"주식회사 쿱커피랩","tel":"031-227-6001","addr":"경기도 화성시 봉담읍 동화리 599-1번지 상도프라자 704호","category":"음료식품 - 기타음료식품"},{"name":"치킨마루 화성봉담점","tel":"02-000-0000","addr":"경기도 화성시 봉담읍 동화리 599-1번지 상도프라자 1층 113호","category":"일반휴게음식 - 스넥"},{"name":"통파이브 화성봉담점","tel":"031-227-5353","addr":"경기도 화성시 봉담읍 동화리 599-1번지 204호","category":"일반휴게음식 - 주점"},{"name":"화성커피협동조합","tel":"070-8852-8526","addr":"경기도 화성시 봉담읍 동화리 599-1번지 304호","category":"음료식품 - 기타음료식품"}]},{"lat":"37.212210274","long":"126.96205505","items":[{"name":"가가홈페이지제작","tel":"031-341-2456","addr":"경기도 화성시 봉담읍 동화리 628 휴먼시아동화마을 509-1303","category":"회원제형태 - 사무서비스"}]},{"lat":"37.216940929","long":"126.96267215","items":[{"name":"가우스수학교실","tel":"031-893-9969","addr":"경기도 화성시 봉담읍 동화리 617 휴먼시아동화마을 303-1303 50/","category":"회원제형태 - 학원"}]},{"lat":"37.221885138","long":"126.95593178","items":[{"name":"갈비명가궁 봉담점","tel":"031-413-5752","addr":"경기도 화성시 봉담읍 동화리 437-1번지 1층","category":"일반휴게음식 - 일반한식"},{"name":"성연금속","tel":"031-223-4579","addr":"경기도 화성시 봉담읍 동화리 437-1번지 1층","category":"건축자재 - 목재·석재·철물"},{"name":"태백산우드","tel":"031-296-3648","addr":"경기도 화성시 봉담읍 동화리 437-1","category":"건축자재 - 목재·석재·철물"}]},{"lat":"37.217050835","long":"126.96831658","items":[{"name":"강남골프존","tel":"031-227-6650","addr":"경기도 화성시 봉담읍 동화리 238-91번지 이정빌딩 2층,3층","category":"레저업소 - 스크린골프"},{"name":"아름다운커피유니온봉담점 (오지랖협동조합","tel":"031-298-0314","addr":"경기도 화성시 봉담읍 동화리 238-91번지 지하1층","category":"일반휴게음식 - 서양음식"},{"name":"오지랖센터","tel":"031-297-0314","addr":"경기도 화성시 봉담읍 동화리 238-91번지 지하1층","category":"용역 서비스 - 사무서비스"}]},{"lat":"37.216633114","long":"126.95857136","items":[{"name":"강의하는아이들학원","tel":"031-227-6657","addr":"경기도 화성시 봉담읍 동화리 599-3번지 주공프라자 704,705호","category":"학원 - 보습학원"},{"name":"경희대스포츠","tel":"031-227-3443","addr":"경기도 화성시 봉담읍 동화리 599-3번지 주공프라자901호,902호903호","category":"레저업소 - 헬스클럽"},{"name":"굿스킨앤바디","tel":"031-8001-1262","addr":"경기도 화성시 봉담읍 동화리 599-3번지 주공프라자 3층 301-2호","category":"보건위생 - 피부미용실"},{"name":"대천부양꼬치","tel":"031-291-0188","addr":"경기도 화성시 봉담읍 동화리 599-3번지 2층 205호","category":"일반휴게음식 - 일반한식"},{"name":"뒤풀이노래연습장","tel":"070-8947-4490","addr":"경기도 화성시 봉담읍 동화리 599-3번지 3층 302호,303호","category":"레저업소 - 노 래 방"},{"name":"뚱아빠 옛날통닭","tel":"031-297-2260","addr":"경기도 화성시 봉담읍 동화리 599-3번지 111호","category":"일반휴게음식 - 스넥"},{"name":"레드pc방","tel":"031-000-0000","addr":"경기도 화성시 봉담읍 동화리 599-3번지 9층","category":"레저업소 - 기타레져업소"},{"name":"레젠헤어샵","tel":"031-223-5214","addr":"경기도 화성시 봉담읍 동화리 599-3번지 주공프라자 203호","category":"보건위생 - 미용원"},{"name":"마이큐당구클럽","tel":"031-111-1111","addr":"경기도 화성시 봉담읍 동화리 599-3번지 504호.505호","category":"레저업소 - 당 구 장"},{"name":"명성한의원","tel":"02-1577-0000","addr":"경기도 화성시 봉담읍 동화리 599-3번지 주공프라자 5층 501,502호","category":"의원 - 한의원"},{"name":"미즈여성의원","tel":"031-297-8787","addr":"경기도 화성시 봉담읍 동화리 599-3번지 주공프라자 403동 403호","category":"의원 - 의원"},{"name":"발라발라(balla balla)","tel":"031-227-9445","addr":"경기도 화성시 봉담읍 동화리 599-3번지 주공프라자 1층 107호","category":"보건위생 - 피부미용실"},{"name":"봉담필수학학원","tel":"02-000-0000","addr":"경기도 화성시 봉담읍 동화리 599-3번지 주공프라자 5층 203호","category":"학원 - 보습학원"},{"name":"뷰티란트치과","tel":"031-278-0023","addr":"경기도 화성시 봉담읍 동화리 599-3번지 주공프라자 2층 401호","category":"의원 - 치과의원"},{"name":"쉐프의 부대찌개 화성봉담점","tel":"031-298-3990","addr":"경기도 화성시 봉담읍 동화리 599-3번지 204호","category":"일반휴게음식 - 일반한식"},{"name":"스타킹7080라이브","tel":"031-227-6467","addr":"경기도 화성시 봉담읍 동화리 599-3번지 주공프라자 3층 305호","category":"일반휴게음식 - 일반한식"},{"name":"시소봉담점","tel":"031-298-8675","addr":"경기도 화성시 봉담읍 동화리 599-3번지 주공프라자 201호","category":"일반휴게음식 - 스넥"},{"name":"아빠곰탕 봉담점","tel":"031-296-0326","addr":"경기도 화성시 봉담읍 동화리 599-3번지 주공프라자 3층 304호","category":"일반휴게음식 - 일반한식"},{"name":"영재사관정철어학원","tel":"031-297-3344","addr":"경기도 화성시 봉담읍 동화리 599-3번지 주공프라자 701~703호","category":"학원 - 보습학원"},{"name":"요가유즈바이필라테스","tel":"03-100-0000","addr":"경기도 화성시 봉담읍 동화리 599-3번지 주공프라자 402호","category":"레저업소 - 헬스클럽"},{"name":"용인대홍익태권도","tel":"031-227-6144","addr":"경기도 화성시 봉담읍 동화리 599-3번지 주공프라자 6층 601호","category":"학원 - 예·체능계학원"},{"name":"점플린 정글","tel":"031-278-3088","addr":"경기도 화성시 봉담읍 동화리 599-3번지 주공프라자 8층 802호 803호 801호","category":"레저업소 - 기타레져업소"},{"name":"컴포즈커피 화성봉담점","tel":"","addr":"경기도 화성시 봉담읍 동화리 599-3번지 1층 108호","category":"일반휴게음식 - 서양음식"},{"name":"파란하늘약국","tel":"031-297-6602","addr":"경기도 화성시 봉담읍 동화리 599-3번지 주공프라자 109동 110호","category":"약국 - 약국"},{"name":"해피아이즈","tel":"","addr":"경기도 화성시 봉담읍 동화리 599-3번지 주공프라자 301-1호","category":"보건위생 - 화장품"},{"name":"홍익 태권도장","tel":"031-227-0324","addr":"경기도 화성시 봉담읍 동화리 599-3번지 601호","category":"학원 - 예·체능계학원"}]},{"lat":"37.221394909","long":"126.97223554","items":[{"name":"거성테크","tel":"","addr":"경기도 화성시 봉담읍 동화리 139-1번지 화성공구유통밸리 102동 108호","category":"기타 - 기계공구"},{"name":"삼호종합전기","tel":"031-238-1954","addr":"경기도 화성시 봉담읍 동화리 139-1번지 화성공구유통밸리 102동 113호","category":"전기제품 - 기타전기제품"},{"name":"성일스텐","tel":"","addr":"경기도 화성시 봉담읍 동화리 139-1번지 화성공구유통밸리 102동 118호","category":"건축자재 - 기타건축자재"},{"name":"에스제이에스인더스트리/원격지","tel":"031-224-9840","addr":"경기도 화성시 봉담읍 동화리 139-1번지 화성공구유통밸리 102동 2층 202호","category":"기타 - 기타 전문점"},{"name":"유한에너지","tel":"02-1644-1016","addr":"경기도 화성시 봉담읍 동화리 139-1번지 화성공구유통밸리 102동 102호","category":"건축자재 - 보일러·펌프·샷시"}]},{"lat":"37.221017535","long":"126.94975799","items":[{"name":"경기굿맘케어협동조합","tel":"031-224-8679","addr":"경기도 화성시 봉담읍 동화리 425-24번지 2층 203호","category":"보건위생 - 기타대인서비스"},{"name":"봉담가축약품","tel":"031-298-0720","addr":"경기도 화성시 봉담읍 동화리 425-24번지","category":"농업 - 비료,사료,종자"},{"name":"이수기획","tel":"070-2768-5487","addr":"경기도 화성시 봉담읍 동화리 425-24번지","category":"유통업 영리 - 기타유통업"}]},{"lat":"37.222048119","long":"126.9579823","items":[{"name":"경기방충망","tel":"","addr":"경기도 화성시 봉담읍 동화리 647번지 동화마을신동아파밀리에 102동 505호","category":"건축자재 - 기타건축자재"},{"name":"세븐일레븐화성동화점","tel":"","addr":"경기도 화성시 봉담읍 동화리 647번지 동화마을신동아파밀리에아파트","category":"유통업 영리 - 편 의 점"}]},{"lat":"37.21740833","long":"126.95944969","items":[{"name":"경희대 함 태권스쿨","tel":"031-227-4494","addr":"경기도 화성시 봉담읍 동화리 597-2번지 702호","category":"학원 - 예·체능계학원"},{"name":"고명검도관","tel":"031-297-2167","addr":"경기도 화성시 봉담읍 동화리 597-2번지 스타타워3 703호","category":"학원 - 예·체능계학원"},{"name":"그집 앞","tel":"031-278-7369","addr":"경기도 화성시 봉담읍 동화리 597-2번지 스타타워 402, 403호","category":"일반휴게음식 - 주점"},{"name":"노랑통닭","tel":"031-000-0000","addr":"경기도 화성시 봉담읍 동화리 597-2번지 1층 108호","category":"일반휴게음식 - 스넥"},{"name":"띠앗찬가","tel":"070-8274-2486","addr":"경기도 화성시 봉담읍 동화리 597-2번지 (스타타워3제103호)","category":"음료식품 - 기타음료식품"},{"name":"보그","tel":"031-293-3805","addr":"경기도 화성시 봉담읍 동화리 597-2번지 스타타워3제 1층 101호","category":"의류 - 정장"},{"name":"보네르헤어카페","tel":"031-227-0954","addr":"경기도 화성시 봉담읍 동화리 597-2번지 201호","category":"보건위생 - 미용원"},{"name":"봉담에스핏","tel":"031-223-5214","addr":"경기도 화성시 봉담읍 동화리 597-2번지 스타타워 4층 404호 3","category":"건강식품 - 기타건강식품"},{"name":"봉담중앙요양원","tel":"031-295-8088","addr":"경기도 화성시 봉담읍 동화리 597-2번지 스타타워 6층 3","category":"기타의료기관 - 기타의료기관 및 기타"},{"name":"불불이족발","tel":"031-297-7892","addr":"경기도 화성시 봉담읍 동화리 597-2번지 110(스타타워3제1층)","category":"일반휴게음식 - 일반한식"},{"name":"소문난24시토종순대국","tel":"031-297-5535","addr":"경기도 화성시 봉담읍 동화리 597-2번지 스타타워 107호","category":"일반휴게음식 - 일반한식"},{"name":"스타노래연습장","tel":"031-291-0332","addr":"경기도 화성시 봉담읍 동화리 597-2번지 스타타워 503동 504호 3","category":"레저업소 - 노 래 방"},{"name":"옛날장터치킨","tel":"031-227-9289","addr":"경기도 화성시 봉담읍 동화리 597-2번지 스타타워3차 109호","category":"일반휴게음식 - 스넥"},{"name":"이엠아이영어교습소","tel":"","addr":"경기도 화성시 봉담읍 동화리 597-2번지 스타타워3, 303 A","category":"학원 - 외국어학원"},{"name":"종로보석","tel":"031-298-7420","addr":"경기도 화성시 봉담읍 동화리 597-2번지 스타타워3 102호","category":"신변잡화 - 귀금속"},{"name":"지인학원","tel":"031-297-1235","addr":"경기도 화성시 봉담읍 동화리 597-2번지 스타타워3) 701호","category":"학원 - 보습학원"},{"name":"치어스 봉담점","tel":"031-298-3336","addr":"경기도 화성시 봉담읍 동화리 597-2번지 스타타워 2층 203,204호","category":"일반휴게음식 - 서양음식"},{"name":"커피라이트","tel":"031-227-1358","addr":"경기도 화성시 봉담읍 동화리 597-2번지 104,105호","category":"일반휴게음식 - 서양음식"},{"name":"한헤어","tel":"031-298-9919","addr":"경기도 화성시 봉담읍 동화리 597-2번지 106호","category":"보건위생 - 미용원"},{"name":"해피팡팡","tel":"031-232-5538","addr":"경기도 화성시 봉담읍 동화리 597-2번지 스타타워3차 401호","category":"레저업소 - 기타레져업소"},{"name":"화성봉담ILS어학원","tel":"031-297-0513","addr":"경기도 화성시 봉담읍 동화리 597-2번지 스타타워 301호 ,302,303호","category":"학원 - 외국어학원"}]},{"lat":"37.216858267","long":"126.95828957","items":[{"name":"고려힐링정신건강의학과의원","tel":"031-302-8998","addr":"경기도 화성시 봉담읍 동화리 599-2번지 307,308호","category":"의원 - 의원"},{"name":"꼬봉축산","tel":"070-8837-0909","addr":"경기도 화성시 봉담읍 동화리 599-2번지 113호","category":"음료식품 - 정육점"},{"name":"대가떡집","tel":"031-227-8986","addr":"경기도 화성시 봉담읍 동화리 599-2번지 이원타워 111호","category":"음료식품 - 제과점"},{"name":"더불어숲사회적협동조합(카페맑은샘,더숲요","tel":"031-227-2892","addr":"경기도 화성시 봉담읍 동화리 599-2번지 이원타워 1002호","category":"일반휴게음식 - 스넥"},{"name":"더페이스샵 봉담점","tel":"031-000-0000","addr":"경기도 화성시 봉담읍 동화리 599-2번지 1층 102호","category":"보건위생 - 화장품"},{"name":"두부장터","tel":"031-298-3348","addr":"경기도 화성시 봉담읍 동화리 599-2번지 이원타워빌딩 108호","category":"음료식품 - 기타음료식품"},{"name":"롯데리아화성봉담점","tel":"031-278-8181","addr":"경기도 화성시 봉담읍 동화리 599-2번지 이원타워 101호","category":"일반휴게음식 - 서양음식"},{"name":"루트수학보습학원","tel":"031-278-0887","addr":"경기도 화성시 봉담읍 동화리 599-2번지 이원타워 609호","category":"학원 - 보습학원"},{"name":"맘마미아","tel":"031-278-0811","addr":"경기도 화성시 봉담읍 동화리 599-2번지 봉담택지개발지구B-6115,116","category":"일반휴게음식 - 서양음식"},{"name":"베스킨라빈스(화성봉담점)","tel":"031-294-3131","addr":"경기도 화성시 봉담읍 동화리 599-2번지 이원타워 106호","category":"음료식품 - 제과점"},{"name":"봉담아이폰수리센터 액정수리","tel":"031-227-8943","addr":"경기도 화성시 봉담읍 동화리 599-2번지 102호","category":"수리서비스 - 사무·통신기기수리"},{"name":"봉담알카리사우나","tel":"031-278-5090","addr":"경기도 화성시 봉담읍 동화리 599-2번지 이원타워 801,901호","category":"보건위생 - 사우나"},{"name":"봉담제일안과의원","tel":"031-890-8275","addr":"경기도 화성시 봉담읍 동화리 599-2번지 206,207호","category":"의원 - 의원"},{"name":"분당영수학원","tel":"031-227-5355","addr":"경기도 화성시 봉담읍 동화리 599-2번지 이원타워 401호,402호일부","category":"학원 - 외국어학원"},{"name":"서울S플러스치과의원","tel":"031-296-2835","addr":"경기도 화성시 봉담읍 동화리 599-2번지 406호","category":"의원 - 치과의원"},{"name":"스트라이크존 봉담구장","tel":"031-292-6999","addr":"경기도 화성시 봉담읍 동화리 599-2번지 8층 803호","category":"레저업소 - 기타레져업소"},{"name":"신바람","tel":"031-227-8965","addr":"경기도 화성시 봉담읍 동화리 599-2번지 109호","category":"일반휴게음식 - 일반한식"},{"name":"아기와풍차스튜디오","tel":"031-296-4779","addr":"경기도 화성시 봉담읍 동화리 599-2번지 이원타워 3층 306호","category":"광학제품 - 사진관"},{"name":"아름드리독서실","tel":"031-227-0200","addr":"경기도 화성시 봉담읍 동화리 599-2번지 이원타워 506호 506호~506호","category":"학원 - 독서실"},{"name":"아발론랭콘잉글리쉬봉담어학원","tel":"031-8003-0503","addr":"경기도 화성시 봉담읍 동화리 599-2번지 503호","category":"학원 - 외국어학원"},{"name":"와이엔케이 렙타일","tel":"","addr":"경기도 화성시 봉담읍 동화리 599-2번지 5층 507호","category":"문화.취미 - 애완동물"},{"name":"이원휘트니스클럽","tel":"031-278-4007","addr":"경기도 화성시 봉담읍 동화리 599-2번지 이원타워 602호","category":"회원제형태 - 레져업소"},{"name":"제이골프","tel":"031-278-6161","addr":"경기도 화성시 봉담읍 동화리 599-2번지 이원타워 1001호","category":"레저업소 - 스크린골프"},{"name":"콩툰","tel":"070-4404-0277","addr":"경기도 화성시 봉담읍 동화리 599-2번지 이원타워 203호","category":"일반휴게음식 - 서양음식"},{"name":"탑플레이스PC방","tel":"070-2332-6869","addr":"경기도 화성시 봉담읍 동화리 599-2번지 302, 303호","category":"레저업소 - 기타레져업소"},{"name":"투다리봉담점","tel":"031-298-3594","addr":"경기도 화성시 봉담읍 동화리 599-2번지 택지지구이원타워 205호","category":"일반휴게음식 - 주점"},{"name":"팔복내과가정의학과","tel":"031-278-2525","addr":"경기도 화성시 봉담읍 동화리 599-2 이원타워빌딩304호~305호 304","category":"의원 - 의원"},{"name":"핑크","tel":"031-297-7197","addr":"경기도 화성시 봉담읍 동화리 봉담택지개발지구B-6블럭이원타워 103","category":"보건위생 - 화장품"},{"name":"헤어블리스","tel":"031-278-9698","addr":"경기도 화성시 봉담읍 동화리 599-2번지 301호","category":"보건위생 - 미용원"},{"name":"화성봉담언어&심리치료센터","tel":"031-227-7578","addr":"경기도 화성시 봉담읍 동화리 599-2번지 이원타워 607호","category":"보건위생 - 기타대인서비스"},{"name":"화성봉담언어&심리치료센터(2호점)","tel":"070-4145-7578","addr":"경기도 화성시 봉담읍 동화리 599-2번지 604호","category":"보건위생 - 기타대인서비스"}]},{"lat":"37.22068473","long":"126.95106519","items":[{"name":"고마아구찜 볼찜","tel":"031-292-3255","addr":"경기도 화성시 봉담읍 동화리 427번지 1층","category":"일반휴게음식 - 일반한식"},{"name":"커피빌","tel":"031-294-6088","addr":"경기도 화성시 봉담읍 동화리 427번지","category":"일반휴게음식 - 서양음식"}]},{"lat":"37.216218842","long":"126.95912365","items":[{"name":"고봉민김밥인(화성봉담점)","tel":"031-298-3588","addr":"경기도 화성시 봉담읍 동화리 600-7번지 제이스프라자","category":"일반휴게음식 - 일반한식"},{"name":"명치과의원","tel":"031-278-2804","addr":"경기도 화성시 봉담읍 동화리 600-7번지 제이스프라자 402호","category":"의원 - 치과의원"},{"name":"바자헤어","tel":"031-298-0431","addr":"경기도 화성시 봉담읍 동화리 600-7번지 3층 303호","category":"보건위생 - 미용원"},{"name":"밝은안경","tel":"031-292-0880","addr":"경기도 화성시 봉담읍 동화리 600-7번지 101호","category":"보건위생 - 안경"},{"name":"아리따움","tel":"031-251-8051","addr":"경기도 화성시 봉담읍 동화리 600-7번지 제이스프라자 102호","category":"보건위생 - 화장품"},{"name":"안스킨케어","tel":"031-278-6500","addr":"경기도 화성시 봉담읍 동화리 600-7번지 제이스프라자 301동 1호","category":"회원제형태 - 기타4"},{"name":"여농한문서예학원","tel":"031-296-0832","addr":"경기도 화성시 봉담읍 동화리 600-7번지 제이프라자 403호","category":"학원 - 기타 교육기관"},{"name":"여주백반","tel":"031-273-9342","addr":"경기도 화성시 봉담읍 동화리 600-7번지 제이스프라자 203호","category":"일반휴게음식 - 일반한식"},{"name":"연세탑클래스학원","tel":"031-278-0543","addr":"경기도 화성시 봉담읍 동화리 600-7번지 제이스프라자 702호","category":"학원 - 보습학원"},{"name":"용인대태풍태권도","tel":"031-278-5511","addr":"경기도 화성시 봉담읍 동화리 봉담택지개발지구 C-9블럭제이스프라자 603호","category":"학원 - 예·체능계학원"},{"name":"족발이땡기는날","tel":"031-298-3882","addr":"경기도 화성시 봉담읍 동화리 600-7번지 제이스프라자 1층 110호","category":"일반휴게음식 - 일반한식"},{"name":"차일드유어학원","tel":"031-297-0582","addr":"경기도 화성시 봉담읍 동화리 600-7번지 701호","category":"학원 - 외국어학원"},{"name":"참숯꼼장어","tel":"031-227-9280","addr":"경기도 화성시 봉담읍 동화리 600-7번지 109호","category":"일반휴게음식 - 일반한식"},{"name":"큰사랑약국","tel":"031-278-1366","addr":"경기도 화성시 봉담읍 동화리 600-7번지 제이스프라자 104호,105호","category":"약국 - 약국"},{"name":"태후사랑","tel":"031-297-0881","addr":"경기도 화성시 봉담읍 동화리 600-7번지 제이스프라자 110호","category":"보건위생 - 화장품"},{"name":"한국금거래소","tel":"031-298-0988","addr":"경기도 화성시 봉담읍 동화리 600-7번지 제이스프라자 202호","category":"신변잡화 - 귀금속"},{"name":"한솔플러스러닝센터동화학원","tel":"031-8009-0018","addr":"경기도 화성시 봉담읍 동화리 600-7번지 제이스프라자 6층 601호","category":"학원 - 보습학원"}]},{"lat":"37.218227268","long":"126.9567903","items":[{"name":"고운아이어린이집[아이행복]","tel":"031-256-9425","addr":"경기도 화성시 봉담읍 동화리 594번지 휴먼시아동화마을 104동 106호","category":"학원 - 유아원"}]},{"lat":"37.219488859","long":"126.95715007","items":[{"name":"광명수산","tel":"031-227-8892","addr":"경기도 화성시 봉담읍 동화리 484-1번지","category":"일반휴게음식 - 일반한식"},{"name":"소문난대구왕뽈찜","tel":"031-297-7050","addr":"경기도 화성시 봉담읍 동화리 484-1번지 1층 102호","category":"일반휴게음식 - 일반한식"},{"name":"족발야시장","tel":"031-298-4969","addr":"경기도 화성시 봉담읍 동화리 484-1번지","category":"일반휴게음식 - 일반한식"}]},{"lat":"37.220656301","long":"126.97318226","items":[{"name":"광진케미칼","tel":"031-230-9595","addr":"경기도 화성시 봉담읍 동화리 139-1번지 화성유통공구밸리 107동 102호","category":"기타 - 기타 전문점"},{"name":"다스정밀주식회사","tel":"031-267-4785","addr":"경기도 화성시 봉담읍 동화리 139-1번지 화성공구유통밸리 107동 105호","category":"기타 - 기계공구"},{"name":"오성상사","tel":"031-230-9605","addr":"경기도 화성시 봉담읍 동화리 139-1번지 화성공구유통밸리 107동 115호","category":"건축자재 - 건축용 요업제품"},{"name":"원컴퓨터조각","tel":"031-230-9944","addr":"경기도 화성시 봉담읍 동화리 139-1번지 외9필지화성공구유통밸리 107동 107호","category":"용역 서비스 - 기타용역서비스"},{"name":"이화에프에이","tel":"031-222-5473","addr":"경기도 화성시 봉담읍 동화리 139-1번지 화성공구유통밸리 107동 110호","category":"기타 - 기계공구"},{"name":"인흥산업","tel":"031-230-9733","addr":"경기도 화성시 봉담읍 동화리 139-1번지 외9필지화성유통밸리 107동 116호","category":"건축자재 - 기타건축자재"},{"name":"주영켐텍","tel":"031-352-2372","addr":"경기도 화성시 봉담읍 동화리 139-1번지 화성공구유통밸리 107동 210호","category":"기타 - 기타 전문점"},{"name":"지이생활안전","tel":"031-225-8363","addr":"경기도 화성시 봉담읍 동화리 139-1번지 화성공구유통밸리 107동 102호","category":"기타 - 기계공구"},{"name":"큐테크놀로지","tel":"031-222-5845","addr":"경기도 화성시 봉담읍 동화리 139-1번지 외9필지 107동 224호","category":"전기제품 - 기타전기제품"},{"name":"태원산업","tel":"031-230-9859","addr":"경기도 화성시 봉담읍 동화리 139-1번지 화성공구유통밸리 107동 123호","category":"기타 - 기계공구"},{"name":"화성엘모타","tel":"031-230-9495","addr":"경기도 화성시 봉담읍 동화리 139-1번지 화성공구유통밸리 107동 101호","category":"기타 - 기계공구"}]},{"lat":"37.220523956","long":"126.95440031","items":[{"name":"귀뚜라미 보일러","tel":"031-221-2129","addr":"경기도 화성시 봉담읍 동화리 559-4번지","category":"용역 서비스 - 기타용역서비스"},{"name":"순수수제청","tel":"031-000-0000","addr":"경기도 화성시 봉담읍 동화리 559-4번지 101호","category":"음료식품 - 기타음료식품"}]},{"lat":"37.22352371","long":"126.95273082","items":[{"name":"금성","tel":"02-0000-0000","addr":"경기도 화성시 봉담읍 동화리 416-6번지 (5호)","category":"문화.취미 - 화방·표구점"},{"name":"봉담유리","tel":"031-278-4030","addr":"경기도 화성시 봉담읍 동화리 416-6","category":"건축자재 - 유리"},{"name":"온앤온","tel":"031-297-2757","addr":"경기도 화성시 봉담읍 동화리 416-6번지 1층 106호","category":"보건위생 - 미용원"},{"name":"젤 이쁘다 네일","tel":"","addr":"경기도 화성시 봉담읍 동화리 416-6번지 102호","category":"보건위생 - 피부미용실"}]},{"lat":"37.217427152","long":"126.96169171","items":[{"name":"길청과","tel":"031-237-7834","addr":"경기도 화성시 봉담읍 동화리 617번지 휴먼시아동화마을 307동 105호","category":"음료식품 - 농·축·수산품"}]},{"lat":"37.216410368","long":"126.96589461","items":[{"name":"깡통곱창","tel":"031-271-4119","addr":"경기도 화성시 봉담읍 동화리 245-41번지","category":"일반휴게음식 - 일반한식"}]},{"lat":"37.213822238","long":"126.95954188","items":[{"name":"꼬망쎄어린이집[아이행복]","tel":"031-238-0639","addr":"경기도 화성시 봉담읍 동화리 580번지 휴먼시아 605동 102호","category":"학원 - 유아원"}]},{"lat":"37.218910977","long":"126.95409715","items":[{"name":"꽃이랑 커피랑","tel":"031-293-4359","addr":"경기도 화성시 봉담읍 동화리 432-14번지 외2필지 101호","category":"일반휴게음식 - 서양음식"},{"name":"봉담황소곱창","tel":"031-8067-8324","addr":"경기도 화성시 봉담읍 동화리 432-14번지 105호","category":"일반휴게음식 - 일반한식"},{"name":"서연수산","tel":"031-296-6789","addr":"경기도 화성시 봉담읍 동화리 432-14번지 106호","category":"음료식품 - 농·축·수산품"},{"name":"아씨닭발","tel":"031-293-4590","addr":"경기도 화성시 봉담읍 동화리 432-14번지 1층 107호","category":"일반휴게음식 - 일반한식"},{"name":"천상대게","tel":"031-296-6789","addr":"경기도 화성시 봉담읍 동화리 432-14번지 106호","category":"일반휴게음식 - 일반한식"},{"name":"탐나석기","tel":"031-227-7317","addr":"경기도 화성시 봉담읍 동화리 432-14번지 1층 104,105호","category":"일반휴게음식 - 일반한식"}]},{"lat":"37.224911851","long":"126.95403694","items":[{"name":"나비잠 맘케어","tel":"031-8004-0535","addr":"경기도 화성시 봉담읍 동화리 356-1번지 202호","category":"용역 서비스 - 종합용역"},{"name":"원해물아구찜","tel":"031-227-7708","addr":"경기도 화성시 봉담읍 동화리 356-1번지","category":"일반휴게음식 - 일반한식"}]},{"lat":"37.221413363","long":"126.97395939","items":[{"name":"남광조명","tel":"031-898-9354","addr":"경기도 화성시 봉담읍 동화리 140-2번지","category":"건축자재 - 조명기구"},{"name":"우먼로드","tel":"031-225-5284","addr":"경기도 화성시 봉담읍 동화리 140-2번지","category":"직물 - 침구·수예점"},{"name":"짬뽕깡패꼬짬","tel":"031-222-8252","addr":"경기도 화성시 봉담읍 동화리 140-2번지","category":"일반휴게음식 - 중국식"},{"name":"행운인테리어","tel":"031-224-3281","addr":"경기도 화성시 봉담읍 동화리 140-2번지 외1필지","category":"건축자재 - 인테리어전문"}]},{"lat":"37.221467376","long":"126.97375656","items":[{"name":"남성아이피","tel":"031-224-6848","addr":"경기도 화성시 봉담읍 동화리 139-1번지 화성공구상가 110동 116호","category":"기타 - 기계공구"},{"name":"대운금속","tel":"031-230-9461","addr":"경기도 화성시 봉담읍 동화리 139-1번지 화성공구유통밸리 110동 120호","category":"건축자재 - 목재·석재·철물"},{"name":"도상베아링","tel":"031-230-9500","addr":"경기도 화성시 봉담읍 동화리 139-1번지 화성공구상가 110동 102호","category":"기타 - 기계공구"},{"name":"삼성테크","tel":"031-230-9580","addr":"경기도 화성시 봉담읍 동화리 139-1번지 화성공구유통밸리 110동 101호","category":"건축자재 - 기타건축자재"},{"name":"선우조명","tel":"031-230-9575","addr":"경기도 화성시 봉담읍 동화리 139-1번지 화성공구상가 110동 104호","category":"건축자재 - 조명기구"},{"name":"신창특수테이프주식회사","tel":"070-8291-3955","addr":"경기도 화성시 봉담읍 동화리 139-1번지 화성공구유통밸리 110동 202호","category":"신변잡화 - 기타잡화"},{"name":"태양상사","tel":"031-230-9721","addr":"경기도 화성시 봉담읍 동화리 139-1번지 화성공구유통밸리 110동 121호","category":"건축자재 - 기타건축자재"}]},{"lat":"37.220073234","long":"126.95390486","items":[{"name":"네네치킨 봉담점","tel":"031-297-4470","addr":"경기도 화성시 봉담읍 동화리 560-9번지 1층","category":"일반휴게음식 - 스넥"}]},{"lat":"37.22191036","long":"126.95157137","items":[{"name":"노가리&비어(봉담점)","tel":"031-227-3359","addr":"경기도 화성시 봉담읍 동화리 425-22번지 1층","category":"일반휴게음식 - 일반한식"}]},{"lat":"37.216271865","long":"126.95639717","items":[{"name":"누나홀닭","tel":"031-227-0737","addr":"경기도 화성시 봉담읍 동화리 575번지 동화마을동일하이빌 209,210,211호","category":"일반휴게음식 - 스넥"},{"name":"동일반찬","tel":"031-297-1988","addr":"경기도 화성시 봉담읍 동화리 575번지 동화마을동일하이빌 상가동 1층 105호","category":"음료식품 - 기타음료식품"},{"name":"동일숲 어린이집[아이행복]","tel":"031-297-7911","addr":"경기도 화성시 봉담읍 동화리 575번지 동화마을동일하이빌","category":"학원 - 유아원"},{"name":"동일책문고","tel":"031-298-8697","addr":"경기도 화성시 봉담읍 동화리 575번지 동화마을동일하이빌아파트 2층 207호","category":"서적문구 - 문구용품"},{"name":"동일책문고","tel":"031-298-8697","addr":"경기도 화성시 봉담읍 동화리 575번지 동화마을동일하이빌아파트 2층 207호","category":"서적문구 - 일반서적"},{"name":"브레인스토밍 영어교습소","tel":"","addr":"경기도 화성시 봉담읍 동화리 575번지 동화마을동일하이빌 109호","category":"학원 - 외국어학원"},{"name":"쌈지스토리","tel":"031-295-9171","addr":"경기도 화성시 봉담읍 동화리 575 동화마을동일하이빌상가 109","category":"직물 - 침구·수예점"},{"name":"컷앤펌","tel":"031-278-6682","addr":"경기도 화성시 봉담읍 동화리 575번지 동화마을동일하이빌 상가동 104호","category":"보건위생 - 미용원"},{"name":"핑크엔젤","tel":"031-298-5855","addr":"경기도 화성시 봉담읍 동화리 575번지 동화마을동일하이빌 상가동 105호","category":"의류 - 아동의류"}]},{"lat":"37.220522945","long":"126.95198919","items":[{"name":"뉴hs 스포츠","tel":"031-278-0775","addr":"경기도 화성시 봉담읍 동화리 406-1번지","category":"레져용품 - 스포츠·레져용품"},{"name":"체육센타 매점","tel":"02-0000-0000","addr":"경기도 화성시 봉담읍 동화리 406-1번지","category":"음료식품 - 기타음료식품"},{"name":"화성시니어클럽 노노카페 나래울점","tel":"031-8059-4349","addr":"경기도 화성시 봉담읍 동화리 406-1번지 1층","category":"일반휴게음식 - 서양음식"},{"name":"화성시니어클럽 노노카페 노작홍사용문학관","tel":"031-8059-4349","addr":"경기도 화성시 봉담읍 동화리 406-1번지 1층","category":"일반휴게음식 - 서양음식"},{"name":"화성시니어클럽 노노카페 화성시청점","tel":"031-8059-4349","addr":"경기도 화성시 봉담읍 동화리 406-1번지 1층","category":"일반휴게음식 - 서양음식"},{"name":"화성시니어클럽 노노카페화성국민센터점","tel":"031-8059-4349","addr":"경기도 화성시 봉담읍 동화리 406-1번지 1층","category":"일반휴게음식 - 서양음식"},{"name":"화성시니어클럽노노카페(기아자동차화성공","tel":"031-8059-4348","addr":"경기도 화성시 봉담읍 동화리 406-1번지 1층","category":"일반휴게음식 - 서양음식"}]},{"lat":"37.224794637","long":"126.95384547","items":[{"name":"늘푸른상재","tel":"031-297-1119","addr":"경기도 화성시 봉담읍 동화리 356-3번지","category":"직물 - 카페트,커튼,천막,지물"}]},{"lat":"37.219217532","long":"126.95459269","items":[{"name":"다담옥","tel":"031-298-1900","addr":"경기도 화성시 봉담읍 동화리 562-12번지","category":"일반휴게음식 - 일반한식"}]},{"lat":"37.217075927","long":"126.96221016","items":[{"name":"다인생고기","tel":"031-297-4354","addr":"경기도 화성시 봉담읍 동화리 617번지 휴먼시아동화마을 상가동 102호","category":"일반휴게음식 - 일반한식"},{"name":"동화학원","tel":"031-227-4473","addr":"경기도 화성시 봉담읍 동화리 617번지 휴먼시아 상가동 203호","category":"학원 - 보습학원"}]},{"lat":"37.217858027","long":"126.95726372","items":[{"name":"대명유통","tel":"031-206-8337","addr":"경기도 화성시 봉담읍 동화리 594 휴먼시아 동화마을 105-904 16/","category":"음료식품 - 기타음료식품"}]},{"lat":"37.222604404","long":"126.95214553","items":[{"name":"대한요양보호사교육원","tel":"031-227-0107","addr":"경기도 화성시 봉담읍 동화리 418-5번지 2층 일부","category":"학원 - 기능학원"}]},{"lat":"37.220503167","long":"126.97335132","items":[{"name":"대흥종합산업","tel":"061-230-9998","addr":"경기도 화성시 봉담읍 동화리 139-1번지 화성공구유통밸리 108동 118호","category":"건축자재 - 기타건축자재"},{"name":"두산기계서비스","tel":"","addr":"경기도 화성시 봉담읍 동화리 139-1번지 화성공구유통밸리 108동 102호","category":"수리서비스 - 기타수리서비스"},{"name":"레인보우솔루션","tel":"031-292-1586","addr":"경기도 화성시 봉담읍 동화리 139-1번지 화성공구유통밸리 108동 216호","category":"사무통신 - 컴퓨터"},{"name":"세화테크/원격지","tel":"031-221-4627","addr":"경기도 화성시 봉담읍 동화리 139-1 108-201","category":"기타 - 기타 전문점"},{"name":"스프링하우스","tel":"031-230-9615","addr":"경기도 화성시 봉담읍 동화리 139-1번지 화성공구유통밸리 108동 115호","category":"기타 - 기계공구"},{"name":"엠와이커팅","tel":"031-233-1048","addr":"경기도 화성시 봉담읍 동화리 139-1번지 화성공구유통밸리 108동 106호","category":"건축자재 - 기타건축자재"},{"name":"우리명판","tel":"031-230-9950","addr":"경기도 화성시 봉담읍 동화리 139-1번지 화성공구유통밸리 108동 120호","category":"기타 - 기타 전문점"}]},{"lat":"37.216714627","long":"126.95970922","items":[{"name":"더네일(The nail)","tel":"070-4110-6739","addr":"경기도 화성시 봉담읍 동화리 600-3번지 파크프라자 405호","category":"보건위생 - 피부미용실"},{"name":"로로샤 봉담점","tel":"031-227-9949","addr":"경기도 화성시 봉담읍 동화리 600-3번지 파크프라자 1층 107호","category":"의류 - 아동의류"},{"name":"명품노래연습장","tel":"031-227-2454","addr":"경기도 화성시 봉담읍 동화리 600-3번지 404호 파크파라자","category":"레저업소 - 노 래 방"},{"name":"봉담H&S실용음악학원","tel":"031-278-3350","addr":"경기도 화성시 봉담읍 동화리 600-3번지 파크프라자 703,704호","category":"회원제형태 - 학원"},{"name":"봉담간호전문학원","tel":"031-278-4104","addr":"경기도 화성시 봉담읍 동화리 600-3번지 파크프라자 501,502호","category":"학원 - 기능학원"},{"name":"세븐일레븐화성봉담제일점","tel":"031-227-5305","addr":"경기도 화성시 봉담읍 동화리 600-3번지 파크프라자 106호","category":"유통업 영리 - 편 의 점"},{"name":"아름다운핫요가","tel":"031-297-0467","addr":"경기도 화성시 봉담읍 동화리 600-3번지 파크프라자 701,702호","category":"회원제형태 - 레져업소"},{"name":"조개까는돼지","tel":"031-278-5454","addr":"경기도 화성시 봉담읍 동화리 600-3번지 파크프라자 103,104호","category":"일반휴게음식 - 일반한식"},{"name":"칭다오양꼬치","tel":"031-295-5252","addr":"경기도 화성시 봉담읍 동화리 600-3번지 파크프라자 1층 101,102호","category":"일반휴게음식 - 일반한식"},{"name":"토마토리빙텔","tel":"031-278-7997","addr":"경기도 화성시 봉담읍 동화리 600-3번지 6층","category":"학원 - 독서실"},{"name":"트리플PC방(TRIPLE)","tel":"070-8687-2353","addr":"경기도 화성시 봉담읍 동화리 600-3번지 전체파크프라자 3층 전체","category":"레저업소 - 기타레져업소"},{"name":"펀비어킹","tel":"031-278-7775","addr":"경기도 화성시 봉담읍 동화리 600-3번지 (봉당택지지구D-12블럭파크프라자108~10호)","category":"일반휴게음식 - 주점"},{"name":"포메인화성봉담점","tel":"031-278-6742","addr":"경기도 화성시 봉담읍 동화리 600-3번지 파크프라자 204호","category":"일반휴게음식 - 일반한식"},{"name":"한일떡볶이","tel":"031-295-5767","addr":"경기도 화성시 봉담읍 동화리 600-3번지 파크프라자 105호","category":"일반휴게음식 - 스넥"}]},{"lat":"37.221606205","long":"126.95692345","items":[{"name":"더담아트&카페","tel":"031-298-0744","addr":"경기도 화성시 봉담읍 동화리 398-4번지 2층 201호","category":"일반휴게음식 - 서양음식"},{"name":"백세장어","tel":"031-227-9209","addr":"경기도 화성시 봉담읍 동화리 398-4번지","category":"일반휴게음식 - 일반한식"},{"name":"장안순대국","tel":"031-295-6771","addr":"경기도 화성시 봉담읍 동화리 398-4번지 1동 1층","category":"일반휴게음식 - 일반한식"}]},{"lat":"37.221151745","long":"126.97268632","items":[{"name":"더본테크","tel":"","addr":"경기도 화성시 봉담읍 동화리 139-1번지 화성공구유통밸리 104동 104호","category":"기타 - 기계공구"},{"name":"동일종합툴링","tel":"031-230-9709","addr":"경기도 화성시 봉담읍 동화리 139-1 9필지화성공구유통밸리 104-105","category":"기타 - 기계공구"},{"name":"디에스피/원격지","tel":"031-237-3701","addr":"경기도 화성시 봉담읍 동화리 139-1번지 화성공구유통밸리 104동 219호","category":"기타 - 기타 전문점"},{"name":"신성전철","tel":"031-230-9456","addr":"경기도 화성시 봉담읍 동화리 139-1번지 황성공구유통밸리 104동 106호","category":"기타 - 기계공구"},{"name":"에어테크시스템","tel":"070-4095-8864","addr":"경기도 화성시 봉담읍 동화리 139-1번지 화성공구유통밸리 104동 202호","category":"전기제품 - 기타전기제품"},{"name":"오성전열","tel":"031-230-9433","addr":"경기도 화성시 봉담읍 동화리 139-1번지 화성공구유통상가 104동 113호","category":"전기제품 - 냉열기기"},{"name":"이레종합상사","tel":"031-235-1610","addr":"경기도 화성시 봉담읍 동화리 139-1번지 화성공구유통밸리 104동 121호","category":"기타 - 기계공구"},{"name":"이레테크","tel":"031-222-9367","addr":"경기도 화성시 봉담읍 동화리 139-1번지 화성공구유통밸리 104동 208호","category":"기타 - 기계공구"},{"name":"재성웰텍","tel":"031-230-9525","addr":"경기도 화성시 봉담읍 동화리 139-1번지 화성공구유통밸리 104동 116호","category":"기타 - 기계공구"},{"name":"주식회사 케이엠씨컴퍼니","tel":"031-232-4010","addr":"경기도 화성시 봉담읍 동화리 139-1번지 화성공구유통밸리 104동 203호","category":"신변잡화 - 기타잡화"},{"name":"프리마테크놀로지주식회사","tel":"070-7807-7476","addr":"경기도 화성시 봉담읍 동화리 139-1번지 화성공구유통밸리 104동 207호","category":"서적문구 - 과학기자재"},{"name":"프리마테크놀로지주식회사/원격지","tel":"","addr":"경기도 화성시 봉담읍 동화리 139-1번지 화성공구유통밸리 104동 207호","category":"기타 - 기타 전문점"},{"name":"흥일상사","tel":"031-230-9577","addr":"경기도 화성시 봉담읍 동화리 139-1번지 화성공구유통밸리 104동 112호","category":"기타 - 기계공구"}]},{"lat":"37.219577947","long":"126.95459246","items":[{"name":"더왁싱","tel":"","addr":"경기도 화성시 봉담읍 동화리 561-10번지 1층 일부","category":"보건위생 - 피부미용실"},{"name":"엄마의 재봉틀","tel":"031-298-2329","addr":"경기도 화성시 봉담읍 동화리 561-10번지","category":"문화.취미 - 문화취미기타"},{"name":"힐링스킨앤바디","tel":"031-297-0234","addr":"경기도 화성시 봉담읍 동화리 561-10번지 상가 102호","category":"회원제형태 - 기타4"}]},{"lat":"37.217159055","long":"126.96864325","items":[{"name":"덴트하우스","tel":"031-297-4549","addr":"경기도 화성시 봉담읍 동화리 238-1","category":"자동차정비 유지 - 카인테리어"},{"name":"동화셀프손세차","tel":"031-8050-8225","addr":"경기도 화성시 봉담읍 동화리 238-1번지","category":"자동차정비 유지 - 카인테리어"}]},{"lat":"37.21577474","long":"126.95258949","items":[{"name":"델브리또협성대점","tel":"031-278-0905","addr":"경기도 화성시 봉담읍 동화리 572-3번지 현대쉐르빌 1층 102호","category":"일반휴게음식 - 서양음식"},{"name":"모이(Moi)","tel":"031-226-2316","addr":"경기도 화성시 봉담읍 동화리 572-3번지 현대쉐르빌 101호","category":"의류 - 정장"},{"name":"와플대학푸드카페","tel":"031-227-8581","addr":"경기도 화성시 봉담읍 동화리 572-3번지 현대쉐르빌 1층 103호","category":"일반휴게음식 - 스넥"}]},{"lat":"37.221045086","long":"126.95092974","items":[{"name":"도그캣코리아","tel":"031-562-3290","addr":"경기도 화성시 봉담읍 동화리 425-17번지 2층","category":"문화.취미 - 애완동물"},{"name":"박사열쇠도장","tel":"031-227-5513","addr":"경기도 화성시 봉담읍 동화리 425-17번지","category":"기타 - 기계공구"}]},{"lat":"37.220163277","long":"126.95375833","items":[{"name":"도담골(봉담)","tel":"031-294-5455","addr":"경기도 화성시 봉담읍 동화리 560-10번지","category":"일반휴게음식 - 일반한식"}]},{"lat":"37.215463222","long":"126.96265041","items":[{"name":"도미노피자 화성봉담점","tel":"031-278-6611","addr":"경기도 화성시 봉담읍 동화리 245-52번지 (208호(자인개발빌딩207호))","category":"일반휴게음식 - 서양음식"},{"name":"동화태권도","tel":"031-277-7921","addr":"경기도 화성시 봉담읍 동화리 245-52번지 자인개발빌딩 301호","category":"학원 - 예·체능계학원"},{"name":"와이제이(YJ)어패럴","tel":"031-296-1954","addr":"경기도 화성시 봉담읍 동화리 245-52번지 204호","category":"의류 - 아동의류"},{"name":"조은비전학원","tel":"070-4366-4933","addr":"경기도 화성시 봉담읍 동화리 245-52번지 401호","category":"학원 - 보습학원"},{"name":"휴먼시스템","tel":"031-298-2332","addr":"경기도 화성시 봉담읍 동화리 245-52번지","category":"신변잡화 - 기타잡화"}]},{"lat":"37.223713636","long":"126.95443208","items":[{"name":"동서종합가스","tel":"031-294-0777","addr":"경기도 화성시 봉담읍 동화리 412번지","category":"연료판매점 - LPG 취급점"}]},{"lat":"37.221710617","long":"126.97359873","items":[{"name":"동양종합공구","tel":"031-226-9533","addr":"경기도 화성시 봉담읍 동화리 139-1번지 공구유통밸리 111동 118호","category":"기타 - 기계공구"},{"name":"주식회사 트인건설","tel":"031-236-1089","addr":"경기도 화성시 봉담읍 동화리 139-1번지 화성공구유통밸리 111동 213층","category":"용역 서비스 - 기타용역서비스"},{"name":"주영산업","tel":"031-230-9685","addr":"경기도 화성시 봉담읍 동화리 139-1번지 공구상가 111동 118호","category":"기타 - 기계공구"}]},{"lat":"37.221962954","long":"126.97379017","items":[{"name":"동양종합상사","tel":"031-230-9533","addr":"경기도 화성시 봉담읍 동화리 139-1번지","category":"건축자재 - 인테리어전문"},{"name":"두바이 종합기계","tel":"031-223-3037","addr":"경기도 화성시 봉담읍 동화리 139-1번지 (화성공구유통밸리103동122호,동화리139-1)","category":"기타 - 기계공구"},{"name":"두성플라텍","tel":"031-233-1302","addr":"경기도 화성시 봉담읍 동화리 139-1번지","category":"건축자재 - 기타건축자재"},{"name":"딥블루인스트루먼트(DBI)","tel":"031-230-9984","addr":"경기도 화성시 봉담읍 동화리 139-1번지 101동 101호와 112-2호","category":"서적문구 - 과학기자재"},{"name":"벧엘티에스","tel":"031-221-5489","addr":"경기도 화성시 봉담읍 동화리 139-1번지 지하 상가동 13호","category":"신변잡화 - 기타잡화"},{"name":"부페식한울식당","tel":"031-232-6878","addr":"경기도 화성시 봉담읍 동화리 139-1번지 화성공구유통밸리 지하1층 26호","category":"일반휴게음식 - 일반한식"},{"name":"오방밥집","tel":"031-230-9410","addr":"경기도 화성시 봉담읍 동화리 139-1번지 지하1층 S-32호","category":"일반휴게음식 - 일반한식"},{"name":"유원테크","tel":"031-226-4954","addr":"경기도 화성시 봉담읍 동화리 139-1번지 화성공구유통밸리","category":"기타 - 기계공구"},{"name":"주방올텍","tel":"031-221-6023","addr":"경기도 화성시 봉담읍 동화리 산 139-1 화성공구유통밸리","category":"주방용구 - 주방용구"},{"name":"태광","tel":"031-278-5455","addr":"경기도 화성시 봉담읍 동화리 139-1번지","category":"기타 - 기계공구"},{"name":"태양종합상사","tel":"031-230-9721","addr":"경기도 화성시 봉담읍 동화리 139-1번지 외9필지화성공구유통밸리제110동제1층 제106호","category":"신변잡화 - 기타잡화"},{"name":"현진상사","tel":"031-222-1186","addr":"경기도 화성시 봉담읍 동화리 139-1번지 101동111호,동화리139-1 외9필지","category":"건축자재 - 목재·석재·철물"}]},{"lat":"37.221512265","long":"126.97310305","items":[{"name":"동우유니폼상사","tel":"031-230-9707","addr":"경기도 화성시 봉담읍 동화리 139-1번지 화성공구상가 109동 113호","category":"의류 - 기타의류"},{"name":"보영조각","tel":"031-230-9600","addr":"경기도 화성시 봉담읍 동화리 139-1번지 화성공구유통밸리 109동 117호","category":"문화.취미 - 골동품점"},{"name":"새봄인쇄사","tel":"031-294-8402","addr":"경기도 화성시 봉담읍 동화리 139-1번지 화성공구유통밸리 109동 211호","category":"서적문구 - 출판 및 인쇄물"},{"name":"서울공구","tel":"031-222-0924","addr":"경기도 화성시 봉담읍 동화리 139-1번지 화성공구유통밸리 109동 109호","category":"기타 - 기계공구"},{"name":"성신하드웨어","tel":"031-224-0934","addr":"경기도 화성시 봉담읍 동화리 139-1번지 (화성공구유통밸리109동111호,112호)","category":"기타 - 기계공구"},{"name":"성은F.A","tel":"031-230-9754","addr":"경기도 화성시 봉담읍 동화리 139-1번지 화성공구유통밸리 109동 117호","category":"기타 - 기계공구"},{"name":"우정볼트상사","tel":"031-234-5086","addr":"경기도 화성시 봉담읍 동화리 139-1번지 공구유통밸리 109동 102호","category":"기타 - 기계공구"},{"name":"유명상사","tel":"031-230-9506","addr":"경기도 화성시 봉담읍 동화리 139-1번지 황성공구유통밸리 109동 107호","category":"자동차정비 유지 - 자동차시트·타이어"},{"name":"은지호스","tel":"031-230-9740","addr":"경기도 화성시 봉담읍 동화리 139-1번지 화성공구유통밸리 109동 110호","category":"기타 - 기타 전문점"},{"name":"종합전기상사","tel":"031-230-9559","addr":"경기도 화성시 봉담읍 동화리 139-1번지 화성공구유룡밸리 109동 118호","category":"기타 - 기타 전문점"}]},{"lat":"37.216245336","long":"126.95769282","items":[{"name":"동일미소 어린이집[아이행복]","tel":"031-8031-9244","addr":"경기도 화성시 봉담읍 동화리 575번지 동화마을동일하이빌 102동 101호","category":"학원 - 유아원"}]},{"lat":"37.217136472","long":"126.95541646","items":[{"name":"동일키즈어린이집[아이행복]","tel":"031-8002-5705","addr":"경기도 화성시 봉담읍 동화리 575번지 동화마을동일하이빌 105동 104호","category":"학원 - 유아원"}]},{"lat":"37.216578442","long":"126.95697157","items":[{"name":"동일튼튼어린이집[아이행복]","tel":"031-227-2743","addr":"경기도 화성시 봉담읍 동화리 575번지 동화마을동일하이빌 103동 102호","category":"학원 - 유아원"},{"name":"한가람경영혁신연구소","tel":"070-7016-9060","addr":"경기도 화성시 봉담읍 동화리 575번지 동일하이빌 103동 601호","category":"용역 서비스 - 사무서비스"}]},{"lat":"37.215885982","long":"126.96056592","items":[{"name":"동화세탁소","tel":"031-291-5134","addr":"경기도 화성시 봉담읍 동화리 603번지 휴먼시아동화마을 상가동 103호","category":"수리서비스 - 세탁소"}]},{"lat":"37.214245663","long":"126.95937264","items":[{"name":"동화주공마트","tel":"031-227-6070","addr":"경기도 화성시 봉담읍 동화리 580주공6단지단지내상가106","category":"유통업 영리 - 슈퍼마켓"},{"name":"수목인테리어","tel":"031-297-8801","addr":"경기도 화성시 봉담읍 동화리 580번지 휴먼시아동화마을 상가동 102호","category":"건축자재 - 인테리어전문"}]},{"lat":"37.215075423","long":"126.96162539","items":[{"name":"동화초등학교병설유치원[아이행복]","tel":"031-298-1073","addr":"경기도 화성시 봉담읍 동화리 606번지 동화초등학교","category":"학원 - 유치원"}]},{"lat":"37.22135395","long":"126.95701374","items":[{"name":"등뼈가","tel":"031-292-3535","addr":"경기도 화성시 봉담읍 동화리 398-5번지","category":"일반휴게음식 - 일반한식"},{"name":"에스아이레포츠 주식회사","tel":"031-292-0929","addr":"경기도 화성시 봉담읍 동화리 398-5번지 2층","category":"레저업소 - 볼 링 장"},{"name":"에스아이케이(주)","tel":"031-292-0929","addr":"경기도 화성시 봉담읍 동화리 398-5번지 2층일부","category":"유통업 영리 - 기타유통업"}]},{"lat":"37.227159231","long":"126.96434565","items":[{"name":"디자인플라워(design plower)","tel":"031-221-6429","addr":"경기도 화성시 봉담읍 동화리 11-13번지 창업보육센터 210호","category":"농업 - 기타농업관련"},{"name":"주식회사명진바이오","tel":"031-222-9388","addr":"경기도 화성시 봉담읍 동화리 11-13번지 한국농수산대학 비아이센터 201호","category":"보건위생 - 화장품"}]},{"lat":"37.224325925","long":"126.95342888","items":[{"name":"라이프약국","tel":"031-296-7227","addr":"경기도 화성시 봉담읍 동화리 359번지","category":"약국 - 약국"},{"name":"지엠 (gm)산부인과의원","tel":"031-278-7373","addr":"경기도 화성시 봉담읍 동화리 359번지","category":"의원 - 의원"},{"name":"카페앤제이","tel":"","addr":"경기도 화성시 봉담읍 동화리 359번지 1층 104호","category":"일반휴게음식 - 서양음식"}]},{"lat":"37.213895994","long":"126.9643862","items":[{"name":"라임어린이집[아이행복]","tel":"031-893-6882","addr":"경기도 화성시 봉담읍 동화리 628번지 휴먼시아동화마을 505동 104호","category":"학원 - 유아원"}]},{"lat":"37.217516305","long":"126.95904404","items":[{"name":"럭스","tel":"031-296-9192","addr":"경기도 화성시 봉담읍 동화리 597-1번지 2층","category":"보건위생 - 화장품"},{"name":"메이젠 봉담점","tel":"02-1234-1234","addr":"경기도 화성시 봉담읍 동화리 597-1번지 수원농협하나로마트 봉담점","category":"일반휴게음식 - 서양음식"},{"name":"크린에이드 수원봉담점","tel":"031-227-0220","addr":"경기도 화성시 봉담읍 동화리 597-1번지","category":"수리서비스 - 세탁소"},{"name":"하나로약국","tel":"031-291-3477","addr":"경기도 화성시 봉담읍 동화리 597-1번지","category":"약국 - 약국"}]},{"lat":"37.220795229","long":"126.95681128","items":[{"name":"로뎀헤어","tel":"","addr":"경기도 화성시 봉담읍 동화리 439-3번지","category":"보건위생 - 미용원"}]},{"lat":"37.213634277","long":"126.96312455","items":[{"name":"리안어린이집[아이행복]","tel":"031-238-0947","addr":"경기도 화성시 봉담읍 동화리 628번지 동화마을주공 503동 관리동내리안어린이집","category":"학원 - 유아원"}]},{"lat":"37.219992183","long":"126.95400631","items":[{"name":"마녀의찬장","tel":"070-8976-2674","addr":"경기도 화성시 봉담읍 동화리 560-8번지 1층 101호","category":"문화.취미 - 문화취미기타"}]},{"lat":"37.219767164","long":"126.95459234","items":[{"name":"맘맘찬","tel":"","addr":"경기도 화성시 봉담읍 동화리 561-2번지 1층 2호","category":"음료식품 - 기타음료식품"}]},{"lat":"37.220046531","long":"126.95470483","items":[{"name":"맘톡톡상담센터","tel":"031-298-2117","addr":"경기도 화성시 봉담읍 동화리 558-12번지","category":"학원 - 기타 교육기관"}]},{"lat":"37.22285742","long":"126.95386926","items":[{"name":"매봉카센타","tel":"031-227-5263","addr":"경기도 화성시 봉담읍 동화리 410-9","category":"자동차정비 유지 - 자동차정비"},{"name":"모터페이스","tel":"031-257-3601","addr":"경기도 화성시 봉담읍 동화리 410-9번지","category":"자동차정비 유지 - 카인테리어"},{"name":"이마트24 봉담동화점","tel":"031-000-0000","addr":"경기도 화성시 봉담읍 동화리 410-9번지 외1필지 1층","category":"유통업 영리 - 편 의 점"}]},{"lat":"37.218471656","long":"126.95973075","items":[{"name":"매직라인 화성점","tel":"031-245-9945","addr":"경기도 화성시 봉담읍 동화리 611번지 휴먼시아동화마을 211동 404호","category":"회원제형태 - 기타4"}]},{"lat":"37.220722345","long":"126.95479453","items":[{"name":"머슬카롱","tel":"031-227-1253","addr":"경기도 화성시 봉담읍 동화리 556-7번지 1동 1층","category":"일반휴게음식 - 서양음식"}]},{"lat":"37.221047348","long":"126.95637171","items":[{"name":"메밀가옥","tel":"031-295-4856","addr":"경기도 화성시 봉담읍 동화리 438-2번지","category":"일반휴게음식 - 일반한식"}]},{"lat":"37.218766881","long":"126.95426624","items":[{"name":"명일축산 봉담점","tel":"031-293-0501","addr":"경기도 화성시 봉담읍 동화리 432-12","category":"음료식품 - 정육점"},{"name":"패스넷","tel":"031-232-0484","addr":"경기도 화성시 봉담읍 동화리 432-12번지","category":"사무통신 - 컴퓨터"}]},{"lat":"37.222160766","long":"126.97214509","items":[{"name":"모노클안경원","tel":"031-225-8874","addr":"경기도 화성시 봉담읍 동화리 133-1번지","category":"보건위생 - 안경"},{"name":"앤티앤스/(주)재원푸드 화성봉담점","tel":"02-587-0955","addr":"경기도 화성시 봉담읍 동화리 133-1번지 지하1층 이마트 화성봉담점","category":"일반휴게음식 - 서양음식"},{"name":"이철헤어커커 봉담이마트점","tel":"031-223-2326","addr":"경기도 화성시 봉담읍 동화리 133-1번지 1층 이마트지하","category":"보건위생 - 미용원"}]},{"lat":"37.222829736","long":"126.95231439","items":[{"name":"모닝듀카페","tel":"031-227-0107","addr":"경기도 화성시 봉담읍 동화리 420-3번지","category":"일반휴게음식 - 서양음식"}]},{"lat":"37.224190699","long":"126.95325995","items":[{"name":"모든기획","tel":"031-232-1582","addr":"경기도 화성시 봉담읍 동화리 359-3번지 1층","category":"건축자재 - 인테리어전문"},{"name":"부안빌딩,부안편의점","tel":"031-227-5064","addr":"경기도 화성시 봉담읍 동화리 359-3번지 외2필지","category":"유통업 영리 - 슈퍼마켓"}]},{"lat":"37.220658908","long":"126.95390448","items":[{"name":"모월모일","tel":"","addr":"경기도 화성시 봉담읍 동화리 559-12번지","category":"일반휴게음식 - 서양음식"}]},{"lat":"37.219524031","long":"126.95495303","items":[{"name":"미국식경양","tel":"031-227-9381","addr":"경기도 화성시 봉담읍 동화리 561-5번지 1층","category":"일반휴게음식 - 서양음식"},{"name":"캠텍","tel":"031-232-6969","addr":"경기도 화성시 봉담읍 동화리 561-5번지","category":"서적문구 - 과학기자재"}]},{"lat":"37.217885273","long":"126.95782704","items":[{"name":"바른먹거리","tel":"0504-2901-7194","addr":"경기도 화성시 봉담읍 동화리 594번지 휴먼시아동화마을 106동 904호","category":"문화.취미 - 문화취미기타"}]},{"lat":"37.220190752","long":"126.95483994","items":[{"name":"반올림피자샵 봉담점","tel":"031-227-1020","addr":"경기도 화성시 봉담읍 동화리 558-1번지","category":"일반휴게음식 - 서양음식"}]},{"lat":"37.220127086","long":"126.95339782","items":[{"name":"백청우 칼국수 봉담점","tel":"031-278-4558","addr":"경기도 화성시 봉담읍 동화리 562-1번지 1층","category":"일반휴게음식 - 일반한식"}]},{"lat":"37.220100694","long":"126.95495266","items":[{"name":"보짱","tel":"031--297-1549","addr":"경기도 화성시 봉담읍 동화리 558-2번지","category":"일반휴게음식 - 주점"},{"name":"제이에이치푸드","tel":"031-298-8515","addr":"경기도 화성시 봉담읍 동화리 558-2번지 102호","category":"일반휴게음식 - 일반한식"}]},{"lat":"37.223434027","long":"126.95373368","items":[{"name":"봉담 출장세차","tel":"031-227-8246","addr":"경기도 화성시 봉담읍 동화리 414-7번지 동화빌라 나동 403호","category":"자동차정비 유지 - 세차장"}]},{"lat":"37.21988524","long":"126.9569583","items":[{"name":"봉담리얼골프존","tel":"031-291-1872","addr":"경기도 화성시 봉담읍 동화리 438-9번지 2층","category":"회원제형태 - 레져업소"}]},{"lat":"37.220019023","long":"126.95354436","items":[{"name":"봉담스포츠","tel":"031-226-2314","addr":"경기도 화성시 봉담읍 동화리 562-2번지 1층 상가","category":"레져용품 - 스포츠·레져용품"}]},{"lat":"37.219524769","long":"126.95681205","items":[{"name":"봉담우리갈비","tel":"031-298-7458","addr":"경기도 화성시 봉담읍 동화리 438-4번지","category":"일반휴게음식 - 일반한식"},{"name":"카페거스(cafe gous)","tel":"","addr":"경기도 화성시 봉담읍 동화리 438-4번지 1동 2호","category":"일반휴게음식 - 서양음식"}]},{"lat":"37.218939408","long":"126.95762361","items":[{"name":"봉담자동차외형복원","tel":"031-291-2299","addr":"경기도 화성시 봉담읍 동화리 487번지","category":"자동차정비 유지 - 자동차정비"}]},{"lat":"37.219496706","long":"126.95423197","items":[{"name":"봉담종합악기","tel":"031-298-7666","addr":"경기도 화성시 봉담읍 동화리 562-9번지 1층","category":"레져용품 - 악기점"}]},{"lat":"37.220740066","long":"126.95406217","items":[{"name":"봉담차유리","tel":"031-227-4554","addr":"경기도 화성시 봉담읍 동화리 559-1번지","category":"자동차정비 유지 - 자동차부품"}]},{"lat":"37.220909314","long":"126.94954399","items":[{"name":"봉순이김밥&떡볶이","tel":"031-297-0997","addr":"경기도 화성시 봉담읍 동화리 425-10번지","category":"일반휴게음식 - 스넥"}]},{"lat":"37.219127475","long":"126.95470541","items":[{"name":"브샬렘헤어샵","tel":"031-291-2289","addr":"경기도 화성시 봉담읍 동화리 562-13번지 1층 102호","category":"보건위생 - 미용원"},{"name":"진실업","tel":"031-227-4985","addr":"경기도 화성시 봉담읍 동화리 562-13 103호,104호","category":"용역 서비스 - 종합용역"}]},{"lat":"37.219245847","long":"126.95784876","items":[{"name":"블랙앵거스차돌","tel":"031-297-9978","addr":"경기도 화성시 봉담읍 동화리 480-2번지","category":"일반휴게음식 - 일반한식"},{"name":"커피브라운","tel":"031-227-2677","addr":"경기도 화성시 봉담읍 동화리 480-2번지 2층","category":"일반휴게음식 - 일반한식"}]},{"lat":"37.224048345","long":"126.95778957","items":[{"name":"사람꽃농원","tel":"031-225-2852","addr":"경기도 화성시 봉담읍 동화리 371-1번지","category":"문화.취미 - 화원"}]},{"lat":"37.212299896","long":"126.96068058","items":[{"name":"사회복지법인 고앤두 화성시 아동상담소","tel":"031-278-5560","addr":"경기도 화성시 봉담읍 동화리 590번지 4층","category":"보건위생 - 기타대인서비스"},{"name":"화성시 어린이문화센터","tel":"02-0000-0000","addr":"경기도 화성시 봉담읍 동화리 590번지","category":"자동차정비 유지 - 주차장"}]},{"lat":"37.222162766","long":"126.95184161","items":[{"name":"삼성정형외과의원","tel":"031-298-7119","addr":"경기도 화성시 봉담읍 동화리 424-3번지","category":"의원 - 의원"},{"name":"삼성한의원","tel":"031-297-5275","addr":"경기도 화성시 봉담읍 동화리 424-3번지 서울의원","category":"의원 - 한의원"},{"name":"종로약국","tel":"031-298-5156","addr":"경기도 화성시 봉담읍 동화리 424-3번지","category":"약국 - 약국"}]},{"lat":"37.222045539","long":"126.95162762","items":[{"name":"삼천리자전거봉담점","tel":"031-298-2138","addr":"경기도 화성시 봉담읍 동화리 425-1","category":"레져용품 - 스포츠·레져용품"},{"name":"아우름커피","tel":"031-1577-1215","addr":"경기도 화성시 봉담읍 동화리 425-1번지","category":"일반휴게음식 - 서양음식"},{"name":"현대종합타일","tel":"031-222-6348","addr":"경기도 화성시 봉담읍 동화리 425-1","category":"건축자재 - 인테리어전문"}]},{"lat":"37.221821962","long":"126.95567267","items":[{"name":"삼흥이엔지(주)","tel":"031-254-3987","addr":"경기도 화성시 봉담읍 동화리 437-24번지 201호","category":"전기제품 - 기타전기제품"},{"name":"차사랑","tel":"070-8615-7382","addr":"경기도 화성시 봉담읍 동화리 437-24번지 1층 101호","category":"자동차정비 유지 - 자동차부품"}]},{"lat":"37.217938094","long":"126.95467237","items":[{"name":"상봉초등학교[아이행복]","tel":"031-297-3568","addr":"경기도 화성시 봉담읍 동화리 569번지 상봉초등학교","category":"학원 - 유치원"}]},{"lat":"37.221578981","long":"126.95642772","items":[{"name":"새말촌한식뷔페","tel":"031-227-0134","addr":"경기도 화성시 봉담읍 동화리 439-6번지","category":"일반휴게음식 - 일반한식"},{"name":"잠스(Jam-ss)","tel":"070-6325-6286","addr":"경기도 화성시 봉담읍 동화리 439-6번지","category":"회원제형태 - 기타4"}]},{"lat":"37.226187876","long":"126.97020539","items":[{"name":"새봄이어린이집[아이행복]","tel":"031-226-1237","addr":"경기도 화성시 봉담읍 동화리 100-1번지 신일우남클래식타운관리사무소동","category":"학원 - 유아원"}]},{"lat":"37.214335567","long":"126.95883182","items":[{"name":"새싹어린이집[아이행복]","tel":"031-309-0320","addr":"경기도 화성시 봉담읍 동화리 580번지 휴먼시아동화마을 604동 105호","category":"학원 - 유아원"}]},{"lat":"37.221407784","long":"126.95642782","items":[{"name":"새터길호프","tel":"031-292-5059","addr":"경기도 화성시 봉담읍 동화리 439-5번지 1층","category":"일반휴게음식 - 주점"}]},{"lat":"37.219740032","long":"126.95434448","items":[{"name":"샐러드박스화성본점","tel":"031-227-1966","addr":"경기도 화성시 봉담읍 동화리 561-12번지 1층","category":"일반휴게음식 - 서양음식"},{"name":"카페 베이지","tel":"031-000-0000","addr":"경기도 화성시 봉담읍 동화리 561-12번지 1층","category":"일반휴게음식 - 서양음식"}]},{"lat":"37.221268825","long":"126.97247219","items":[{"name":"서해종합상사","tel":"031-230-9986","addr":"경기도 화성시 봉담읍 동화리 139-1번지 화성공구유통밸리 103동 120호","category":"기타 - 기계공구"},{"name":"성진볼트산업","tel":"031-230-9611","addr":"경기도 화성시 봉담읍 동화리 139-1번지 화성유통밸리 103동 107호","category":"기타 - 기계공구"},{"name":"영한시스템","tel":"031-304-7774","addr":"경기도 화성시 봉담읍 동화리 139-1외 9필지화성공구유통밸리 103-203","category":"전기제품 - 기타전기제품"},{"name":"유진모터","tel":"031-230-9811","addr":"경기도 화성시 봉담읍 동화리 139-1번지 화성공구유통밸리 103동 108호","category":"기타 - 기계공구"},{"name":"제일유공압","tel":"031-230-9938","addr":"경기도 화성시 봉담읍 동화리 139-1번지 화성공구유통밸리 103동 101호","category":"기타 - 기계공구"},{"name":"좋은컴퓨터","tel":"031-222-5119","addr":"경기도 화성시 봉담읍 동화리 139-1번지 외1필지화성공구유통밸리 103동 121호","category":"사무통신 - 컴퓨터"},{"name":"친정맘 화성점","tel":"031-372-7676","addr":"경기도 화성시 봉담읍 동화리 139-1번지 화성공구유통밸리 103동 209호","category":"보건위생 - 기타대인서비스"},{"name":"퍼니타임","tel":"070-7571-5980","addr":"경기도 화성시 봉담읍 동화리 139-1번지 화성공구유통밸리 103동 104호","category":"유통업 영리 - 슈퍼마켓"},{"name":"현대위아서비스","tel":"031-311-0543","addr":"경기도 화성시 봉담읍 동화리 139-1번지 화성공구유통밸리 103동 202호","category":"기타 - 기계공구"}]},{"lat":"37.220354515","long":"126.95889592","items":[{"name":"석영상사(주)","tel":"031-227-8433","addr":"경기도 화성시 봉담읍 동화리 445-2","category":"음료식품 - 기타음료식품"},{"name":"이남장설렁탕 인사동점","tel":"02-546-0369","addr":"경기도 화성시 봉담읍 동화리 445-2번지","category":"일반휴게음식 - 일반한식"}]},{"lat":"37.217212336","long":"126.96604068","items":[{"name":"석천생선구이","tel":"031-292-0792","addr":"경기도 화성시 봉담읍 동화리 238-102번지","category":"일반휴게음식 - 일반한식"}]},{"lat":"37.229827568","long":"126.96847977","items":[{"name":"선우산업","tel":"031-296-2906","addr":"경기도 화성시 봉담읍 동화리 5번지","category":"가구 - 일반가구"}]},{"lat":"37.219605079","long":"126.95484031","items":[{"name":"성가네부대찌개","tel":"031-235-1731","addr":"경기도 화성시 봉담읍 동화리 561-4번지","category":"일반휴게음식 - 일반한식"}]},{"lat":"37.21607675","long":"126.9651512","items":[{"name":"성산유통","tel":"031-111-1111","addr":"경기도 화성시 봉담읍 동화리 244-5번지","category":"음료식품 - 주류 판매점"}]},{"lat":"37.221019751","long":"126.95495208","items":[{"name":"성진공조시스템","tel":"","addr":"경기도 화성시 봉담읍 동화리 555-4번지 202호","category":"용역 서비스 - 기타용역서비스"}]},{"lat":"37.220968915","long":"126.96372911","items":[{"name":"세계로냉동","tel":"070-4502-4328","addr":"경기도 화성시 봉담읍 동화리 270-2번지","category":"전기제품 - 냉열기기"}]},{"lat":"37.219992615","long":"126.9550654","items":[{"name":"소스타","tel":"070-8833-5568","addr":"경기도 화성시 봉담읍 동화리 558-3번지 1층","category":"일반휴게음식 - 일반한식"}]},{"lat":"37.222911436","long":"126.95375655","items":[{"name":"수피자","tel":"031-278-9991","addr":"경기도 화성시 봉담읍 동화리 410-22","category":"일반휴게음식 - 서양음식"},{"name":"창성기업","tel":"031-227-7784","addr":"경기도 화성시 봉담읍 동화리 410-22","category":"건축자재 - 유리"}]},{"lat":"37.22112782","long":"126.95481681","items":[{"name":"쉐프삼촌봉담점","tel":"070-4153-1248","addr":"경기도 화성시 봉담읍 동화리 555-5번지 101호","category":"음료식품 - 기타음료식품"},{"name":"지코바봉담점","tel":"031-297-9987","addr":"경기도 화성시 봉담읍 동화리 555-5번지 1층 102호","category":"일반휴게음식 - 일반한식"}]},{"lat":"37.230377319","long":"126.96889645","items":[{"name":"스피드 메이트 동화점","tel":"031-223-7281","addr":"경기도 화성시 봉담읍 동화리 2-10번지","category":"자동차정비 유지 - 자동차정비"}]},{"lat":"37.22460534","long":"126.95365404","items":[{"name":"스피드메이트 봉담점","tel":"031-298-5055","addr":"경기도 화성시 봉담읍 동화리 357-1","category":"자동차정비 유지 - 자동차정비"}]},{"lat":"37.224488252","long":"126.9537668","items":[{"name":"스피드메이트봉담점","tel":"031-211-2508","addr":"경기도 화성시 봉담읍 동화리 357-3번지","category":"자동차정비 유지 - 자동차정비"}]},{"lat":"37.218056734","long":"126.95852546","items":[{"name":"시립동화1단지어린이집[아이행복]","tel":"031-298-2934","addr":"경기도 화성시 봉담읍 동화리 594번지 주공101동","category":"학원 - 유아원"}]},{"lat":"37.218201658","long":"126.96059843","items":[{"name":"시립동화2단지 어린이집[아이행복]","tel":"031-298-0042","addr":"경기도 화성시 봉담읍 동화리 611번지 휴먼시아2단지 203동","category":"학원 - 유아원"}]},{"lat":"37.218046823","long":"126.95618202","items":[{"name":"시연유치원","tel":"031-278-6001","addr":"경기도 화성시 봉담읍 동화리 592","category":"학원 - 유치원"},{"name":"시연유치원[아이행복]","tel":"031-278-6001","addr":"경기도 화성시 봉담읍 동화리 592번지","category":"학원 - 유치원"}]},{"lat":"37.221605825","long":"126.95595448","items":[{"name":"신봉담뉴타이어마트","tel":"031-227-8924","addr":"경기도 화성시 봉담읍 동화리 437-22","category":"자동차정비 유지 - 자동차시트·타이어"}]},{"lat":"37.221964895","long":"126.95267552","items":[{"name":"실비식당","tel":"031-296-2300","addr":"경기도 화성시 봉담읍 동화리 423-7번지","category":"일반휴게음식 - 일반한식"}]},{"lat":"37.218489998","long":"126.9606208","items":[{"name":"쌍둥이네92","tel":"031-241-1665","addr":"경기도 화성시 봉담읍 동화리 611번지 휴먼시아2단지아파트 상가동 1층 104호","category":"일반휴게음식 - 일반한식"}]},{"lat":"37.219686131","long":"126.95473886","items":[{"name":"썬하비","tel":"02-1111-1111","addr":"경기도 화성시 봉담읍 동화리 561-3번지 1층(상가좌측)","category":"서적문구 - 완구점"},{"name":"청년피자","tel":"070-4922-1261","addr":"경기도 화성시 봉담읍 동화리 561-3번지 1층","category":"일반휴게음식 - 서양음식"}]},{"lat":"37.219884436","long":"126.95493027","items":[{"name":"쏟아지는카롱","tel":"","addr":"경기도 화성시 봉담읍 동화리 558-10번지 1층 102호","category":"음료식품 - 기타음료식품"},{"name":"영푸드","tel":"031-292-8333","addr":"경기도 화성시 봉담읍 동화리 558-10번지 1층 103호","category":"일반휴게음식 - 일반한식"},{"name":"허니닭강정 봉담점","tel":"031-227-2208","addr":"경기도 화성시 봉담읍 동화리 558-10번지 101호","category":"일반휴게음식 - 일반한식"}]},{"lat":"37.217573089","long":"126.96714462","items":[{"name":"아그집봉담점","tel":"031-298-9339","addr":"경기도 화성시 봉담읍 동화리 238-76번지 1층","category":"일반휴게음식 - 일반한식"}]},{"lat":"37.219325794","long":"126.95493062","items":[{"name":"아기자기","tel":"031-227-8831","addr":"경기도 화성시 봉담읍 동화리 561-7번지 101호","category":"의류 - 정장"}]},{"lat":"37.217186177","long":"126.9689587","items":[{"name":"아방데코","tel":"031-297-0393","addr":"경기도 화성시 봉담읍 동화리 238-114번지 101동 102호","category":"직물 - 침구·수예점"}]},{"lat":"37.22124501","long":"126.95495194","items":[{"name":"아이네오어린이집[아이행복]","tel":"031-227-0367","addr":"경기도 화성시 봉담읍 동화리 555-1번지","category":"학원 - 유아원"}]},{"lat":"37.223217937","long":"126.95411691","items":[{"name":"아이랜드도만스쿨어린이집[아이행복]","tel":"031-227-9994","addr":"경기도 화성시 봉담읍 동화리 410-5번지","category":"학원 - 유아원"},{"name":"아이랜드유치원[아이행복]","tel":"031-227-9994","addr":"경기도 화성시 봉담읍 동화리 410-5번지 (201호,301호)","category":"학원 - 유치원"}]},{"lat":"37.216208548","long":"126.95577757","items":[{"name":"아이즈씽크","tel":"031-000-0000","addr":"경기도 화성시 봉담읍 동화리 575번지 동화마을동일하이빌 107동 903호","category":"용역 서비스 - 사무서비스"}]},{"lat":"37.217969555","long":"126.96717823","items":[{"name":"아이큰숲어린이집[아이행복]","tel":"031-298-9797","addr":"경기도 화성시 봉담읍 동화리 238-10번지","category":"학원 - 유아원"}]},{"lat":"37.227134286","long":"126.97139939","items":[{"name":"아이플레이(i-play)","tel":"031-298-7386","addr":"경기도 화성시 봉담읍 동화리 84-10번지","category":"서적문구 - 완구점"}]},{"lat":"37.219866301","long":"126.95464861","items":[{"name":"아재불닭발","tel":"031-291-8292","addr":"경기도 화성시 봉담읍 동화리 561-2번지 1동 101호","category":"일반휴게음식 - 일반한식"}]},{"lat":"37.219829908","long":"126.95379235","items":[{"name":"앳케이크(at cake)","tel":"031-000-0000","addr":"경기도 화성시 봉담읍 동화리 562-4번지 103호","category":"음료식품 - 제과점"},{"name":"엔디네일","tel":"031-000-0000","addr":"경기도 화성시 봉담읍 동화리 562-4번지 102호","category":"보건위생 - 피부미용실"},{"name":"유민작업실","tel":"031-292-2918","addr":"경기도 화성시 봉담읍 동화리 562-4번지","category":"보건위생 - 미용원"}]},{"lat":"37.219433973","long":"126.95506575","items":[{"name":"야미솝","tel":"031-298-4120","addr":"경기도 화성시 봉담읍 동화리 561-6번지 101호","category":"신변잡화 - 기타잡화"}]},{"lat":"37.219965484","long":"126.95481755","items":[{"name":"언제나봄날","tel":"070-8621-7337","addr":"경기도 화성시 봉담읍 동화리 558-11번지","category":"일반휴게음식 - 서양음식"},{"name":"예인기획","tel":"031-663-1217","addr":"경기도 화성시 봉담읍 동화리 558-11번지 1층","category":"용역 서비스 - 종합용역"}]},{"lat":"37.223577867","long":"126.95295613","items":[{"name":"에이스노래연습장","tel":"031-353-1653","addr":"경기도 화성시 봉담읍 동화리 416-4","category":"레저업소 - 노 래 방"}]},{"lat":"37.226638532","long":"126.97071225","items":[{"name":"엠씨케이광택","tel":"031-8013-5766","addr":"경기도 화성시 봉담읍 동화리 100-1번지 신일우남클래식타운 102동 1308호","category":"회원제형태 - 기타3"}]},{"lat":"37.225353844","long":"126.95523103","items":[{"name":"엠제이(MJ)통상(스페셜빈)","tel":"02-6340-5359","addr":"경기도 화성시 봉담읍 동화리 334번지 1층 일부","category":"일반휴게음식 - 일반한식"}]},{"lat":"37.219100134","long":"126.95395056","items":[{"name":"연세안경콘택트","tel":"031-227-4234","addr":"경기도 화성시 봉담읍 동화리 430-9번지 1층","category":"보건위생 - 안경"}]},{"lat":"37.219577744","long":"126.95409672","items":[{"name":"영 네일","tel":"070-8839-7947","addr":"경기도 화성시 봉담읍 동화리 562-8번지","category":"보건위생 - 피부미용실"},{"name":"올라","tel":"","addr":"경기도 화성시 봉담읍 동화리 562-8번지","category":"의류 - 정장"}]},{"lat":"37.219795371","long":"126.95756676","items":[{"name":"영진PET","tel":"031-222-1838","addr":"경기도 화성시 봉담읍 동화리 483번지","category":"기타 - 기타 전문점"}]},{"lat":"37.219439608","long":"126.97203352","items":[{"name":"온포레스트","tel":"","addr":"경기도 화성시 봉담읍 동화리 210-1번지 온포레스트 1동 1호","category":"가구 - 일반가구"}]},{"lat":"37.218631656","long":"126.95409733","items":[{"name":"올댓컴퓨터","tel":"031-297-2119","addr":"경기도 화성시 봉담읍 동화리 431-26번지 1층 101호","category":"사무통신 - 컴퓨터"}]},{"lat":"37.223632152","long":"126.95348567","items":[{"name":"올앤카","tel":"031-227-8388","addr":"경기도 화성시 봉담읍 동화리 414-2번지","category":"자동차정비 유지 - 자동차부품"}]},{"lat":"37.219466825","long":"126.97275459","items":[{"name":"와~우리장애인보호작업장(해피하우스)","tel":"070-4355-1426","addr":"경기도 화성시 봉담읍 동화리 197-7번지 (와우안길,99,도화역말길 115)","category":"일반휴게음식 - 서양음식"}]},{"lat":"37.219493976","long":"126.97322778","items":[{"name":"와우리평생교육원","tel":"031-222-0398","addr":"경기도 화성시 봉담읍 동화리 197-6","category":"회원제형태 - 학원"}]},{"lat":"37.220133406","long":"126.97203324","items":[{"name":"와우초등학교[아이행복]","tel":"031-898-8713","addr":"경기도 화성시 봉담읍 동화리 188번지 와우초등학교","category":"학원 - 유치원"}]},{"lat":"37.221437244","long":"126.96309792","items":[{"name":"와이어텍코리아(경기남부대리점)","tel":"031-296-2581","addr":"경기도 화성시 봉담읍 동화리 264-6번지","category":"자동차정비 유지 - 자동차부품"}]},{"lat":"37.22037954","long":"126.95379199","items":[{"name":"완도섬전복집","tel":"031-278-6688","addr":"경기도 화성시 봉담읍 동화리 560-2번지","category":"일반휴게음식 - 일반한식"}]},{"lat":"37.219884253","long":"126.95447959","items":[{"name":"왕대박감자탕","tel":"031-292-7809","addr":"경기도 화성시 봉담읍 동화리 561-1번지 1층","category":"일반휴게음식 - 일반한식"}]},{"lat":"37.229710245","long":"126.96783753","items":[{"name":"욕실나라","tel":"031-221-6704","addr":"경기도 화성시 봉담읍 동화리 5-2번지 나동","category":"건축자재 - 기타건축자재"}]},{"lat":"37.220327111","long":"126.95790445","items":[{"name":"우리들렉카","tel":"","addr":"경기도 화성시 봉담읍 동화리 441-8번지 베스티아 106동 503호","category":"자동차정비 유지 - 견인서비스"}]},{"lat":"37.221475944","long":"126.97201016","items":[{"name":"우리오일테크","tel":"031-236-9919","addr":"경기도 화성시 봉담읍 동화리 139-1번지 화성공구유통밸리 101동 214호","category":"자동차정비 유지 - 윤활유 전문 판매"},{"name":"유림볼트","tel":"031-222-4324","addr":"경기도 화성시 봉담읍 동화리 139-1번지 화성공구상가 101동 110호","category":"기타 - 기계공구"},{"name":"일흥정밀","tel":"031-233-5472","addr":"경기도 화성시 봉담읍 동화리 139-1번지 화성공구유통밸리제 101동 112호","category":"기타 - 기계공구"},{"name":"탑콤푸레샤","tel":"032-223-3081","addr":"경기도 화성시 봉담읍 동화리 139-1번지 화성공구유통밸리 101동 101호","category":"기타 - 기계공구"}]},{"lat":"37.21563526","long":"126.96520775","items":[{"name":"우리카센타","tel":"031-227-3428","addr":"경기도 화성시 봉담읍 동화리 242-22번지","category":"자동차정비 유지 - 자동차부품"},{"name":"후아닝","tel":"031-234-0942","addr":"경기도 화성시 봉담읍 동화리 242-22 외4필지 상가101호,102호","category":"일반휴게음식 - 중국식"}]},{"lat":"37.219964653","long":"126.95281205","items":[{"name":"우림관(봉담점)","tel":"031-227-1515","addr":"경기도 화성시 봉담읍 동화리 429-1번지","category":"일반휴게음식 - 일반한식"}]},{"lat":"37.220437185","long":"126.96336885","items":[{"name":"원형모터스","tel":"031-291-4661","addr":"경기도 화성시 봉담읍 동화리 268번지","category":"자동차정비 유지 - 카인테리어"}]},{"lat":"37.222544993","long":"126.96156499","items":[{"name":"유영엔진보링","tel":"031-223-5214","addr":"경기도 화성시 봉담읍 동화리 262번지 A동","category":"자동차정비 유지 - 자동차정비"}]},{"lat":"37.218885691","long":"126.95853624","items":[{"name":"육고기의달인","tel":"031-227-8252","addr":"경기도 화성시 봉담읍 동화리 470번지 1층","category":"일반휴게음식 - 일반한식"}]},{"lat":"37.22271284","long":"126.95287783","items":[{"name":"이야기가있는아라","tel":"031-227-2269","addr":"경기도 화성시 봉담읍 동화리 421-8번지","category":"일반휴게음식 - 일식·회집"}]},{"lat":"37.216210279","long":"126.96035168","items":[{"name":"이편한출장세차","tel":"031-355-7593","addr":"경기도 화성시 봉담읍 동화리 603번지 휴먼시아동화마을 405동 101호","category":"자동차정비 유지 - 세차장"}]},{"lat":"37.215797614","long":"126.96573718","items":[{"name":"전통춘천닭갈비","tel":"031-298-5524","addr":"경기도 화성시 봉담읍 동화리 241-8","category":"일반휴게음식 - 일반한식"}]},{"lat":"37.228296488","long":"126.97090311","items":[{"name":"제이에스기획","tel":"031-000-0000","addr":"경기도 화성시 봉담읍 동화리 84-2번지 지하1층","category":"용역 서비스 - 사무서비스"},{"name":"토종한우 직판장","tel":"","addr":"경기도 화성시 봉담읍 동화리 84-2번지 1층","category":"음료식품 - 정육점"}]},{"lat":"37.22818821","long":"126.97033975","items":[{"name":"조군셀프세차장","tel":"","addr":"경기도 화성시 봉담읍 동화리 84-22번지","category":"자동차정비 유지 - 세차장"}]},{"lat":"37.216662746","long":"126.96617614","items":[{"name":"좋은날","tel":"031-227-8492","addr":"경기도 화성시 봉담읍 동화리 245-13번지","category":"일반휴게음식 - 일반한식"}]},{"lat":"37.219156324","long":"126.95940362","items":[{"name":"주식회사 뉴월드패키지","tel":"031-291-6661","addr":"경기도 화성시 봉담읍 동화리 468-2번지","category":"유통업 영리 - 기타유통업"}]},{"lat":"37.219686309","long":"126.95517826","items":[{"name":"주식회사 아이넥스제이케이","tel":"070-7445-5826","addr":"경기도 화성시 봉담읍 동화리 558-8","category":"기타 - 기계공구"},{"name":"쥬쥬헤어(JuJuHair)","tel":"","addr":"경기도 화성시 봉담읍 동화리 558-8번지","category":"보건위생 - 미용원"}]},{"lat":"37.224746219","long":"126.97020602","items":[{"name":"주식회사 우정실업","tel":"031-222-2222","addr":"경기도 화성시 봉담읍 동화리 100-2번지","category":"일반휴게음식 - 위탁급식업"}]},{"lat":"37.223767109","long":"126.95301235","items":[{"name":"주식회사대영코퍼레이션","tel":"031-298-5064","addr":"경기도 화성시 봉담읍 동화리 415-2번지 201호","category":"용역 서비스 - 종합용역"}]},{"lat":"37.216410718","long":"126.96703251","items":[{"name":"지에스칼텍스(주)봉담신도시주유소","tel":"031-227-5181","addr":"경기도 화성시 봉담읍 동화리 245-16번지","category":"연료판매점 - GS주유소"}]},{"lat":"37.230160885","long":"126.96825425","items":[{"name":"지피아이산업","tel":"031-295-1447","addr":"경기도 화성시 봉담읍 동화리 4번지","category":"기타 - 기계공구"}]},{"lat":"37.220938534","long":"126.95464792","items":[{"name":"착한푸드","tel":"031-295-3489","addr":"경기도 화성시 봉담읍 동화리 556-2번지","category":"일반휴게음식 - 일반한식"}]},{"lat":"37.219218897","long":"126.95806284","items":[{"name":"추오정남원추어탕","tel":"031-297-7579","addr":"경기도 화성시 봉담읍 동화리 479번지","category":"일반휴게음식 - 일반한식"}]},{"lat":"37.220352406","long":"126.95354414","items":[{"name":"카닥터","tel":"070-8947-4490","addr":"경기도 화성시 봉담읍 동화리 560-12번지 1층","category":"자동차정비 유지 - 자동차부품"}]},{"lat":"37.219406842","long":"126.9548179","items":[{"name":"카페마루","tel":"031-227-9148","addr":"경기도 화성시 봉담읍 동화리 561-8번지","category":"일반휴게음식 - 서양음식"}]},{"lat":"37.216879533","long":"126.96795613","items":[{"name":"커피컴바인","tel":"","addr":"경기도 화성시 봉담읍 동화리 238-90번지","category":"일반휴게음식 - 서양음식"},{"name":"훈장카페","tel":"031-2985-6569","addr":"경기도 화성시 봉담읍 동화리 238-90번지","category":"일반휴게음식 - 서양음식"}]},{"lat":"37.223382714","long":"126.96087722","items":[{"name":"케이피산업","tel":"031-292-2312","addr":"경기도 화성시 봉담읍 동화리 287-1번지","category":"기타 - 기계공구"}]},{"lat":"37.229322097","long":"126.96553898","items":[{"name":"크루션(crucian)","tel":"070-4153-5453","addr":"경기도 화성시 봉담읍 동화리 9번지","category":"레져용품 - 스포츠·레져용품"}]},{"lat":"37.220742035","long":"126.9590985","items":[{"name":"크린토피아/트루움 시티","tel":"031-297-3989","addr":"경기도 화성시 봉담읍 동화리 444-3번지","category":"수리서비스 - 세탁소"}]},{"lat":"37.22614299","long":"126.97081387","items":[{"name":"키즈클래식어린이집[아이행복]","tel":"031-226-0868","addr":"경기도 화성시 봉담읍 동화리 100-1번지 우남클래식타운 106-101(신일,0번지","category":"학원 - 유아원"}]},{"lat":"37.216185377","long":"126.96676222","items":[{"name":"타이어프로 봉담점","tel":"031-227-0960","addr":"경기도 화성시 봉담읍 동화리 245-107번지","category":"자동차정비 유지 - 자동차시트·타이어"}]},{"lat":"37.219821518","long":"126.95531338","items":[{"name":"탑클레어","tel":"031-255-0270","addr":"경기도 화성시 봉담읍 동화리 558-5번지 102호","category":"자동차정비 유지 - 자동차부품"},{"name":"피자에땅","tel":"031-297-3666","addr":"경기도 화성시 봉담읍 동화리 558-5번지","category":"일반휴게음식 - 서양음식"}]},{"lat":"37.221659645","long":"126.95534603","items":[{"name":"태승테크","tel":"070-8241-5932","addr":"경기도 화성시 봉담읍 동화리 437-20번지 1층","category":"용역 서비스 - 기타용역서비스"}]},{"lat":"37.221270443","long":"126.95115493","items":[{"name":"태양이용원","tel":"","addr":"경기도 화성시 봉담읍 동화리 425-23번지","category":"보건위생 - 이용원"}]},{"lat":"37.215850706","long":"126.96276286","items":[{"name":"토후로","tel":"031-296-2767","addr":"경기도 화성시 봉담읍 동화리 245-9번지","category":"문화.취미 - 문화취미기타"}]},{"lat":"37.229962876","long":"126.96900932","items":[{"name":"팔당냉면","tel":"031-296-8006","addr":"경기도 화성시 봉담읍 동화리 2-8","category":"일반휴게음식 - 일반한식"},{"name":"행복푸드","tel":"031-225-6574","addr":"경기도 화성시 봉담읍 동화리 2-8번지","category":"음료식품 - 기타음료식품"}]},{"lat":"37.225745968","long":"126.96878585","items":[{"name":"프리렌탈","tel":"","addr":"경기도 화성시 봉담읍 동화리 99-3번지","category":"직물 - 카페트,커튼,천막,지물"}]},{"lat":"37.216238936","long":"126.96515111","items":[{"name":"피닉스스포츠클럽","tel":"031-298-7079","addr":"경기도 화성시 봉담읍 동화리 244-2번지","category":"레저업소 - 기타레져업소"}]},{"lat":"37.216017976","long":"126.95248793","items":[{"name":"피쉬앤그릴협성대점","tel":"031-298-7750","addr":"경기도 화성시 봉담읍 동화리 572-1번지 금당빌딩 101호","category":"일반휴게음식 - 주점"}]},{"lat":"37.222217007","long":"126.95225846","items":[{"name":"하나로골프","tel":"031-227-4037","addr":"경기도 화성시 봉담읍 동화리 423-1번지","category":"레져용품 - 골프용품 전문점"}]},{"lat":"37.219325602","long":"126.95445742","items":[{"name":"하누곱","tel":"031-292-2160","addr":"경기도 화성시 봉담읍 동화리 562-11번지 1층 상가","category":"일반휴게음식 - 일반한식"}]},{"lat":"37.22740453","long":"126.97115138","items":[{"name":"하오츠","tel":"031-225-1317","addr":"경기도 화성시 봉담읍 동화리 84-24번지","category":"일반휴게음식 - 중국식"}]},{"lat":"37.221802221","long":"126.95153764","items":[{"name":"항아리보쌈(봉담)","tel":"031-295-1697","addr":"경기도 화성시 봉담읍 동화리 425-15번지 1층","category":"일반휴게음식 - 일반한식"}]},{"lat":"37.219712829","long":"126.95392763","items":[{"name":"핸즈인테리어","tel":"","addr":"경기도 화성시 봉담읍 동화리 562-5번지","category":"건축자재 - 인테리어전문"}]},{"lat":"37.224822065","long":"126.95481446","items":[{"name":"행복한창호","tel":"031-897-5227","addr":"경기도 화성시 봉담읍 동화리 348-1","category":"용역 서비스 - 기타용역서비스"}]},{"lat":"37.215191664","long":"126.95913551","items":[{"name":"허브민트","tel":"031-893-9046","addr":"경기도 화성시 봉담읍 동화리 580번지 휴먼시아동화마을 602동 1105호","category":"신변잡화 - 기타잡화"}]},{"lat":"37.21582452","long":"126.96534285","items":[{"name":"현테크(HYUN Tech)","tel":"031-354-8342","addr":"경기도 화성시 봉담읍 동화리 241-10번지","category":"전기제품 - 기타전기제품"},{"name":"현테크(HYUN Tech)/원격지","tel":"031-354-8342","addr":"경기도 화성시 봉담읍 동화리 241-10","category":"기타 - 기타 전문점"}]},{"lat":"37.215630588","long":"126.95262338","items":[{"name":"협성당구장","tel":"031-297-7906","addr":"경기도 화성시 봉담읍 동화리 572-4번지","category":"레저업소 - 당 구 장"},{"name":"협성대알파","tel":"031-294-6633","addr":"경기도 화성시 봉담읍 동화리 572-4번지","category":"사무통신 - 기타 사무용품"}]},{"lat":"37.224993408","long":"126.95517492","items":[{"name":"형제열쇠","tel":"031-298-2299","addr":"경기도 화성시 봉담읍 동화리 343 경덕빌라1층203","category":"건축자재 - 목재·석재·철물"}]},{"lat":"37.220801088","long":"126.94931873","items":[{"name":"홍빈루","tel":"031-893-2456","addr":"경기도 화성시 봉담읍 동화리 425-3번지","category":"일반휴게음식 - 중국식"}]},{"lat":"37.219155909","long":"126.95828822","items":[{"name":"홍익돈까스","tel":"031-295-6327","addr":"경기도 화성시 봉담읍 동화리 478-2","category":"일반휴게음식 - 서양음식"}]},{"lat":"37.213741963","long":"126.96184017","items":[{"name":"화성동화중학교","tel":"031-227-7562","addr":"경기도 화성시 봉담읍 동화리 631번지 화성동화중학교","category":"학원 - 초중고교육기관"}]},{"lat":"37.221107739","long":"126.94998327","items":[{"name":"화성종합건재","tel":"031-227-6185","addr":"경기도 화성시 봉담읍 동화리 425-12번지","category":"건축자재 - 기타건축자재"}]},{"lat":"37.21960527","long":"126.95531351","items":[{"name":"황제오리","tel":"031-227-5234","addr":"경기도 화성시 봉담읍 동화리 558-7번지","category":"일반휴게음식 - 일반한식"}]},{"lat":"37.223908804","long":"126.97225705","items":[{"name":"효행로주유소","tel":"031-226-5120","addr":"경기도 화성시 봉담읍 동화리 125-3번지 1층","category":"연료판매점 - GS주유소"}]},{"lat":"37.219911136","long":"126.95411904","items":[{"name":"흑돈골","tel":"031-227-0992","addr":"경기도 화성시 봉담읍 동화리 560-7번지","category":"일반휴게음식 - 일반한식"}]},{"lat":"37.224380365","long":"126.95434151","items":[{"name":"희망크레인","tel":"031-222-1204","addr":"경기도 화성시 봉담읍 동화리 363번지 은아빌라","category":"자동차판매 - 기타운송"}]}]