[{"lat":"37.717425731","long":"126.77267825","items":[{"name":"(주) 바오밥 (BAOBAB CO.,LTD.)","tel":"031-1111-1111","addr":"경기도 파주시 상지석동 554-41번지","category":"가구 - 일반가구"}]},{"lat":"37.721703603","long":"126.78120584","items":[{"name":"(주) 앤룩스","tel":"031-942-3700","addr":"경기도 파주시 상지석동 512-8번지","category":"건축자재 - 조명기구"}]},{"lat":"37.735319167","long":"126.77756905","items":[{"name":"(주)그린바이오텍","tel":"031-946-5614","addr":"경기도 파주시 상지석동 737-28번지","category":"농업 - 비료,사료,종자"},{"name":"모벨카펜터","tel":"070-4639-3074","addr":"경기도 파주시 상지석동 737-28번지","category":"회원제형태 - 기타4"},{"name":"큰바다 가구점","tel":"031-934-0733","addr":"경기도 파주시 상지석동 737-28번지","category":"가구 - 일반가구"}]},{"lat":"37.734094346","long":"126.77314849","items":[{"name":"(주)나오인터내셔널","tel":"070-8237-0025","addr":"경기도 파주시 상지석동 936-5번지","category":"음료식품 - 기타음료식품"},{"name":"대봉버섯직판장","tel":"031-948-9935","addr":"경기도 파주시 상지석동 936-5.4호","category":"음료식품 - 농·축·수산품"},{"name":"월드타일백화점","tel":"031-941-7258","addr":"경기도 파주시 상지석동 936-5.3호","category":"건축자재 - 기타건축자재"}]},{"lat":"37.718626248","long":"126.77851563","items":[{"name":"(주)넥스커머스","tel":"02-6956-0101","addr":"경기도 파주시 상지석동 568-23번지","category":"음료식품 - 기타음료식품"},{"name":"(주)프레시고","tel":"02-6956-0101","addr":"경기도 파주시 상지석동 568-23번지","category":"음료식품 - 기타음료식품"}]},{"lat":"37.732181076","long":"126.77612653","items":[{"name":"(주)멕헬스케어","tel":"070-5101-1780","addr":"경기도 파주시 상지석동 653-33번지","category":"보건위생 - 의료용품"}]},{"lat":"37.720622097","long":"126.78101624","items":[{"name":"(주)비에스티코리아","tel":"031-943-7944","addr":"경기도 파주시 상지석동 549-21번지","category":"음료식품 - 농·축·수산품"},{"name":"서울기획","tel":"031-8071-0397","addr":"경기도 파주시 상지석동 549-21번지","category":"건축자재 - 인테리어전문"}]},{"lat":"37.730339889","long":"126.79387371","items":[{"name":"(주)솔라시스코리아","tel":"070-8831-7969","addr":"경기도 파주시 상지석동 118-6번지","category":"용역 서비스 - 기타용역서비스"},{"name":"(주)이십오스포츠","tel":"031-944-7923","addr":"경기도 파주시 상지석동 118-6번지","category":"레져용품 - 스포츠·레져용품"}]},{"lat":"37.720013089","long":"126.77818252","items":[{"name":"(주)스타터애드","tel":"031-945-7813","addr":"경기도 파주시 상지석동 567-16번지","category":"건축자재 - 인테리어전문"}]},{"lat":"37.72715074","long":"126.79400745","items":[{"name":"(주)신성미트","tel":"031-943-4503","addr":"경기도 파주시 상지석동 1054번지","category":"음료식품 - 정육점"}]},{"lat":"37.724678272","long":"126.79184791","items":[{"name":"(주)에스아이세라믹","tel":"070-4207-1520","addr":"경기도 파주시 상지석동 133-68번지","category":"건축자재 - 건축용 요업제품"}]},{"lat":"37.719566935","long":"126.78046363","items":[{"name":"(주)에이티로봇","tel":"070-7505-0190","addr":"경기도 파주시 상지석동 545-16번지","category":"서적문구 - 완구점"}]},{"lat":"37.72118179","long":"126.77685194","items":[{"name":"(주)엠오엠","tel":"070-7308-1876","addr":"경기도 파주시 상지석동 560-3","category":"사무통신 - 기타 사무용품"}]},{"lat":"37.718648873","long":"126.77621315","items":[{"name":"(주)오션드로우","tel":"031-948-1235","addr":"경기도 파주시 상지석동 554-80번지","category":"가구 - 일반가구"}]},{"lat":"37.721071162","long":"126.78026631","items":[{"name":"(주)제이에스레이저","tel":"031-957-3223","addr":"경기도 파주시 상지석동 550번지","category":"건축자재 - 기타건축자재"},{"name":"심포니","tel":"031-947-1686","addr":"경기도 파주시 상지석동 550번지","category":"가구 - 일반가구"}]},{"lat":"37.719015094","long":"126.78407203","items":[{"name":"(주)청암홈 일산","tel":"042-823-4830","addr":"경기도 파주시 상지석동 540-4번지","category":"건축자재 - 기타건축자재"}]},{"lat":"37.732062664","long":"126.7754576","items":[{"name":"(주)큐브팩토리","tel":"070-4488-2174","addr":"경기도 파주시 상지석동 669-1번지","category":"용역 서비스 - 사무서비스"}]},{"lat":"37.717205623","long":"126.77532155","items":[{"name":"(주)투비컴애드","tel":"031-949-1738","addr":"경기도 파주시 상지석동 554-129번지","category":"건축자재 - 인테리어전문"}]},{"lat":"37.727042481","long":"126.78890331","items":[{"name":"(주)프린토스","tel":"031-948-8653","addr":"경기도 파주시 상지석동 165번지","category":"사무통신 - 컴퓨터"},{"name":"주식회사 글로브(GLOV)","tel":"031-948-9203","addr":"경기도 파주시 상지석동 165번지","category":"기타 - 기계공구"}]},{"lat":"37.720764195","long":"126.77992696","items":[{"name":"(주)한결","tel":"031-949-7416","addr":"경기도 파주시 상지석동 549-2","category":"용역 서비스 - 종합용역"}]},{"lat":"37.722760981","long":"126.77348975","items":[{"name":"(주)한결씨엔피","tel":"031-8070-6900","addr":"경기도 파주시 상지석동 601-2번지","category":"서적문구 - 출판 및 인쇄물"},{"name":"교하오토바이","tel":"031-946-1949","addr":"경기도 파주시 상지석동 601-2(102호)","category":"수리서비스 - 기타수리서비스"},{"name":"그리핀도르","tel":"","addr":"경기도 파주시 상지석동 601-2번지","category":"일반휴게음식 - 서양음식"},{"name":"마블러스","tel":"031-943-3628","addr":"경기도 파주시 상지석동 601-2번지","category":"용역 서비스 - 사무서비스"},{"name":"아리바바피자","tel":"031-947-7334","addr":"경기도 파주시 상지석동 601-2","category":"일반휴게음식 - 서양음식"},{"name":"에스뿌아 Espoir","tel":"","addr":"경기도 파주시 상지석동 601-2번지","category":"의류 - 정장"}]},{"lat":"37.730957526","long":"126.77703776","items":[{"name":"(주)한영수산","tel":"031-945-9074","addr":"경기도 파주시 상지석동 651-2번지","category":"음료식품 - 기타음료식품"}]},{"lat":"37.724454991","long":"126.77359795","items":[{"name":"(주)훈가","tel":"031-943-5526","addr":"경기도 파주시 상지석동 996-11번지","category":"연료판매점 - 기타연료"}]},{"lat":"37.719206699","long":"126.77581448","items":[{"name":"CDM케미칼","tel":"","addr":"경기도 파주시 상지석동 554-12번지","category":"유통업 영리 - 기타유통업"}]},{"lat":"37.727174519","long":"126.76832631","items":[{"name":"EDP 덕이,봉일천점","tel":"031-945-9136","addr":"경기도 파주시 상지석동 975-4번지","category":"음료식품 - 기타음료식품"}]},{"lat":"37.726346951","long":"126.76898682","items":[{"name":"EDP금촌점","tel":"031-000-0000","addr":"경기도 파주시 상지석동 977번지","category":"음료식품 - 기타음료식품"}]},{"lat":"37.723842079","long":"126.77346373","items":[{"name":"GNT","tel":"070-8227-1124","addr":"경기도 파주시 상지석동 996-6번지","category":"주방용구 - 주방용구"},{"name":"Oil house(오일하우스)","tel":"070-7538-5698","addr":"경기도 파주시 상지석동 996-6번지 2층","category":"자동차정비 유지 - 윤활유 전문 판매"},{"name":"유나이스","tel":"031-935-5352","addr":"경기도 파주시 상지석동 996-6번지","category":"보건위생 - 화장품"},{"name":"주식회사블레스데크","tel":"031-945-3658","addr":"경기도 파주시 상지석동 996-6번지","category":"주방용구 - 주방용구"}]},{"lat":"37.721651349","long":"126.77740629","items":[{"name":"GS25파주상지석점","tel":"","addr":"경기도 파주시 상지석동 587-11번지","category":"유통업 영리 - 편 의 점"},{"name":"옛날국수집","tel":"031-942-8548","addr":"경기도 파주시 상지석동 587-11","category":"일반휴게음식 - 일반한식"},{"name":"운정세차마을","tel":"031-943-8283","addr":"경기도 파주시 상지석동 587-11번지","category":"자동차정비 유지 - 세차장"}]},{"lat":"37.732899364","long":"126.77484245","items":[{"name":"LG석유","tel":"031-946-3155","addr":"경기도 파주시 상지석동 691-2번지","category":"연료판매점 - 유류판매"}]},{"lat":"37.721984528","long":"126.77731454","items":[{"name":"SUNG KWANG","tel":"031-945-0856","addr":"경기도 파주시 상지석동 587-4번지","category":"건축자재 - 인테리어전문"}]},{"lat":"37.737922934","long":"126.77757251","items":[{"name":"YU YU 상사","tel":"031-949-5883","addr":"경기도 파주시 상지석동 745-21번지","category":"건강식품 - 기타건강식품"}]},{"lat":"37.725842485","long":"126.79295622","items":[{"name":"cafe&갤러리펫","tel":"031-461-0359","addr":"경기도 파주시 상지석동 133-43번지","category":"일반휴게음식 - 서양음식"},{"name":"갤러리펫","tel":"031-944-3164","addr":"경기도 파주시 상지석동 133-43번지","category":"문화.취미 - 애완동물"},{"name":"씨유파주상지점","tel":"031-957-3776","addr":"경기도 파주시 상지석동 133-43번지","category":"유통업 영리 - 편 의 점"},{"name":"주식회사카이텍","tel":"031-945-9541","addr":"경기도 파주시 상지석동 133-43번지","category":"레저업소 - 스크린골프"}]},{"lat":"37.729258678","long":"126.78881753","items":[{"name":"가현이네","tel":"031-942-6927","addr":"경기도 파주시 상지석동 190-172번지","category":"일반휴게음식 - 일반한식"}]},{"lat":"37.736425902","long":"126.77681695","items":[{"name":"강성푸드시스템","tel":"031-8071-1153","addr":"경기도 파주시 상지석동 733-8번지","category":"음료식품 - 정육점"}]},{"lat":"37.725320519","long":"126.76931899","items":[{"name":"고래고래노래연습장","tel":"","addr":"경기도 파주시 상지석동 990-16번지","category":"레저업소 - 노 래 방"},{"name":"사또돼지부속","tel":"031-8071-1198","addr":"경기도 파주시 상지석동 990-16번지","category":"일반휴게음식 - 일반한식"}]},{"lat":"37.720982051","long":"126.78078832","items":[{"name":"고향식당","tel":"031-975-3595","addr":"경기도 파주시 상지석동 549-9번지","category":"일반휴게음식 - 일반한식"},{"name":"운정식품","tel":"","addr":"경기도 파주시 상지석동 549-9번지","category":"음료식품 - 기타음료식품"},{"name":"참떡방","tel":"031-947-3855","addr":"경기도 파주시 상지석동 549-9번지","category":"음료식품 - 제과점"}]},{"lat":"37.722480594","long":"126.7775966","items":[{"name":"공주샵","tel":"","addr":"경기도 파주시 상지석동 1777-2번지","category":"보건위생 - 화장품"}]},{"lat":"37.72381348","long":"126.77265848","items":[{"name":"광명 공인중개사사무소","tel":"031-941-3787","addr":"경기도 파주시 상지석동 995-3번지","category":"용역 서비스 - 부동산 중개·임대"},{"name":"기란정","tel":"031-942-9939","addr":"경기도 파주시 상지석동 995-3번지","category":"일반휴게음식 - 중국식"},{"name":"화(  )갈비본가","tel":"031-945-1978","addr":"경기도 파주시 상지석동 995-3번지","category":"일반휴게음식 - 일반한식"}]},{"lat":"37.718480465","long":"126.77299256","items":[{"name":"광성리사이클","tel":"070-8288-3947","addr":"경기도 파주시 상지석동 554-31번지","category":"신변잡화 - 기타잡화"},{"name":"미광산업","tel":"031-942-8809","addr":"경기도 파주시 상지석동 554-31번지","category":"기타 - 기계공구"},{"name":"한국산업도장","tel":"031-942-0322","addr":"경기도 파주시 상지석동 554-31번지","category":"건축자재 - 기타건축자재"}]},{"lat":"37.731180267","long":"126.78046293","items":[{"name":"괸돌 순두부","tel":"031-947-5455","addr":"경기도 파주시 상지석동 449-2번지","category":"일반휴게음식 - 일반한식"}]},{"lat":"37.72492766","long":"126.77112374","items":[{"name":"교하건재상회","tel":"031-942-7308","addr":"경기도 파주시 상지석동 992-16","category":"건축자재 - 기타건축자재"}]},{"lat":"37.725591904","long":"126.76987395","items":[{"name":"구제카페 서른","tel":"031-946-0961","addr":"경기도 파주시 상지석동 991-7번지","category":"일반휴게음식 - 서양음식"},{"name":"아리헤어","tel":"031-945-8059","addr":"경기도 파주시 상지석동 991-7번지","category":"보건위생 - 미용원"},{"name":"하림멕시칸","tel":"031-948-9233","addr":"경기도 파주시 상지석동 991-7 나동","category":"일반휴게음식 - 주점"}]},{"lat":"37.732728622","long":"126.77506986","items":[{"name":"굳프랜드24시편의점","tel":"031-946-8241","addr":"경기도 파주시 상지석동 691-7","category":"유통업 영리 - 편 의 점"}]},{"lat":"37.724756607","long":"126.77582022","items":[{"name":"꿀맛 농장","tel":"070-4789-2382","addr":"경기도 파주시 상지석동 606-9번지","category":"음료식품 - 농·축·수산품"}]},{"lat":"37.733759256","long":"126.79148181","items":[{"name":"남도산업","tel":"031-942-1832","addr":"경기도 파주시 상지석동 107-1","category":"건축자재 - 건축용 요업제품"}]},{"lat":"37.721567478","long":"126.78068449","items":[{"name":"남양공구수리임대","tel":"031-945-8084","addr":"경기도 파주시 상지석동 512-3","category":"기타 - 기계공구"}]},{"lat":"37.729065275","long":"126.78651535","items":[{"name":"내마을연쇄점","tel":"031-942-1941","addr":"경기도 파주시 상지석동 178-85","category":"음료식품 - 기타음료식품"}]},{"lat":"37.721485172","long":"126.78003823","items":[{"name":"늘푸른식당","tel":"031-945-9059","addr":"경기도 파주시 상지석동 511-9번지","category":"일반휴게음식 - 일반한식"},{"name":"모드림아울렛","tel":"02-1111-1111","addr":"경기도 파주시 상지석동 511-9번지","category":"의류 - 정장"},{"name":"주은이네 집밥","tel":"031-945-9059","addr":"경기도 파주시 상지석동 511-9번지","category":"일반휴게음식 - 일반한식"},{"name":"파주돌짜장","tel":"070-4413-7700","addr":"경기도 파주시 상지석동 511-9번지","category":"일반휴게음식 - 중국식"}]},{"lat":"37.733791853","long":"126.77512332","items":[{"name":"다온교육사","tel":"","addr":"경기도 파주시 상지석동 673-19번지 소르빌","category":"서적문구 - 기타서적문구"}]},{"lat":"37.731317384","long":"126.77676442","items":[{"name":"다조아상사","tel":"031-975-1919","addr":"경기도 파주시 상지석동 653-2번지","category":"직물 - 침구·수예점"}]},{"lat":"37.724538122","long":"126.78906931","items":[{"name":"더 그라운드(The Ground)","tel":"031-942-0714","addr":"경기도 파주시 상지석동 134-4번지","category":"레저업소 - 기타레져업소"}]},{"lat":"37.723674706","long":"126.78989981","items":[{"name":"더원석재","tel":"","addr":"경기도 파주시 상지석동 133-26번지 갤러리하우스","category":"건축자재 - 목재·석재·철물"}]},{"lat":"37.733286882","long":"126.77489799","items":[{"name":"더피플","tel":"070-7569-7661","addr":"경기도 파주시 상지석동 673-13번지 소르빌","category":"용역 서비스 - 종합용역"}]},{"lat":"37.719943138","long":"126.78410333","items":[{"name":"덕일카센타","tel":"031-976-6763","addr":"경기도 파주시 상지석동 1892번지","category":"자동차정비 유지 - 자동차정비"}]},{"lat":"37.720875153","long":"126.78143515","items":[{"name":"동방어닝","tel":"031-913-9996","addr":"경기도 파주시 상지석동 546-11번지","category":"직물 - 카페트,커튼,천막,지물"}]},{"lat":"37.729791052","long":"126.79429497","items":[{"name":"동북디씨아이","tel":"031-949-9348","addr":"경기도 파주시 상지석동 123-31","category":"기타 - 기계공구"}]},{"lat":"37.721234235","long":"126.77601245","items":[{"name":"동아포장자재총판","tel":"031-947-7655","addr":"경기도 파주시 상지석동 559-1 가동정면 (좌측)","category":"기타 - 기타 전문점"},{"name":"운정타이마트","tel":"","addr":"경기도 파주시 상지석동 559-1번지","category":"유통업 영리 - 슈퍼마켓"},{"name":"행복한정비소","tel":"070-7766-5693","addr":"경기도 파주시 상지석동 559-1번지","category":"자동차정비 유지 - 자동차정비"}]},{"lat":"37.725043086","long":"126.77026132","items":[{"name":"동우종합보수","tel":"031-948-0025","addr":"경기도 파주시 상지석동 990-4번지","category":"건축자재 - 인테리어전문"},{"name":"삼일통신","tel":"070-4184-8844","addr":"경기도 파주시 상지석동 990-4번지","category":"사무통신 - 통신기기"},{"name":"운정떡방앗간","tel":"031-942-6217","addr":"경기도 파주시 상지석동 990-4","category":"음료식품 - 제과점"}]},{"lat":"37.727034925","long":"126.77062942","items":[{"name":"동우프레임","tel":"031-946-5623","addr":"경기도 파주시 상지석동 978-18","category":"기타 - 기타 전문점"}]},{"lat":"37.728230455","long":"126.76924179","items":[{"name":"동일건재철물","tel":"031-957-6974","addr":"경기도 파주시 상지석동 973-10번지","category":"건축자재 - 목재·석재·철물"},{"name":"제일안전","tel":"031-957-6975","addr":"경기도 파주시 상지석동 973-10번지","category":"기타 - 기계공구"}]},{"lat":"37.729235476","long":"126.78598171","items":[{"name":"동해루","tel":"031-942-8969","addr":"경기도 파주시 상지석동 177-172,177-173","category":"일반휴게음식 - 중국식"}]},{"lat":"37.72525862","long":"126.76990902","items":[{"name":"동화","tel":"031-944-0206","addr":"경기도 파주시 상지석동 991번지","category":"일반휴게음식 - 중국식"},{"name":"섬마을활어횟집","tel":"031-942-8832","addr":"경기도 파주시 상지석동 991번지","category":"일반휴게음식 - 일식·회집"},{"name":"자연산약초.운정옷판매수선","tel":"031-937-8202","addr":"경기도 파주시 상지석동 991번지","category":"수리서비스 - 세탁소"},{"name":"지하당구장","tel":"031-000-0000","addr":"경기도 파주시 상지석동 991번지","category":"레저업소 - 당 구 장"},{"name":"커피톡","tel":"070-7639-5663","addr":"경기도 파주시 상지석동 991번지","category":"일반휴게음식 - 서양음식"}]},{"lat":"37.735509168","long":"126.77798822","items":[{"name":"두세이프인터네셔날","tel":"070-8638-3525","addr":"경기도 파주시 상지석동 737-40 나동","category":"사무통신 - 기타 사무용품"},{"name":"태영","tel":"031-942-3525","addr":"경기도 파주시 상지석동 737-40번지","category":"사무통신 - 기타 사무용품"}]},{"lat":"37.724010869","long":"126.77223819","items":[{"name":"뚠돈","tel":"070-8881-4646","addr":"경기도 파주시 상지석동 994번지","category":"일반휴게음식 - 일반한식"},{"name":"와우피치","tel":"031-944-7934","addr":"경기도 파주시 상지석동 994번지","category":"일반휴게음식 - 서양음식"}]},{"lat":"37.724702422","long":"126.77112445","items":[{"name":"띠띠빵빵한식부페","tel":"031-977-6096","addr":"경기도 파주시 상지석동 992-15번지","category":"일반휴게음식 - 일반한식"}]},{"lat":"37.72453957","long":"126.7754012","items":[{"name":"로얄전자","tel":"031-943-0957","addr":"경기도 파주시 상지석동 606-5번지","category":"보건위생 - 미용재료"}]},{"lat":"37.726236929","long":"126.77259427","items":[{"name":"리드코리아","tel":"031-944-4788","addr":"경기도 파주시 상지석동 987-24","category":"자동차정비 유지 - 자동차부품"}]},{"lat":"37.71667951","long":"126.77348582","items":[{"name":"리빙홀릭","tel":"031-913-4255","addr":"경기도 파주시 상지석동 554-152번지","category":"문화.취미 - 애완동물"}]},{"lat":"37.720732234","long":"126.78209343","items":[{"name":"멤피스존","tel":"031-949-8708","addr":"경기도 파주시 상지석동 546-5","category":"자동차정비 유지 - 카인테리어"},{"name":"일산종합타이어","tel":"031-959-0172","addr":"경기도 파주시 상지석동 546-5번지","category":"자동차정비 유지 - 자동차시트·타이어"}]},{"lat":"37.721626245","long":"126.77373144","items":[{"name":"명일건축","tel":"031-941-9961","addr":"경기도 파주시 상지석동 997-15번지","category":"용역 서비스 - 기타용역서비스"},{"name":"주식회사 해피존","tel":"031-927-9227","addr":"경기도 파주시 상지석동 997-15번지","category":"신변잡화 - 기타잡화"}]},{"lat":"37.725924224","long":"126.76935113","items":[{"name":"명진 시스템(MJ SYSTEM)","tel":"031-935-5008","addr":"경기도 파주시 상지석동 977-5번지","category":"사무통신 - 컴퓨터"}]},{"lat":"37.725843677","long":"126.76962361","items":[{"name":"명진건설","tel":"031-949-9397","addr":"경기도 파주시 상지석동 991-5번지","category":"용역 서비스 - 기타용역서비스"},{"name":"씨유운정행복점","tel":"031-949-3383","addr":"경기도 파주시 상지석동 991-5","category":"유통업 영리 - 편 의 점"},{"name":"진 자갈자갈","tel":"031-111-1111","addr":"경기도 파주시 상지석동 991-5번지","category":"일반휴게음식 - 일반한식"}]},{"lat":"37.721904028","long":"126.77762103","items":[{"name":"모두모아","tel":"031-111-1111","addr":"경기도 파주시 상지석동 586-4번지","category":"의류 - 기타의류"},{"name":"운정현대정비공장(주)","tel":"031-949-4972","addr":"경기도 파주시 상지석동 586-4","category":"자동차정비 유지 - 자동차정비"}]},{"lat":"37.721182572","long":"126.77726026","items":[{"name":"모든쇼파","tel":"031-941-9668","addr":"경기도 파주시 상지석동 573-6번지","category":"가구 - 일반가구"}]},{"lat":"37.733705748","long":"126.79178826","items":[{"name":"모든싸인","tel":"031-957-0990","addr":"경기도 파주시 상지석동 197번지","category":"용역 서비스 - 종합용역"}]},{"lat":"37.733341641","long":"126.77526083","items":[{"name":"미니스톱 파주상지석점","tel":"031-1577-9621","addr":"경기도 파주시 상지석동 691-15번지","category":"유통업 영리 - 편 의 점"}]},{"lat":"37.727066788","long":"126.76851948","items":[{"name":"미르 자동문","tel":"","addr":"경기도 파주시 상지석동 975-1번지","category":"건축자재 - 기타건축자재"}]},{"lat":"37.730674728","long":"126.77993128","items":[{"name":"민국스텐","tel":"031-948-8430","addr":"경기도 파주시 상지석동 448-6","category":"건축자재 - 목재·석재·철물"}]},{"lat":"37.737283043","long":"126.777461","items":[{"name":"밀러박스","tel":"031-111-1111","addr":"경기도 파주시 상지석동 745-7번지","category":"신변잡화 - 액세서리"}]},{"lat":"37.721343584","long":"126.78139973","items":[{"name":"밥상","tel":"02-3667-2068","addr":"경기도 파주시 상지석동 547-7번지","category":"일반휴게음식 - 일반한식"},{"name":"세븐일레븐운정로드점","tel":"031-1577-0711","addr":"경기도 파주시 상지석동 547-7번지","category":"유통업 영리 - 편 의 점"}]},{"lat":"37.724471551","long":"126.77284927","items":[{"name":"베베마쎄(BeBe Masse)","tel":"070-7353-1935","addr":"경기도 파주시 상지석동 996-9번지 교하그린빌","category":"보건위생 - 화장품"}]},{"lat":"37.734762836","long":"126.77406532","items":[{"name":"부시펠릿난로 (Bush Pellet Stoves)","tel":"070-4223-7764","addr":"경기도 파주시 상지석동 679-6번지 제1동","category":"전기제품 - 냉열기기"},{"name":"썬웨이브테크(sun-wavetec)","tel":"","addr":"경기도 파주시 상지석동 679-6번지","category":"전기제품 - 기타전기제품"}]},{"lat":"37.726924773","long":"126.76959753","items":[{"name":"부평액자","tel":"031-947-1924","addr":"경기도 파주시 상지석동 978-48","category":"문화.취미 - 화방·표구점"}]},{"lat":"37.727762789","long":"126.78865168","items":[{"name":"브릭나인","tel":"031-946-1738","addr":"경기도 파주시 상지석동 172-11번지","category":"가구 - 일반가구"}]},{"lat":"37.728205065","long":"126.77006994","items":[{"name":"삼성닥트","tel":"031-945-5489","addr":"경기도 파주시 상지석동 970-14번지","category":"용역 서비스 - 기타용역서비스"}]},{"lat":"37.723621754","long":"126.79051247","items":[{"name":"삼오건축설비","tel":"031-943-7227","addr":"경기도 파주시 상지석동 133-19번지","category":"용역 서비스 - 기타용역서비스"},{"name":"쑥스럼","tel":"031-943-7227","addr":"경기도 파주시 상지석동 133-19번지","category":"일반휴게음식 - 일반한식"}]},{"lat":"37.719176949","long":"126.78390142","items":[{"name":"삼현 비엔씨","tel":"070-4258-1719","addr":"경기도 파주시 상지석동 540-2번지","category":"건축자재 - 건축용 요업제품"},{"name":"유게러지(YOU GARAGE)","tel":"","addr":"경기도 파주시 상지석동 540-2번지","category":"자동차정비 유지 - 자동차정비"}]},{"lat":"37.731228831","long":"126.7775701","items":[{"name":"삼화HF","tel":"031-945-5100","addr":"경기도 파주시 상지석동 646번지","category":"사무통신 - 컴퓨터"}]},{"lat":"37.73059314","long":"126.79442885","items":[{"name":"상일시스템","tel":"031-948-4721","addr":"경기도 파주시 상지석동 1017번지","category":"가구 - 일반가구"},{"name":"한솔 씽크공장(원목산업)","tel":"031-944-7742","addr":"경기도 파주시 상지석동 1017번지","category":"주방용구 - 주방용구"}]},{"lat":"37.738616604","long":"126.77287358","items":[{"name":"상지마트","tel":"031-908-8823","addr":"경기도 파주시 상지석동 885-4번지","category":"음료식품 - 농·축·수산품"}]},{"lat":"37.725731065","long":"126.78615073","items":[{"name":"상지물류센터","tel":"031-945-5524","addr":"경기도 파주시 상지석동 151-3번지","category":"용역 서비스 - 보관및 창고업"}]},{"lat":"37.731486376","long":"126.78034857","items":[{"name":"상지자동차정비","tel":"031-902-8837","addr":"경기도 파주시 상지석동 447-2번지","category":"자동차정비 유지 - 자동차정비"}]},{"lat":"37.732369936","long":"126.77131609","items":[{"name":"상황버섯마을","tel":"031-943-5724","addr":"경기도 파주시 상지석동 1566-1","category":"음료식품 - 농·축·수산품"}]},{"lat":"37.726561827","long":"126.76830556","items":[{"name":"서부이동빵구","tel":"031-942-1470","addr":"경기도 파주시 상지석동 977-7번지 경안주택","category":"자동차정비 유지 - 자동차정비"}]},{"lat":"37.726148021","long":"126.76862447","items":[{"name":"성우종합유통","tel":"031-949-1770","addr":"경기도 파주시 상지석동 977-3번지","category":"음료식품 - 기타음료식품"},{"name":"플러그드","tel":"070-7620-5133","addr":"경기도 파주시 상지석동 977-3번지","category":"전기제품 - 가전제품"}]},{"lat":"37.733479208","long":"126.79106287","items":[{"name":"성원공업사","tel":"031-957-0357","addr":"경기도 파주시 상지석동 197-5","category":"자동차정비 유지 - 자동차정비"}]},{"lat":"37.727565678","long":"126.7843418","items":[{"name":"성주산업","tel":"031-911-7671","addr":"경기도 파주시 상지석동 486-1번지","category":"가구 - 일반가구"}]},{"lat":"37.729841944","long":"126.79251388","items":[{"name":"성진산업","tel":"031-946-6676","addr":"경기도 파주시 상지석동 116-1번지","category":"레져용품 - 스포츠·레져용품"}]},{"lat":"37.726814624","long":"126.79245438","items":[{"name":"세나시트","tel":"031-985-2266","addr":"경기도 파주시 상지석동 129-4번지","category":"자동차정비 유지 - 자동차부품"}]},{"lat":"37.731675255","long":"126.78017785","items":[{"name":"세븐일레븐파주운정상지점","tel":"031-1577-0711","addr":"경기도 파주시 상지석동 447-7번지","category":"유통업 영리 - 편 의 점"}]},{"lat":"37.729457949","long":"126.78448371","items":[{"name":"소소 내추럴디엔씨","tel":"","addr":"경기도 파주시 상지석동 177-113번지","category":"보건위생 - 화장품"}]},{"lat":"37.725455279","long":"126.76912574","items":[{"name":"수노래연습장","tel":"","addr":"경기도 파주시 상지석동 990-15번지","category":"레저업소 - 노 래 방"}]},{"lat":"37.72812131","long":"126.78762975","items":[{"name":"수퍼니처","tel":"031-949-0109","addr":"경기도 파주시 상지석동 172-1번지","category":"주방용구 - 주방용구"}]},{"lat":"37.7310932","long":"126.78207401","items":[{"name":"순이네밥상","tel":"031-946-8332","addr":"경기도 파주시 상지석동 452-27번지","category":"일반휴게음식 - 일반한식"}]},{"lat":"37.726929418","long":"126.7719569","items":[{"name":"신화퍼니처","tel":"031-957-7895","addr":"경기도 파주시 상지석동 614-49","category":"가구 - 일반가구"}]},{"lat":"37.726013261","long":"126.76881772","items":[{"name":"썬헤어피부관리","tel":"031-957-6213","addr":"경기도 파주시 상지석동 977-2","category":"회원제형태 - 기타4"},{"name":"조선일보 운정1. 2지국","tel":"","addr":"경기도 파주시 상지석동 977-2번지","category":"서적문구 - 정기간행물"}]},{"lat":"37.729618926","long":"126.7937623","items":[{"name":"아이디세상","tel":"070-7706-9352","addr":"경기도 파주시 상지석동 123-2번지","category":"의류 - 아동의류"}]},{"lat":"37.714206018","long":"126.7756256","items":[{"name":"알파골프((ALPHA GOLF)","tel":"070-7420-6448","addr":"경기도 파주시 상지석동 551-36번지","category":"레져용품 - 스포츠·레져용품"},{"name":"정행규 P.G.A. 아카데미","tel":"031-946-2972","addr":"경기도 파주시 상지석동 551-36번지","category":"레저업소 - 골프연습장"},{"name":"차캐드","tel":"070-3962-4572","addr":"경기도 파주시 상지석동 551-36번지","category":"자동차판매 - 기타운송"}]},{"lat":"37.728229668","long":"126.76884478","items":[{"name":"애니카랜드교하운정점","tel":"031-946-8300","addr":"경기도 파주시 상지석동 974-10","category":"자동차정비 유지 - 자동차정비"},{"name":"헤이미쉬","tel":"031-942-0293","addr":"경기도 파주시 상지석동 974-10번지","category":"일반휴게음식 - 서양음식"}]},{"lat":"37.722758985","long":"126.78673786","items":[{"name":"에덴한식부페","tel":"031-944-7333","addr":"경기도 파주시 상지석동 139-7번지","category":"일반휴게음식 - 일반한식"}]},{"lat":"37.726228227","long":"126.76818183","items":[{"name":"에어컨서비스","tel":"070-8810-5454","addr":"경기도 파주시 상지석동 977-7번지 경안주택","category":"용역 서비스 - 기타용역서비스"}]},{"lat":"37.718067682","long":"126.77384447","items":[{"name":"엘리시아","tel":"031-942-5692","addr":"경기도 파주시 상지석동 554-36,C동","category":"가구 - 일반가구"}]},{"lat":"37.726290936","long":"126.79182065","items":[{"name":"엘리트 줄눈시공","tel":"031-1522-4931","addr":"경기도 파주시 상지석동 133-10번지 갤러리하우스","category":"건축자재 - 인테리어전문"}]},{"lat":"37.716121294","long":"126.77368034","items":[{"name":"엠일이바이크(M12 BIKE)","tel":"070-9986-2651","addr":"경기도 파주시 상지석동 554-138번지","category":"수리서비스 - 레져용품수리"}]},{"lat":"37.733036455","long":"126.77585166","items":[{"name":"오래된 서점","tel":"070-8821-3355","addr":"경기도 파주시 상지석동 697-9번지","category":"일반휴게음식 - 서양음식"}]},{"lat":"37.728401186","long":"126.76901439","items":[{"name":"우림카센타","tel":"031-946-4976","addr":"경기도 파주시 상지석동 973-7번지","category":"자동차정비 유지 - 자동차정비"}]},{"lat":"37.71920711","long":"126.7807596","items":[{"name":"우성기계","tel":"031-944-6855","addr":"경기도 파주시 상지석동 545-5","category":"기타 - 기계공구"},{"name":"지오정밀","tel":"031-943-4131","addr":"경기도 파주시 상지석동 545-5번지","category":"기타 - 기타 전문점"}]},{"lat":"37.733815383","long":"126.77331952","items":[{"name":"우성소가구","tel":"031-947-3949","addr":"경기도 파주시 상지석동 936-6","category":"가구 - 일반가구"}]},{"lat":"37.723875571","long":"126.77215921","items":[{"name":"운정가전재활용","tel":"031-947-8246","addr":"경기도 파주시 상지석동 994-1","category":"전기제품 - 가전제품"}]},{"lat":"37.721431811","long":"126.77568292","items":[{"name":"운정오토바이","tel":"031-942-4742","addr":"경기도 파주시 상지석동 558-8번지","category":"수리서비스 - 레져용품수리"},{"name":"주식회사 한결","tel":"070-4233-0303","addr":"경기도 파주시 상지석동 558-8번지","category":"음료식품 - 기타음료식품"}]},{"lat":"37.721289015","long":"126.78112768","items":[{"name":"운정타이어","tel":"031-949-4438","addr":"경기도 파주시 상지석동 547-3","category":"자동차정비 유지 - 자동차시트·타이어"}]},{"lat":"37.722066199","long":"126.77762054","items":[{"name":"운정현대부품","tel":"031-949-1962","addr":"경기도 파주시 상지석동 586-1번지","category":"자동차정비 유지 - 자동차부품"}]},{"lat":"37.723875394","long":"126.77206847","items":[{"name":"월드공인중개사무소","tel":"031-946-3772","addr":"경기도 파주시 상지석동 994번지","category":"용역 서비스 - 부동산 중개·임대"}]},{"lat":"37.729372928","long":"126.78724044","items":[{"name":"웰빙한정식부페","tel":"031-944-3441","addr":"경기도 파주시 상지석동 190-25번지","category":"일반휴게음식 - 일반한식"}]},{"lat":"37.730094904","long":"126.7830185","items":[{"name":"위더스(WITHUS)","tel":"031-957-5965","addr":"경기도 파주시 상지석동 177-16","category":"신변잡화 - 기타잡화"}]},{"lat":"37.725234765","long":"126.79067801","items":[{"name":"유씨네","tel":"070-2699-0807","addr":"경기도 파주시 상지석동 133-63번지","category":"음료식품 - 기타음료식품"}]},{"lat":"37.72690394","long":"126.7681797","items":[{"name":"유알스페셜(URSPECIAL)","tel":"031-947-0947","addr":"경기도 파주시 상지석동 975-7번지","category":"자동차정비 유지 - 자동차부품"}]},{"lat":"37.724764698","long":"126.7753438","items":[{"name":"유창기업","tel":"031-945-2241","addr":"경기도 파주시 상지석동 606-1번지","category":"건축자재 - 기타건축자재"}]},{"lat":"37.721372054","long":"126.77740714","items":[{"name":"은성밧데리","tel":"031-944-0907","addr":"경기도 파주시 상지석동 573-7","category":"자동차정비 유지 - 세차장"}]},{"lat":"37.730119578","long":"126.78175928","items":[{"name":"이레","tel":"","addr":"경기도 파주시 상지석동 453-42번지","category":"가구 - 기타가구"}]},{"lat":"37.730229984","long":"126.78298407","items":[{"name":"이샵","tel":"","addr":"경기도 파주시 상지석동 177-12번지","category":"주방용구 - 주방용구"},{"name":"조은","tel":"031-957-5965","addr":"경기도 파주시 상지석동 177-12번지","category":"서적문구 - 일반서적"}]},{"lat":"37.732201749","long":"126.77751043","items":[{"name":"이소민","tel":"031-977-7736","addr":"경기도 파주시 상지석동 645-2번지","category":"보건위생 - 화장품"}]},{"lat":"37.726472019","long":"126.79231923","items":[{"name":"이지플랜","tel":"031-943-6732","addr":"경기도 파주시 상지석동 129-8번지","category":"전기제품 - 가전제품"}]},{"lat":"37.726675572","long":"126.77115233","items":[{"name":"이티오국제무역","tel":"031-946-8986","addr":"경기도 파주시 상지석동 978-61번지 헤븐빌","category":"신변잡화 - 기타잡화"}]},{"lat":"37.721374683","long":"126.77409517","items":[{"name":"일산동구 출장세차","tel":"","addr":"경기도 파주시 상지석동 557번지","category":"자동차정비 유지 - 세차장"}]},{"lat":"37.72048071","long":"126.78249115","items":[{"name":"일조산업","tel":"031-949-6418","addr":"경기도 파주시 상지석동 546-10번지","category":"건축자재 - 기타건축자재"}]},{"lat":"37.734315651","long":"126.77576835","items":[{"name":"임봉순","tel":"031-975-3805","addr":"경기도 파주시 상지석동 688-7번지","category":"의류 - 정장"}]},{"lat":"37.724899716","long":"126.77065877","items":[{"name":"장안포차","tel":"","addr":"경기도 파주시 상지석동 990-31번지","category":"일반휴게음식 - 주점"}]},{"lat":"37.732202558","long":"126.78270598","items":[{"name":"정엔김(Jung & Kim)","tel":"","addr":"경기도 파주시 상지석동 438-7번지","category":"가구 - 일반가구"}]},{"lat":"37.73154199","long":"126.77643476","items":[{"name":"정직한중고가전","tel":"070-8221-2807","addr":"경기도 파주시 상지석동 653-32번지","category":"전기제품 - 가전제품"}]},{"lat":"37.733701879","long":"126.77989952","items":[{"name":"정타이어","tel":"031-952-2210","addr":"경기도 파주시 상지석동 444-16번지","category":"자동차정비 유지 - 자동차시트·타이어"}]},{"lat":"37.73342456","long":"126.79073405","items":[{"name":"제이씨태영유통(주)","tel":"031-949-9266","addr":"경기도 파주시 상지석동 197-6","category":"음료식품 - 농·축·수산품"}]},{"lat":"37.72106869","long":"126.77426624","items":[{"name":"제이에이치인터내셔널","tel":"","addr":"경기도 파주시 상지석동 557-15번지","category":"의류 - 정장"}]},{"lat":"37.717626105","long":"126.77378912","items":[{"name":"제이와이스포츠(JYSports)","tel":"031-953-0072","addr":"경기도 파주시 상지석동 554-38번지","category":"학원 - 예·체능계학원"}]},{"lat":"37.730514012","long":"126.78553557","items":[{"name":"제이프린텍","tel":"031-945-1080","addr":"경기도 파주시 상지석동 192-1번지","category":"서적문구 - 출판 및 인쇄물"}]},{"lat":"37.73142393","long":"126.78067773","items":[{"name":"종가집고양대리점","tel":"031-957-5728","addr":"경기도 파주시 상지석동 450-5번지","category":"음료식품 - 기타음료식품"}]},{"lat":"37.729566295","long":"126.79456785","items":[{"name":"좋은생각","tel":"031-111-1111","addr":"경기도 파주시 상지석동 123-3번지","category":"의류 - 기타의류"}]},{"lat":"37.736842639","long":"126.77801822","items":[{"name":"주식회사 공감트리","tel":"031-947-5987","addr":"경기도 파주시 상지석동 735-5번지","category":"가구 - 일반가구"}]},{"lat":"37.72089708","long":"126.77873563","items":[{"name":"주식회사 동신창호","tel":"031-942-2797","addr":"경기도 파주시 상지석동 574-3번지","category":"건축자재 - 유리"}]},{"lat":"37.716481079","long":"126.77337301","items":[{"name":"주식회사 라이펀","tel":"031-957-2051","addr":"경기도 파주시 상지석동 554-151번지","category":"문화.취미 - 애완동물"}]},{"lat":"37.71793126","long":"126.77318707","items":[{"name":"주식회사 에스케이마블","tel":"031-946-4258","addr":"경기도 파주시 상지석동 554-14번지","category":"건축자재 - 인테리어전문"}]},{"lat":"37.717709631","long":"126.77504781","items":[{"name":"주식회사 와클글로벌","tel":"031-908-0026","addr":"경기도 파주시 상지석동 554-122번지","category":"기타 - 기계공구"}]},{"lat":"37.72579083","long":"126.7702363","items":[{"name":"주식회사 카리스","tel":"031-1111-1111","addr":"경기도 파주시 상지석동 991-8번지","category":"신변잡화 - 기타잡화"}]},{"lat":"37.723538106","long":"126.78909487","items":[{"name":"주식회사 퍼니우스","tel":"031-946-9458","addr":"경기도 파주시 상지석동 134-13번지","category":"가구 - 일반가구"}]},{"lat":"37.724173861","long":"126.77265737","items":[{"name":"주식회사 퓨스포","tel":"02-3453-5190","addr":"경기도 파주시 상지석동 995번지","category":"학원 - 기타 교육기관"}]},{"lat":"37.716041507","long":"126.77434974","items":[{"name":"주식회사문화애드비전","tel":"031-942-1280","addr":"경기도 파주시 상지석동 552-8번지","category":"용역 서비스 - 종합용역"}]},{"lat":"37.727312563","long":"126.76978915","items":[{"name":"주식회사지비솔루션즈","tel":"02-717-9901","addr":"경기도 파주시 상지석동 978-29번지","category":"용역 서비스 - 소프트웨어"}]},{"lat":"37.728041795","long":"126.76951463","items":[{"name":"주식회사형제상사","tel":"031-949-4924","addr":"경기도 파주시 상지석동 973-11","category":"음료식품 - 기타음료식품"}]},{"lat":"37.73695006","long":"126.77765487","items":[{"name":"주현유통","tel":"","addr":"경기도 파주시 상지석동 730-3번지","category":"유통업 영리 - 기타유통업"}]},{"lat":"37.718675203","long":"126.77585013","items":[{"name":"지니어스크리스찬아카데미뮤직앤아트","tel":"070-4407-2207","addr":"경기도 파주시 상지석동 554-101번지","category":"학원 - 보습학원"}]},{"lat":"37.72042756","long":"126.77351963","items":[{"name":"진목하우스","tel":"031-946-0792","addr":"경기도 파주시 상지석동 1000-18번지","category":"건축자재 - 목재·석재·철물"}]},{"lat":"37.722924826","long":"126.77904711","items":[{"name":"진영엘에스","tel":"031-931-5455","addr":"경기도 파주시 상지석동 578-5 외1필지","category":"건축자재 - 인테리어전문"},{"name":"토탈패널산업","tel":"031-8071-3090","addr":"경기도 파주시 상지석동 578-5번지 마동","category":"건축자재 - 기타건축자재"}]},{"lat":"37.719654875","long":"126.78412686","items":[{"name":"참좋은가구들","tel":"031-975-6228","addr":"경기도 파주시 상지석동 1892번지","category":"가구 - 일반가구"}]},{"lat":"37.724396117","long":"126.77576461","items":[{"name":"창조어린이집[아이행복]","tel":"031-959-9304","addr":"경기도 파주시 상지석동 604-6번지","category":"학원 - 유아원"},{"name":"창조어린이집[아이행복]","tel":"031-957-9304","addr":"경기도 파주시 상지석동 604-6번지","category":"학원 - 유아원"},{"name":"창조예능어린이집","tel":"031-957-9304","addr":"경기도 파주시 상지석동 604-6","category":"학원 - 유치원"}]},{"lat":"37.730454862","long":"126.78279056","items":[{"name":"천하공업사","tel":"031-975-7979","addr":"경기도 파주시 상지석동 177-13번지","category":"자동차정비 유지 - 자동차정비"}]},{"lat":"37.725151804","long":"126.77056724","items":[{"name":"청미원할인마트","tel":"031-947-8952","addr":"경기도 파주시 상지석동 990-28번지","category":"유통업 영리 - 슈퍼마켓"}]},{"lat":"37.719375011","long":"126.78382145","items":[{"name":"체리워크","tel":"031-000-0000","addr":"경기도 파주시 상지석동 541-4번지","category":"자동차정비 유지 - 자동차부품"}]},{"lat":"37.7351502","long":"126.77404144","items":[{"name":"초가누룽지백숙","tel":"031-946-3763","addr":"경기도 파주시 상지석동 679-7번지","category":"일반휴게음식 - 일반한식"}]},{"lat":"37.727730117","long":"126.79051208","items":[{"name":"초월 GF","tel":"031-943-8825","addr":"경기도 파주시 상지석동 128-77번지","category":"음료식품 - 기타음료식품"}]},{"lat":"37.727039263","long":"126.76827002","items":[{"name":"초일류시스템","tel":"","addr":"경기도 파주시 상지석동 975-16번지","category":"용역 서비스 - 기타용역서비스"}]},{"lat":"37.718928967","long":"126.78137289","items":[{"name":"칼라스토리","tel":"031-944-4236","addr":"경기도 파주시 상지석동 545-15번지","category":"가구 - 일반가구"}]},{"lat":"37.72400996","long":"126.79095373","items":[{"name":"케어토피아","tel":"02-2299-6597","addr":"경기도 파주시 상지석동 133-22번지 갤러리하우스","category":"용역 서비스 - 종합용역"}]},{"lat":"37.720343569","long":"126.78142539","items":[{"name":"케이비(KB)건축자재","tel":"","addr":"경기도 파주시 상지석동 545-1번지","category":"건축자재 - 기타건축자재"}]},{"lat":"37.721623735","long":"126.77710013","items":[{"name":"케이오토","tel":"031-945-0630","addr":"경기도 파주시 상지석동 587-9번지","category":"자동차정비 유지 - 자동차정비"},{"name":"케이자동변속기","tel":"031-945-0630","addr":"경기도 파주시 상지석동 587-9","category":"자동차정비 유지 - 자동차정비"}]},{"lat":"37.725652537","long":"126.79253707","items":[{"name":"크린에이드","tel":"031-945-9698","addr":"경기도 파주시 상지석동 133-31번지","category":"수리서비스 - 세탁소"}]},{"lat":"37.718231042","long":"126.77445643","items":[{"name":"키칠라노","tel":"031-941-8980","addr":"경기도 파주시 상지석동 554-72번지","category":"가구 - 일반가구"}]},{"lat":"37.726012027","long":"126.79203696","items":[{"name":"타임스크린골프","tel":"031-943-6600","addr":"경기도 파주시 상지석동 133-29번지 갤러리하우스","category":"레저업소 - 스크린골프"}]},{"lat":"37.731200848","long":"126.77707106","items":[{"name":"태가","tel":"031-942-5802","addr":"경기도 파주시 상지석동 646-1번지","category":"가구 - 일반가구"}]},{"lat":"37.727151266","long":"126.77023204","items":[{"name":"티원","tel":"031-947-3975","addr":"경기도 파주시 상지석동 978-39번지","category":"사무통신 - 기타 사무용품"}]},{"lat":"37.725177381","long":"126.7744351","items":[{"name":"파란창","tel":"031-8071-0748","addr":"경기도 파주시 상지석동 986-7가동","category":"직물 - 카페트,커튼,천막,지물"}]},{"lat":"37.730709279","long":"126.79387267","items":[{"name":"하나아트","tel":"031-942-9952","addr":"경기도 파주시 상지석동 118-5번지","category":"서적문구 - 출판 및 인쇄물"},{"name":"하나우드","tel":"070-4922-1261","addr":"경기도 파주시 상지석동 118-5번지","category":"서적문구 - 출판 및 인쇄물"}]},{"lat":"37.717875099","long":"126.77675991","items":[{"name":"한백","tel":"031-945-2763","addr":"경기도 파주시 상지석동 554-48번지","category":"기타 - 기계공구"},{"name":"한백기계유통","tel":"031-945-2761","addr":"경기도 파주시 상지석동 554-48번지","category":"기타 - 기계공구"}]},{"lat":"37.724786884","long":"126.7728483","items":[{"name":"한빛/조흥물대","tel":"031-957-1217","addr":"경기도 파주시 상지석동 995-5","category":"별도관리 - 자체물품대금"}]},{"lat":"37.723286217","long":"126.77487193","items":[{"name":"한빛카센타","tel":"031-948-4882","addr":"경기도 파주시 상지석동 604-12번지","category":"자동차정비 유지 - 자동차정비"}]},{"lat":"37.734679543","long":"126.77293114","items":[{"name":"한솔어린이집[아이행복]","tel":"031-946-3272","addr":"경기도 파주시 상지석동 933-2번지","category":"학원 - 유아원"},{"name":"한솔유치원[아이행복]","tel":"031-946-3272","addr":"경기도 파주시 상지석동 933-2번지","category":"학원 - 유치원"}]},{"lat":"37.723619679","long":"126.77492762","items":[{"name":"한일정","tel":"031-942-7569","addr":"경기도 파주시 상지석동 604-10번지","category":"일반휴게음식 - 일반한식"}]},{"lat":"37.737618342","long":"126.77848101","items":[{"name":"현대공업사","tel":"031-948-8666","addr":"경기도 파주시 상지석동 745-6번지","category":"자동차정비 유지 - 자동차정비"}]},{"lat":"37.728481952","long":"126.79276728","items":[{"name":"현대인조대리석","tel":"031-949-9896","addr":"경기도 파주시 상지석동 126-8번지","category":"건축자재 - 기타건축자재"}]},{"lat":"37.720985165","long":"126.77768053","items":[{"name":"협심마대","tel":"031-977-5330","addr":"경기도 파주시 상지석동 573-5번지","category":"유통업 영리 - 기타유통업"}]},{"lat":"37.723593969","long":"126.79009287","items":[{"name":"홈웨이 편의점","tel":"031-945-9698","addr":"경기도 파주시 상지석동 133-27번지","category":"유통업 영리 - 편 의 점"}]},{"lat":"37.731900304","long":"126.77073901","items":[{"name":"화성버섯농장","tel":"031-943-5724","addr":"경기도 파주시 상지석동 1575-4","category":"음료식품 - 농·축·수산품"}]},{"lat":"37.72995538","long":"126.78068212","items":[{"name":"화이트인","tel":"031-901-6770","addr":"경기도 파주시 상지석동 461번지","category":"직물 - 침구·수예점"}]},{"lat":"37.726952945","long":"126.77017595","items":[{"name":"황금유자","tel":"031-948-9961","addr":"경기도 파주시 상지석동 978-52번지 가,나동","category":"음료식품 - 기타음료식품"}]},{"lat":"37.71659935","long":"126.77396241","items":[{"name":"황룡산오리","tel":"031-943-0959","addr":"경기도 파주시 상지석동 552-1번지","category":"일반휴게음식 - 일반한식"}]}]