[{"lat":"37.177886554","long":"126.98648653","items":[{"name":"(주)극동정밀","tel":"031-8031-5202","addr":"경기도 화성시 정남면 괘랑리 749-2번지 A","category":"기타 - 기계공구"}]},{"lat":"37.17735495","long":"126.98656547","items":[{"name":"(주)삼번화성지점","tel":"031-353-3085","addr":"경기도 화성시 정남면 괘랑리 751-1","category":"건축자재 - 목재·석재·철물"},{"name":"국민스틸(주)화성지점","tel":"031-352-1161","addr":"경기도 화성시 정남면 괘랑리 751-1번지","category":"건축자재 - 기타건축자재"}]},{"lat":"37.169830708","long":"126.98308793","items":[{"name":"(주)이지아이티시스템","tel":"031-353-3331","addr":"경기도 화성시 정남면 괘랑리 1048-6번지 101호","category":"전기제품 - 기타전기제품"},{"name":"안나헤어","tel":"031-352-2386","addr":"경기도 화성시 정남면 괘랑리 1048-6번지","category":"보건위생 - 미용원"},{"name":"우정노래연습장","tel":"031-354-2234","addr":"경기도 화성시 정남면 괘랑리 1048-6번지","category":"레저업소 - 노 래 방"}]},{"lat":"37.185861748","long":"126.99667673","items":[{"name":"(주)지티앤","tel":"031-000-0000","addr":"경기도 화성시 정남면 괘랑리 354번지","category":"기타 - 기계공구"},{"name":"(주)한국이앤아이","tel":"031-352-3347","addr":"경기도 화성시 정남면 괘랑리 354번지","category":"서적문구 - 과학기자재"}]},{"lat":"37.176859291","long":"126.98595752","items":[{"name":"(주)해와달","tel":"070-7770-4668","addr":"경기도 화성시 정남면 괘랑리 870-6번지","category":"음료식품 - 기타음료식품"}]},{"lat":"37.169362249","long":"126.98359473","items":[{"name":"100세약국","tel":"031-353-7575","addr":"경기도 화성시 정남면 괘랑리 1049-9번지","category":"약국 - 약국"},{"name":"양산흑염소","tel":"031-352-5340","addr":"경기도 화성시 정남면 괘랑리 1049-9번지","category":"건강식품 - 기타건강식품"},{"name":"영동순대","tel":"031-352-6390","addr":"경기도 화성시 정남면 괘랑리 1049-9번지 외4필지","category":"일반휴게음식 - 일반한식"},{"name":"정남떡방앗간","tel":"031-352-2056","addr":"경기도 화성시 정남면 괘랑리 1049-9","category":"음료식품 - 제과점"}]},{"lat":"37.181274599","long":"126.98742047","items":[{"name":"SP야구교실","tel":"070-4155-9151","addr":"경기도 화성시 정남면 괘랑리 680-10번지","category":"레저업소 - 기타레져업소"}]},{"lat":"37.180852111","long":"127.00421079","items":[{"name":"가온마루","tel":"031-353-6672","addr":"경기도 화성시 정남면 괘랑리 147-1번지 1동","category":"건축자재 - 목재·석재·철물"}]},{"lat":"37.169470264","long":"126.9829304","items":[{"name":"강당골생삼겹살","tel":"031-8059-4988","addr":"경기도 화성시 정남면 괘랑리 1051-1","category":"일반휴게음식 - 일반한식"},{"name":"피아체피자","tel":"031-354-2885","addr":"경기도 화성시 정남면 괘랑리 1051-1번지 1층","category":"일반휴게음식 - 서양음식"}]},{"lat":"37.172524847","long":"126.98319983","items":[{"name":"강릉교동짬뽕&호프치킨","tel":"031-377-5894","addr":"경기도 화성시 정남면 괘랑리 918-1번지 1층","category":"일반휴게음식 - 중국식"}]},{"lat":"37.181301813","long":"126.98889568","items":[{"name":"강원하이테크","tel":"031-354-0712","addr":"경기도 화성시 정남면 괘랑리 234-1번지 다동","category":"기타 - 기계공구"}]},{"lat":"37.175913255","long":"126.98637436","items":[{"name":"강원한식뷔페","tel":"031-359-9245","addr":"경기도 화성시 정남면 괘랑리 869-3번지 1층","category":"일반휴게음식 - 일반한식"},{"name":"행운","tel":"031-353-4173","addr":"경기도 화성시 정남면 괘랑리 869-3번지","category":"용역 서비스 - 기타용역서비스"}]},{"lat":"37.178724643","long":"126.98737595","items":[{"name":"경기도종합재활용센터","tel":"031-353-7515","addr":"경기도 화성시 정남면 괘랑리 245-5번지","category":"신변잡화 - 기타잡화"},{"name":"구성무늬목","tel":"031-359-8403","addr":"경기도 화성시 정남면 괘랑리 245-5","category":"건축자재 - 기타건축자재"}]},{"lat":"37.180779189","long":"126.98872686","items":[{"name":"경기마트","tel":"031-353-8526","addr":"경기도 화성시 정남면 괘랑리 233-2","category":"유통업 영리 - 슈퍼마켓"},{"name":"태성특수용접","tel":"031-352-0355","addr":"경기도 화성시 정남면 괘랑리 233-2번지","category":"용역 서비스 - 종합용역"}]},{"lat":"37.169695552","long":"126.98308797","items":[{"name":"경기방앗간","tel":"031-353-8066","addr":"경기도 화성시 정남면 괘랑리 1049-17번지","category":"음료식품 - 제과점"},{"name":"빵빵커피숍","tel":"","addr":"경기도 화성시 정남면 괘랑리 1049-17번지","category":"일반휴게음식 - 서양음식"},{"name":"정남한의원","tel":"031-353-3369","addr":"경기도 화성시 정남면 괘랑리 1049-17번지","category":"의원 - 한의원"},{"name":"주식회사 씨엠에스","tel":"031-293-9659","addr":"경기도 화성시 정남면 괘랑리 1049-17번지","category":"기타 - 기계공구"}]},{"lat":"37.17875155","long":"126.98645257","items":[{"name":"경기이엔지","tel":"031-375-5305","addr":"경기도 화성시 정남면 괘랑리 746-2번지","category":"기타 - 기계공구"}]},{"lat":"37.179804915","long":"126.98114846","items":[{"name":"경기종균연구소","tel":"031-352-6631","addr":"경기도 화성시 정남면 괘랑리 1088-1번지","category":"음료식품 - 농·축·수산품"}]},{"lat":"37.171245339","long":"126.98304253","items":[{"name":"고향부동산컨설팅","tel":"031-352-1656","addr":"경기도 화성시 정남면 괘랑리 1062-2번지","category":"회원제형태 - 기타4"},{"name":"미래종합설비","tel":"031-354-9044","addr":"경기도 화성시 정남면 괘랑리 1062-2번지","category":"용역 서비스 - 기타용역서비스"}]},{"lat":"37.186330442","long":"127.00444738","items":[{"name":"광성전기","tel":"031-353-5190","addr":"경기도 화성시 정남면 괘랑리 54번지","category":"전기제품 - 기타전기제품"}]},{"lat":"37.180139319","long":"126.98767971","items":[{"name":"괘랑리슈퍼","tel":"031-352-6682","addr":"경기도 화성시 정남면 괘랑리 731-5,11","category":"유통업 영리 - 슈퍼마켓"},{"name":"정남주유소","tel":"031-352-0406","addr":"경기도 화성시 정남면 괘랑리 731-5번지","category":"연료판매점 - 쌍용S-OIL"}]},{"lat":"37.176498666","long":"126.98456131","items":[{"name":"꿀맛나는세상","tel":"031-352-3503","addr":"경기도 화성시 정남면 괘랑리 873-13번지 C동","category":"음료식품 - 농·축·수산품"},{"name":"더블에이치컴퍼니 H&H co","tel":"031-429-1106","addr":"경기도 화성시 정남면 괘랑리 873-13번지 1층","category":"음료식품 - 정육점"}]},{"lat":"37.174272765","long":"126.98256881","items":[{"name":"나래수세미농원","tel":"031-352-2723","addr":"경기도 화성시 정남면 괘랑리 914-1번지","category":"음료식품 - 기타음료식품"}]},{"lat":"37.180995485","long":"126.98912095","items":[{"name":"낚시쟁이","tel":"031-353-5435","addr":"경기도 화성시 정남면 괘랑리 233-5","category":"레져용품 - 스포츠·레져용품"},{"name":"부흥건재","tel":"031-354-2341","addr":"경기도 화성시 정남면 괘랑리 233-5","category":"건축자재 - 목재·석재·철물"},{"name":"한국윤활유","tel":"031-8059-5111","addr":"경기도 화성시 정남면 괘랑리 233-5번지 1층","category":"자동차정비 유지 - 윤활유 전문 판매"}]},{"lat":"37.174669713","long":"126.98565398","items":[{"name":"다온펌프테크","tel":"031-353-7866","addr":"경기도 화성시 정남면 괘랑리 875-1번지 1층","category":"건축자재 - 보일러·펌프·샷시"}]},{"lat":"37.170335311","long":"126.9832004","items":[{"name":"대림오토바이","tel":"031-353-2725","addr":"경기도 화성시 정남면 괘랑리 924-22","category":"수리서비스 - 레져용품수리"},{"name":"정남꽃농원","tel":"031-353-8397","addr":"경기도 화성시 정남면 괘랑리 924-22번지 102호","category":"문화.취미 - 화원"}]},{"lat":"37.186248378","long":"126.9876447","items":[{"name":"대양ENG","tel":"","addr":"경기도 화성시 정남면 괘랑리 511-1번지","category":"기타 - 기계공구"}]},{"lat":"37.172750231","long":"126.98395418","items":[{"name":"대한우돈가","tel":"031-8059-5943","addr":"경기도 화성시 정남면 괘랑리 921번지","category":"일반휴게음식 - 일반한식"}]},{"lat":"37.170803703","long":"126.98231077","items":[{"name":"대한종합건재","tel":"031-352-1616","addr":"경기도 화성시 정남면 괘랑리 1064-3번지","category":"건축자재 - 기타건축자재"}]},{"lat":"37.170416351","long":"126.98287385","items":[{"name":"동서푸드","tel":"031-354-7879","addr":"경기도 화성시 정남면 괘랑리 1061-2번지","category":"음료식품 - 기타음료식품"},{"name":"화성회관","tel":"031-352-2316","addr":"경기도 화성시 정남면 괘랑리 1061-2번지","category":"일반휴게음식 - 일반한식"}]},{"lat":"37.186104634","long":"126.99139492","items":[{"name":"동화산업","tel":"031-234-3967","addr":"경기도 화성시 정남면 괘랑리 499번지","category":"기타 - 기계공구"}]},{"lat":"37.178724545","long":"126.986644","items":[{"name":"두산건설기계","tel":"031-237-0030","addr":"경기도 화성시 정남면 괘랑리 264-1번지","category":"기타 - 기계공구"}]},{"lat":"37.185969213","long":"126.9889286","items":[{"name":"롯데칠성음료 매산점","tel":"","addr":"경기도 화성시 정남면 괘랑리 509-1번지","category":"음료식품 - 기타음료식품"}]},{"lat":"37.169614397","long":"126.98272769","items":[{"name":"리스트피아노학원","tel":"031-352-7472","addr":"경기도 화성시 정남면 괘랑리 1052-6번지 3층","category":"학원 - 예·체능계학원"}]},{"lat":"37.178084851","long":"126.98698196","items":[{"name":"만석한식부페","tel":"031-354-4555","addr":"경기도 화성시 정남면 괘랑리 265-1번지","category":"일반휴게음식 - 일반한식"}]},{"lat":"37.186744915","long":"127.00486408","items":[{"name":"명성한식뷔페","tel":"031-353-6115","addr":"경기도 화성시 정남면 괘랑리 54-4번지","category":"일반휴게음식 - 일반한식"},{"name":"위드미 화성일진산단점","tel":"031-323-6016","addr":"경기도 화성시 정남면 괘랑리 54-4번지","category":"유통업 영리 - 편 의 점"}]},{"lat":"37.170389352","long":"126.98306527","items":[{"name":"명품플러스로뎀커피","tel":"031-8059-1380","addr":"경기도 화성시 정남면 괘랑리 1061-6번지 1층 일부호","category":"일반휴게음식 - 서양음식"},{"name":"밧데리24시할인마트","tel":"031-8059-5959","addr":"경기도 화성시 정남면 괘랑리 1061-6번지 1층 2호","category":"자동차정비 유지 - 자동차부품"}]},{"lat":"37.178301131","long":"126.98720713","items":[{"name":"모아실크인쇄","tel":"031-354-3598","addr":"경기도 화성시 정남면 괘랑리 265-2","category":"서적문구 - 출판 및 인쇄물"},{"name":"영진상사","tel":"031-354-1145","addr":"경기도 화성시 정남면 괘랑리 265-2,4","category":"기타 - 기계공구"}]},{"lat":"37.169443455","long":"126.98429278","items":[{"name":"발렌타인슈퍼","tel":"031-354-0696","addr":"경기도 화성시 정남면 괘랑리 1043-10번지 101~102호","category":"유통업 영리 - 슈퍼마켓"}]},{"lat":"37.184609254","long":"126.99584348","items":[{"name":"보물창고 왕도매","tel":"031-463-6633","addr":"경기도 화성시 정남면 괘랑리 330번지","category":"신변잡화 - 기타잡화"}]},{"lat":"37.178192908","long":"126.98648647","items":[{"name":"북경","tel":"031-366-2441","addr":"경기도 화성시 정남면 괘랑리 747-1번지","category":"일반휴게음식 - 중국식"}]},{"lat":"37.172056292","long":"126.98312113","items":[{"name":"사회복지법인정남어린이집","tel":"031-353-7406","addr":"경기도 화성시 정남면 괘랑리 918-8","category":"학원 - 유아원"},{"name":"정남어린이집[아이행복]","tel":"031-353-7406","addr":"경기도 화성시 정남면 괘랑리 918-8번지 정남어린이집 565호","category":"학원 - 유아원"}]},{"lat":"37.181076712","long":"126.99031461","items":[{"name":"삼대농장","tel":"031-366-4004","addr":"경기도 화성시 정남면 괘랑리 232-1 외1필지","category":"음료식품 - 농·축·수산품"}]},{"lat":"37.185329647","long":"126.99048283","items":[{"name":"삼우그린","tel":"031-238-5675","addr":"경기도 화성시 정남면 괘랑리 488","category":"용역 서비스 - 종합용역"}]},{"lat":"37.180552237","long":"126.97836677","items":[{"name":"샤론 화훼 조경농장","tel":"031-353-6786","addr":"경기도 화성시 정남면 괘랑리 1081-2","category":"문화.취미 - 화원"}]},{"lat":"37.169470306","long":"126.9831781","items":[{"name":"서봉산숯불갈비","tel":"031-354-5535","addr":"경기도 화성시 정남면 괘랑리 1049-7번지","category":"일반휴게음식 - 일반한식"}]},{"lat":"37.171416551","long":"126.9831213","items":[{"name":"선진레이저마킹","tel":"031-353-4173","addr":"경기도 화성시 정남면 괘랑리 1062-14번지","category":"기타 - 기계공구"},{"name":"행운설비공사","tel":"031-8059-8160","addr":"경기도 화성시 정남면 괘랑리 1062-14번지 1층","category":"용역 서비스 - 기타용역서비스"}]},{"lat":"37.184942199","long":"126.9904829","items":[{"name":"성광","tel":"031-000-0000","addr":"경기도 화성시 정남면 괘랑리 477번지","category":"음료식품 - 기타음료식품"}]},{"lat":"37.175994113","long":"126.98476411","items":[{"name":"세종 ENG","tel":"031-352-3045","addr":"경기도 화성시 정남면 괘랑리 873-15번지 제씨","category":"전기제품 - 기타전기제품"}]},{"lat":"37.185356909","long":"126.99292662","items":[{"name":"세종FA","tel":"031-366-3982","addr":"경기도 화성시 정남면 괘랑리 466번지","category":"기타 - 기계공구"}]},{"lat":"37.183446129","long":"126.98756643","items":[{"name":"쇼이(주)","tel":"070-9247-2366","addr":"경기도 화성시 정남면 괘랑리 637번지","category":"건축자재 - 조명기구"}]},{"lat":"37.180499647","long":"126.98700398","items":[{"name":"수원철망","tel":"031-352-0143","addr":"경기도 화성시 정남면 괘랑리 718번지","category":"기타 - 기계공구"}]},{"lat":"37.170803626","long":"126.98187165","items":[{"name":"시골순대","tel":"031-353-4310","addr":"경기도 화성시 정남면 괘랑리 1065-5","category":"일반휴게음식 - 일반한식"}]},{"lat":"37.172470868","long":"126.98370653","items":[{"name":"시대모타","tel":"031-352-9983","addr":"경기도 화성시 정남면 괘랑리 921-8번지","category":"수리서비스 - 기타수리서비스"},{"name":"정남해장국","tel":"031-372-7820","addr":"경기도 화성시 정남면 괘랑리 921-8번지","category":"일반휴게음식 - 일반한식"}]},{"lat":"37.182022478","long":"126.98753293","items":[{"name":"씨에이치벤딩코리아(CH벤딩코리아)","tel":"031-292-6020","addr":"경기도 화성시 정남면 괘랑리 678-1번지","category":"기타 - 기계공구"}]},{"lat":"37.183248799","long":"126.99823102","items":[{"name":"씨유화성정남베스트점","tel":"031-366-0665","addr":"경기도 화성시 정남면 괘랑리 103번지 2동 1호 2호","category":"유통업 영리 - 편 의 점"},{"name":"푸짐한 한식부페","tel":"031-000-0000","addr":"경기도 화성시 정남면 괘랑리 103번지","category":"일반휴게음식 - 일반한식"}]},{"lat":"37.185771607","long":"126.9960123","items":[{"name":"에스엠티앤에프","tel":"031-8059-4961","addr":"경기도 화성시 정남면 괘랑리 370-2","category":"기타 - 기계공구"}]},{"lat":"37.180418702","long":"126.98815261","items":[{"name":"에어컨프라자","tel":"031-298-1001","addr":"경기도 화성시 정남면 괘랑리 236-2번지","category":"전기제품 - 가전제품"}]},{"lat":"37.179805948","long":"126.98779238","items":[{"name":"오병이어","tel":"031-354-5676","addr":"경기도 화성시 정남면 괘랑리 731-1번지","category":"일반휴게음식 - 일반한식"},{"name":"우리카센타","tel":"031-352-4322","addr":"경기도 화성시 정남면 괘랑리 731-1번지","category":"자동차정비 유지 - 자동차정비"}]},{"lat":"37.170722766","long":"126.98323407","items":[{"name":"원미트","tel":"031-352-2050","addr":"경기도 화성시 정남면 괘랑리 924-3번지","category":"음료식품 - 정육점"}]},{"lat":"37.173218725","long":"126.98365004","items":[{"name":"윌로모타펌프","tel":"031-354-0583","addr":"경기도 화성시 정남면 괘랑리 902-3번지","category":"건축자재 - 보일러·펌프·샷시"},{"name":"중고박사","tel":"031-681-9249","addr":"경기도 화성시 정남면 괘랑리 902-3번지","category":"전기제품 - 가전제품"}]},{"lat":"37.172642124","long":"126.9840668","items":[{"name":"유일광고기획","tel":"031-353-7254","addr":"경기도 화성시 정남면 괘랑리 921-3","category":"용역 서비스 - 종합용역"}]},{"lat":"37.190159139","long":"126.98967115","items":[{"name":"은광정밀","tel":"031-352-4460","addr":"경기도 화성시 정남면 괘랑리 542-1번지","category":"기타 - 기계공구"}]},{"lat":"37.170884912","long":"126.98298632","items":[{"name":"이가네","tel":"0311-352-9348","addr":"경기도 화성시 정남면 괘랑리 1062-8번지","category":"일반휴게음식 - 일반한식"}]},{"lat":"37.181085374","long":"126.98737547","items":[{"name":"이레상사","tel":"031-353-9319","addr":"경기도 화성시 정남면 괘랑리 680-1","category":"음료식품 - 기타음료식품"}]},{"lat":"37.170695725","long":"126.98317778","items":[{"name":"일성종합농기계","tel":"033-462-9830","addr":"경기도 화성시 정남면 괘랑리 1165-10 1/","category":"수리서비스 - 기타수리서비스"}]},{"lat":"37.183996251","long":"126.99195831","items":[{"name":"자루","tel":"031-746-2200","addr":"경기도 화성시 정남면 괘랑리 473번지","category":"용역 서비스 - 사무서비스"}]},{"lat":"37.183771061","long":"126.99275791","items":[{"name":"장원테크","tel":"031-8059-7956","addr":"경기도 화성시 정남면 괘랑리 312-2번지","category":"주방용구 - 주방용구"}]},{"lat":"37.171975127","long":"126.98270454","items":[{"name":"정남미술학원","tel":"031-8058-5001","addr":"경기도 화성시 정남면 괘랑리 917-15번지","category":"학원 - 예·체능계학원"}]},{"lat":"37.170028892","long":"126.98281765","items":[{"name":"정남세차장.용품","tel":"031-111-1111","addr":"경기도 화성시 정남면 괘랑리 1059-3번지","category":"자동차정비 유지 - 세차장"},{"name":"정남카공업사","tel":"031-352-2524","addr":"경기도 화성시 정남면 괘랑리 1059-3번지","category":"자동차정비 유지 - 자동차정비"}]},{"lat":"37.171804099","long":"126.98372922","items":[{"name":"정남의류","tel":"031-366-6162","addr":"경기도 화성시 정남면 괘랑리 920-5번지 102호","category":"레져용품 - 스포츠·레져용품"},{"name":"조은식당","tel":"031-366-3157","addr":"경기도 화성시 정남면 괘랑리 920-5번지 1층","category":"일반휴게음식 - 일반한식"},{"name":"패션노래연습장","tel":"031-000-0000","addr":"경기도 화성시 정남면 괘랑리 920-5번지 2층","category":"레저업소 - 노 래 방"}]},{"lat":"37.183501049","long":"126.99728505","items":[{"name":"정남제일자동차공업사","tel":"031-353-8182","addr":"경기도 화성시 정남면 괘랑리 86번지","category":"자동차정비 유지 - 자동차정비"}]},{"lat":"37.171974828","long":"126.98101558","items":[{"name":"정남타일","tel":"031-8059-4589","addr":"경기도 화성시 정남면 괘랑리 1064-21","category":"건축자재 - 건축용 요업제품"}]},{"lat":"37.175390607","long":"126.98607045","items":[{"name":"정민툴하우스","tel":"031-354-5003","addr":"경기도 화성시 정남면 괘랑리 877-17","category":"건축자재 - 목재·석재·철물"}]},{"lat":"37.177778463","long":"126.98673429","items":[{"name":"정인와이어 컷팅","tel":"031-352-8847","addr":"경기도 화성시 정남면 괘랑리 748-1번지 B동","category":"기타 - 기계공구"}]},{"lat":"37.184275372","long":"126.98995371","items":[{"name":"제이앤에스 시스템","tel":"031-238-0204","addr":"경기도 화성시 정남면 괘랑리 480-5번지","category":"전기제품 - 냉열기기"}]},{"lat":"37.184356118","long":"126.98709326","items":[{"name":"제이엘627-4","tel":"031-353-8878","addr":"경기도 화성시 정남면 괘랑리 627-4번지","category":"일반휴게음식 - 서양음식"}]},{"lat":"37.183302846","long":"126.99787065","items":[{"name":"제일상사","tel":"031-8059-6916","addr":"경기도 화성시 정남면 괘랑리 85-1","category":"건축자재 - 기타건축자재"}]},{"lat":"37.170470317","long":"126.98231086","items":[{"name":"제주청과","tel":"031-354-1830","addr":"경기도 화성시 정남면 괘랑리 1057-3번지","category":"음료식품 - 농·축·수산품"}]},{"lat":"37.181607682","long":"126.98525826","items":[{"name":"주식회사 하나에프앤드엘","tel":"031-354-8542","addr":"경기도 화성시 정남면 괘랑리 655-11번지","category":"음료식품 - 기타음료식품"}]},{"lat":"37.188330764","long":"127.00303965","items":[{"name":"주식회사다온하제","tel":"070-7614-3579","addr":"경기도 화성시 정남면 괘랑리 20번지","category":"용역 서비스 - 종합용역"},{"name":"탄탄불스","tel":"031-354-9783","addr":"경기도 화성시 정남면 괘랑리 20번지 1층","category":"자동차정비 유지 - 자동차부품"}]},{"lat":"37.187465764","long":"127.00281441","items":[{"name":"주식회사에스지(SG co. Ltd.)","tel":"031-292-2212","addr":"경기도 화성시 정남면 괘랑리 68-1번지","category":"보건위생 - 미용재료"}]},{"lat":"37.177446147","long":"127.00014567","items":[{"name":"주찬산업","tel":"031-378-5374","addr":"경기도 화성시 정남면 괘랑리 1194번지","category":"자동차정비 유지 - 자동차부품"},{"name":"주찬상사","tel":"031-378-5374","addr":"경기도 화성시 정남면 괘랑리 1194번지","category":"자동차정비 유지 - 자동차부품"},{"name":"주찬필터","tel":"031-296-5374","addr":"경기도 화성시 정남면 괘랑리 1194번지","category":"자동차정비 유지 - 자동차부품"}]},{"lat":"37.187105336","long":"127.00453749","items":[{"name":"중기쟁이중공업","tel":"031-238-6930","addr":"경기도 화성시 정남면 괘랑리 65-8번지","category":"기타 - 기계공구"}]},{"lat":"37.190970209","long":"126.99092115","items":[{"name":"지인도시계획정보","tel":"031-352-2770","addr":"경기도 화성시 정남면 괘랑리 567-5번지 1층","category":"용역 서비스 - 사무서비스"}]},{"lat":"37.170001912","long":"126.98312167","items":[{"name":"진성유리","tel":"031-366-0167","addr":"경기도 화성시 정남면 괘랑리 1048-3번지","category":"용역 서비스 - 기타용역서비스"},{"name":"페리카나","tel":"031-352-1780","addr":"경기도 화성시 정남면 괘랑리 1048-3번지","category":"일반휴게음식 - 주점"}]},{"lat":"37.184996638","long":"126.99484115","items":[{"name":"진성하이텍","tel":"031-354-9727","addr":"경기도 화성시 정남면 괘랑리 402-1번지 B동","category":"기타 - 기타 전문점"}]},{"lat":"37.186717057","long":"126.98875953","items":[{"name":"큰맘한식부페","tel":"","addr":"경기도 화성시 정남면 괘랑리 515-1번지 1층","category":"일반휴게음식 - 일반한식"}]},{"lat":"37.188050614","long":"126.98889443","items":[{"name":"태성솔루션","tel":"031-8059-0618","addr":"경기도 화성시 정남면 괘랑리 518-2번지","category":"기타 - 기계공구"}]},{"lat":"37.176246569","long":"126.98586757","items":[{"name":"태양지게차매매","tel":"","addr":"경기도 화성시 정남면 괘랑리 873-10번지","category":"자동차판매 - 기타운송"}]},{"lat":"37.185744227","long":"126.99148506","items":[{"name":"태원에프엔에스","tel":"","addr":"경기도 화성시 정남면 괘랑리 498번지","category":"음료식품 - 기타음료식품"}]},{"lat":"37.184050278","long":"126.99158667","items":[{"name":"하이테크프레스","tel":"031-352-2326","addr":"경기도 화성시 정남면 괘랑리 311번지","category":"기타 - 기계공구"}]},{"lat":"37.190465424","long":"126.98906292","items":[{"name":"한국종합기기제작소","tel":"031-353-6437","addr":"경기도 화성시 정남면 괘랑리 575번지","category":"기타 - 기계공구"}]},{"lat":"37.184996733","long":"126.99639526","items":[{"name":"한양특수","tel":"031-354-1736","addr":"경기도 화성시 정남면 괘랑리 333","category":"용역 서비스 - 기타용역서비스"}]},{"lat":"37.18194133","long":"126.98711629","items":[{"name":"한촌식당","tel":"031-353-6884","addr":"경기도 화성시 정남면 괘랑리 676번지","category":"일반휴게음식 - 일반한식"}]},{"lat":"37.178355178","long":"126.98709451","items":[{"name":"현진볼트","tel":"031-8059-1750","addr":"경기도 화성시 정남면 괘랑리 265-4번지 1층","category":"기타 - 기계공구"}]},{"lat":"37.183077627","long":"126.99895176","items":[{"name":"화천공작기계","tel":"031-352-3710","addr":"경기도 화성시 정남면 괘랑리 109-13","category":"기타 - 기계공구"}]}]