[{"lat":"37.967819993","long":"127.18935735","items":[{"name":"나들목","tel":"531-0300","addr":"경기도 포천시 창수면 가양리 592번지","category":"음식 - 한식"},{"name":"나들목","tel":"031-531-0300","addr":"경기도 포천시 창수면 가양리 592번지","category":"일반휴게음식 - 일반한식"}]},{"lat":"37.972737317","long":"127.19599348","items":[{"name":"대명가든","tel":"533-0322","addr":"경기도 포천시 창수면 가양리 421-2번지","category":"음식 - 한식"}]},{"lat":"37.958987377","long":"127.22274315","items":[{"name":"대상의료기","tel":"031-544-7535","addr":"경기도 포천시 창수면 가양리 16-7번지","category":"전기제품 - 기타전기제품"}]},{"lat":"37.979491332","long":"127.20310213","items":[{"name":"방주케스","tel":"031-572-1722","addr":"경기도 포천시 창수면 가양리 327-3번지","category":"신변잡화 - 가방"}]},{"lat":"37.963015956","long":"127.2219586","items":[{"name":"수암광업주식회사 포천사업소","tel":"031-533-3655","addr":"경기도 포천시 창수면 가양리 23-15번지","category":"건축자재 - 기타건축자재"}]},{"lat":"37.967346496","long":"127.19249705","items":[{"name":"승현중기수리","tel":"031-535-0825","addr":"경기도 포천시 창수면 가양리 576-3번지","category":"수리서비스 - 기타수리서비스"}]},{"lat":"37.980073317","long":"127.19990536","items":[{"name":"창수자동차공업사","tel":"031-534-7632","addr":"경기도 포천시 창수면 가양리 467-1번지","category":"자동차정비 유지 - 세차장"}]},{"lat":"37.979821842","long":"127.19943803","items":[{"name":"창수자동차공업사","tel":"534-7632","addr":"경기도 포천시 창수면 가양리 467-8번지","category":"서비스 - 자동차 수리"}]},{"lat":"37.969904032","long":"127.1931637","items":[{"name":"춘천남부막국수","tel":"031-534-1083","addr":"경기도 포천시 창수면 가양리 567-2번지","category":"일반휴게음식 - 일반한식"},{"name":"춘천남부막국수","tel":"534-1083","addr":"경기도 포천시 창수면 가양리 567-2번지","category":"음식 - 한식"}]}]