[{"lat":"37.233747916","long":"127.29675234","items":[{"name":"(유)탑어드밴싱 양지점","tel":"070-5088-5601","addr":"경기도 용인시 처인구 양지면 양지리 112번지","category":"의류 - 정장"}]},{"lat":"37.224223942","long":"127.25367368","items":[{"name":"(주)네베인터내셔널","tel":"031-323-1308","addr":"경기도 용인시 처인구 양지면 송문리 420-4번지","category":"레져용품 - 스포츠·레져용품"},{"name":"오라이상사","tel":"031-000-0000","addr":"경기도 용인시 처인구 양지면 송문리 420-4번지","category":"레져용품 - 스포츠·레져용품"}]},{"lat":"37.229274783","long":"127.27189984","items":[{"name":"(주)동광","tel":"031-321-3887","addr":"경기도 용인시 처인구 양지면 양지리 781-3번지 A","category":"기타 - 기계공구"},{"name":"동광종합상사","tel":"031-338-6200","addr":"경기도 용인시 처인구 양지면 양지리 781-3","category":"건축자재 - 기타건축자재"}]},{"lat":"37.243051077","long":"127.26405961","items":[{"name":"(주)미드미샤시","tel":"031-339-3402","addr":"경기도 용인시 처인구 양지면 주북리121,121-4","category":"건축자재 - 보일러·펌프·샷시"}]},{"lat":"37.233327164","long":"127.28450151","items":[{"name":"(주)미성씨오","tel":"031-338-3494","addr":"경기도 용인시 처인구 양지면 양지리 580-1","category":"건축자재 - 기타건축자재"},{"name":"미성CO","tel":"031-338-3494","addr":"경기도 용인시 처인구 양지면 양지리 580-1번지","category":"용역 서비스 - 사무서비스"}]},{"lat":"37.237304119","long":"127.31203618","items":[{"name":"(주)베스트푸드","tel":"02-2252-6866","addr":"경기도 용인시 처인구 양지면 제일리449-1","category":"음료식품 - 기타음료식품"}]},{"lat":"37.229582468","long":"127.29050483","items":[{"name":"(주)보아스트레이딩","tel":"031-711-0206","addr":"경기도 용인시 처인구 양지면 양지리 138-20번지 301호","category":"유통업 영리 - 기타유통업"},{"name":"골프존21","tel":"031-334-0753","addr":"경기도 용인시 처인구 양지면 양지리 138-20번지 2층","category":"회원제형태 - 레져업소"},{"name":"장강","tel":"031-321-6984","addr":"경기도 용인시 처인구 양지면 양지리 138-20","category":"일반휴게음식 - 중국식"},{"name":"전주콩뿌리콩나물국밥","tel":"031-337-0100","addr":"경기도 용인시 처인구 양지면 양지리 138-20번지","category":"일반휴게음식 - 일반한식"}]},{"lat":"37.225694227","long":"127.257149","items":[{"name":"(주)삼진자동차","tel":"031-284-0815","addr":"경기도 용인시 처인구 양지면 송문리 145-2번지","category":"자동차판매 - 중고자동차판매"},{"name":"한진카서비스","tel":"070-2370-6040","addr":"경기도 용인시 처인구 양지면 송문리 145-2번지","category":"자동차정비 유지 - 자동차정비"}]},{"lat":"37.236524028","long":"127.30355849","items":[{"name":"(주)세진","tel":"031-336-5661","addr":"경기도 용인시 처인구 양지면 제일리612-4","category":"건축자재 - 기타건축자재"}]},{"lat":"37.257272112","long":"127.24581361","items":[{"name":"(주)신성자동차공업사","tel":"031-339-3451","addr":"경기도 용인시 처인구 양지면 주북리 735-2","category":"자동차정비 유지 - 자동차정비"},{"name":"신성모터스","tel":"031-336-8317","addr":"경기도 용인시 처인구 양지면 주북리 735-2","category":"자동차정비 유지 - 자동차정비"}]},{"lat":"37.246133959","long":"127.29800639","items":[{"name":"(주)신세계푸드 총신대신학대학원","tel":"02-3397-6176","addr":"경기도 용인시 처인구 양지면 제일리 산41-11번지 1층","category":"일반휴게음식 - 위탁급식업"},{"name":"준푸드트럭","tel":"","addr":"경기도 용인시 처인구 양지면 제일리 산41-11번지 (총신대학교제3생활관앞)","category":"일반휴게음식 - 일반한식"}]},{"lat":"37.216585388","long":"127.32036755","items":[{"name":"(주)조이에프앤비항아리보쌈","tel":"031-323-3236","addr":"경기도 용인시 처인구 양지면 평창리 642-1번지 1층","category":"일반휴게음식 - 일반한식"},{"name":"내안에 스킨케어","tel":"031-334-9149","addr":"경기도 용인시 처인구 양지면 평창리 642-1번지 2층","category":"신변잡화 - 기타잡화"}]},{"lat":"37.228688705","long":"127.30211887","items":[{"name":"(주)좋은날","tel":"031-333-5701","addr":"경기도 용인시 처인구 양지면 제일리 346-23번지","category":"유통업 영리 - 편 의 점"}]},{"lat":"37.236104809","long":"127.29828283","items":[{"name":"(주)참옻나라","tel":"031-338-2733","addr":"경기도 용인시 처인구 양지면 양지리100","category":"음료식품 - 기타음료식품"},{"name":"서림건설(주)","tel":"031-323-4711","addr":"경기도 용인시 처인구 양지면 양지리 100번지 2층","category":"건축자재 - 인테리어전문"},{"name":"서림디자인 주식회사","tel":"031-323-4711","addr":"경기도 용인시 처인구 양지면 양지리 100번지 2층","category":"용역 서비스 - 기타용역서비스"},{"name":"형제자동차공업사","tel":"031-38-0527","addr":"경기도 용인시 처인구 양지면 양지리 100번지","category":"자동차정비 유지 - 자동차정비"}]},{"lat":"37.259268356","long":"127.25633744","items":[{"name":"(주)케이아이엔통상-용인랜드","tel":"031-334-2009","addr":"경기도 용인시 처인구 양지면 대대리 294","category":"일반휴게음식 - 일반한식"},{"name":"(주)케이아이엔통상-용인랜드","tel":"031-332-2009","addr":"경기도 용인시 처인구 양지면 대대리294용인랜드참숯가마","category":"보건위생 - 사우나"}]},{"lat":"37.243415819","long":"127.26208856","items":[{"name":"(주)클린더스트","tel":"031-321-1791","addr":"경기도 용인시 처인구 양지면 주북리 257-1번지","category":"기타 - 기계공구"}]},{"lat":"37.246243443","long":"127.25447922","items":[{"name":"(주)키즈꼬망","tel":"070-8624-9902","addr":"경기도 용인시 처인구 양지면 주북리 415-1번지","category":"의류 - 아동의류"},{"name":"바로상사","tel":"031-338-9545","addr":"경기도 용인시 처인구 양지면 주북리 415-1번지","category":"신변잡화 - 기타잡화"}]},{"lat":"37.246714745","long":"127.25317338","items":[{"name":"(주)퍼피웍스","tel":"031-321-4931","addr":"경기도 용인시 처인구 양지면 주북리 393-2번지","category":"문화.취미 - 애완동물"},{"name":"펫츠빌(PetsVill)","tel":"031-321-4932","addr":"경기도 용인시 처인구 양지면 주북리 393-2번지","category":"문화.취미 - 애완동물"}]},{"lat":"37.227890288","long":"127.30072975","items":[{"name":"A two(에이투)","tel":"031-322-1890","addr":"경기도 용인시 처인구 양지면 제일리 667-9번지 가동","category":"숙박업 - 여관/기타숙박업"},{"name":"에이 (A)","tel":"031-322-1890","addr":"경기도 용인시 처인구 양지면 제일리 667-9번지 나동","category":"숙박업 - 여관/기타숙박업"},{"name":"에이원(Aone)","tel":"031-322-1890","addr":"경기도 용인시 처인구 양지면 제일리 667-9번지 나동 1층","category":"일반휴게음식 - 일반한식"}]},{"lat":"37.235715009","long":"127.28445404","items":[{"name":"B.H.C","tel":"031-335-9983","addr":"경기도 용인시 처인구 양지면 양지리598-10","category":"일반휴게음식 - 일반한식"},{"name":"영아트문구","tel":"031-338-3195","addr":"경기도 용인시 처인구 양지면 양지리 598-10번지","category":"서적문구 - 문구용품"},{"name":"윌리샘(WillysemEnglish)영어교습소","tel":"031-323-0579","addr":"경기도 용인시 처인구 양지면 양지리 598-10번지 1층","category":"학원 - 외국어학원"}]},{"lat":"37.234356096","long":"127.28376158","items":[{"name":"BBQ치킨","tel":"031-338-9292","addr":"경기도 용인시 처인구 양지면 양지리 573-5번지","category":"일반휴게음식 - 스넥"},{"name":"바디미짐 휘트니스","tel":"031-338-7880","addr":"경기도 용인시 처인구 양지면 양지리 573-5번지 외1필지 2층","category":"레저업소 - 헬스클럽"},{"name":"서울삼성의원","tel":"031-338-7582","addr":"경기도 용인시 처인구 양지면 양지리 573-5번지","category":"병원 - 병원"},{"name":"양지중앙약국","tel":"031-321-8911","addr":"경기도 용인시 처인구 양지면 양지리573-5","category":"약국 - 약국"}]},{"lat":"37.235522087","long":"127.28600846","items":[{"name":"Caffe푸른나래","tel":"031-338-2035","addr":"경기도 용인시 처인구 양지면 양지리 456-6번지 1층","category":"일반휴게음식 - 서양음식"}]},{"lat":"37.225965791","long":"127.25656399","items":[{"name":"EMOTION DESIGN","tel":"031-335-7776","addr":"경기도 용인시 처인구 양지면 송문리 514-3번지","category":"가구 - 일반가구"}]},{"lat":"37.232775393","long":"127.28540095","items":[{"name":"FSQ꽃","tel":"031-337-0464","addr":"경기도 용인시 처인구 양지면 양지리 502-5번지","category":"문화.취미 - 화원"}]},{"lat":"37.232278512","long":"127.28595126","items":[{"name":"GS25양지남곡점","tel":"02-2006-2485","addr":"경기도 용인시 처인구 양지면 남곡리 134-2","category":"유통업 영리 - 편 의 점"},{"name":"미주정보","tel":"031-335-7333","addr":"경기도 용인시 처인구 양지면 남곡리134-2","category":"레져용품 - 스포츠·레져용품"},{"name":"에그앤커피(EGGSNCOFFEE)","tel":"","addr":"경기도 용인시 처인구 양지면 남곡리 134-2번지","category":"일반휴게음식 - 서양음식"}]},{"lat":"37.234550953","long":"127.28137328","items":[{"name":"GS25양지대로점","tel":"","addr":"경기도 용인시 처인구 양지면 양지리 633-6번지","category":"유통업 영리 - 편 의 점"},{"name":"양지골프존파크스크린","tel":"031-338-0150","addr":"경기도 용인시 처인구 양지면 양지리 633-6번지 2층","category":"레저업소 - 스크린골프"},{"name":"에이케이네일","tel":"031-668-2491","addr":"경기도 용인시 처인구 양지면 양지리 633-6번지","category":"보건위생 - 피부미용실"},{"name":"종합건강원","tel":"031-334-3515","addr":"경기도 용인시 처인구 양지면 양지리 633-6번지 나동 101호","category":"건강식품 - 기타건강식품"}]},{"lat":"37.234940932","long":"127.28411309","items":[{"name":"GS25양지센트럴점","tel":"","addr":"경기도 용인시 처인구 양지면 양지리 593-3번지 1층 일부","category":"유통업 영리 - 편 의 점"},{"name":"둥지태권도체육관","tel":"031-338-2587","addr":"경기도 용인시 처인구 양지면 양지리 593-3번지 2층","category":"학원 - 예·체능계학원"},{"name":"레고스토리","tel":"","addr":"경기도 용인시 처인구 양지면 양지리 593-3번지","category":"학원 - 기타 교육기관"},{"name":"부티나 개","tel":"031-333-5453","addr":"경기도 용인시 처인구 양지면 양지리 593-3번지","category":"의류 - 정장"},{"name":"아름사진관","tel":"031-338-3017","addr":"경기도 용인시 처인구 양지면 양지리 593-3번지","category":"광학제품 - 사진관"}]},{"lat":"37.250548471","long":"127.32583007","items":[{"name":"GS25양지제일점","tel":"02-2006-2485","addr":"경기도 용인시 처인구 양지면 추계리 132","category":"유통업 영리 - 편 의 점"},{"name":"언더우드","tel":"070-8744-5182","addr":"경기도 용인시 처인구 양지면 추계리 132번지 102호","category":"회원제형태 - 기타4"},{"name":"주식회사엔씨코리아","tel":"031-322-7483","addr":"경기도 용인시 처인구 양지면 추계리 132번지","category":"레져용품 - 스포츠·레져용품"}]},{"lat":"37.227973759","long":"127.29250443","items":[{"name":"GS25양지타운점","tel":"","addr":"경기도 용인시 처인구 양지면 양지리 129-8번지 강남부동산","category":"유통업 영리 - 편 의 점"},{"name":"옹골순두부","tel":"031-338-0100","addr":"경기도 용인시 처인구 양지면 양지리 129-8","category":"일반휴게음식 - 일반한식"}]},{"lat":"37.225714913","long":"127.25165043","items":[{"name":"GS25용인중부대로점","tel":"","addr":"경기도 용인시 처인구 양지면 송문리 427번지","category":"유통업 영리 - 편 의 점"},{"name":"천안우리호두과자","tel":"031-335-0041","addr":"경기도 용인시 처인구 양지면 송문리 427번지","category":"음료식품 - 기타음료식품"}]},{"lat":"37.244249409","long":"127.31948049","items":[{"name":"GS25용인참새미점","tel":"02-2006-2118","addr":"경기도 용인시 처인구 양지면 제일리51","category":"유통업 영리 - 편 의 점"},{"name":"참새미한식부페","tel":"031-338-1101","addr":"경기도 용인시 처인구 양지면 제일리 51번지 1층 일부","category":"일반휴게음식 - 일반한식"}]},{"lat":"37.233607813","long":"127.28011896","items":[{"name":"HS종합환경","tel":"031-335-1774","addr":"경기도 용인시 처인구 양지면 양지리 558-1번지 103호","category":"용역 서비스 - 종합용역"},{"name":"맥시스타이어","tel":"031-338-7070","addr":"경기도 용인시 처인구 양지면 양지리 558-1번지 101호","category":"자동차정비 유지 - 자동차시트·타이어"}]},{"lat":"37.235454649","long":"127.28405865","items":[{"name":"JG Soft","tel":"031-338-7931","addr":"경기도 용인시 처인구 양지면 양지리 595-8 강림빌라a-301 1/9","category":"용역 서비스 - 소프트웨어"},{"name":"아소비 용인양지","tel":"031-0000-0000","addr":"경기도 용인시 처인구 양지면 양지리 595-8번지 강림빌라 A동 102호","category":"학원 - 기타 교육기관"}]},{"lat":"37.233356028","long":"127.2912291","items":[{"name":"KCC 페인트대리점 (고려상사)","tel":"031-335-7754","addr":"경기도 용인시 처인구 양지면 양지리 165-5","category":"건축자재 - 페인트"}]},{"lat":"37.261271417","long":"127.2714274","items":[{"name":"L&G조명","tel":"031-332-2591","addr":"경기도 용인시 처인구 양지면 대대리 573-1번지 4","category":"건축자재 - 조명기구"}]},{"lat":"37.225832468","long":"127.25570719","items":[{"name":"M/S키친아트","tel":"031-321-0244","addr":"경기도 용인시 처인구 양지면 송문리 413-5","category":"주방용구 - 주방용구"}]},{"lat":"37.233382216","long":"127.28408476","items":[{"name":"MU:M 양지캠퍼스","tel":"031-339-5377","addr":"경기도 용인시 처인구 양지면 양지리 578-5번지 204호","category":"학원 - 기타 교육기관"},{"name":"경희공방","tel":"031-321-1212","addr":"경기도 용인시 처인구 양지면 양지리 578-5번지 401호","category":"음료식품 - 기타음료식품"}]},{"lat":"37.220752672","long":"127.3152811","items":[{"name":"O2모텔","tel":"","addr":"경기도 용인시 처인구 양지면 평창리 676번지","category":"숙박업 - 여관/기타숙박업"}]},{"lat":"37.231137918","long":"127.28439195","items":[{"name":"The 뜰","tel":"031-338-1101","addr":"경기도 용인시 처인구 양지면 남곡리 142-3번지 센텀빌 C동 101호","category":"문화.취미 - 문화취미기타"},{"name":"다시봄 플라워","tel":"031-333-4805","addr":"경기도 용인시 처인구 양지면 남곡리 142-3번지 센텀빌 C동 102호","category":"문화.취미 - 화원"},{"name":"제이제이(JJ)카페","tel":"031-111-1111","addr":"경기도 용인시 처인구 양지면 남곡리 142-3번지 C동 2층 201호 상가 (센텀빌)","category":"일반휴게음식 - 서양음식"}]},{"lat":"37.226755836","long":"127.27412193","items":[{"name":"The축복","tel":"","addr":"경기도 용인시 처인구 양지면 남곡리 380-2번지 태영맨션 C동 403호","category":"의류 - 내의판매"}]},{"lat":"37.252741537","long":"127.24503259","items":[{"name":"VPS","tel":"031-335-1441","addr":"경기도 용인시 처인구 양지면 주북리803-2","category":"건축자재 - 보일러·펌프·샷시"}]},{"lat":"37.216057618","long":"127.32561541","items":[{"name":"ray house","tel":"031-322-7200","addr":"경기도 용인시 처인구 양지면 평창리 618-4번지","category":"건축자재 - 조명기구"}]},{"lat":"37.228414778","long":"127.29997685","items":[{"name":"가람공조","tel":"031-332-9259","addr":"경기도 용인시 처인구 양지면 제일리 663-14 2 4/1","category":"용역 서비스 - 기타용역서비스"},{"name":"롯지","tel":"031-321-6699","addr":"경기도 용인시 처인구 양지면 제일리 663-14번지","category":"레져용품 - 스포츠·레져용품"}]},{"lat":"37.262159006","long":"127.26536561","items":[{"name":"가배소","tel":"","addr":"경기도 용인시 처인구 양지면 대대리 409-15번지","category":"일반휴게음식 - 서양음식"}]},{"lat":"37.233326542","long":"127.27708662","items":[{"name":"갈릴리마을(오복닭한마리)","tel":"031-338-1236","addr":"경기도 용인시 처인구 양지면 양지리 648번지 1층","category":"일반휴게음식 - 일반한식"}]},{"lat":"37.214833439","long":"127.32183607","items":[{"name":"감로한의원","tel":"031-332-7312","addr":"경기도 용인시 처인구 양지면 평창리 627-46번지 1층","category":"의원 - 한의원"}]},{"lat":"37.234638639","long":"127.28239908","items":[{"name":"개런티","tel":"031-328-2888","addr":"경기도 용인시 처인구 양지면 양지리 630-8번지","category":"일반휴게음식 - 서양음식"}]},{"lat":"37.232520521","long":"127.2864818","items":[{"name":"개성집","tel":"031-333-9237","addr":"경기도 용인시 처인구 양지면 남곡리 130-1번지","category":"일반휴게음식 - 일반한식"}]},{"lat":"37.226249379","long":"127.29389503","items":[{"name":"거농회집2호점","tel":"031-335-2425","addr":"경기도 용인시 처인구 양지면 남곡리 103-2번지 1층","category":"일반휴게음식 - 일식·회집"}]},{"lat":"37.232387038","long":"127.28578264","items":[{"name":"거래처","tel":"031-338-1101","addr":"경기도 용인시 처인구 양지면 남곡리 133-6번지 2층","category":"일반휴게음식 - 스넥"},{"name":"거래처","tel":"031-321-0130","addr":"경기도 용인시 처인구 양지면 남곡리 133-6번지","category":"용역 서비스 - 종합용역"}]},{"lat":"37.224913826","long":"127.25970411","items":[{"name":"거성종합기계","tel":"031-335-0377","addr":"경기도 용인시 처인구 양지면 송문리 154","category":"기타 - 기타 전문점"}]},{"lat":"37.246828581","long":"127.25472913","items":[{"name":"경기ENG","tel":"031-334-3999","addr":"경기도 용인시 처인구 양지면 주북리 380번지 1층","category":"수리서비스 - 기타수리서비스"}]},{"lat":"37.245407951","long":"127.26981576","items":[{"name":"경기에이스캠퍼","tel":"","addr":"경기도 용인시 처인구 양지면 주북리 32번지 2층","category":"가구 - 일반가구"}]},{"lat":"37.235689958","long":"127.28362003","items":[{"name":"경남유통","tel":"031-338-2121","addr":"경기도 용인시 처인구 양지면 양지리 596-3번지","category":"유통업 영리 - 슈퍼마켓"},{"name":"꼬봉이네","tel":"031-338-4496","addr":"경기도 용인시 처인구 양지면 양지리 596-3번지 1층","category":"일반휴게음식 - 스넥"}]},{"lat":"37.229497276","long":"127.29947402","items":[{"name":"경동엔지니어링","tel":"031-335-8279","addr":"경기도 용인시 처인구 양지면 제일리 653번지","category":"건축자재 - 보일러·펌프·샷시"}]},{"lat":"37.216057718","long":"127.27925483","items":[{"name":"경성세탁장비","tel":"","addr":"경기도 용인시 처인구 양지면 남곡리 638번지","category":"전기제품 - 가전제품"}]},{"lat":"37.232328937","long":"127.29850474","items":[{"name":"경인건업","tel":"031-335-2516","addr":"경기도 용인시 처인구 양지면 양지리 119번지 외 1필지","category":"용역 서비스 - 기타용역서비스"}]},{"lat":"37.227162286","long":"127.29272668","items":[{"name":"고고 대리운전","tel":"031-1600-5542","addr":"경기도 용인시 처인구 양지면 남곡리 106-1번지","category":"보건위생 - 기타대인서비스"},{"name":"날아라슈퍼보드","tel":"031-335-0202","addr":"경기도 용인시 처인구 양지면 남곡리 106-1번지","category":"레져용품 - 스포츠·레져용품"},{"name":"캐리어","tel":"031-355-0202","addr":"경기도 용인시 처인구 양지면 남곡리 106-1번지","category":"전기제품 - 냉열기기"}]},{"lat":"37.225527659","long":"127.28683871","items":[{"name":"고구마","tel":"031-338-9291","addr":"경기도 용인시 처인구 양지면 남곡리 524-8번지 1층","category":"일반휴게음식 - 일반한식"}]},{"lat":"37.228889473","long":"127.29017542","items":[{"name":"고기소풍","tel":"031-322-4569","addr":"경기도 용인시 처인구 양지면 남곡리 123-3번지 1층","category":"일반휴게음식 - 일반한식"},{"name":"하얀나라스키샵","tel":"031-338-0602","addr":"경기도 용인시 처인구 양지면 남곡리123-3","category":"레져용품 - 스포츠·레져용품"}]},{"lat":"37.235798184","long":"127.27586723","items":[{"name":"고기언덕","tel":"031-334-5253","addr":"경기도 용인시 처인구 양지면 양지리 695번지","category":"일반휴게음식 - 일반한식"}]},{"lat":"37.23418709","long":"127.2828369","items":[{"name":"고당도","tel":"031-336-3898","addr":"경기도 용인시 처인구 양지면 양지리 568-1번지 101호","category":"음료식품 - 농·축·수산품"},{"name":"깨순이김밥","tel":"031-322-4630","addr":"경기도 용인시 처인구 양지면 양지리 568-1번지 1층","category":"일반휴게음식 - 일반한식"},{"name":"맘스터치 용인양지점","tel":"031-333-7970","addr":"경기도 용인시 처인구 양지면 양지리 568-1번지 106호 105호,106호","category":"일반휴게음식 - 서양음식"}]},{"lat":"37.227220446","long":"127.27189255","items":[{"name":"고덕칡냉면,전주콩나물국밥","tel":"031-333-9979","addr":"경기도 용인시 처인구 양지면 남곡리 242-3번지","category":"일반휴게음식 - 일반한식"},{"name":"시골집밥","tel":"031-335-3752","addr":"경기도 용인시 처인구 양지면 남곡리 242-3번지","category":"일반휴게음식 - 일반한식"}]},{"lat":"37.232528532","long":"127.27539343","items":[{"name":"고래실만두","tel":"031-332-4707","addr":"경기도 용인시 처인구 양지면 양지리 545번지 양지고속관광 A동","category":"일반휴게음식 - 일반한식"},{"name":"다온산업","tel":"031-337-2774","addr":"경기도 용인시 처인구 양지면 양지리 545번지","category":"건축자재 - 인테리어전문"},{"name":"현대정밀","tel":"031-338-2220","addr":"경기도 용인시 처인구 양지면 양지리 545번지","category":"용역 서비스 - 기타용역서비스"}]},{"lat":"37.23382916","long":"127.28558519","items":[{"name":"고려중개인사무소","tel":"031-338-3066","addr":"경기도 용인시 처인구 양지면 양지리 474-3","category":"용역 서비스 - 부동산 중개·임대"},{"name":"양지편의점","tel":"031-332-3210","addr":"경기도 용인시 처인구 양지면 양지리 474-3번지","category":"수리서비스 - 세탁소"},{"name":"양지편의점","tel":"031-322-7890","addr":"경기도 용인시 처인구 양지면 양지리 474-3번지","category":"유통업 영리 - 편 의 점"},{"name":"커피아일랜드","tel":"031-321-0791","addr":"경기도 용인시 처인구 양지면 양지리 474-3번지","category":"일반휴게음식 - 서양음식"}]},{"lat":"37.248081376","long":"127.24593063","items":[{"name":"고려타이어","tel":"031-334-5481","addr":"경기도 용인시 처인구 양지면 주북리 561번지","category":"자동차정비 유지 - 자동차시트·타이어"},{"name":"한국타이어","tel":"031-334-3060","addr":"경기도 용인시 처인구 양지면 주북리 561번지","category":"자동차정비 유지 - 자동차정비"}]},{"lat":"37.224801896","long":"127.25729248","items":[{"name":"고박사냉면","tel":"031-332-1423","addr":"경기도 용인시 처인구 양지면 송문리 151번지","category":"일반휴게음식 - 일반한식"},{"name":"심마니협회경매장","tel":"031-337-3389","addr":"경기도 용인시 처인구 양지면 송문리 151번지","category":"건강식품 - 인삼제품"}]},{"lat":"37.228886384","long":"127.29875047","items":[{"name":"고향보리밥","tel":"031-336-0250","addr":"경기도 용인시 처인구 양지면 제일리 662-1번지","category":"일반휴게음식 - 일반한식"},{"name":"도시와 농촌","tel":"031-338-5700","addr":"경기도 용인시 처인구 양지면 제일리 662-1번지","category":"서적문구 - 과학기자재"},{"name":"숲이있는도시농부협동조합","tel":"031-338-8989","addr":"경기도 용인시 처인구 양지면 제일리 662-1번지","category":"학원 - 기타 교육기관"},{"name":"숲이있는도시농부협동조합","tel":"031-338-8989","addr":"경기도 용인시 처인구 양지면 제일리 662-1번지 1층","category":"문화.취미 - 화원"},{"name":"양지 동강 레포츠","tel":"031-334-0520","addr":"경기도 용인시 처인구 양지면 제일리 662-1","category":"레져용품 - 스포츠·레져용품"}]},{"lat":"37.247325617","long":"127.262395","items":[{"name":"고향식당","tel":"031-322-7030","addr":"경기도 용인시 처인구 양지면 주북리89-4","category":"일반휴게음식 - 일반한식"}]},{"lat":"37.225857845","long":"127.25223682","items":[{"name":"고효율창호예창","tel":"031-322-4608","addr":"경기도 용인시 처인구 양지면 송문리 507-1번지","category":"건축자재 - 기타건축자재"},{"name":"썬월드퍼니처","tel":"031-321-3641","addr":"경기도 용인시 처인구 양지면 송문리507-1","category":"가구 - 일반가구"},{"name":"캠핑어스","tel":"031-336-5494","addr":"경기도 용인시 처인구 양지면 송문리 507-1번지","category":"레져용품 - 스포츠·레져용품"}]},{"lat":"37.230359867","long":"127.28192128","items":[{"name":"광명부품","tel":"031-339-0304","addr":"경기도 용인시 처인구 양지면 남곡리 160-7번지 그린타운 D동 501호","category":"자동차정비 유지 - 자동차부품"}]},{"lat":"37.253408554","long":"127.24045837","items":[{"name":"광명중공업","tel":"031-321-0082","addr":"경기도 용인시 처인구 양지면 주북리 780-2번지","category":"회원제형태 - 기타4"},{"name":"억셉트(ACCEPT)커피 팩토리","tel":"031-334-0411","addr":"경기도 용인시 처인구 양지면 주북리 780-2번지","category":"음료식품 - 기타음료식품"}]},{"lat":"37.219470034","long":"127.31648135","items":[{"name":"광산휴게소","tel":"031-336-4208","addr":"경기도 용인시 처인구 양지면 평창리667-1","category":"음료식품 - 기타음료식품"},{"name":"마당","tel":"031-336-4715","addr":"경기도 용인시 처인구 양지면 평창리667-1","category":"일반휴게음식 - 일반한식"},{"name":"바다향왕코다리","tel":"","addr":"경기도 용인시 처인구 양지면 평창리 667-1번지 외5필지","category":"일반휴게음식 - 일반한식"}]},{"lat":"37.229193329","long":"127.29120198","items":[{"name":"광주리들밥","tel":"031-321-6500","addr":"경기도 용인시 처인구 양지면 양지리 138-63번지","category":"일반휴게음식 - 일반한식"},{"name":"제이핏다이어트","tel":"","addr":"경기도 용인시 처인구 양지면 양지리 138-63번지 3층","category":"레저업소 - 헬스클럽"},{"name":"흥남커피","tel":"031-339-1366","addr":"경기도 용인시 처인구 양지면 양지리 138-63번지 3층","category":"일반휴게음식 - 서양음식"}]},{"lat":"37.232557392","long":"127.31822584","items":[{"name":"광천상회","tel":"031-322-0357","addr":"경기도 용인시 처인구 양지면 평창리 240번지","category":"유통업 영리 - 슈퍼마켓"}]},{"lat":"37.236276084","long":"127.28720583","items":[{"name":"교동두부","tel":"031-321-3332","addr":"경기도 용인시 처인구 양지면 양지리 451-1번지","category":"일반휴게음식 - 일반한식"}]},{"lat":"37.234777865","long":"127.28448436","items":[{"name":"국수나무양지점","tel":"031-338-9229","addr":"경기도 용인시 처인구 양지면 양지리 590-1번지 지니Plus 나동 1층","category":"일반휴게음식 - 일반한식"},{"name":"더 바디","tel":"031-232-2774","addr":"경기도 용인시 처인구 양지면 양지리 590-1번지 3층","category":"보건위생 - 기타대인서비스"},{"name":"등촌한의원","tel":"031-338-7553","addr":"경기도 용인시 처인구 양지면 양지리590-1,2층","category":"의원 - 한의원"},{"name":"뚜레쥬르 용인양지(2)","tel":"031-335-3949","addr":"경기도 용인시 처인구 양지면 양지리 590-1번지 밝은미소치과 가동 1층","category":"음료식품 - 제과점"},{"name":"밝은미소치과","tel":"031-338-7528","addr":"경기도 용인시 처인구 양지면 양지리590-1,2층","category":"의원 - 치과의원"},{"name":"불타는깡통","tel":"031-321-9259","addr":"경기도 용인시 처인구 양지면 양지리 590-1번지","category":"일반휴게음식 - 일반한식"},{"name":"신전떡볶이","tel":"031-0000-0000","addr":"경기도 용인시 처인구 양지면 양지리 590-1번지","category":"일반휴게음식 - 스넥"},{"name":"영당구클럽","tel":"031-338-7894","addr":"경기도 용인시 처인구 양지면 양지리 590-1번지","category":"레저업소 - 당 구 장"},{"name":"요거프레소 용인양지점","tel":"031-333-0046","addr":"경기도 용인시 처인구 양지면 양지리 590-1번지","category":"일반휴게음식 - 서양음식"},{"name":"웨이하이중국어학원","tel":"031-338-3384","addr":"경기도 용인시 처인구 양지면 양지리590-1,3층","category":"회원제형태 - 학원"},{"name":"지니플러스학원","tel":"031-338-3661","addr":"경기도 용인시 처인구 양지면 양지리590-1외3필지나-201","category":"학원 - 보습학원"},{"name":"행복한 가게","tel":"031-338-1101","addr":"경기도 용인시 처인구 양지면 양지리 590-1번지","category":"의류 - 정장"},{"name":"행복한 가게","tel":"031-338-1101","addr":"경기도 용인시 처인구 양지면 양지리 590-1번지","category":"의류 - 정장"}]},{"lat":"37.225362602","long":"127.26050564","items":[{"name":"국제농기계","tel":"031-335-7999","addr":"경기도 용인시 처인구 양지면 송문리 138번지","category":"농업 - 농기계"}]},{"lat":"37.241717003","long":"127.31967275","items":[{"name":"굳잠","tel":"","addr":"경기도 용인시 처인구 양지면 제일리 33번지","category":"직물 - 침구·수예점"}]},{"lat":"37.234941975","long":"127.2836736","items":[{"name":"굽네치킨 용인양지점","tel":"031-338-8595","addr":"경기도 용인시 처인구 양지면 양지리 592-7번지 1층 1,2호","category":"일반휴게음식 - 스넥"},{"name":"부흥식당","tel":"031-335-5435","addr":"경기도 용인시 처인구 양지면 양지리 592-7","category":"일반휴게음식 - 일반한식"},{"name":"빅쓰리보습학원","tel":"031-338-1115","addr":"경기도 용인시 처인구 양지면 양지리 592-7번지 일류학원 3층 1호","category":"학원 - 기타 교육기관"},{"name":"이엠하이클래스학원","tel":"031-338-6231","addr":"경기도 용인시 처인구 양지면 양지리 592-7번지 2층 일부","category":"학원 - 보습학원"}]},{"lat":"37.228413348","long":"127.31455773","items":[{"name":"굿루쓰(Good Luz)","tel":"031-322-1328","addr":"경기도 용인시 처인구 양지면 평창리 391번지 1층","category":"일반휴게음식 - 서양음식"}]},{"lat":"37.234026254","long":"127.28605922","items":[{"name":"굿타임대리운전","tel":"031-321-6557","addr":"경기도 용인시 처인구 양지면 양지리 475번지 2층","category":"보건위생 - 기타대인서비스"}]},{"lat":"37.244657462","long":"127.24593091","items":[{"name":"그루","tel":"031-338-1985","addr":"경기도 용인시 처인구 양지면 주북리 536번지","category":"가구 - 일반가구"}]},{"lat":"37.236385348","long":"127.30494406","items":[{"name":"그린복층유리","tel":"031-321-2876","addr":"경기도 용인시 처인구 양지면 제일리616","category":"건축자재 - 유리"},{"name":"썬텍&푸시푸시","tel":"031-334-7023","addr":"경기도 용인시 처인구 양지면 제일리 616번지","category":"의류 - 정장"}]},{"lat":"37.232771514","long":"127.29075358","items":[{"name":"그린비(greenbee)","tel":"031-321-2801","addr":"경기도 용인시 처인구 양지면 양지리 163-1번지","category":"광학제품 - 사진관"}]},{"lat":"37.232998332","long":"127.29744809","items":[{"name":"그린빌","tel":"031-323-0031","addr":"경기도 용인시 처인구 양지면 양지리 115-1번지 1층","category":"레져용품 - 골프용품 전문점"},{"name":"그린빌","tel":"031-323-0031","addr":"경기도 용인시 처인구 양지면 양지리 115-1번지 1층","category":"레져용품 - 골프용품 전문점"},{"name":"블리스","tel":"","addr":"경기도 용인시 처인구 양지면 양지리 115-1번지 1층","category":"일반휴게음식 - 일반한식"},{"name":"알렉스의 기타교실","tel":"031-335-9526","addr":"경기도 용인시 처인구 양지면 양지리 115-1번지","category":"학원 - 예·체능계학원"}]},{"lat":"37.23427463","long":"127.28391904","items":[{"name":"그린유통","tel":"031-338-3998","addr":"경기도 용인시 처인구 양지면 양지리 573-1","category":"유통업 영리 - 슈퍼마켓"},{"name":"양지통신","tel":"031-333-3119","addr":"경기도 용인시 처인구 양지면 양지리 573-1번지","category":"사무통신 - 통신기기"},{"name":"온천장","tel":"031-338-3130","addr":"경기도 용인시 처인구 양지면 양지리 573-1번지","category":"숙박업 - 여관/기타숙박업"}]},{"lat":"37.241472518","long":"127.30283432","items":[{"name":"그린존아웃도어","tel":"","addr":"경기도 용인시 처인구 양지면 양지리 6-11번지 1층","category":"레져용품 - 스포츠·레져용품"}]},{"lat":"37.230634381","long":"127.28772553","items":[{"name":"그린푸드 시스템","tel":"031-1670-9203","addr":"경기도 용인시 처인구 양지면 남곡리 124-7번지 보현판넬 가동","category":"음료식품 - 정육점"},{"name":"다린랜드주식회사(구상호 주식회사 소일콘)","tel":"031-332-5599","addr":"경기도 용인시 처인구 양지면 남곡리 124-7번지 (가동1층중일부)","category":"건축자재 - 기타건축자재"},{"name":"몬스터","tel":"031-321-3110","addr":"경기도 용인시 처인구 양지면 남곡리 124-7번지","category":"레져용품 - 스포츠·레져용품"},{"name":"와플바니","tel":"031-338-5508","addr":"경기도 용인시 처인구 양지면 남곡리 124-7번지 보현판넬 다동 101호","category":"일반휴게음식 - 일반한식"},{"name":"용인처인상하목장DS대리점","tel":"031-000-0000","addr":"경기도 용인시 처인구 양지면 남곡리 124-7번지 보현판넬","category":"음료식품 - 기타음료식품"},{"name":"전주한식부페","tel":"031-334-3395","addr":"경기도 용인시 처인구 양지면 남곡리 124-7번지","category":"일반휴게음식 - 일반한식"}]},{"lat":"37.244025402","long":"127.28323394","items":[{"name":"금륜사가는길","tel":"031-338-1101","addr":"경기도 용인시 처인구 양지면 양지리 314-4번지 3층","category":"일반휴게음식 - 서양음식"}]},{"lat":"37.256692649","long":"127.27992173","items":[{"name":"금호샵","tel":"031-334-5271","addr":"경기도 용인시 처인구 양지면 대대리 668-2번지","category":"음료식품 - 기타음료식품"}]},{"lat":"37.253966623","long":"127.28956048","items":[{"name":"금호티앤아이 주식회사","tel":"02-6303-3953","addr":"경기도 용인시 처인구 양지면 대대리 854-34번지","category":"용역 서비스 - 종합용역"}]},{"lat":"37.228083488","long":"127.29914171","items":[{"name":"기덕교육원","tel":"031-321-5225","addr":"경기도 용인시 처인구 양지면 제일리 666-4","category":"학원 - 예·체능계학원"},{"name":"스피드스키대여점","tel":"031-321-5518","addr":"경기도 용인시 처인구 양지면 제일리 666-4번지","category":"레져용품 - 스포츠·레져용품"},{"name":"제주마을","tel":"031-336-5532","addr":"경기도 용인시 처인구 양지면 제일리 666-4번지","category":"일반휴게음식 - 일반한식"}]},{"lat":"37.23052362","long":"127.32064008","items":[{"name":"기름이야기","tel":"031-322-1940","addr":"경기도 용인시 처인구 양지면 평창리 477-1번지","category":"음료식품 - 기타음료식품"}]},{"lat":"37.225578407","long":"127.26070919","items":[{"name":"긴급설비","tel":"031-336-6981","addr":"경기도 용인시 처인구 양지면 송문리 137-3번지 은혜카센타","category":"용역 서비스 - 기타용역서비스"}]},{"lat":"37.234715596","long":"127.28414606","items":[{"name":"김가네","tel":"031-321-9468","addr":"경기도 용인시 처인구 양지면 양지리 591-3","category":"일반휴게음식 - 스넥"},{"name":"커피자루","tel":"031-323-7509","addr":"경기도 용인시 처인구 양지면 양지리 591-3번지 1층","category":"일반휴게음식 - 일반한식"},{"name":"컴친구","tel":"031-338-1279","addr":"경기도 용인시 처인구 양지면 양지리 591-3번지","category":"사무통신 - 컴퓨터"}]},{"lat":"37.254881409","long":"127.23836639","items":[{"name":"김가네숯불닭갈비","tel":"031-332-9990","addr":"경기도 용인시 처인구 양지면 주북리 1110-9번지","category":"일반휴게음식 - 일반한식"},{"name":"백년수산","tel":"031-332-0092","addr":"경기도 용인시 처인구 양지면 주북리 1110-9번지 휴먼시아 1층 108호","category":"음료식품 - 농·축·수산품"},{"name":"수정장어","tel":"031-332-0092","addr":"경기도 용인시 처인구 양지면 주북리 1110-9번지 1층","category":"일반휴게음식 - 일반한식"},{"name":"수정장어","tel":"031-332-0092","addr":"경기도 용인시 처인구 양지면 주북리 1110-9번지","category":"일반휴게음식 - 일반한식"},{"name":"아모아(AMOIR)","tel":"031-000-0000","addr":"경기도 용인시 처인구 양지면 주북리 1110-9번지 1층 103호,104호","category":"일반휴게음식 - 서양음식"},{"name":"추억속으로","tel":"","addr":"경기도 용인시 처인구 양지면 주북리 1110-9번지 3층 306- 309호","category":"일반휴게음식 - 일반한식"}]},{"lat":"37.227580511","long":"127.2514312","items":[{"name":"김량축산센타","tel":"031-335-4391","addr":"경기도 용인시 처인구 양지면 송문리 504-15번지","category":"음료식품 - 정육점"}]},{"lat":"37.229718687","long":"127.29006588","items":[{"name":"김명자소머리국밥","tel":"031-336-3377","addr":"경기도 용인시 처인구 양지면 양지리 138-18번지 밥향","category":"일반휴게음식 - 일반한식"}]},{"lat":"37.231076424","long":"127.28750182","items":[{"name":"김밥마을만두나라","tel":"031-336-3150","addr":"경기도 용인시 처인구 양지면 남곡리 124-5번지 1층","category":"일반휴게음식 - 일반한식"},{"name":"김애경미용실","tel":"031-321-8420","addr":"경기도 용인시 처인구 양지면 남곡리 124-5번지 102호","category":"보건위생 - 미용원"}]},{"lat":"37.230969686","long":"127.29798109","items":[{"name":"김순남청국장","tel":"031-333-1243","addr":"경기도 용인시 처인구 양지면 양지리 120-27번지 A동","category":"일반휴게음식 - 일반한식"},{"name":"양평해장국양지점","tel":"031-321-3533","addr":"경기도 용인시 처인구 양지면 양지리 120-27번지 A동","category":"일반휴게음식 - 일반한식"},{"name":"콩나물향기","tel":"031-338-0069","addr":"경기도 용인시 처인구 양지면 양지리 120-27번지","category":"일반휴게음식 - 일반한식"},{"name":"해명공업사","tel":"031-732-2003","addr":"경기도 용인시 처인구 양지면 양지리 120-27번지 B동 103호","category":"자동차정비 유지 - 자동차정비"},{"name":"해피골프","tel":"031-332-0965","addr":"경기도 용인시 처인구 양지면 양지리 120-27번지 101호","category":"레져용품 - 골프용품 전문점"}]},{"lat":"37.233746657","long":"127.29725943","items":[{"name":"김할머니원조국수집","tel":"031-321-7486","addr":"경기도 용인시 처인구 양지면 양지리 110-3","category":"일반휴게음식 - 일반한식"},{"name":"씨유양지IC점","tel":"031-898-6565","addr":"경기도 용인시 처인구 양지면 양지리 110-3번지","category":"유통업 영리 - 편 의 점"}]},{"lat":"37.230411508","long":"127.28294689","items":[{"name":"김현복수학교습소","tel":"","addr":"경기도 용인시 처인구 양지면 남곡리 161-9번지","category":"학원 - 보습학원"},{"name":"엄마손식당","tel":"070-4763-5091","addr":"경기도 용인시 처인구 양지면 남곡리 161-9번지 1층","category":"일반휴게음식 - 일반한식"}]},{"lat":"37.229302274","long":"127.29086435","items":[{"name":"깍두기 노래연습장","tel":"031-321-8003","addr":"경기도 용인시 처인구 양지면 양지리 138-66번지 2층","category":"레저업소 - 노 래 방"}]},{"lat":"37.23629772","long":"127.28569583","items":[{"name":"깍지헤어","tel":"031-338-1101","addr":"경기도 용인시 처인구 양지면 양지리 460-3번지","category":"보건위생 - 미용원"}]},{"lat":"37.233387578","long":"127.28561734","items":[{"name":"꼬꼬씨(C)참숯불닭갈비","tel":"031-338-5592","addr":"경기도 용인시 처인구 양지면 양지리 471-6번지 오성산낙지 가동 1층","category":"일반휴게음식 - 일반한식"},{"name":"양지상회","tel":"031-322-2202","addr":"경기도 용인시 처인구 양지면 양지리 471-6번지 다,라동 1층","category":"일반휴게음식 - 일반한식"},{"name":"유진노래연습장","tel":"02-1577-0000","addr":"경기도 용인시 처인구 양지면 양지리 471-6번지 2층","category":"레저업소 - 노 래 방"},{"name":"플러스애견미용실","tel":"070-8170-3901","addr":"경기도 용인시 처인구 양지면 양지리 471-6번지 1층132평방미터중일부","category":"문화.취미 - 애완동물"}]},{"lat":"37.235133164","long":"127.2828404","items":[{"name":"꽈배기마법사","tel":"031-339-6767","addr":"경기도 용인시 처인구 양지면 양지리 619-7번지 금빛마을주택 1층","category":"일반휴게음식 - 스넥"},{"name":"델리퀸 양지점","tel":"031-338-7737","addr":"경기도 용인시 처인구 양지면 양지리 619-7번지 금빛마을","category":"음료식품 - 정육점"},{"name":"온화지업종합장식","tel":"031-338-2120","addr":"경기도 용인시 처인구 양지면 양지리 619-7번지 금빛 상가 102호","category":"건축자재 - 인테리어전문"},{"name":"종로떡백화점","tel":"031-338-1110","addr":"경기도 용인시 처인구 양지면 양지리 619-7번지 금빛 상가 102호","category":"음료식품 - 제과점"},{"name":"퀸운동화이불빨래방","tel":"031-321-1482","addr":"경기도 용인시 처인구 양지면 양지리 619-7번지 금빛마을주택 101호","category":"수리서비스 - 세탁소"}]},{"lat":"37.236382663","long":"127.29886992","items":[{"name":"나고야","tel":"031-333-8042","addr":"경기도 용인시 처인구 양지면 양지리 102-1번지","category":"일반휴게음식 - 일반한식"},{"name":"씨엘로","tel":"031-287-8663","addr":"경기도 용인시 처인구 양지면 양지리 102-1번지","category":"일반휴게음식 - 서양음식"}]},{"lat":"37.215666157","long":"127.32377735","items":[{"name":"나무모아","tel":"031-336-9902","addr":"경기도 용인시 처인구 양지면 평창리 626-8번지","category":"가구 - 일반가구"}]},{"lat":"37.237083455","long":"127.27333626","items":[{"name":"나서방샤브샤브칼국수","tel":"031-335-0312","addr":"경기도 용인시 처인구 양지면 양지리 734-2번지","category":"일반휴게음식 - 일반한식"}]},{"lat":"37.215000612","long":"127.31317316","items":[{"name":"남경씨푸드","tel":"031-000-0000","addr":"경기도 용인시 처인구 양지면 평창리 661-11번지 용인청소년수련원","category":"음료식품 - 기타음료식품"}]},{"lat":"37.231862484","long":"127.29766904","items":[{"name":"남도한뷔페","tel":"031-336-5535","addr":"경기도 용인시 처인구 양지면 양지리 120-19번지","category":"일반휴게음식 - 일반한식"},{"name":"삼정 노래연습장","tel":"031-339-5007","addr":"경기도 용인시 처인구 양지면 양지리 120-19번지 2층","category":"레저업소 - 노 래 방"},{"name":"소야","tel":"031-338-4050","addr":"경기도 용인시 처인구 양지면 양지리 120-19번지","category":"일반휴게음식 - 일반한식"},{"name":"양지스크린골프","tel":"031-323-0088","addr":"경기도 용인시 처인구 양지면 양지리 120-19번지 2층 일부","category":"레저업소 - 스크린골프"}]},{"lat":"37.246746216","long":"127.24672657","items":[{"name":"남서울자동차운전전문학원","tel":"031-339-7660","addr":"경기도 용인시 처인구 양지면 주북리 545-2번지","category":"학원 - 기능학원"},{"name":"화성공업사","tel":"031-322-5636","addr":"경기도 용인시 처인구 양지면 주복리 545-2","category":"자동차정비 유지 - 자동차정비"},{"name":"화성상사","tel":"031-322-5637","addr":"경기도 용인시 처인구 양지면 주북리 545-2번지","category":"자동차정비 유지 - 자동차부품"}]},{"lat":"37.23466041","long":"127.28461915","items":[{"name":"내가사케","tel":"031-321-8969","addr":"경기도 용인시 처인구 양지면 양지리 589","category":"일반휴게음식 - 스넥"},{"name":"만지작","tel":"","addr":"경기도 용인시 처인구 양지면 양지리 589번지 1층","category":"일반휴게음식 - 일반한식"},{"name":"미즈미용실","tel":"031-338-5753","addr":"경기도 용인시 처인구 양지면 양지리 589","category":"보건위생 - 미용원"},{"name":"영남세탁소","tel":"031-338-3306","addr":"경기도 용인시 처인구 양지면 양지리 589","category":"수리서비스 - 세탁소"},{"name":"호야","tel":"031-322-0877","addr":"경기도 용인시 처인구 양지면 양지리 589번지 1층","category":"일반휴게음식 - 스넥"}]},{"lat":"37.233522677","long":"127.28564039","items":[{"name":"내몸에힐링하기좋은날","tel":"031-322-5583","addr":"경기도 용인시 처인구 양지면 양지리 473-2번지","category":"신변잡화 - 기타잡화"},{"name":"형제축산","tel":"031-334-3717","addr":"경기도 용인시 처인구 양지면 양지리 473-2번지 1층","category":"음료식품 - 정육점"}]},{"lat":"37.230275422","long":"127.28334078","items":[{"name":"네네치킨","tel":"031-322-2570","addr":"경기도 용인시 처인구 양지면 남곡리 156-11번지 1층 102호","category":"일반휴게음식 - 스넥"},{"name":"센텀헤어","tel":"031-338-5438","addr":"경기도 용인시 처인구 양지면 남곡리 156-11번지 101호","category":"보건위생 - 미용원"},{"name":"센텀홈마트","tel":"031-336-3721","addr":"경기도 용인시 처인구 양지면 남곡리156-11 센텀스몰시티상가동1,2호","category":"유통업 영리 - 슈퍼마켓"}]},{"lat":"37.226918309","long":"127.28555939","items":[{"name":"네스시스템","tel":"031-321-4414","addr":"경기도 용인시 처인구 양지면 남곡리474","category":"기타 - 기타 전문점"},{"name":"대길P&P","tel":"031-427-8298","addr":"경기도 용인시 처인구 양지면 남곡리 474번지","category":"유통업 영리 - 기타유통업"},{"name":"동일PACKAGE","tel":"031-339-1160","addr":"경기도 용인시 처인구 양지면 남곡리 474번지","category":"건축자재 - 목재·석재·철물"}]},{"lat":"37.234915612","long":"127.28339178","items":[{"name":"네일카페","tel":"","addr":"경기도 용인시 처인구 양지면 양지리 627-1번지 1층","category":"보건위생 - 피부미용실"},{"name":"달나라 허니","tel":"031-328-7676","addr":"경기도 용인시 처인구 양지면 양지리 627-1번지 1층","category":"일반휴게음식 - 서양음식"}]},{"lat":"37.235722571","long":"127.2850626","items":[{"name":"노미경헤어","tel":"031-338-7756","addr":"경기도 용인시 처인구 양지면 양지리 465-2번지 1층","category":"보건위생 - 미용원"},{"name":"보비드림","tel":"031-338-7756","addr":"경기도 용인시 처인구 양지면 양지리 465-2번지 1층","category":"음료식품 - 기타음료식품"},{"name":"헝그리파닭","tel":"031-338-7982","addr":"경기도 용인시 처인구 양지면 양지리 465-2번지 외1필지","category":"일반휴게음식 - 스넥"}]},{"lat":"37.235914016","long":"127.31980624","items":[{"name":"농업회사법인 아이러브파머스 주식회사","tel":"","addr":"경기도 용인시 처인구 양지면 평창리 137번지 2층 201호","category":"학원 - 기타 교육기관"}]},{"lat":"37.232661665","long":"127.31966867","items":[{"name":"농업회사법인 주식회사 숲속곤충마을","tel":"031-336-4840","addr":"경기도 용인시 처인구 양지면 평창리 467-1번지","category":"문화.취미 - 애완동물"},{"name":"숲속곤충마을","tel":"031-336-4840","addr":"경기도 용인시 처인구 양지면 평창리 467-1번지","category":"문화.취미 - 애완동물"}]},{"lat":"37.220500065","long":"127.2791471","items":[{"name":"농업회사법인 주식회사 웰리스푸드","tel":"031-1588-2218","addr":"경기도 용인시 처인구 양지면 남곡리 606번지","category":"음료식품 - 기타음료식품"}]},{"lat":"37.233382992","long":"127.2985652","items":[{"name":"농업회사법인주식회사술샘","tel":"070-4218-5225","addr":"경기도 용인시 처인구 양지면 양지리 114-14번지","category":"음료식품 - 기타음료식품"}]},{"lat":"37.259495829","long":"127.24670003","items":[{"name":"농업회사법인한농원 주식회사","tel":"031-111-1111","addr":"경기도 용인시 처인구 양지면 주북리 648번지 1층 일부","category":"음료식품 - 농·축·수산품"},{"name":"대예물산","tel":"031-322-3773","addr":"경기도 용인시 처인구 양지면 주북리 648번지 한터마트 105호","category":"농업 - 비료,사료,종자"}]},{"lat":"37.225136364","long":"127.25678656","items":[{"name":"누나","tel":"031-335-7429","addr":"경기도 용인시 처인구 양지면 송문리405-1","category":"일반휴게음식 - 일반한식"},{"name":"세븐일레븐용인송문우리점","tel":"031-1577-0711","addr":"경기도 용인시 처인구 양지면 송문리 405-1번지","category":"유통업 영리 - 편 의 점"}]},{"lat":"37.266823436","long":"127.33472693","items":[{"name":"닐리리 갤러리","tel":"","addr":"경기도 용인시 처인구 양지면 식금리 169-3번지 2층","category":"문화.취미 - 화랑"},{"name":"맘보카페","tel":"031-337-2429","addr":"경기도 용인시 처인구 양지면 식금리 169-3번지","category":"일반휴게음식 - 서양음식"}]},{"lat":"37.248887018","long":"127.23964392","items":[{"name":"다복식당","tel":"031-332-9969","addr":"경기도 용인시 처인구 양지면 주북리 895-1번지 1층","category":"일반휴게음식 - 일반한식"}]},{"lat":"37.235548255","long":"127.28636918","items":[{"name":"다빈치미술학원","tel":"031-338-8076","addr":"경기도 용인시 처인구 양지면 양지리 450-2","category":"학원 - 예·체능계학원"}]},{"lat":"37.255572881","long":"127.27712214","items":[{"name":"다연","tel":"031-335-2531","addr":"경기도 용인시 처인구 양지면 대대리 673-22번지","category":"레저업소 - 헬스클럽"}]},{"lat":"37.234603529","long":"127.28200453","items":[{"name":"다이소 용인양지점","tel":"031-338-7959","addr":"경기도 용인시 처인구 양지면 양지리 630-11번지 102,103,201호호","category":"신변잡화 - 기타잡화"}]},{"lat":"37.234221807","long":"127.28717557","items":[{"name":"다이어트스파르타점","tel":"070-8650-5500","addr":"경기도 용인시 처인구 양지면 양지리 445-2번지 2층","category":"레저업소 - 헬스클럽"},{"name":"양지아이비학원","tel":"031-333-7553","addr":"경기도 용인시 처인구 양지면 양지리 445-2번지 3층","category":"학원 - 보습학원"},{"name":"양지우체국","tel":"031-338-3005","addr":"경기도 용인시 처인구 양지면 양지리 445-2번지","category":"용역 서비스 - 공공요금대행서비스/소"}]},{"lat":"37.239494074","long":"127.31869426","items":[{"name":"달마선원","tel":"031-339-0433","addr":"경기도 용인시 처인구 양지면 제일리 138-2번지","category":"기타 - 비영리/대상"}]},{"lat":"37.234162213","long":"127.28192402","items":[{"name":"닭발CLUB","tel":"031-339-2225","addr":"경기도 용인시 처인구 양지면 양지리 566-1번지 1층 일부","category":"일반휴게음식 - 일반한식"},{"name":"스포츠운동원","tel":"031-338-1945","addr":"경기도 용인시 처인구 양지면 양지리 566-1번지 쌍림빌딩 2층","category":"회원제형태 - 레져업소"},{"name":"양지꽃식물원","tel":"031-338-5031","addr":"경기도 용인시 처인구 양지면 양지리566-1","category":"문화.취미 - 화원"},{"name":"양지유리","tel":"031-338-3610","addr":"경기도 용인시 처인구 양지면 양지리 566-1","category":"건축자재 - 유리"}]},{"lat":"37.234855903","long":"127.27811764","items":[{"name":"담소카페","tel":"031-336-4790","addr":"경기도 용인시 처인구 양지면 양지리 702-2번지","category":"일반휴게음식 - 일반한식"}]},{"lat":"37.259020164","long":"127.24578541","items":[{"name":"담장너머찻집","tel":"031-718-3488","addr":"경기도 용인시 처인구 양지면 주북리 652번지","category":"일반휴게음식 - 서양음식"},{"name":"도담도담두부국수","tel":"031-338-2658","addr":"경기도 용인시 처인구 양지면 주북리 652번지 1층","category":"일반휴게음식 - 일반한식"}]},{"lat":"37.233498278","long":"127.28453595","items":[{"name":"대감집","tel":"031-333-3888","addr":"경기도 용인시 처인구 양지면 양지리 582-3번지","category":"일반휴게음식 - 일반한식"},{"name":"양지황소곱창","tel":"031-339-3477","addr":"경기도 용인시 처인구 양지면 양지리 582-3번지","category":"일반휴게음식 - 일반한식"}]},{"lat":"37.225996345","long":"127.29419829","items":[{"name":"대관령스포츠","tel":"031-338-1238","addr":"경기도 용인시 처인구 양지면 남곡리 102-1","category":"레져용품 - 스포츠·레져용품"}]},{"lat":"37.234164043","long":"127.28495538","items":[{"name":"대광식당","tel":"031-321-5768","addr":"경기도 용인시 처인구 양지면 양지리 585번지","category":"일반휴게음식 - 일반한식"},{"name":"왕고집","tel":"031-338-7397","addr":"경기도 용인시 처인구 양지면 양지리 585번지","category":"일반휴게음식 - 일반한식"}]},{"lat":"37.24788731","long":"127.32366596","items":[{"name":"대광하우징","tel":"031-333-6160","addr":"경기도 용인시 처인구 양지면 추계리 192-4번지","category":"용역 서비스 - 기타용역서비스"}]},{"lat":"37.21647175","long":"127.31906019","items":[{"name":"대농팜농자재","tel":"031-337-1123","addr":"경기도 용인시 처인구 양지면 평창리 641-5번지","category":"농업 - 농기계"}]},{"lat":"37.266850574","long":"127.26254089","items":[{"name":"대대리150","tel":"","addr":"경기도 용인시 처인구 양지면 대대리 150번지 1층","category":"일반휴게음식 - 서양음식"},{"name":"주식회사이온생활건강","tel":"070-4137-7130","addr":"경기도 용인시 처인구 양지면 대대리 150번지","category":"주방용구 - 정수기"}]},{"lat":"37.231888076","long":"127.28720062","items":[{"name":"대덕골보쌈칼국수","tel":"031-323-0206","addr":"경기도 용인시 처인구 양지면 남곡리 128-5번지 금복토속음식점 1동 1층","category":"일반휴게음식 - 일반한식"},{"name":"로커피(RhoCoffee)","tel":"031-000-0000","addr":"경기도 용인시 처인구 양지면 남곡리 128-5번지 1,2층","category":"일반휴게음식 - 서양음식"}]},{"lat":"37.247496942","long":"127.2539762","items":[{"name":"대명크린","tel":"031-323-3796","addr":"경기도 용인시 처인구 양지면 주북리 387-1번지","category":"용역 서비스 - 종합용역"}]},{"lat":"37.234553043","long":"127.28048303","items":[{"name":"대박김밥","tel":"031-321-9007","addr":"경기도 용인시 처인구 양지면 양지리 633-1번지 상가","category":"일반휴게음식 - 일반한식"},{"name":"동아전기모타","tel":"031-338-0135","addr":"경기도 용인시 처인구 양지면 양지리633-1","category":"수리서비스 - 기타수리서비스"},{"name":"딱그집","tel":"031-339-9987","addr":"경기도 용인시 처인구 양지면 양지리 633-1번지","category":"일반휴게음식 - 일반한식"},{"name":"만나식당","tel":"031-338-7025","addr":"경기도 용인시 처인구 양지면 양지리 633-1번지 양지학원 1층 7호","category":"일반휴게음식 - 일반한식"},{"name":"양지당구장","tel":"031-337-0489","addr":"경기도 용인시 처인구 양지면 양지리 633-1번지","category":"레저업소 - 당 구 장"},{"name":"우리식당","tel":"031-338-2037","addr":"경기도 용인시 처인구 양지면 양지리 633-1번지 1층","category":"일반휴게음식 - 일반한식"},{"name":"인정국물떡볶이","tel":"031-339-1333","addr":"경기도 용인시 처인구 양지면 양지리 633-1번지 1층","category":"일반휴게음식 - 일반한식"},{"name":"진마포","tel":"031-338-3971","addr":"경기도 용인시 처인구 양지면 양지리 633-1번지","category":"일반휴게음식 - 일반한식"},{"name":"큰손돼지국밥","tel":"031-338-4298","addr":"경기도 용인시 처인구 양지면 양지리 633-1번지 양지학원 1층 5호","category":"일반휴게음식 - 일반한식"}]},{"lat":"37.224887067","long":"127.29092643","items":[{"name":"대성파킹","tel":"","addr":"경기도 용인시 처인구 양지면 남곡리 796번지","category":"자동차정비 유지 - 주차장"},{"name":"대성파킹","tel":"031-559-8325","addr":"경기도 용인시 처인구 양지면 남곡리 796번지","category":"기타 - 기계공구"},{"name":"대성파킹 삼성디오네","tel":"","addr":"경기도 용인시 처인구 양지면 남곡리 796번지","category":"자동차정비 유지 - 주차장"}]},{"lat":"37.243521792","long":"127.26306944","items":[{"name":"대승용접","tel":"031-338-0400","addr":"경기도 용인시 처인구 양지면 주북리 124번지","category":"기타 - 기타 전문점"}]},{"lat":"37.252469586","long":"127.24140224","items":[{"name":"대영산업","tel":"031-322-1912","addr":"경기도 용인시 처인구 양지면 주북리 785번지","category":"신변잡화 - 기타잡화"}]},{"lat":"37.225744382","long":"127.25476041","items":[{"name":"대한민국 가구일번지","tel":"031-333-9949","addr":"경기도 용인시 처인구 양지면 송문리 414번지 2호 전면좌측","category":"가구 - 일반가구"}]},{"lat":"37.228304487","long":"127.29358742","items":[{"name":"대한불교신조계종 동하사","tel":"031-334-5229","addr":"경기도 용인시 처인구 양지면 양지리 129-49번지 양지파인힐 105동 101호","category":"보건위생 - 기타대인서비스"}]},{"lat":"37.234222024","long":"127.29081544","items":[{"name":"대호카공업사","tel":"031-322-1766","addr":"경기도 용인시 처인구 양지면 양지리 206번지 에이스카오토샵","category":"자동차정비 유지 - 자동차시트·타이어"},{"name":"행복한먹거리","tel":"031-335-3232","addr":"경기도 용인시 처인구 양지면 양지리 206번지","category":"일반휴게음식 - 일반한식"}]},{"lat":"37.228499141","long":"127.29867008","items":[{"name":"대흥갈비","tel":"031-338-7628","addr":"경기도 용인시 처인구 양지면 제일리 662-6번지 대흥갈비","category":"일반휴게음식 - 일반한식"},{"name":"우영식품","tel":"031-334-9333","addr":"경기도 용인시 처인구 양지면 제일리 662-6번지","category":"음료식품 - 제과점"}]},{"lat":"37.236192229","long":"127.28459105","items":[{"name":"더올림학원","tel":"031-333-0888","addr":"경기도 용인시 처인구 양지면 양지리 462-4번지 2층 전체","category":"학원 - 보습학원"},{"name":"마루문구","tel":"031-338-7582","addr":"경기도 용인시 처인구 양지면 양지리 462-4번지","category":"서적문구 - 문구용품"},{"name":"예일미술학원","tel":"031-332-4329","addr":"경기도 용인시 처인구 양지면 양지리 462-4번지 3층 승광빌딩","category":"학원 - 예·체능계학원"},{"name":"올가스크린케어","tel":"031-338-5879","addr":"경기도 용인시 처인구 양지면 양지리 462-4번지","category":"보건위생 - 화장품"},{"name":"학!땡분식","tel":"070-4111-7750","addr":"경기도 용인시 처인구 양지면 양지리 462-4번지 1층 일부","category":"일반휴게음식 - 일반한식"}]},{"lat":"37.230751575","long":"127.28392851","items":[{"name":"더팬(THE PAN)","tel":"031-337-1550","addr":"경기도 용인시 처인구 양지면 남곡리 151-2번지 1층","category":"일반휴게음식 - 일반한식"}]},{"lat":"37.217387705","long":"127.31341953","items":[{"name":"더후","tel":"031-338-8932","addr":"경기도 용인시 처인구 양지면 평창리 661-4번지","category":"숙박업 - 여관/기타숙박업"},{"name":"로그하우스","tel":"031-335-8932","addr":"경기도 용인시 처인구 양지면 평창리 661-4번지","category":"숙박업 - 여관/기타숙박업"}]},{"lat":"37.227472509","long":"127.29845198","items":[{"name":"덕석과구들장","tel":"031-321-3390","addr":"경기도 용인시 처인구 양지면 제일리675-1","category":"일반휴게음식 - 일반한식"}]},{"lat":"37.247605081","long":"127.24532047","items":[{"name":"데드포인트","tel":"031-333-2546","addr":"경기도 용인시 처인구 양지면 주북리 1103-12번지","category":"의류 - 정장"}]},{"lat":"37.229947951","long":"127.2846467","items":[{"name":"도도설비","tel":"031-339-9941","addr":"경기도 용인시 처인구 양지면 남곡리 147-55번지 센텀스몰시티 107동 501호","category":"용역 서비스 - 기타용역서비스"}]},{"lat":"37.240694233","long":"127.30061107","items":[{"name":"도서출판목양","tel":"031-321-4196","addr":"경기도 용인시 처인구 양지면 양지리38-2","category":"회원제형태 - 서적"}]},{"lat":"37.233751057","long":"127.32333561","items":[{"name":"도야기농원","tel":"031-1111-1111","addr":"경기도 용인시 처인구 양지면 평창리 173번지","category":"음료식품 - 농·축·수산품"}]},{"lat":"37.234164042","long":"127.28114647","items":[{"name":"도야지껍데기","tel":"031-333-8484","addr":"경기도 용인시 처인구 양지면 양지리 564-1번지","category":"일반휴게음식 - 일반한식"}]},{"lat":"37.229245856","long":"127.28811469","items":[{"name":"도원자동차공업(주)","tel":"031-338-1255","addr":"경기도 용인시 처인구 양지면 남곡리 489-7번지","category":"자동차정비 유지 - 자동차정비"},{"name":"제이피모터스포트","tel":"031-1111-1111","addr":"경기도 용인시 처인구 양지면 남곡리 489-7번지 2층","category":"자동차정비 유지 - 카인테리어"}]},{"lat":"37.215301741","long":"127.32525167","items":[{"name":"도창골","tel":"031-336-9285","addr":"경기도 용인시 처인구 양지면 평창리 620-4번지","category":"일반휴게음식 - 일반한식"}]},{"lat":"37.231971436","long":"127.28625437","items":[{"name":"돈가네 양지점","tel":"031-335-2185","addr":"경기도 용인시 처인구 양지면 남곡리 127-14번지 1층","category":"일반휴게음식 - 일반한식"}]},{"lat":"37.234689368","long":"127.28380789","items":[{"name":"동남아2호점","tel":"031-338-2257","addr":"경기도 용인시 처인구 양지면 양지리 592-4번지 동남아2호점","category":"사무통신 - 통신기기"},{"name":"양지바른한솔플러스","tel":"","addr":"경기도 용인시 처인구 양지면 양지리 592-4번지","category":"서적문구 - 기타서적문구"},{"name":"파리바게트(용인양지점)","tel":"031-337-3984","addr":"경기도 용인시 처인구 양지면 양지리 592-4번지 외3필지","category":"음료식품 - 제과점"},{"name":"해피네일","tel":"031-333-7831","addr":"경기도 용인시 처인구 양지면 양지리 592-4번지 2층","category":"보건위생 - 피부미용실"}]},{"lat":"37.232439129","long":"127.27508885","items":[{"name":"동부자동차","tel":"031-332-8554","addr":"경기도 용인시 처인구 양지면 양지리 544-2번지","category":"자동차정비 유지 - 세차장"},{"name":"신성관","tel":"031-323-1102","addr":"경기도 용인시 처인구 양지면 양지리 544-2번지 1층","category":"일반휴게음식 - 중국식"},{"name":"양지정밀기계","tel":"031-338-3896","addr":"경기도 용인시 처인구 양지면 양지리 544-2","category":"건축자재 - 목재·석재·철물"},{"name":"양지종합가스","tel":"031-338-0209","addr":"경기도 용인시 처인구 양지면 양지리 544-2번지","category":"용역 서비스 - 기타용역서비스"}]},{"lat":"37.23390939","long":"127.28594609","items":[{"name":"동서남북광고","tel":"031-338-1900","addr":"경기도 용인시 처인구 양지면 양지리 477-4","category":"용역 서비스 - 종합용역"}]},{"lat":"37.229946725","long":"127.3207278","items":[{"name":"동수기와","tel":"","addr":"경기도 용인시 처인구 양지면 평창리 450번지","category":"용역 서비스 - 기타용역서비스"}]},{"lat":"37.239469247","long":"127.26619977","items":[{"name":"동양싱크","tel":"031-332-2330","addr":"경기도 용인시 처인구 양지면 주북리 141-17번지 외1필지","category":"주방용구 - 주방용구"}]},{"lat":"37.234611103","long":"127.28261309","items":[{"name":"동양이엔지 (ENG)","tel":"031-339-4737","addr":"경기도 용인시 처인구 양지면 양지리 629번지 2층","category":"수리서비스 - 기타수리서비스"},{"name":"삼화공사","tel":"031-338-7690","addr":"경기도 용인시 처인구 양지면 양지리 629번지","category":"건축자재 - 페인트"},{"name":"양지조은약국","tel":"031-321-5751","addr":"경기도 용인시 처인구 양지면 양지리 629번지","category":"약국 - 약국"},{"name":"진주식당","tel":"031-338-3177","addr":"경기도 용인시 처인구 양지면 양지리629","category":"일반휴게음식 - 일반한식"}]},{"lat":"37.247443727","long":"127.26603591","items":[{"name":"동양케미칼주식회사","tel":"031-339-9781","addr":"경기도 용인시 처인구 양지면 주북리 80-2번지 외2필지","category":"주방용구 - 주방용식기"}]},{"lat":"37.248245615","long":"127.24492804","items":[{"name":"동해바다동태탕용인직영점&한도니왕돌판구","tel":"031-321-0415","addr":"경기도 용인시 처인구 양지면 주북리 939-1번지","category":"일반휴게음식 - 일반한식"}]},{"lat":"37.234912686","long":"127.28081115","items":[{"name":"동현맛집","tel":"031-338-4388","addr":"경기도 용인시 처인구 양지면 양지리 617-1번지 1층","category":"일반휴게음식 - 일반한식"},{"name":"양지카센타","tel":"031-338-8494","addr":"경기도 용인시 처인구 양지면 양지리 617-1번지 1층","category":"자동차정비 유지 - 자동차부품"}]},{"lat":"37.214557845","long":"127.32044919","items":[{"name":"동화가든","tel":"031-337-2550","addr":"경기도 용인시 처인구 양지면 평창리 650-2번지","category":"일반휴게음식 - 일반한식"}]},{"lat":"37.257129359","long":"127.26622741","items":[{"name":"두두폼","tel":"031-335-1236","addr":"경기도 용인시 처인구 양지면 대대리 514-8번지 2층","category":"보건위생 - 화장품"},{"name":"두두폼","tel":"031-335-1236","addr":"경기도 용인시 처인구 양지면 대대리 514-8번지 1층","category":"보건위생 - 미용원"}]},{"lat":"37.235327515","long":"127.28447514","items":[{"name":"둥지만두","tel":"031-338-4147","addr":"경기도 용인시 처인구 양지면 양지리 595-1번지","category":"일반휴게음식 - 스넥"},{"name":"모듬생찌게방","tel":"031-338-0909","addr":"경기도 용인시 처인구 양지면 양지리 595-1","category":"일반휴게음식 - 일반한식"},{"name":"세그레또 아뜰리에","tel":"031-323-7105","addr":"경기도 용인시 처인구 양지면 양지리 595-1번지","category":"문화.취미 - 문화취미기타"},{"name":"윤쌤의창의수학교습소","tel":"","addr":"경기도 용인시 처인구 양지면 양지리 595-1번지 1층","category":"학원 - 보습학원"},{"name":"조이헤어샵","tel":"031-338-4493","addr":"경기도 용인시 처인구 양지면 양지리 595-1번지","category":"보건위생 - 미용원"}]},{"lat":"37.2355758","long":"127.26256883","items":[{"name":"뒷골농장","tel":"031-323-3727","addr":"경기도 용인시 처인구 양지면 주북리 170-4번지","category":"일반휴게음식 - 일반한식"}]},{"lat":"37.233803848","long":"127.28486388","items":[{"name":"드루와","tel":"031-338-1101","addr":"경기도 용인시 처인구 양지면 양지리 582번지","category":"일반휴게음식 - 일반한식"},{"name":"멕시카나치킨","tel":"031-338-2056","addr":"경기도 용인시 처인구 양지면 양지리 582번지","category":"일반휴게음식 - 주점"},{"name":"양치기소년","tel":"031-332-5552","addr":"경기도 용인시 처인구 양지면 양지리 582번지","category":"일반휴게음식 - 일반한식"},{"name":"왕돌판고기집","tel":"031-338-0057","addr":"경기도 용인시 처인구 양지면 양지리 582번지","category":"일반휴게음식 - 일반한식"},{"name":"천지뒷고기","tel":"031-336-8330","addr":"경기도 용인시 처인구 양지면 양지리 582번지","category":"일반휴게음식 - 일반한식"},{"name":"회롱회롱이자카야","tel":"070-4808-0518","addr":"경기도 용인시 처인구 양지면 양지리 582번지","category":"일반휴게음식 - 주점"}]},{"lat":"37.224334383","long":"127.31352688","items":[{"name":"들꽃펜션용인","tel":"","addr":"경기도 용인시 처인구 양지면 평창리 350번지","category":"숙박업 - 여관/기타숙박업"}]},{"lat":"37.226746131","long":"127.2970632","items":[{"name":"들밥","tel":"031-321-6000","addr":"경기도 용인시 처인구 양지면 제일리 670-7번지","category":"일반휴게음식 - 일반한식"}]},{"lat":"37.232079082","long":"127.2749298","items":[{"name":"등촌카센타","tel":"031-338-2332","addr":"경기도 용인시 처인구 양지면 544-3","category":"자동차정비 유지 - 카인테리어"}]},{"lat":"37.255715633","long":"127.27773135","items":[{"name":"딜라(Dilla)","tel":"031-357-7556","addr":"경기도 용인시 처인구 양지면 대대리 675-4번지 2층","category":"광학제품 - 사진관"}]},{"lat":"37.22754973","long":"127.31403585","items":[{"name":"딜라의 정원","tel":"","addr":"경기도 용인시 처인구 양지면 평창리 359-5번지","category":"음료식품 - 제과점"}]},{"lat":"37.23549871","long":"127.28447578","items":[{"name":"또봉이통닭용인양지점","tel":"031-321-7942","addr":"경기도 용인시 처인구 양지면 양지리 596-1번지 1층","category":"일반휴게음식 - 일반한식"},{"name":"이엘학원","tel":"031-328-2655","addr":"경기도 용인시 처인구 양지면 양지리 596-1번지 2층","category":"학원 - 보습학원"},{"name":"조마루뼈다귀","tel":"031-338-4916","addr":"경기도 용인시 처인구 양지면 양지리 596-1번지","category":"일반휴게음식 - 일반한식"}]},{"lat":"37.262634373","long":"127.25811861","items":[{"name":"라니가구","tel":"031-261-0556","addr":"경기도 용인시 처인구 양지면 대대리 330-1번지","category":"가구 - 일반가구"}]},{"lat":"37.232188867","long":"127.28575936","items":[{"name":"러브레터","tel":"031-338-0337","addr":"경기도 용인시 처인구 양지면 남곡리 133-7번지","category":"일반휴게음식 - 서양음식"},{"name":"양지석쇠불고기","tel":"031-339-0285","addr":"경기도 용인시 처인구 양지면 남곡리 133-7번지 1층","category":"일반휴게음식 - 일반한식"}]},{"lat":"37.218333868","long":"127.31338961","items":[{"name":"로그스토리","tel":"031-332-8216","addr":"경기도 용인시 처인구 양지면 평창리681-12","category":"숙박업 - 여관/기타숙박업"}]},{"lat":"37.260185816","long":"127.25284594","items":[{"name":"로뎀 플라워","tel":"070-7018-5367","addr":"경기도 용인시 처인구 양지면 대대리 299번지","category":"문화.취미 - 화원"},{"name":"로뎀숲","tel":"031-338-8389","addr":"경기도 용인시 처인구 양지면 대대리 299번지 용인로뎀파크교회 가동 1층","category":"일반휴게음식 - 일반한식"}]},{"lat":"37.217802116","long":"127.31344376","items":[{"name":"로드47","tel":"02-525-4601","addr":"경기도 용인시 처인구 양지면 평창리 681-30번지","category":"숙박업 - 여관/기타숙박업"}]},{"lat":"37.217829708","long":"127.31322981","items":[{"name":"로드47식당","tel":"031-322-6800","addr":"경기도 용인시 처인구 양지면 평창리 681-10번지 1층 지하","category":"일반휴게음식 - 일반한식"}]},{"lat":"37.227495251","long":"127.29289697","items":[{"name":"리스텔","tel":"031-338-1535","addr":"경기도 용인시 처인구 양지면 양지리 산97-24번지","category":"숙박업 - 여관/기타숙박업"}]},{"lat":"37.254658032","long":"127.26328809","items":[{"name":"리에코","tel":"031-333-2942","addr":"경기도 용인시 처인구 양지면 대대리 527-4번지","category":"문화.취미 - 문화취미기타"}]},{"lat":"37.225943363","long":"127.29375865","items":[{"name":"리조트마트","tel":"031-338-4442","addr":"경기도 용인시 처인구 양지면 남곡리91","category":"유통업 영리 - 슈퍼마켓"}]},{"lat":"37.235355323","long":"127.28414844","items":[{"name":"릴리","tel":"031-333-8634","addr":"경기도 용인시 처인구 양지면 양지리 595-9번지","category":"신변잡화 - 액세서리"},{"name":"반달커피양지점","tel":"","addr":"경기도 용인시 처인구 양지면 양지리 595-9번지 2층","category":"일반휴게음식 - 서양음식"},{"name":"양지BYC","tel":"031-338-5495","addr":"경기도 용인시 처인구 양지면 양지리595-9","category":"의류 - 내의판매"},{"name":"코코네일","tel":"031-338-1101","addr":"경기도 용인시 처인구 양지면 양지리 595-9번지 1층","category":"보건위생 - 피부미용실"}]},{"lat":"37.226946851","long":"127.30325004","items":[{"name":"립스팍","tel":"0505-333-7070","addr":"경기도 용인시 처인구 양지면 제일리 302-3번지","category":"유통업 영리 - 기타유통업"}]},{"lat":"37.234217782","long":"127.2850908","items":[{"name":"마초족발","tel":"031-338-8880","addr":"경기도 용인시 처인구 양지면 양지리 586-1번지 2층","category":"일반휴게음식 - 일반한식"},{"name":"멋털도사","tel":"031-321-8772","addr":"경기도 용인시 처인구 양지면 양지리 586-1번지 2층","category":"보건위생 - 미용원"},{"name":"사랑방","tel":"","addr":"경기도 용인시 처인구 양지면 양지리 586-1번지 2층","category":"일반휴게음식 - 일반한식"},{"name":"씨유양지점","tel":"031-898-6568","addr":"경기도 용인시 처인구 양지면 양지리 586-1번지","category":"유통업 영리 - 편 의 점"},{"name":"안경이야기","tel":"031-336-8383","addr":"경기도 용인시 처인구 양지면 양지리 586-1번지","category":"보건위생 - 안경"},{"name":"야간포차불닭발","tel":"070-7450-4956","addr":"경기도 용인시 처인구 양지면 양지리 586-1번지 2층","category":"일반휴게음식 - 일반한식"}]},{"lat":"37.259186311","long":"127.29213915","items":[{"name":"만미정","tel":"031-323-2088","addr":"경기도 용인시 처인구 양지면 정수리 36-3번지","category":"일반휴게음식 - 일반한식"}]},{"lat":"37.245992489","long":"127.32131363","items":[{"name":"맛나한식뷔페","tel":"031-337-3976","addr":"경기도 용인시 처인구 양지면 제일리 49-2번지 A동","category":"일반휴게음식 - 일반한식"},{"name":"세븐일레븐용인중부대로점","tel":"031-1577-0711","addr":"경기도 용인시 처인구 양지면 제일리 49-2번지","category":"유통업 영리 - 편 의 점"}]},{"lat":"37.233884858","long":"127.2810891","items":[{"name":"맛뜨락","tel":"070-7190-0535","addr":"경기도 용인시 처인구 양지면 양지리 563-2번지 거농송암플러스마트 가동 1층","category":"일반휴게음식 - 일반한식"},{"name":"이모네식당","tel":"","addr":"경기도 용인시 처인구 양지면 양지리 563-2번지 거농송암플러스마트 가동 1층","category":"일반휴게음식 - 일반한식"},{"name":"장충왕족발","tel":"031-338-1601","addr":"경기도 용인시 처인구 양지면 양지리 563-2번지 외3필지","category":"음료식품 - 기타음료식품"},{"name":"크린랜드","tel":"031-338-6119","addr":"경기도 용인시 처인구 양지면 양지리 563-2번지","category":"수리서비스 - 세탁소"}]},{"lat":"37.226662582","long":"127.26348477","items":[{"name":"맛집신코다리네","tel":"031-333-8775","addr":"경기도 용인시 처인구 양지면 송문리 114-1번지","category":"일반휴게음식 - 일반한식"},{"name":"양지골","tel":"031-337-2717","addr":"경기도 용인시 처인구 양지면 송문리 114-1번지","category":"일반휴게음식 - 일반한식"}]},{"lat":"37.226023041","long":"127.29064906","items":[{"name":"맥엔피씨(Mac&피씨)","tel":"","addr":"경기도 용인시 처인구 양지면 남곡리 72-3번지 4층 301호","category":"수리서비스 - 사무·통신기기수리"}]},{"lat":"37.234135965","long":"127.28539476","items":[{"name":"맥주세일용인양지점","tel":"031-321-8989","addr":"경기도 용인시 처인구 양지면 양지리 469-2번지","category":"일반휴게음식 - 주점"},{"name":"본죽","tel":"031-334-6287","addr":"경기도 용인시 처인구 양지면 양지리 469-2번지 외1필지","category":"일반휴게음식 - 일반한식"},{"name":"양지신발","tel":"031-338-0038","addr":"경기도 용인시 처인구 양지면 양지리 469-2번지","category":"신변잡화 - 신발"},{"name":"홍가네순대","tel":"031-338-4559","addr":"경기도 용인시 처인구 양지면 양지리 469-2번지","category":"일반휴게음식 - 일반한식"}]},{"lat":"37.235748742","long":"127.28542332","items":[{"name":"맨투맨에듀케이션","tel":"070-7543-5963","addr":"경기도 용인시 처인구 양지면 양지리 464-2번지","category":"학원 - 외국어학원"},{"name":"배꼽시계","tel":"031-338-9894","addr":"경기도 용인시 처인구 양지면 양지리 464-2번지","category":"일반휴게음식 - 일반한식"},{"name":"복끄미","tel":"031-337-3863","addr":"경기도 용인시 처인구 양지면 양지리 464-2번지","category":"일반휴게음식 - 일반한식"},{"name":"피자어셈블양지점","tel":"031-333-0164","addr":"경기도 용인시 처인구 양지면 양지리 464-2번지 1층","category":"일반휴게음식 - 서양음식"}]},{"lat":"37.235778803","long":"127.28415001","items":[{"name":"맨투맨전문과외영어교습소","tel":"031-334-0405","addr":"경기도 용인시 처인구 양지면 양지리 598-13번지","category":"학원 - 외국어학원"},{"name":"아가페헤어라인","tel":"031-321-5604","addr":"경기도 용인시 처인구 양지면 양지리 598-13번지","category":"보건위생 - 미용원"},{"name":"크린슈즈운동화빨래방","tel":"031-335-8836","addr":"경기도 용인시 처인구 양지면 양지리 598-13번지 양지학원 1층 1호","category":"수리서비스 - 세탁소"},{"name":"퓨어스킨&바디","tel":"031-339-1205","addr":"경기도 용인시 처인구 양지면 양지리 598-13번지 양지학원 1층 2호","category":"보건위생 - 화장품"}]},{"lat":"37.233049204","long":"127.2877008","items":[{"name":"멀티전자","tel":"031-335-2286","addr":"경기도 용인시 처인구 양지면 양지리 483번지","category":"전기제품 - 가전제품"},{"name":"평창강올갱이해장국","tel":"031-322-8890","addr":"경기도 용인시 처인구 양지면 양지리 483번지 2228호","category":"일반휴게음식 - 일반한식"}]},{"lat":"37.226942381","long":"127.27133943","items":[{"name":"멍청이공업사","tel":"031-338-7306","addr":"경기도 용인시 처인구 양지면 남곡리255","category":"자동차정비 유지 - 자동차정비"}]},{"lat":"37.215780271","long":"127.3215584","items":[{"name":"메밀꽃필무렵","tel":"031-335-7431","addr":"경기도 용인시 처인구 양지면 평창리 646-15번지","category":"일반휴게음식 - 일반한식"}]},{"lat":"37.2285509","long":"127.31364558","items":[{"name":"메이드네트웍스 주식회사","tel":"031-323-4958","addr":"경기도 용인시 처인구 양지면 평창리 313-111번지 지하","category":"음료식품 - 기타음료식품"}]},{"lat":"37.261268878","long":"127.28034431","items":[{"name":"메이홍","tel":"031-339-0018","addr":"경기도 용인시 처인구 양지면 대대리 765번지 A동 1-2층","category":"일반휴게음식 - 중국식"}]},{"lat":"37.236107105","long":"127.28628111","items":[{"name":"멜리사","tel":"031-335-2820","addr":"경기도 용인시 처인구 양지면 양지리 453-3번지 1층","category":"보건위생 - 화장품"},{"name":"홍도","tel":"031-322-5373","addr":"경기도 용인시 처인구 양지면 양지리 453-3번지","category":"일반휴게음식 - 일반한식"}]},{"lat":"37.248942458","long":"127.2434312","items":[{"name":"명가","tel":"031-322-2157","addr":"경기도 용인시 처인구 양지면 주북리 933-1번지 1층","category":"음료식품 - 농·축·수산품"}]},{"lat":"37.22186245","long":"127.27836337","items":[{"name":"명가어찬","tel":"031-321-9757","addr":"경기도 용인시 처인구 양지면 남곡리611-2","category":"음료식품 - 농·축·수산품"}]},{"lat":"37.234914141","long":"127.27631481","items":[{"name":"명가한식뷔페","tel":"031-336-3797","addr":"경기도 용인시 처인구 양지면 양지리 693-3번지 1층일부","category":"일반휴게음식 - 일반한식"}]},{"lat":"37.2360801","long":"127.29001113","items":[{"name":"명도체육관","tel":"031-338-7826","addr":"경기도 용인시 처인구 양지면 437-2","category":"학원 - 예·체능계학원"}]},{"lat":"37.215500711","long":"127.32164735","items":[{"name":"명성공인중개사사무소","tel":"031-332-6689","addr":"경기도 용인시 처인구 양지면 평창리 646-11번지","category":"용역 서비스 - 부동산 중개·임대"}]},{"lat":"37.227529194","long":"127.30455943","items":[{"name":"명진농원","tel":"031-337-0515","addr":"경기도 용인시 처인구 양지면 제일리 308번지","category":"일반휴게음식 - 일반한식"}]},{"lat":"37.26043569","long":"127.24970163","items":[{"name":"명품손칼국수","tel":"031-322-4148","addr":"경기도 용인시 처인구 양지면 주북리 618-2번지","category":"일반휴게음식 - 일반한식"}]},{"lat":"37.248109805","long":"127.25389934","items":[{"name":"명품수산","tel":"031-761-0580","addr":"경기도 용인시 처인구 양지면 주북리 367-1","category":"음료식품 - 농·축·수산품"}]},{"lat":"37.234187488","long":"127.29019552","items":[{"name":"모모샵","tel":"031-335-7744","addr":"경기도 용인시 처인구 양지면 양지리 428번지 3호","category":"일반휴게음식 - 서양음식"},{"name":"투케이모션","tel":"031-334-3777","addr":"경기도 용인시 처인구 양지면 양지리 428번지 2층","category":"서적문구 - 출판 및 인쇄물"}]},{"lat":"37.227528992","long":"127.2709246","items":[{"name":"모비스낚시아울렛","tel":"031-338-7775","addr":"경기도 용인시 처인구 양지면 256-2번지 모비스낚시","category":"레져용품 - 스포츠·레져용품"},{"name":"푸드벨주식회사","tel":"031-338-5225","addr":"경기도 용인시 처인구 양지면 남곡리256-2","category":"일반휴게음식 - 일반한식"}]},{"lat":"37.228606786","long":"127.29156033","items":[{"name":"모텔발렌타인","tel":"031-321-1353","addr":"경기도 용인시 처인구 양지면 양지리 138-3번지","category":"숙박업 - 여관/기타숙박업"}]},{"lat":"37.216142618","long":"127.32083888","items":[{"name":"무봉리토종순대","tel":"031-322-4304","addr":"경기도 용인시 처인구 양지면 평창리 644-1번지 1층","category":"일반휴게음식 - 일반한식"}]},{"lat":"37.225826922","long":"127.29347651","items":[{"name":"무쏘양지점","tel":"031-338-1449","addr":"경기도 용인시 처인구 양지면 남곡리 90-3번지 1층","category":"일반휴게음식 - 일반한식"}]},{"lat":"37.262717841","long":"127.25701411","items":[{"name":"무지개농원","tel":"031-333-3362","addr":"경기도 용인시 처인구 양지면 대대리 333번지","category":"일반휴게음식 - 일반한식"}]},{"lat":"37.214248097","long":"127.29000724","items":[{"name":"문토스트","tel":"031-338-1101","addr":"경기도 용인시 처인구 양지면 남곡리 34-1번지 파인스키밸리 A동","category":"일반휴게음식 - 서양음식"},{"name":"양지파인리조트내(노래방,스크린골프장)위","tel":"031-333-5940","addr":"경기도 용인시 처인구 양지면 남곡리 34-1번지","category":"레저업소 - 노 래 방"},{"name":"조이푸드","tel":"","addr":"경기도 용인시 처인구 양지면 남곡리 34-1번지 양지파인리조트스키장내","category":"음료식품 - 기타음료식품"},{"name":"티지(TG)스포츠","tel":"031-329-8136","addr":"경기도 용인시 처인구 양지면 남곡리 34-1번지 양지파인리조트","category":"레져용품 - 스포츠·레져용품"}]},{"lat":"37.230778453","long":"127.3094178","items":[{"name":"물속나라","tel":"031-338-4014","addr":"경기도 용인시 처인구 양지면 제일리236-14","category":"문화.취미 - 수족관"}]},{"lat":"37.231057147","long":"127.28425643","items":[{"name":"미락","tel":"031-338-1101","addr":"경기도 용인시 처인구 양지면 남곡리 149번지 센텀빌 A동 102호","category":"음료식품 - 기타음료식품"}]},{"lat":"37.216245743","long":"127.3193409","items":[{"name":"미림","tel":"070-7728-2291","addr":"경기도 용인시 처인구 양지면 평창리 641-33번지 101호","category":"일반휴게음식 - 일반한식"},{"name":"세븐일레븐용인평창점","tel":"031-1577-0711","addr":"경기도 용인시 처인구 양지면 평창리 641-33번지","category":"유통업 영리 - 편 의 점"},{"name":"원영루","tel":"031-322-3455","addr":"경기도 용인시 처인구 양지면 평창리641-33","category":"일반휴게음식 - 중국식"}]},{"lat":"37.235688835","long":"127.28409333","items":[{"name":"미림세탁","tel":"031-338-3217","addr":"경기도 용인시 처인구 양지면 양지리 596-9번지","category":"수리서비스 - 세탁소"},{"name":"미림세탁소","tel":"031-338-3217","addr":"경기도 용인시 처인구 양지면 양지리 596-9번지","category":"수리서비스 - 세탁소"}]},{"lat":"37.230526587","long":"127.28381499","items":[{"name":"미성사이언스","tel":"","addr":"경기도 용인시 처인구 양지면 남곡리 152번지 센텀스몰시티 406동 201호","category":"서적문구 - 과학기자재"}]},{"lat":"37.227194709","long":"127.29784243","items":[{"name":"미소한근","tel":"031-339-1193","addr":"경기도 용인시 처인구 양지면 제일리 673-3번지 1층","category":"일반휴게음식 - 일반한식"},{"name":"보스스키샵","tel":"031-321-1575","addr":"경기도 용인시 처인구 양지면 제일리673-3","category":"레져용품 - 스포츠·레져용품"}]},{"lat":"37.235522679","long":"127.28576055","items":[{"name":"바나나헤어","tel":"031-338-3179","addr":"경기도 용인시 처인구 양지면 양지리456-8","category":"보건위생 - 미용원"}]},{"lat":"37.235914037","long":"127.28411671","items":[{"name":"바비인형","tel":"031-338-5614","addr":"경기도 용인시 처인구 양지면 양지리 598-11번지 1층 일부","category":"보건위생 - 미용원"},{"name":"오키도키","tel":"","addr":"경기도 용인시 처인구 양지면 양지리 598-11번지 1층","category":"일반휴게음식 - 스넥"},{"name":"옥스퍼드영어학원","tel":"031-338-7964","addr":"경기도 용인시 처인구 양지면 양지리 598-11번지 2층","category":"학원 - 외국어학원"}]},{"lat":"37.233858902","long":"127.28444714","items":[{"name":"바비하우스","tel":"031-636-1199","addr":"경기도 용인시 처인구 양지면 양지리 584-4번지","category":"의류 - 정장"}]},{"lat":"37.234305248","long":"127.28619549","items":[{"name":"바삭돌이","tel":"031-321-7006","addr":"경기도 용인시 처인구 양지면 양지리 447번지","category":"일반휴게음식 - 일반한식"},{"name":"우리집손만두","tel":"031-322-3332","addr":"경기도 용인시 처인구 양지면 양지리 447번지 상가","category":"일반휴게음식 - 일반한식"}]},{"lat":"37.2580536","long":"127.33252415","items":[{"name":"바우프로텍","tel":"031-336-7317","addr":"경기도 용인시 처인구 양지면 식금리 65-3번지","category":"건축자재 - 기타건축자재"}]},{"lat":"37.236106349","long":"127.28281019","items":[{"name":"바하피아노과외교습소","tel":"031-338-3743","addr":"경기도 용인시 처인구 양지면 양지리607-4","category":"학원 - 예·체능계학원"}]},{"lat":"37.216942205","long":"127.3183411","items":[{"name":"박가네옛날김치찌개","tel":"031-322-3233","addr":"경기도 용인시 처인구 양지면 평창리 653-29번지 1층","category":"일반휴게음식 - 일반한식"},{"name":"한상","tel":"031-321-8485","addr":"경기도 용인시 처인구 양지면 평창리 653-29번지","category":"일반휴게음식 - 일반한식"}]},{"lat":"37.23438401","long":"127.27955836","items":[{"name":"박광덕의 천하장사족발","tel":"070-8289-4190","addr":"경기도 용인시 처인구 양지면 양지리 636-2번지 1층","category":"일반휴게음식 - 일반한식"},{"name":"신화종합카써비스","tel":"031-338-9183","addr":"경기도 용인시 처인구 양지면 양지리 636-2번지","category":"자동차정비 유지 - 자동차정비"}]},{"lat":"37.230250319","long":"127.29005663","items":[{"name":"발리모텔","tel":"031-286-3777","addr":"경기도 용인시 처인구 양지면 양지리 493-13번지 발리모텔","category":"숙박업 - 여관/기타숙박업"}]},{"lat":"37.26093621","long":"127.25589211","items":[{"name":"밥내음술내음","tel":"031-336-0715","addr":"경기도 용인시 처인구 양지면 대대리 288번지 1층","category":"일반휴게음식 - 일반한식"},{"name":"용인골프랜드","tel":"031-322-7577","addr":"경기도 용인시 처인구 양지면 대대리 288번지","category":"레저업소 - 골프연습장"},{"name":"용인랜드","tel":"031-336-3838","addr":"경기도 용인시 처인구 양지면 대대리 288번지","category":"일반휴게음식 - 일반한식"}]},{"lat":"37.232747636","long":"127.2857051","items":[{"name":"배스킨라빈스 용인양지점","tel":"031-338-5334","addr":"경기도 용인시 처인구 양지면 남곡리 130-3번지 1층","category":"음료식품 - 제과점"},{"name":"한결축산","tel":"031-335-1006","addr":"경기도 용인시 처인구 양지면 남곡리 130-3번지","category":"음료식품 - 정육점"}]},{"lat":"37.234911123","long":"127.28147602","items":[{"name":"백옥환경산업","tel":"031-335-8288","addr":"경기도 용인시 처인구 양지면 양지리 631-4번지 3층(L.C.P.L)","category":"용역 서비스 - 종합용역"},{"name":"칼리피부관리실","tel":"031-321-6667","addr":"경기도 용인시 처인구 양지면 양지리631-4","category":"보건위생 - 화장품"}]},{"lat":"37.237192568","long":"127.29927878","items":[{"name":"백현가설산업 주식회사","tel":"031-338-4018","addr":"경기도 용인시 처인구 양지면 양지리 64번지","category":"건축자재 - 기타건축자재"}]},{"lat":"37.228551432","long":"127.29208971","items":[{"name":"베네치아모텔","tel":"031-338-2122","addr":"경기도 용인시 처인구 양지면 양지리 138-55번지","category":"숙박업 - 여관/기타숙박업"}]},{"lat":"37.268128666","long":"127.29042588","items":[{"name":"베리가든","tel":"031-332-3822","addr":"경기도 용인시 처인구 양지면 정수리 241-1번지","category":"음료식품 - 농·축·수산품"}]},{"lat":"37.230327372","long":"127.28423118","items":[{"name":"베리하우스베리키친","tel":"","addr":"경기도 용인시 처인구 양지면 남곡리 152-7번지 센텀스몰시티 402동 202호","category":"가구 - 일반가구"}]},{"lat":"37.226272858","long":"127.2953374","items":[{"name":"베스트","tel":"031-321-8733","addr":"경기도 용인시 처인구 양지면 남곡리 99-8번지 1층","category":"레져용품 - 스포츠·레져용품"},{"name":"세븐일레븐용인양지리조트점","tel":"031-1577-0711","addr":"경기도 용인시 처인구 양지면 남곡리 99-8번지 1층","category":"유통업 영리 - 편 의 점"},{"name":"제이앤제이카페앤바(J&Jcafe&bar)","tel":"031-0000-0000","addr":"경기도 용인시 처인구 양지면 남곡리 99-8번지","category":"일반휴게음식 - 서양음식"}]},{"lat":"37.239718938","long":"127.3188417","items":[{"name":"별상사","tel":"031-335-6267","addr":"경기도 용인시 처인구 양지면 제일리 13-7","category":"회원제형태 - 기타4"}]},{"lat":"37.245242185","long":"127.31886476","items":[{"name":"별헤는펜션","tel":"031-336-3296","addr":"경기도 용인시 처인구 양지면 제일리 54번지","category":"숙박업 - 여관/기타숙박업"}]},{"lat":"37.229750373","long":"127.32002835","items":[{"name":"보일러할인마트","tel":"031-321-3229","addr":"경기도 용인시 처인구 양지면 평창리 453-2번지","category":"수리서비스 - 기타수리서비스"}]},{"lat":"37.236944867","long":"127.28636314","items":[{"name":"봄카페","tel":"031-000-0000","addr":"경기도 용인시 처인구 양지면 양지리 372번지 1층","category":"일반휴게음식 - 서양음식"},{"name":"코네(KONE)","tel":"","addr":"경기도 용인시 처인구 양지면 양지리 372번지 302호","category":"신변잡화 - 기타잡화"}]},{"lat":"37.234053069","long":"127.28614947","items":[{"name":"봉구스밥버거 용인양지점","tel":"031-332-5949","addr":"경기도 용인시 처인구 양지면 양지리 477-2번지","category":"일반휴게음식 - 일반한식"},{"name":"서울식당","tel":"031-338-8832","addr":"경기도 용인시 처인구 양지면 양지리477-2","category":"일반휴게음식 - 일반한식"},{"name":"짱 노래연습장","tel":"031-338-0023","addr":"경기도 용인시 처인구 양지면 양지리 477-2번지 2층","category":"레저업소 - 노 래 방"},{"name":"피자스쿨용인양지점","tel":"031-323-0203","addr":"경기도 용인시 처인구 양지면 양지리 477-2번지 1층","category":"일반휴게음식 - 서양음식"}]},{"lat":"37.260161772","long":"127.24709672","items":[{"name":"봉다리 비니리","tel":"031-336-3371","addr":"경기도 용인시 처인구 양지면 주북리 653-1번지","category":"유통업 영리 - 기타유통업"}]},{"lat":"37.244132096","long":"127.31954762","items":[{"name":"봉평전통막국수","tel":"031-338-2390","addr":"경기도 용인시 처인구 양지면 제일리 51번지 B동 1층","category":"일반휴게음식 - 일반한식"}]},{"lat":"37.235526597","long":"127.28411527","items":[{"name":"봉피자","tel":"031-338-1414","addr":"경기도 용인시 처인구 양지면 양지리 596-4번지 2층","category":"일반휴게음식 - 서양음식"}]},{"lat":"37.226272695","long":"127.29173171","items":[{"name":"부영설비공사","tel":"031-338-9822","addr":"경기도 용인시 처인구 양지면 남곡리 116-1번지","category":"용역 서비스 - 기타용역서비스"}]},{"lat":"37.255798183","long":"127.23950774","items":[{"name":"부지깽이","tel":"031-333-3001","addr":"경기도 용인시 처인구 양지면 주북리 715-1번지 정석빌딩 101호","category":"일반휴게음식 - 일반한식"},{"name":"짱2노래연습장","tel":"031-338-1101","addr":"경기도 용인시 처인구 양지면 주북리 715-1번지 정석빌딩 202호","category":"레저업소 - 노 래 방"},{"name":"짱노래연습장","tel":"031-322-5755","addr":"경기도 용인시 처인구 양지면 주북리 715-1번지 정석빌딩 201호","category":"레저업소 - 노 래 방"},{"name":"한금돌판오리구이","tel":"031-339-6120","addr":"경기도 용인시 처인구 양지면 주북리 715-1번지","category":"일반휴게음식 - 일반한식"}]},{"lat":"37.2286663","long":"127.30028207","items":[{"name":"북새통","tel":"031-323-7300","addr":"경기도 용인시 처인구 양지면 제일리 663-5 외4필지 경성상가 101~102호","category":"신변잡화 - 기타잡화"}]},{"lat":"37.224969814","long":"127.25881417","items":[{"name":"블루모텔","tel":"031-336-5958","addr":"경기도 용인시 처인구 양지면 송문리 153-2번지","category":"숙박업 - 여관/기타숙박업"}]},{"lat":"37.240054568","long":"127.31799787","items":[{"name":"블루밍팜","tel":"031-321-7163","addr":"경기도 용인시 처인구 양지면 제일리 134-5번지","category":"음료식품 - 농·축·수산품"}]},{"lat":"37.230554018","long":"127.28364606","items":[{"name":"블루앤트","tel":"070-4249-6274","addr":"경기도 용인시 처인구 양지면 남곡리 152-11번지 A동 302호","category":"학원 - 보습학원"},{"name":"엘에이(LA)김밥,한식뷔페","tel":"031-321-5253","addr":"경기도 용인시 처인구 양지면 남곡리 152-11번지 201호","category":"일반휴게음식 - 일반한식"}]},{"lat":"37.245077993","long":"127.27228285","items":[{"name":"비엠비코리아","tel":"031-332-3367","addr":"경기도 용인시 처인구 양지면 주북리 35-1번지 외3필지","category":"주방용구 - 주방용구"}]},{"lat":"37.24905146","long":"127.25172712","items":[{"name":"빅베어마린","tel":"","addr":"경기도 용인시 처인구 양지면 주북리 361번지","category":"레져용품 - 스포츠·레져용품"}]},{"lat":"37.235350527","long":"127.2823679","items":[{"name":"빛나리 홈케어","tel":"","addr":"경기도 용인시 처인구 양지면 양지리 619-6번지 달빛마을 다동 203호","category":"용역 서비스 - 종합용역"}]},{"lat":"37.230688904","long":"127.28375925","items":[{"name":"사랑샘피아노학원","tel":"031-338-4520","addr":"경기도 용인시 처인구 양지면 남곡리 152-12번지 2층","category":"학원 - 예·체능계학원"},{"name":"코모도01","tel":"111-1111-111","addr":"경기도 용인시 처인구 양지면 남곡리 152-12번지 1층","category":"일반휴게음식 - 일반한식"}]},{"lat":"37.235133617","long":"127.28264883","items":[{"name":"사랑이네","tel":"031-332-7785","addr":"경기도 용인시 처인구 양지면 양지리 619-12번지","category":"일반휴게음식 - 일반한식"},{"name":"양지한국보습학원","tel":"031-322-4222","addr":"경기도 용인시 처인구 양지면 양지리 619-12번지 2층","category":"학원 - 보습학원"}]},{"lat":"37.2513301","long":"127.26875458","items":[{"name":"사회복지법인즐거운우리집","tel":"031-335-9911","addr":"경기도 용인시 처인구 양지면 주북리 70번지","category":"기타의료기관 - 기타의료기관 및 기타"},{"name":"즐거운우리집","tel":"031-335-9910","addr":"경기도 용인시 처인구 양지면 주북리 70번지","category":"기타의료기관 - 기타의료기관 및 기타"}]},{"lat":"37.236468471","long":"127.29697701","items":[{"name":"산너머남촌","tel":"031-338-5005","addr":"경기도 용인시 처인구 양지면 양지리 93","category":"일반휴게음식 - 일반한식"}]},{"lat":"37.230552014","long":"127.28825483","items":[{"name":"산마루","tel":"031-338-5775","addr":"경기도 용인시 처인구 양지면 남곡리 124-3번지","category":"일반휴게음식 - 일반한식"}]},{"lat":"37.228694935","long":"127.30675009","items":[{"name":"산매동식당","tel":"031-336-6470","addr":"경기도 용인시 처인구 양지면 제일리 340-3번지","category":"일반휴게음식 - 일반한식"}]},{"lat":"37.226108043","long":"127.32083564","items":[{"name":"산장하담","tel":"031-336-4759","addr":"경기도 용인시 처인구 양지면 평창리 423-28","category":"일반휴게음식 - 일반한식"}]},{"lat":"37.234994378","long":"127.28437248","items":[{"name":"살롱드헤어에이드","tel":"031-337-1230","addr":"경기도 용인시 처인구 양지면 양지리 593-1번지","category":"보건위생 - 미용원"}]},{"lat":"37.228465497","long":"127.27117581","items":[{"name":"삼부콘테이너","tel":"031-321-9581","addr":"경기도 용인시 처인구 양지면 양지리 788-2","category":"건축자재 - 기타건축자재"}]},{"lat":"37.241130631","long":"127.25209553","items":[{"name":"새롬테크","tel":"031-336-2511","addr":"경기도 용인시 처인구 양지면 주북리 449번지","category":"용역 서비스 - 종합용역"}]},{"lat":"37.225828771","long":"127.25320575","items":[{"name":"새벽을여는사람들","tel":"031-321-1952","addr":"경기도 용인시 처인구 양지면 송문리 508-7번지 쌍용자동차전문점","category":"자동차정비 유지 - 자동차정비"},{"name":"타이어아울렛","tel":"031-322-7782","addr":"경기도 용인시 처인구 양지면 송문리 508-7번지","category":"자동차정비 유지 - 자동차시트·타이어"}]},{"lat":"37.224356677","long":"127.31189318","items":[{"name":"샐러드림","tel":"031-335-7827","addr":"경기도 용인시 처인구 양지면 평창리 325번지","category":"음료식품 - 기타음료식품"}]},{"lat":"37.217249662","long":"127.31792553","items":[{"name":"생태랑동태랑","tel":"031-321-0807","addr":"경기도 용인시 처인구 양지면 평창리 653-3번지 C동 1층","category":"일반휴게음식 - 일반한식"}]},{"lat":"37.239935892","long":"127.25884221","items":[{"name":"샬롬푸드","tel":"","addr":"경기도 용인시 처인구 양지면 주북리 201번지 2층","category":"일반휴게음식 - 위탁급식업"}]},{"lat":"37.233416596","long":"127.28478356","items":[{"name":"샹그리아","tel":"031-322-6760","addr":"경기도 용인시 처인구 양지면 양지리 581-3","category":"숙박업 - 여관/기타숙박업"}]},{"lat":"37.23135617","long":"127.29836572","items":[{"name":"서울건재","tel":"031-337-0077","addr":"경기도 용인시 처인구 양지면 양지리 121-2번지","category":"건축자재 - 목재·석재·철물"}]},{"lat":"37.224801153","long":"127.27778815","items":[{"name":"서울우유양자대리점","tel":"031-321-6565","addr":"경기도 용인시 처인구 양지면 남곡리 341-16번지 E동 1층 102호","category":"음료식품 - 기타음료식품"}]},{"lat":"37.228334505","long":"127.29964976","items":[{"name":"서울회관","tel":"031-338-3655","addr":"경기도 용인시 처인구 양지면 제일리 663-7번지","category":"일반휴게음식 - 일반한식"}]},{"lat":"37.240188596","long":"127.29009433","items":[{"name":"석송령","tel":"031-338-4242","addr":"경기도 용인시 처인구 양지면 양지리 391-10번지","category":"일반휴게음식 - 일반한식"}]},{"lat":"37.237969167","long":"127.28756154","items":[{"name":"선민특송","tel":"031-322-8283","addr":"경기도 용인시 처인구 양지면 양지리 383-6번지 양지빌라2차 203호","category":"자동차정비 유지 - 견인서비스"}]},{"lat":"37.224833018","long":"127.25111796","items":[{"name":"선스톤조경","tel":"031-336-6889","addr":"경기도 용인시 처인구 양지면 송문리 429-7번지","category":"건축자재 - 기타건축자재"}]},{"lat":"37.23257851","long":"127.28483678","items":[{"name":"선조형테크","tel":"031-321-8345","addr":"경기도 용인시 처인구 양지면 양지리502-4","category":"건축자재 - 인테리어전문"}]},{"lat":"37.232104862","long":"127.28697606","items":[{"name":"설이봉설렁탕 양지점","tel":"031-321-2500","addr":"경기도 용인시 처인구 양지면 남곡리 128-9번지","category":"일반휴게음식 - 일반한식"}]},{"lat":"37.234637521","long":"127.28287237","items":[{"name":"성민전기조명","tel":"031-338-8881","addr":"경기도 용인시 처인구 양지면 양지리 629-2번지","category":"건축자재 - 조명기구"},{"name":"양지내과의원","tel":"031-336-7579","addr":"경기도 용인시 처인구 양지면 양지리 629-2번지","category":"의원 - 의원"},{"name":"월드당구장","tel":"031-321-5628","addr":"경기도 용인시 처인구 양지면 양지리 629-2","category":"레저업소 - 당 구 장"},{"name":"홀인원노래연습장","tel":"031-321-2342","addr":"경기도 용인시 처인구 양지면 양지리 629-2번지","category":"레저업소 - 노 래 방"}]},{"lat":"37.249213069","long":"127.23423477","items":[{"name":"성주리 된장","tel":"031-334-0187","addr":"경기도 용인시 처인구 양지면 주북리 1117 9/6","category":"음료식품 - 기타음료식품"}]},{"lat":"37.236131806","long":"127.28347517","items":[{"name":"성지미술학원","tel":"031-321-3962","addr":"경기도 용인시 처인구 양지면 605-4번지","category":"학원 - 예·체능계학원"}]},{"lat":"37.250356887","long":"127.32669715","items":[{"name":"성진프라스틱","tel":"031-333-3682","addr":"경기도 용인시 처인구 양지면 추계리 121-3","category":"유통업 영리 - 기타유통업"}]},{"lat":"37.234468536","long":"127.28573407","items":[{"name":"세기건재","tel":"031-338-3391","addr":"경기도 용인시 처인구 양지면 양지리 467-2번지","category":"건축자재 - 기타건축자재"},{"name":"양지DC마트","tel":"031-337-2248","addr":"경기도 용인시 처인구 양지면 양지리467-2","category":"유통업 영리 - 슈퍼마켓"}]},{"lat":"37.234108611","long":"127.28552988","items":[{"name":"세기전기","tel":"031-338-6815","addr":"경기도 용인시 처인구 양지면 양지리 469-1","category":"전기제품 - 기타전기제품"}]},{"lat":"37.23930434","long":"127.28309249","items":[{"name":"세노텍","tel":"070-4792-7586","addr":"경기도 용인시 처인구 양지면 양지리 337-4번지","category":"용역 서비스 - 사무서비스"}]},{"lat":"37.228580084","long":"127.29142501","items":[{"name":"세림","tel":"031-321-3788","addr":"경기도 용인시 처인구 양지면 양지리 138-34번지 (2호)","category":"자동차정비 유지 - 자동차부품"},{"name":"세림건재","tel":"031-321-3788","addr":"경기도 용인시 처인구 양지면 양지리 138-34번지 (1호)","category":"건축자재 - 목재·석재·철물"}]},{"lat":"37.232689543","long":"127.29842727","items":[{"name":"세븐일레븐양지IC점","tel":"","addr":"경기도 용인시 처인구 양지면 양지리 118","category":"유통업 영리 - 편 의 점"},{"name":"세븐일레븐양지IC점","tel":"031-338-5106","addr":"경기도 용인시 처인구 양지면 양지리 118","category":"유통업 영리 - 편 의 점"}]},{"lat":"37.230105746","long":"127.28269786","items":[{"name":"세븐일레븐용인남곡점","tel":"","addr":"경기도 용인시 처인구 양지면 남곡리 160-10번지 1층","category":"유통업 영리 - 편 의 점"}]},{"lat":"37.234221798","long":"127.28340048","items":[{"name":"세븐일레븐용인양지본점","tel":"","addr":"경기도 용인시 처인구 양지면 양지리 569-1번지","category":"유통업 영리 - 편 의 점"},{"name":"양지한의원","tel":"031-339-7567","addr":"경기도 용인시 처인구 양지면 양지리 569-1번지","category":"의원 - 한의원"}]},{"lat":"37.228579248","long":"127.29906478","items":[{"name":"세븐일레븐용인양지제일점","tel":"031-1577-0711","addr":"경기도 용인시 처인구 양지면 제일리 662-8번지","category":"유통업 영리 - 편 의 점"},{"name":"스키114","tel":"031-338-1101","addr":"경기도 용인시 처인구 양지면 제일리 662-8번지","category":"레져용품 - 스포츠·레져용품"}]},{"lat":"37.236216224","long":"127.28586456","items":[{"name":"세븐일레븐용인양지타운점","tel":"031-1577-0711","addr":"경기도 용인시 처인구 양지면 양지리 460-10번지","category":"유통업 영리 - 편 의 점"},{"name":"태후사랑","tel":"070-7582-7510","addr":"경기도 용인시 처인구 양지면 양지리 460-10번지 1층","category":"보건위생 - 미용원"},{"name":"피아체음악학원","tel":"031-321-4579","addr":"경기도 용인시 처인구 양지면 양지리 460-10번지 2층","category":"학원 - 예·체능계학원"}]},{"lat":"37.24913234","long":"127.23861901","items":[{"name":"세븐일레븐용인주북로점","tel":"031-1577-0711","addr":"경기도 용인시 처인구 양지면 주북리 886-2번지","category":"유통업 영리 - 편 의 점"}]},{"lat":"37.232637223","long":"127.2977284","items":[{"name":"세븐일레븐용인죽양대로점","tel":"","addr":"경기도 용인시 처인구 양지면 양지리 117번지 한국부동산","category":"유통업 영리 - 편 의 점"}]},{"lat":"37.238581948","long":"127.31608718","items":[{"name":"세븐틴레인","tel":"031-339-7912","addr":"경기도 용인시 처인구 양지면 제일리 118-3번지 1층","category":"일반휴게음식 - 서양음식"}]},{"lat":"37.231882331","long":"127.2858371","items":[{"name":"세화카에이전트","tel":"031-338-5949","addr":"경기도 용인시 처인구 양지면 남곡리 135","category":"자동차정비 유지 - 자동차정비"}]},{"lat":"37.248101903","long":"127.26175521","items":[{"name":"셈","tel":"031-335-8253","addr":"경기도 용인시 처인구 양지면 주북리 308-1번지 1층","category":"가구 - 일반가구"}]},{"lat":"37.218522492","long":"127.31361571","items":[{"name":"소나무별장","tel":"031-332-9034","addr":"경기도 용인시 처인구 양지면 평창리681-20","category":"숙박업 - 여관/기타숙박업"}]},{"lat":"37.218357969","long":"127.3145051","items":[{"name":"소나무숲","tel":"02-1111-1111","addr":"경기도 용인시 처인구 양지면 평창리 666-4번지","category":"일반휴게음식 - 일반한식"},{"name":"소나무숲","tel":"031-336-3390","addr":"경기도 용인시 처인구 양지면 평창리666-4","category":"일반휴게음식 - 일반한식"}]},{"lat":"37.217502442","long":"127.31433258","items":[{"name":"소나무숲","tel":"031-332-3931","addr":"경기도 용인시 처인구 양지면 평창리 663-1번지","category":"숙박업 - 여관/기타숙박업"}]},{"lat":"37.225222792","long":"127.25428544","items":[{"name":"속초코다리막국수&국밥","tel":"031-321-5909","addr":"경기도 용인시 처인구 양지면 송문리 418-1번지 1층","category":"일반휴게음식 - 일반한식"}]},{"lat":"37.22991671","long":"127.31847402","items":[{"name":"솔이엔지(Sol ENG)","tel":"031-338-2225","addr":"경기도 용인시 처인구 양지면 평창리 249-5번지","category":"용역 서비스 - 기타용역서비스"}]},{"lat":"37.218142613","long":"127.31416621","items":[{"name":"솔체","tel":"031-334-9788","addr":"경기도 용인시 처인구 양지면 평창리666-5","category":"일반휴게음식 - 칵테일바"},{"name":"솔체","tel":"031-334-9788","addr":"경기도 용인시 처인구 양지면 평창리666-5","category":"숙박업 - 여관/기타숙박업"}]},{"lat":"37.241772254","long":"127.25545613","items":[{"name":"송다영농조합법인","tel":"031-338-4677","addr":"경기도 용인시 처인구 양지면 주북리 470-1","category":"음료식품 - 기타음료식품"}]},{"lat":"37.225661018","long":"127.26001088","items":[{"name":"송문한우도매센터","tel":"031-323-1259","addr":"경기도 용인시 처인구 양지면 송문리 139-1번지","category":"음료식품 - 정육점"}]},{"lat":"37.234942963","long":"127.28325665","items":[{"name":"송죽","tel":"031-338-3775","addr":"경기도 용인시 처인구 양지면 양지리 627-7번지","category":"일반휴게음식 - 일반한식"},{"name":"수피부","tel":"031-323-2102","addr":"경기도 용인시 처인구 양지면 양지리 627-7번지","category":"회원제형태 - 기타4"}]},{"lat":"37.235132445","long":"127.28314466","items":[{"name":"솥뚜껑삼겹살","tel":"031-332-5532","addr":"경기도 용인시 처인구 양지면 양지리 626-3번지 중앙하이츠빌라 102호","category":"일반휴게음식 - 일반한식"},{"name":"제육우렁쌈밥","tel":"031-323-2385","addr":"경기도 용인시 처인구 양지면 양지리 626-3번지 중앙하이츠빌라","category":"일반휴게음식 - 일반한식"}]},{"lat":"37.246573848","long":"127.26005936","items":[{"name":"수 F&B","tel":"","addr":"경기도 용인시 처인구 양지면 주북리 273-1번지","category":"음료식품 - 정육점"},{"name":"진일유통","tel":"031-322-8301","addr":"경기도 용인시 처인구 양지면 주북리 273-1","category":"음료식품 - 기타음료식품"}]},{"lat":"37.233334188","long":"127.28533542","items":[{"name":"수누리","tel":"031-336-9024","addr":"경기도 용인시 처인구 양지면 양지리 471-8","category":"일반휴게음식 - 일반한식"}]},{"lat":"37.249994022","long":"127.23573624","items":[{"name":"숙이손만두","tel":"031-335-6500","addr":"경기도 용인시 처인구 양지면 주북리 859-4번지","category":"일반휴게음식 - 스넥"}]},{"lat":"37.226245851","long":"127.30253739","items":[{"name":"숲벌레","tel":"031-338-9780","addr":"경기도 용인시 처인구 양지면 제일리 291-1번지","category":"학원 - 기타 교육기관"}]},{"lat":"37.250717253","long":"127.26067083","items":[{"name":"숲속향기캠핑장","tel":"070-7018-5392","addr":"경기도 용인시 처인구 양지면 주북리 318-1번지","category":"숙박업 - 여관/기타숙박업"}]},{"lat":"37.229861804","long":"127.28297867","items":[{"name":"슈브헤어","tel":"","addr":"경기도 용인시 처인구 양지면 남곡리 156-15번지 센텀스몰시티 210동 101호","category":"보건위생 - 미용원"}]},{"lat":"37.231945133","long":"127.28595002","items":[{"name":"스마일 찰진 꽈배기","tel":"031-338-1101","addr":"경기도 용인시 처인구 양지면 남곡리 135-1번지 1층 102호","category":"일반휴게음식 - 일반한식"}]},{"lat":"37.227383166","long":"127.2981474","items":[{"name":"스카이스키샵","tel":"031-339-5285","addr":"경기도 용인시 처인구 양지면 제일리 674-4번지","category":"레져용품 - 스포츠·레져용품"}]},{"lat":"37.235276528","long":"127.283179","items":[{"name":"스타일번","tel":"","addr":"경기도 용인시 처인구 양지면 양지리 625-4번지 탑스빌 203호","category":"보건위생 - 안경"}]},{"lat":"37.228028583","long":"127.30658966","items":[{"name":"스튜디오 가족","tel":"031-323-1225","addr":"경기도 용인시 처인구 양지면 제일리 331-5번지 2층","category":"광학제품 - 사진관"},{"name":"오케이다이어트도시락&카페","tel":"","addr":"경기도 용인시 처인구 양지면 제일리 331-5번지 1층","category":"일반휴게음식 - 서양음식"},{"name":"오케이의원","tel":"031-212-2171","addr":"경기도 용인시 처인구 양지면 제일리 331-5번지 4층","category":"의원 - 의원"}]},{"lat":"37.247047928","long":"127.26165017","items":[{"name":"스포츠 팩토리","tel":"031-333-5311","addr":"경기도 용인시 처인구 양지면 주북리 278번지","category":"레져용품 - 스포츠·레져용품"}]},{"lat":"37.224833944","long":"127.26734325","items":[{"name":"스피드메이트용인양지점","tel":"031-339-8775","addr":"경기도 용인시 처인구 양지면 남곡리 286번지 1층","category":"자동차정비 유지 - 자동차정비"}]},{"lat":"37.217888933","long":"127.3146947","items":[{"name":"시골밥상","tel":"031-323-2232","addr":"경기도 용인시 처인구 양지면 평창리 664번지","category":"일반휴게음식 - 일반한식"},{"name":"약수고을","tel":"031-335-2433","addr":"경기도 용인시 처인구 양지면 평창리664","category":"숙박업 - 여관/기타숙박업"}]},{"lat":"37.23372348","long":"127.28455932","items":[{"name":"식객포차","tel":"031-321-9134","addr":"경기도 용인시 처인구 양지면 양지리 868-7번지","category":"일반휴게음식 - 일반한식"}]},{"lat":"37.258185049","long":"127.24439621","items":[{"name":"신갈콘크리트","tel":"031-339-6689","addr":"경기도 용인시 처인구 양지면 주북리 731","category":"건축자재 - 기타건축자재"}]},{"lat":"37.234938332","long":"127.28520618","items":[{"name":"신기상회","tel":"031-338-3983","addr":"경기도 용인시 처인구 양지면 양지리 907번지 양지마을신원아침도시 상가동 1층","category":"유통업 영리 - 슈퍼마켓"},{"name":"신원세탁소","tel":"031-321-5972","addr":"경기도 용인시 처인구 양지면 양지리 907번지 양지마을신원아침도시 상가동 101호","category":"수리서비스 - 세탁소"},{"name":"쌤스수학교습소","tel":"031-323-4756","addr":"경기도 용인시 처인구 양지면 양지리 907번지 양지마을신원아침도시 상가동 2층 201호","category":"학원 - 보습학원"},{"name":"양지주점","tel":"031-335-6226","addr":"경기도 용인시 처인구 양지면 양지리 907번지 신원아침도시 상가동 103호","category":"일반휴게음식 - 스넥"},{"name":"포이버스학원","tel":"031-323-4208","addr":"경기도 용인시 처인구 양지면 양지리 907번지 양지마을신원아침도시 상가동 2층","category":"학원 - 보습학원"}]},{"lat":"37.227331306","long":"127.2584503","items":[{"name":"신성","tel":"","addr":"경기도 용인시 처인구 양지면 송문리 80-3번지","category":"건축자재 - 기타건축자재"}]},{"lat":"37.249552631","long":"127.23567853","items":[{"name":"신원파이프","tel":"031-333-4774","addr":"경기도 용인시 처인구 양지면 주북리 856-10","category":"기타 - 기타 전문점"}]},{"lat":"37.231557469","long":"127.3181428","items":[{"name":"신일콤프레샤","tel":"031-321-0652","addr":"경기도 용인시 처인구 양지면 평창리 243번지","category":"기타 - 기계공구"}]},{"lat":"37.246523445","long":"127.25836858","items":[{"name":"신진모터스","tel":"031-333-0036","addr":"경기도 용인시 처인구 양지면 주북리 284-2번지","category":"자동차정비 유지 - 자동차시트·타이어"}]},{"lat":"37.234137549","long":"127.2847299","items":[{"name":"신통치킨","tel":"031-338-1101","addr":"경기도 용인시 처인구 양지면 양지리 584-1번지 1층","category":"일반휴게음식 - 스넥"},{"name":"처인양꼬치","tel":"031-338-1101","addr":"경기도 용인시 처인구 양지면 양지리 584-1번지","category":"일반휴게음식 - 일반한식"},{"name":"한곡조노래연습장","tel":"031-338-6550","addr":"경기도 용인시 처인구 양지면 양지리 584-1번지 DragonEyes","category":"레저업소 - 노 래 방"}]},{"lat":"37.23469005","long":"127.29470503","items":[{"name":"신형자원","tel":"031-323-2159","addr":"경기도 용인시 처인구 양지면 양지리 175-3번지 외","category":"신변잡화 - 기타잡화"}]},{"lat":"37.230854032","long":"127.28630653","items":[{"name":"씨앤비","tel":"070-4763-5091","addr":"경기도 용인시 처인구 양지면 남곡리 140-2번지 베네하우스 C동 401호","category":"레져용품 - 골프용품 전문점"}]},{"lat":"37.233553994","long":"127.28761255","items":[{"name":"씨유양지대로점","tel":"031-898-6877","addr":"경기도 용인시 처인구 양지면 양지리 482-2번지 1층","category":"유통업 영리 - 편 의 점"}]},{"lat":"37.227523853","long":"127.29225481","items":[{"name":"씨유양지파인점","tel":"031-323-3880","addr":"경기도 용인시 처인구 양지면 남곡리 118번지 1층","category":"유통업 영리 - 편 의 점"}]},{"lat":"37.217113939","long":"127.31813902","items":[{"name":"씨유양지휴게소점","tel":"080-080-3663","addr":"경기도 용인시 처인구 양지면 평창리 653-28번지 B동 1호","category":"유통업 영리 - 편 의 점"},{"name":"장수토종해장국","tel":"031-336-3255","addr":"경기도 용인시 처인구 양지면 평창리 653-28번지 1층 일부","category":"일반휴게음식 - 일반한식"},{"name":"형님짬뽕","tel":"031-332-0888","addr":"경기도 용인시 처인구 양지면 평창리 653-28번지","category":"일반휴게음식 - 중국식"}]},{"lat":"37.216078729","long":"127.3211428","items":[{"name":"씨유용인지산휴게소점","tel":"031-332-5866","addr":"경기도 용인시 처인구 양지면 평창리 645-2번지 1층","category":"유통업 영리 - 편 의 점"}]},{"lat":"37.260858017","long":"127.25025539","items":[{"name":"씨유용인한터점","tel":"031-239-6695","addr":"경기도 용인시 처인구 양지면 주북리 617번지 B동 1층","category":"유통업 영리 - 편 의 점"},{"name":"엘엔비(LNB)","tel":"031-338-7585","addr":"경기도 용인시 처인구 양지면 주북리 617","category":"건축자재 - 인테리어전문"}]},{"lat":"37.233858634","long":"127.28455983","items":[{"name":"아랑이","tel":"","addr":"경기도 용인시 처인구 양지면 양지리 584-5번지","category":"일반휴게음식 - 일반한식"},{"name":"왕서방치킨피자","tel":"031-336-9959","addr":"경기도 용인시 처인구 양지면 양지리 584-5번지","category":"일반휴게음식 - 스넥"}]},{"lat":"37.230131658","long":"127.28317123","items":[{"name":"아르티장 (artisan)","tel":"031-1833-6526","addr":"경기도 용인시 처인구 양지면 남곡리 156-5번지 상가 B동","category":"전기제품 - 냉열기기"}]},{"lat":"37.261102602","long":"127.33125232","items":[{"name":"아모스","tel":"031-8999-1798","addr":"경기도 용인시 처인구 양지면 식금리 82-2번지","category":"일반휴게음식 - 일반한식"}]},{"lat":"37.233915004","long":"127.27975948","items":[{"name":"아삭아삭청과","tel":"031-321-3897","addr":"경기도 용인시 처인구 양지면 양지리 637-4번지 1층","category":"음료식품 - 농·축·수산품"},{"name":"진가네추어탕","tel":"031-321-4811","addr":"경기도 용인시 처인구 양지면 양지리 637-4번지","category":"일반휴게음식 - 일반한식"}]},{"lat":"37.25388174","long":"127.25562054","items":[{"name":"아시아렌탈","tel":"031-322-8850","addr":"경기도 용인시 처인구 양지면 주북리 337-2번지 하단","category":"수리서비스 - 기타수리서비스"}]},{"lat":"37.235576607","long":"127.28201939","items":[{"name":"아이멘토","tel":"","addr":"경기도 용인시 처인구 양지면 양지리 619-2번지 은빛마을 다동 401호","category":"학원 - 기타 교육기관"}]},{"lat":"37.233166889","long":"127.30914575","items":[{"name":"아이엠에스(IMS)","tel":"031-334-2955","addr":"경기도 용인시 처인구 양지면 402번지 301호","category":"기타 - 기타 전문점"}]},{"lat":"37.212606944","long":"127.27917465","items":[{"name":"아침유통","tel":"","addr":"경기도 용인시 처인구 양지면 남곡리 721-5번지","category":"음료식품 - 기타음료식품"}]},{"lat":"37.234274015","long":"127.28417823","items":[{"name":"알파문구 용인양지점","tel":"031-338-3541","addr":"경기도 용인시 처인구 양지면 양지리 575-4번지 양지치과의원 102호","category":"서적문구 - 문구용품"},{"name":"양지지업사","tel":"031-338-6036","addr":"경기도 용인시 처인구 양지면 양지리 575-4번지","category":"직물 - 카페트,커튼,천막,지물"},{"name":"양지치과의원","tel":"031-338-2875","addr":"경기도 용인시 처인구 양지면 양지리 575-4번지","category":"의원 - 치과의원"},{"name":"엑스피엘 태권도","tel":"031-321-9546","addr":"경기도 용인시 처인구 양지면 양지리 575-4번지","category":"학원 - 예·체능계학원"},{"name":"이마트24 양지중앙점","tel":"031-000-0000","addr":"경기도 용인시 처인구 양지면 양지리 575-4번지 양지치과의원 1층 104호","category":"유통업 영리 - 편 의 점"},{"name":"주당","tel":"031-338-1101","addr":"경기도 용인시 처인구 양지면 양지리 575-4번지","category":"일반휴게음식 - 일반한식"},{"name":"한솥도시락","tel":"031-332-8118","addr":"경기도 용인시 처인구 양지면 양지리 575-4번지 위지상건물 101호","category":"일반휴게음식 - 스넥"}]},{"lat":"37.242276296","long":"127.30564377","items":[{"name":"압구정함소아한의원원외탕전원","tel":"02-2176-2107","addr":"경기도 용인시 처인구 양지면 제일리574-10,574-4","category":"약국 - 한약방"}]},{"lat":"37.232527073","long":"127.28373226","items":[{"name":"애니카랜드 양지점","tel":"031-322-1900","addr":"경기도 용인시 처인구 양지면 양지리 502-9번지","category":"자동차정비 유지 - 자동차정비"},{"name":"원오토","tel":"031-000-0000","addr":"경기도 용인시 처인구 양지면 양지리 502-9번지","category":"자동차정비 유지 - 자동차부품"},{"name":"유로라인 오토모티브","tel":"031-321-4568","addr":"경기도 용인시 처인구 양지면 양지리 502-9번지 2층","category":"자동차정비 유지 - 자동차부품"},{"name":"홍재자동차","tel":"031-322-1900","addr":"경기도 용인시 처인구 양지면 양지리 502-9번지","category":"자동차정비 유지 - 세차장"},{"name":"홍재자동차","tel":"031-322-1900","addr":"경기도 용인시 처인구 양지면 양지리 502-9번지","category":"자동차정비 유지 - 세차장"}]},{"lat":"37.235665604","long":"127.28627946","items":[{"name":"야간열차","tel":"031-332-3634","addr":"경기도 용인시 처인구 양지면 양지리 454-2번지 외2필지 지하","category":"일반휴게음식 - 주점"},{"name":"해마루","tel":"031-322-5811","addr":"경기도 용인시 처인구 양지면 양지리 454-2번지 세신빌딩 1층","category":"일반휴게음식 - 일반한식"}]},{"lat":"37.225913208","long":"127.31275588","items":[{"name":"약산흑염소","tel":"031-338-5155","addr":"경기도 용인시 처인구 양지면 평창리 319번지 1,2층","category":"일반휴게음식 - 일반한식"}]},{"lat":"37.233887968","long":"127.28736589","items":[{"name":"양지     양꼬치","tel":"031-333-3332","addr":"경기도 용인시 처인구 양지면 양지리 478-3번지 1층","category":"일반휴게음식 - 중국식"},{"name":"월드프랩 보습학원","tel":"031-338-8302","addr":"경기도 용인시 처인구 양지면 양지리478-3","category":"학원 - 보습학원"}]},{"lat":"37.225995734","long":"127.25520069","items":[{"name":"양지가구,쇼파","tel":"031-321-8983","addr":"경기도 용인시 처인구 양지면 송문리 513-2번지","category":"가구 - 기타가구"},{"name":"양지노송가구","tel":"031-323-1919","addr":"경기도 용인시 처인구 양지면 송문리 513-2","category":"가구 - 일반가구"},{"name":"에레쯔 (EREZ)가구","tel":"031-322-5429","addr":"경기도 용인시 처인구 양지면 송문리 513-2번지","category":"가구 - 일반가구"},{"name":"에코하임","tel":"031-335-4474","addr":"경기도 용인시 처인구 양지면 송문리 513-2번지","category":"가구 - 일반가구"},{"name":"용인 인까사","tel":"031-338-2472","addr":"경기도 용인시 처인구 양지면 송문리 513-2번지","category":"가구 - 일반가구"},{"name":"창&하우스","tel":"031-333-5789","addr":"경기도 용인시 처인구 양지면 송문리513-2","category":"직물 - 카페트,커튼,천막,지물"}]},{"lat":"37.233971842","long":"127.28620551","items":[{"name":"양지건강원","tel":"031-338-6466","addr":"경기도 용인시 처인구 양지면 양지리 477-3","category":"음료식품 - 기타음료식품"},{"name":"오딧세이","tel":"031-338-3440","addr":"경기도 용인시 처인구 양지면 양지리 477-3번지","category":"일반휴게음식 - 일반한식"}]},{"lat":"37.227218259","long":"127.2806477","items":[{"name":"양지고메","tel":"031-638-2065","addr":"경기도 용인시 처인구 양지면 남곡리 435번지","category":"일반휴게음식 - 서양음식"}]},{"lat":"37.23730401","long":"127.26337489","items":[{"name":"양지골프레인지","tel":"031-322-0755","addr":"경기도 용인시 처인구 양지면 주북리 160-2번지 외 5필지","category":"회원제형태 - 레져업소"},{"name":"양지골프연습장장매점","tel":"031-378-0447","addr":"경기도 용인시 처인구 양지면 주북리 160-2번지","category":"음료식품 - 기타음료식품"},{"name":"와이지 스크린골프","tel":"031-663-0447","addr":"경기도 용인시 처인구 양지면 주북리 160-2번지 1층","category":"레저업소 - 스크린골프"},{"name":"팀베스트골프(Team best Golf)","tel":"031-322-0755","addr":"경기도 용인시 처인구 양지면 주북리 160-2번지 1층 102호 양지골프연습장","category":"레저업소 - 골프연습장"}]},{"lat":"37.231052502","long":"127.28994699","items":[{"name":"양지농원","tel":"031-338-3315","addr":"경기도 용인시 처인구 양지면 양지리493-34","category":"음료식품 - 농·축·수산품"}]},{"lat":"37.222024332","long":"127.31822706","items":[{"name":"양지단비사슴나라","tel":"031-334-4241","addr":"경기도 용인시 처인구 양지면 평창리671-1","category":"음료식품 - 농·축·수산품"}]},{"lat":"37.236584053","long":"127.28653082","items":[{"name":"양지도레미학원","tel":"031-338-8840","addr":"경기도 용인시 처인구 양지면 양지리 410-17번지 1층","category":"학원 - 예·체능계학원"},{"name":"이마트24 용인양지타운점","tel":"","addr":"경기도 용인시 처인구 양지면 양지리 410-17번지","category":"유통업 영리 - 편 의 점"}]},{"lat":"37.215030996","long":"127.32208475","items":[{"name":"양지돈가","tel":"031-339-4466","addr":"경기도 용인시 처인구 양지면 평창리 627-40번지","category":"일반휴게음식 - 일반한식"}]},{"lat":"37.23438145","long":"127.29561663","items":[{"name":"양지동아공구","tel":"031-334-0912","addr":"경기도 용인시 처인구 양지면 양지리 98-28번지 1층","category":"건축자재 - 목재·석재·철물"}]},{"lat":"37.236132921","long":"127.28678833","items":[{"name":"양지동태탕","tel":"031-333-3321","addr":"경기도 용인시 처인구 양지면 양지리 453-1번지 소노펠리체 상가B동103,104호","category":"일반휴게음식 - 일반한식"}]},{"lat":"37.236388334","long":"127.28548205","items":[{"name":"양지돼지집","tel":"031-323-3595","addr":"경기도 용인시 처인구 양지면 양지리 461-3번지","category":"일반휴게음식 - 일반한식"}]},{"lat":"37.232384774","long":"127.2867292","items":[{"name":"양지두루치기","tel":"031-338-4848","addr":"경기도 용인시 처인구 양지면 남곡리 128-3번지","category":"일반휴게음식 - 일반한식"}]},{"lat":"37.236603664","long":"127.28586601","items":[{"name":"양지면주민자치센터","tel":"031-338-0565","addr":"경기도 용인시 처인구 양지면 양지리 460-1","category":"문화.취미 - 문화취미기타"}]},{"lat":"37.234249442","long":"127.28314139","items":[{"name":"양지모타","tel":"031-338-3989","addr":"경기도 용인시 처인구 양지면 양지리 569-2","category":"수리서비스 - 기타수리서비스"}]},{"lat":"37.218107938","long":"127.31706157","items":[{"name":"양지모터스","tel":"031-337-1307","addr":"경기도 용인시 처인구 양지면 평창리 656-2번지","category":"자동차정비 유지 - 자동차정비"},{"name":"양지모터스","tel":"031-335-5296","addr":"경기도 용인시 처인구 양지면 평창리 656-2번지 102호","category":"자동차정비 유지 - 윤활유 전문 판매"}]},{"lat":"37.239079195","long":"127.26737046","items":[{"name":"양지바른 보호작업장","tel":"031-338-8844","addr":"경기도 용인시 처인구 양지면 주북리 141-4번지","category":"음료식품 - 기타음료식품"},{"name":"양지바른보호작업장","tel":"031-338-8844","addr":"경기도 용인시 처인구 양지면 주북리 141-4번지","category":"음료식품 - 기타음료식품"}]},{"lat":"37.234855948","long":"127.28194912","items":[{"name":"양지바른요가원","tel":"031-332-5453","addr":"경기도 용인시 처인구 양지면 양지리 630번지 5층 501호","category":"레저업소 - 헬스클럽"}]},{"lat":"37.215835302","long":"127.32119811","items":[{"name":"양지비빔국수","tel":"031-335-7431","addr":"경기도 용인시 처인구 양지면 평창리 646-21번지","category":"일반휴게음식 - 일반한식"}]},{"lat":"37.230268178","long":"127.28638321","items":[{"name":"양지상회","tel":"031-321-2937","addr":"경기도 용인시 처인구 양지면 남곡리 141-6번지 대한빌라 5동 201호","category":"음료식품 - 농·축·수산품"}]},{"lat":"37.233188443","long":"127.29708823","items":[{"name":"양지식당","tel":"031-334-9006","addr":"경기도 용인시 처인구 양지면 양지리 115-5번지","category":"일반휴게음식 - 일반한식"},{"name":"중부탑차","tel":"031-334-3882","addr":"경기도 용인시 처인구 양지면 양지리 115-5번지","category":"자동차정비 유지 - 자동차부품"}]},{"lat":"37.23546688","long":"127.29755912","items":[{"name":"양지실로암천","tel":"031-321-8888","addr":"경기도 용인시 처인구 양지면 양지리 98-3번지","category":"보건위생 - 사우나"}]},{"lat":"37.23549349","long":"127.29772826","items":[{"name":"양지유황천","tel":"031-321-8888","addr":"경기도 용인시 처인구 양지면 양지리 99번지 외1필지","category":"보건위생 - 사우나"},{"name":"양지유황천남탕매점","tel":"031-321-8888","addr":"경기도 용인시 처인구 양지면 양지리 99번지","category":"음료식품 - 기타음료식품"},{"name":"양지유황천매점","tel":"031-321-8888","addr":"경기도 용인시 처인구 양지면 양지리 99번지","category":"음료식품 - 기타음료식품"}]},{"lat":"37.234275405","long":"127.28359225","items":[{"name":"양지전.빈대떡","tel":"031-328-2811","addr":"경기도 용인시 처인구 양지면 양지리 573-10번지 1층","category":"일반휴게음식 - 일반한식"}]},{"lat":"37.233466271","long":"127.28662056","items":[{"name":"양지종합동물병원","tel":"031-338-7588","addr":"경기도 용인시 처인구 양지면 양지리 480-1번지","category":"기타의료기관 - 동물병원"},{"name":"화성토종순대국","tel":"031-338-1118","addr":"경기도 용인시 처인구 양지면 양지리 480-1번지","category":"일반휴게음식 - 일반한식"}]},{"lat":"37.231217847","long":"127.28864047","items":[{"name":"양지청과","tel":"031-333-3333","addr":"경기도 용인시 처인구 양지면 양지리 492-17번지","category":"음료식품 - 농·축·수산품"}]},{"lat":"37.230802697","long":"127.28892061","items":[{"name":"양지커먼레일","tel":"031-338-9355","addr":"경기도 용인시 처인구 양지면 양지리 493-29번지","category":"자동차정비 유지 - 자동차정비"},{"name":"지아니 A&M","tel":"031-337-3851","addr":"경기도 용인시 처인구 양지면 양지리 493-29번지","category":"레져용품 - 스포츠·레져용품"}]},{"lat":"37.229471341","long":"127.30261776","items":[{"name":"양지프리미엄셀프세차","tel":"031-333-5900","addr":"경기도 용인시 처인구 양지면 제일리 350-6번지","category":"자동차정비 유지 - 세차장"},{"name":"양지프리미엄셀프세차","tel":"031-333-5900","addr":"경기도 용인시 처인구 양지면 제일리 350-6번지","category":"자동차정비 유지 - 세차장"}]},{"lat":"37.235859173","long":"127.28445458","items":[{"name":"양지피아노학원","tel":"031-338-3662","addr":"경기도 용인시 처인구 양지면 양지리598-6","category":"학원 - 예·체능계학원"},{"name":"영호설비환경 (주)용인지점","tel":"031-217-4888","addr":"경기도 용인시 처인구 양지면 양지리 598-6번지","category":"용역 서비스 - 종합용역"}]},{"lat":"37.246468654","long":"127.25870651","items":[{"name":"양지한식뷔페","tel":"031-332-8086","addr":"경기도 용인시 처인구 양지면 주북리 285-4번지","category":"일반휴게음식 - 일반한식"}]},{"lat":"37.234744017","long":"127.28356018","items":[{"name":"양지현대약국","tel":"031-339-8569","addr":"경기도 용인시 처인구 양지면 양지리 627-4번지 103호","category":"약국 - 약국"}]},{"lat":"37.260549211","long":"127.24709797","items":[{"name":"양촌밧데리","tel":"","addr":"경기도 용인시 처인구 양지면 주북리 664번지 삼덕빌라 1동 302호","category":"자동차정비 유지 - 자동차시트·타이어"}]},{"lat":"37.254441502","long":"127.26748051","items":[{"name":"에듀왕용인지사","tel":"031-322-4660","addr":"경기도 용인시 처인구 양지면 대대리 504","category":"회원제형태 - 서적"}]},{"lat":"37.242717872","long":"127.25567342","items":[{"name":"에버스토리","tel":"070-8616-2223","addr":"경기도 용인시 처인구 양지면 주북리 463-3번지","category":"숙박업 - 여관/기타숙박업"}]},{"lat":"37.223549329","long":"127.26151353","items":[{"name":"에스아이파크토리","tel":"02-3159-0909","addr":"경기도 용인시 처인구 양지면 송문리 126번지","category":"주방용구 - 주방용구"},{"name":"주식회사 에스아이씨에이","tel":"031-475-5308","addr":"경기도 용인시 처인구 양지면 송문리 126번지","category":"음료식품 - 기타음료식품"}]},{"lat":"37.264330087","long":"127.25729009","items":[{"name":"에스코리안","tel":"031-321-0352","addr":"경기도 용인시 처인구 양지면 대대리355","category":"가구 - 일반가구"}]},{"lat":"37.239413088","long":"127.31525666","items":[{"name":"에어탑사인","tel":"031-336-4128","addr":"경기도 용인시 처인구 양지면 제일리 115-4번지","category":"용역 서비스 - 종합용역"}]},{"lat":"37.237024161","long":"127.308812","items":[{"name":"에이프레임","tel":"031-339-9609","addr":"경기도 용인시 처인구 양지면 제일리 436번지","category":"가구 - 기타가구"},{"name":"우진밥집","tel":"031-339-9608","addr":"경기도 용인시 처인구 양지면 제일리 436번지 나동 1층 양지면","category":"일반휴게음식 - 일반한식"}]},{"lat":"37.218613687","long":"127.31319922","items":[{"name":"에코그린타운","tel":"031-338-6610","addr":"경기도 용인시 처인구 양지면 평창리 680번지 지하1층","category":"유통업 영리 - 슈퍼마켓"},{"name":"에코그린타운","tel":"031-338-6610","addr":"경기도 용인시 처인구 양지면 평창리 680번지 지하1층","category":"일반휴게음식 - 일반한식"},{"name":"에코그린타운(ECHOGREENTOWN)","tel":"031-338-6610","addr":"경기도 용인시 처인구 양지면 평창리 680번지","category":"숙박업 - 여관/기타숙박업"},{"name":"펜션매점","tel":"02-6340-5385","addr":"경기도 용인시 처인구 양지면 평창리 680번지","category":"음료식품 - 기타음료식품"}]},{"lat":"37.231825787","long":"127.27925603","items":[{"name":"에프엠미트","tel":"032-321-7193","addr":"경기도 용인시 처인구 양지면 남곡리 199번지","category":"음료식품 - 정육점"}]},{"lat":"37.234492265","long":"127.27950241","items":[{"name":"여수밤바다","tel":"031-333-5501","addr":"경기도 용인시 처인구 양지면 양지리 636-1번지 일부 나동 1층","category":"일반휴게음식 - 일식·회집"},{"name":"켐아트","tel":"031-338-1920","addr":"경기도 용인시 처인구 양지면 양지리 636-1번지","category":"서적문구 - 과학기자재"}]},{"lat":"37.254297375","long":"127.26339956","items":[{"name":"연필로그리는이야기","tel":"070-8806-0809","addr":"경기도 용인시 처인구 양지면 대대리 530번지","category":"광학제품 - 사진관"}]},{"lat":"37.249741203","long":"127.23600597","items":[{"name":"열두달(YEOLDUDAL)","tel":"","addr":"경기도 용인시 처인구 양지면 주북리 856-2번지","category":"일반휴게음식 - 서양음식"}]},{"lat":"37.259581948","long":"127.33050172","items":[{"name":"영도서","tel":"031-673-0770","addr":"경기도 용인시 처인구 양지면 식금리 72-2번지","category":"서적문구 - 일반서적"},{"name":"주식회사 발해","tel":"031-321-6199","addr":"경기도 용인시 처인구 양지면 식금리 72-2번지","category":"회원제형태 - 서적"}]},{"lat":"37.247102634","long":"127.26948361","items":[{"name":"영동건강 주식회사","tel":"031-329-2032","addr":"경기도 용인시 처인구 양지면 주북리 51번지","category":"건강식품 - 기타건강식품"}]},{"lat":"37.255269948","long":"127.24231284","items":[{"name":"영림창호","tel":"031-322-4550","addr":"경기도 용인시 처인구 양지면 주북리 769-3","category":"직물 - 카페트,커튼,천막,지물"}]},{"lat":"37.23591735","long":"127.28650579","items":[{"name":"영어카페 시나브로","tel":"","addr":"경기도 용인시 처인구 양지면 양지리 453-9번지 104호","category":"일반휴게음식 - 서양음식"},{"name":"인싸 소&돼지","tel":"031-335-0393","addr":"경기도 용인시 처인구 양지면 양지리 453-9번지 소노팰리체 A동 B102호","category":"일반휴게음식 - 일반한식"}]},{"lat":"37.224996594","long":"127.25045371","items":[{"name":"영은조경자재","tel":"031-338-3571","addr":"경기도 용인시 처인구 양지면 송문리452-3","category":"문화.취미 - 화원"}]},{"lat":"37.225833276","long":"127.2510649","items":[{"name":"예담원","tel":"070-7760-3091","addr":"경기도 용인시 처인구 양지면 송문리 455-4번지","category":"건축자재 - 인테리어전문"},{"name":"일산면옥","tel":"02-0000-0000","addr":"경기도 용인시 처인구 양지면 송문리 455-4번지","category":"일반휴게음식 - 일반한식"},{"name":"청담수산","tel":"","addr":"경기도 용인시 처인구 양지면 송문리 455-4번지","category":"일반휴게음식 - 일반한식"},{"name":"카페예가초이스","tel":"","addr":"경기도 용인시 처인구 양지면 송문리 455-4번지 1층","category":"일반휴게음식 - 서양음식"}]},{"lat":"37.236051107","long":"127.301731","items":[{"name":"예사랑","tel":"032-542-6685","addr":"경기도 용인시 처인구 양지면 제일리 608-2번지","category":"음료식품 - 기타음료식품"}]},{"lat":"37.223471166","long":"127.2517332","items":[{"name":"예원요양원","tel":"031-335-6286","addr":"경기도 용인시 처인구 양지면 송문리 436-7번지","category":"기타의료기관 - 기타의료기관 및 기타"}]},{"lat":"37.233722691","long":"127.28864992","items":[{"name":"예지현","tel":"031-333-1477","addr":"경기도 용인시 처인구 양지면 양지리 486-9번지","category":"일반휴게음식 - 중국식"},{"name":"제비표페인트(태민상사)","tel":"031-338-6767","addr":"경기도 용인시 처인구 양지면 양지리 486-9","category":"건축자재 - 페인트"}]},{"lat":"37.234081177","long":"127.28569882","items":[{"name":"예찬축산장터","tel":"031-321-5988","addr":"경기도 용인시 처인구 양지면 양지리 468-3","category":"음료식품 - 정육점"}]},{"lat":"37.233278244","long":"127.29356144","items":[{"name":"옛집","tel":"031-111-1111","addr":"경기도 용인시 처인구 양지면 양지리 171-2번지 1층","category":"일반휴게음식 - 일반한식"}]},{"lat":"37.240914156","long":"127.31663778","items":[{"name":"오대양짬뽕","tel":"031-337-2588","addr":"경기도 용인시 처인구 양지면 제일리 111-1번지 1층","category":"일반휴게음식 - 중국식"}]},{"lat":"37.279072286","long":"127.27292262","items":[{"name":"오렌지향기","tel":"031-337-1035","addr":"경기도 용인시 처인구 양지면 대대리 56번지","category":"일반휴게음식 - 일반한식"}]},{"lat":"37.262383283","long":"127.2815659","items":[{"name":"오케이농장","tel":"031-338-5948","addr":"경기도 용인시 처인구 양지면 대대리 819번지 1층","category":"일반휴게음식 - 일반한식"}]},{"lat":"37.238041333","long":"127.28375271","items":[{"name":"오케이크린씨","tel":"","addr":"경기도 용인시 처인구 양지면 양지리 331-12번지 장미맨션 A동 103호","category":"신변잡화 - 기타잡화"}]},{"lat":"37.251024194","long":"127.32649712","items":[{"name":"오케이타이어","tel":"031-335-0907","addr":"경기도 용인시 처인구 양지면 중부대로2670번길 6-3","category":"자동차정비 유지 - 자동차시트·타이어"}]},{"lat":"37.249329307","long":"127.25242685","items":[{"name":"오투파낙스","tel":"031-262-5666","addr":"경기도 용인시 처인구 양지면 주북리 364-24번지","category":"건강식품 - 인삼제품"}]},{"lat":"37.236019908","long":"127.28506371","items":[{"name":"옥토종합농기계","tel":"070-8869-4644","addr":"경기도 용인시 처인구 양지면 양지리 462-7번지 대성빌라 B102호~B102호","category":"회원제형태 - 기타4"}]},{"lat":"37.232667888","long":"127.28514137","items":[{"name":"옥헤어","tel":"031-323-2528","addr":"경기도 용인시 처인구 양지면 양지리 502-6번지","category":"보건위생 - 미용원"},{"name":"플라워솜솜","tel":"031-339-5588","addr":"경기도 용인시 처인구 양지면 양지리 502-6번지 104호","category":"문화.취미 - 화원"}]},{"lat":"37.217778384","long":"127.31900931","items":[{"name":"와니물류","tel":"","addr":"경기도 용인시 처인구 양지면 평창리 640-26번지","category":"신변잡화 - 기타잡화"},{"name":"와니물류","tel":"","addr":"경기도 용인시 처인구 양지면 평창리 640-26번지","category":"신변잡화 - 기타잡화"}]},{"lat":"37.235937822","long":"127.28548037","items":[{"name":"와이제이에듀힐학원","tel":"031-275-5805","addr":"경기도 용인시 처인구 양지면 양지리 464-1번지 교동회관","category":"학원 - 보습학원"}]},{"lat":"37.242106459","long":"127.31891929","items":[{"name":"외할머니집","tel":"031-322-7270","addr":"경기도 용인시 처인구 양지면 제일리 34-1번지","category":"일반휴게음식 - 일반한식"}]},{"lat":"37.225696315","long":"127.29161684","items":[{"name":"용곡슈퍼","tel":"031-338-3102","addr":"경기도 용인시 처인구 양지면 남곡리 72-8번지","category":"유통업 영리 - 슈퍼마켓"}]},{"lat":"37.226855663","long":"127.29283819","items":[{"name":"용인 대형 특수 렉카","tel":"","addr":"경기도 용인시 처인구 양지면 남곡리 107-1번지 파인팰리스 105동 503호","category":"자동차정비 유지 - 견인서비스"}]},{"lat":"37.234798328","long":"127.29827773","items":[{"name":"용인 배터리 마트","tel":"031-335-2236","addr":"경기도 용인시 처인구 양지면 양지리 107-3번지 1층","category":"자동차정비 유지 - 자동차부품"},{"name":"황금","tel":"070-6106-1494","addr":"경기도 용인시 처인구 양지면 양지리 107-3번지 2,3층","category":"보건위생 - 기타대인서비스"}]},{"lat":"37.228495021","long":"127.30031521","items":[{"name":"용인가로그릴","tel":"","addr":"경기도 용인시 처인구 양지면 제일리 663-8번지 107호","category":"자동차정비 유지 - 자동차부품"}]},{"lat":"37.22585492","long":"127.25362274","items":[{"name":"용인나무시장","tel":"031-335-8185","addr":"경기도 용인시 처인구 양지면 송문리 508-5번지","category":"문화.취미 - 화원"}]},{"lat":"37.260024924","long":"127.25647525","items":[{"name":"용인랜드 숲속캠핑장","tel":"031-336-3838","addr":"경기도 용인시 처인구 양지면 대대리 292번지 1호","category":"숙박업 - 여관/기타숙박업"}]},{"lat":"37.226439424","long":"127.29355773","items":[{"name":"용인레포츠","tel":"031-321-3607","addr":"경기도 용인시 처인구 양지면 남곡리 104번지","category":"용역 서비스 - 종합용역"},{"name":"해드스키","tel":"031-321-3607","addr":"경기도 용인시 처인구 양지면 남곡리 104번지","category":"레져용품 - 스포츠·레져용품"}]},{"lat":"37.225273007","long":"127.25184053","items":[{"name":"용인백암순대","tel":"031-321-5034","addr":"경기도 용인시 처인구 양지면 송문리 428-4번지","category":"일반휴게음식 - 일반한식"}]},{"lat":"37.258077432","long":"127.24414787","items":[{"name":"용인버블샤인세차장","tel":"031-335-9393","addr":"경기도 용인시 처인구 양지면 주북리 694-4번지 1층","category":"자동차정비 유지 - 세차장"}]},{"lat":"37.247518583","long":"127.27281","items":[{"name":"용인아카데미입시학원","tel":"031-333-2233","addr":"경기도 용인시 처인구 양지면 주북리59-1","category":"회원제형태 - 학원"},{"name":"용인종로학원","tel":"031-333-2233","addr":"경기도 용인시 처인구 양지면 주북리 59-1번지","category":"음료식품 - 기타음료식품"}]},{"lat":"37.238414261","long":"127.28606436","items":[{"name":"용인안전평생교육원","tel":"031-338-9287","addr":"경기도 용인시 처인구 양지면 양지리379","category":"학원 - 기타 교육기관"}]},{"lat":"37.25463211","long":"127.24137524","items":[{"name":"용인적재함","tel":"031-333-7072","addr":"경기도 용인시 처인구 양지면 주북리 773-1번지","category":"자동차정비 유지 - 자동차부품"}]},{"lat":"37.236081932","long":"127.28550344","items":[{"name":"용인중앙로타리클럽","tel":"031-321-3601","addr":"경기도 용인시 처인구 양지면 양지리 464-4 3층","category":"기타 - 비영리/비대상"}]},{"lat":"37.233329957","long":"127.29083459","items":[{"name":"용인중앙상재마루마루","tel":"031-333-3308","addr":"경기도 용인시 처인구 양지면 양지리 164번지 1층","category":"건축자재 - 인테리어전문"}]},{"lat":"37.233665899","long":"127.28603533","items":[{"name":"용인처인사랑로타리클럽","tel":"","addr":"경기도 용인시 처인구 양지면 양지리 477-7번지 2층","category":"기타 - 비영리/비대상"},{"name":"원삼지업사","tel":"031-321-0282","addr":"경기도 용인시 처인구 양지면 양지리477-7","category":"직물 - 카페트,커튼,천막,지물"}]},{"lat":"37.236635914","long":"127.29117397","items":[{"name":"용인포니체험학습장","tel":"031-322-8522","addr":"경기도 용인시 처인구 양지면 양지리 218번지","category":"학원 - 기타 교육기관"}]},{"lat":"37.225890425","long":"127.27034415","items":[{"name":"용인현대서비스부품","tel":"031-334-6232","addr":"경기도 용인시 처인구 양지면 남곡리 251-3번지","category":"자동차정비 유지 - 자동차부품"}]},{"lat":"37.21719784","long":"127.31366661","items":[{"name":"용인황토펜션","tel":"031-338-6563","addr":"경기도 용인시 처인구 양지면 평창리 661-14번지","category":"숙박업 - 여관/기타숙박업"}]},{"lat":"37.232414849","long":"127.28545595","items":[{"name":"용자동차공업사","tel":"031-338-1718","addr":"경기도 용인시 처인구 양지면 남곡리 132번지","category":"자동차정비 유지 - 자동차정비"}]},{"lat":"37.223946564","long":"127.26525567","items":[{"name":"용진자동차공업사","tel":"031-338-9955","addr":"경기도 용인시 처인구 양지면 남곡리281-9","category":"자동차정비 유지 - 자동차정비"}]},{"lat":"37.241967959","long":"127.30642018","items":[{"name":"우기부기","tel":"031-322-7580","addr":"경기도 용인시 처인구 양지면 제일리 474-121번지","category":"학원 - 기타 교육기관"}]},{"lat":"37.250722058","long":"127.32495165","items":[{"name":"우림중고가전","tel":"","addr":"경기도 용인시 처인구 양지면 추계리 136-2번지 우림중고가전","category":"전기제품 - 가전제품"}]},{"lat":"37.238746523","long":"127.32856331","items":[{"name":"우영테크","tel":"031-338-7713","addr":"경기도 용인시 처인구 양지면 평창리 52","category":"가구 - 일반가구"}]},{"lat":"37.22633155","long":"127.29345591","items":[{"name":"원조해장국","tel":"031-336-3827","addr":"경기도 용인시 처인구 양지면 남곡리 105번지","category":"일반휴게음식 - 일반한식"},{"name":"원쭈꾸미","tel":"070-8802-4524","addr":"경기도 용인시 처인구 양지면 남곡리 105번지 1층","category":"일반휴게음식 - 일반한식"}]},{"lat":"37.241050328","long":"127.32630797","items":[{"name":"웰리스펜션","tel":"031-338-8558","addr":"경기도 용인시 처인구 양지면 평창리 22-1","category":"숙박업 - 여관/기타숙박업"}]},{"lat":"37.258078572","long":"127.24798052","items":[{"name":"유림현대자동차공업사","tel":"031-333-4455","addr":"경기도 용인시 처인구 양지면 주북리 602번지","category":"자동차정비 유지 - 자동차정비"}]},{"lat":"37.244720641","long":"127.25450797","items":[{"name":"유에스이 코퍼레이션(USE CORPORATION)","tel":"031-337-0201","addr":"경기도 용인시 처인구 양지면 주북리 426번지","category":"주방용구 - 주방용구"}]},{"lat":"37.234188208","long":"127.28236361","items":[{"name":"육감만족","tel":"031-338-9212","addr":"경기도 용인시 처인구 양지면 양지리 568-17번지 103호 102호,103호","category":"일반휴게음식 - 일반한식"},{"name":"전설의곱창","tel":"031-334-9500","addr":"경기도 용인시 처인구 양지면 양지리 568-17번지 현대파크","category":"일반휴게음식 - 일반한식"},{"name":"킴스(Kim's)김밥","tel":"031-336-7678","addr":"경기도 용인시 처인구 양지면 양지리 568-17번지 현대파크 101호","category":"일반휴게음식 - 스넥"},{"name":"템프터케이","tel":"111-111-1111","addr":"경기도 용인시 처인구 양지면 양지리 568-17번지 현대파크 105호","category":"일반휴게음식 - 일반한식"},{"name":"훌랄라 천족","tel":"031-334-1192","addr":"경기도 용인시 처인구 양지면 양지리 568-17번지 현대파크 상가동 1,2,3호","category":"일반휴게음식 - 일반한식"}]},{"lat":"37.249881827","long":"127.23321113","items":[{"name":"육앤장 숯불구이","tel":"031-332-9294","addr":"경기도 용인시 처인구 양지면 주북리 852-2번지 (장어)","category":"일반휴게음식 - 일반한식"},{"name":"임진강장어","tel":"031-334-8980","addr":"경기도 용인시 처인구 양지면 주북리 852-2번지 외2필지","category":"일반휴게음식 - 일반한식"}]},{"lat":"37.225053602","long":"127.25756375","items":[{"name":"으뜸지게차","tel":"031-334-1488","addr":"경기도 용인시 처인구 양지면 송문리 149번지","category":"자동차판매 - 기타운송"}]},{"lat":"37.237828327","long":"127.28617486","items":[{"name":"은당글씨디자인","tel":"031-000-0000","addr":"경기도 용인시 처인구 양지면 양지리 378-1번지 1층","category":"건축자재 - 인테리어전문"}]},{"lat":"37.205806835","long":"127.27801213","items":[{"name":"은이골 농원","tel":"","addr":"경기도 용인시 처인구 양지면 남곡리 759번지","category":"음료식품 - 기타음료식품"}]},{"lat":"37.222106826","long":"127.27789104","items":[{"name":"은이뜰마트","tel":"031-333-9571","addr":"경기도 용인시 처인구 양지면 남곡리 612번지","category":"유통업 영리 - 슈퍼마켓"}]},{"lat":"37.261910685","long":"127.27945609","items":[{"name":"이다의숲","tel":"031-322-3355","addr":"경기도 용인시 처인구 양지면 대대리 621번지","category":"일반휴게음식 - 일반한식"}]},{"lat":"37.229024845","long":"127.29008579","items":[{"name":"이마트24 용인양지점","tel":"","addr":"경기도 용인시 처인구 양지면 남곡리 123-46번지 1층","category":"유통업 영리 - 편 의 점"}]},{"lat":"37.239916802","long":"127.31897776","items":[{"name":"이마트24 용인양지제일점","tel":"","addr":"경기도 용인시 처인구 양지면 제일리 15-9번지","category":"유통업 영리 - 편 의 점"}]},{"lat":"37.234108396","long":"127.28562004","items":[{"name":"이민주헤어샵","tel":"031-338-1135","addr":"경기도 용인시 처인구 양지면 양지리468-5","category":"보건위생 - 미용원"},{"name":"조령한우축산","tel":"031-328-7661","addr":"경기도 용인시 처인구 양지면 양지리 468-5번지 1층","category":"음료식품 - 정육점"}]},{"lat":"37.235830156","long":"127.28528839","items":[{"name":"이천떡집","tel":"031-338-1101","addr":"경기도 용인시 처인구 양지면 양지리 463번지 대성2차빌라","category":"음료식품 - 제과점"}]},{"lat":"37.233633947","long":"127.28808614","items":[{"name":"인도네시아","tel":"031-338-7815","addr":"경기도 용인시 처인구 양지면 양지리482-5","category":"가구 - 일반가구"}]},{"lat":"37.28357684","long":"127.2770884","items":[{"name":"자작나무이야기","tel":"031-332-3928","addr":"경기도 용인시 처인구 양지면 대대리 20번지","category":"일반휴게음식 - 일반한식"}]},{"lat":"37.222661553","long":"127.25956127","items":[{"name":"자한도예","tel":"031-321-9964","addr":"경기도 용인시 처인구 양지면 송문리 162-4번지","category":"문화.취미 - 민예·공예품"}]},{"lat":"37.242886372","long":"127.31361427","items":[{"name":"쟈마뮤직","tel":"02-541-6979","addr":"경기도 용인시 처인구 양지면 제일리 84번지","category":"레져용품 - 악기점"}]},{"lat":"37.255073523","long":"127.27875478","items":[{"name":"전원일기","tel":"031-323-2022","addr":"경기도 용인시 처인구 양지면 대대리679","category":"일반휴게음식 - 일반한식"}]},{"lat":"37.233469611","long":"127.28522324","items":[{"name":"점프노리양지점","tel":"031-322-9767","addr":"경기도 용인시 처인구 양지면 양지리 471-4번지 2층","category":"일반휴게음식 - 일반한식"},{"name":"팀 워리어 복싱 짐(TEAM WARRIOR BOXING GY","tel":"031-338-1101","addr":"경기도 용인시 처인구 양지면 양지리 471-4번지 지하1층","category":"레저업소 - 헬스클럽"}]},{"lat":"37.21547271","long":"127.32200775","items":[{"name":"정담은남원추어탕","tel":"070-8841-5578","addr":"경기도 용인시 처인구 양지면 평창리 627-8번지 1층","category":"일반휴게음식 - 일반한식"}]},{"lat":"37.268517471","long":"127.28986366","items":[{"name":"정수리휴게소국수","tel":"031-333-7794","addr":"경기도 용인시 처인구 양지면 정수리 242번지 정수리새마을회관 1층 일부","category":"일반휴게음식 - 일반한식"}]},{"lat":"37.265602705","long":"127.2953654","items":[{"name":"정수와인","tel":"031-339-6562","addr":"경기도 용인시 처인구 양지면 정수리123-1","category":"음료식품 - 주류 판매점"}]},{"lat":"37.232632133","long":"127.3103606","items":[{"name":"제이238(J238)펜션","tel":"031-330-0433","addr":"경기도 용인시 처인구 양지면 제일리 238번지","category":"숙박업 - 여관/기타숙박업"}]},{"lat":"37.255963029","long":"127.27595124","items":[{"name":"제이씨디스트리뷰터","tel":"031-332-5501","addr":"경기도 용인시 처인구 양지면 대대리 650번지 1층","category":"신변잡화 - 기타잡화"}]},{"lat":"37.23811074","long":"127.30320417","items":[{"name":"제이씨컨설팅(주)","tel":"02-533-9336","addr":"경기도 용인시 처인구 양지면 제일리 587-59번지 루아르밸리 43호","category":"일반휴게음식 - 서양음식"}]},{"lat":"37.224996613","long":"127.29034094","items":[{"name":"제이앤씨 (J&C)트레이더스","tel":"070-4979-9288","addr":"경기도 용인시 처인구 양지면 남곡리 503-3번지","category":"용역 서비스 - 기타용역서비스"}]},{"lat":"37.234800032","long":"127.27889501","items":[{"name":"제이정밀","tel":"031-338-1246","addr":"경기도 용인시 처인구 양지면 양지리 701-11번지","category":"기타 - 기계공구"}]},{"lat":"37.234551747","long":"127.28103521","items":[{"name":"제일손칼국수","tel":"031-321-8010","addr":"경기도 용인시 처인구 양지면 양지리 633번지 102호","category":"일반휴게음식 - 일반한식"},{"name":"참숯불오리구이","tel":"031-333-9299","addr":"경기도 용인시 처인구 양지면 양지리 633번지","category":"일반휴게음식 - 일반한식"},{"name":"커피마마","tel":"031-323-0999","addr":"경기도 용인시 처인구 양지면 양지리 633번지 1층","category":"일반휴게음식 - 서양음식"}]},{"lat":"37.217330484","long":"127.31802726","items":[{"name":"제주이야기","tel":"031-322-6589","addr":"경기도 용인시 처인구 양지면 평창리 654-1번지 외2필지 C동 4.5~9호","category":"일반휴게음식 - 일반한식"}]},{"lat":"37.269936153","long":"127.2647838","items":[{"name":"젠틀맨카 용인","tel":"0000-1644-5929","addr":"경기도 용인시 처인구 양지면 대대리 105번지","category":"자동차정비 유지 - 카인테리어"},{"name":"카페소소","tel":"031-321-9427","addr":"경기도 용인시 처인구 양지면 대대리 105번지","category":"일반휴게음식 - 서양음식"}]},{"lat":"37.259795659","long":"127.24984609","items":[{"name":"젤라소프트","tel":"02-3445-0709","addr":"경기도 용인시 처인구 양지면 주북리 631번지","category":"용역 서비스 - 소프트웨어"}]},{"lat":"37.215329972","long":"127.32147764","items":[{"name":"조 엔더 커피(Joe&the Coffee)","tel":"031-333-6498","addr":"경기도 용인시 처인구 양지면 평창리 646-6 외 3필지","category":"일반휴게음식 - 서양음식"},{"name":"커피1온스","tel":"031-333-5328","addr":"경기도 용인시 처인구 양지면 평창리 646-6 외3필지","category":"일반휴게음식 - 서양음식"}]},{"lat":"37.231216707","long":"127.27378858","items":[{"name":"조이풀키즈 양지몬테소리 어린이집","tel":"031-321-3666","addr":"경기도 용인시 처인구 양지면 양지리 766-14","category":"학원 - 유아원"}]},{"lat":"37.234576949","long":"127.28181286","items":[{"name":"주남성헤어컷전문점","tel":"031-337-1926","addr":"경기도 용인시 처인구 양지면 양지리631","category":"보건위생 - 미용원"},{"name":"트윈스","tel":"031-321-8533","addr":"경기도 용인시 처인구 양지면 양지리631","category":"자동차정비 유지 - 자동차정비"}]},{"lat":"37.237024359","long":"127.2715893","items":[{"name":"주문진동치미막국수","tel":"031-338-7040","addr":"경기도 용인시 처인구 양지면 양지리 736","category":"일반휴게음식 - 일반한식"}]},{"lat":"37.22452707","long":"127.25092541","items":[{"name":"주식회사 가이아팜스","tel":"031-333-8056","addr":"경기도 용인시 처인구 양지면 송문리 452-1","category":"건강식품 - 기타건강식품"}]},{"lat":"37.22650149","long":"127.28275215","items":[{"name":"주식회사 국일","tel":"031-323-0678","addr":"경기도 용인시 처인구 양지면 남곡리 449-4번지","category":"자동차판매 - 기타운송"}]},{"lat":"37.225856685","long":"127.28489063","items":[{"name":"주식회사 그립인","tel":"070-7613-8055","addr":"경기도 용인시 처인구 양지면 남곡리 472번지 1층","category":"신변잡화 - 기타잡화"},{"name":"한화제약(주)","tel":"031-959-3161","addr":"경기도 용인시 처인구 양지면 남곡리472","category":"약국 - 약국"}]},{"lat":"37.257970624","long":"127.33320013","items":[{"name":"주식회사 대산컴퍼니","tel":"031-111-1111","addr":"경기도 용인시 처인구 양지면 식금리 64-8번지","category":"음료식품 - 기타음료식품"}]},{"lat":"37.232666324","long":"127.31792204","items":[{"name":"주식회사 드림앤하비","tel":"031-000-0000","addr":"경기도 용인시 처인구 양지면 평창리 233-3번지","category":"음료식품 - 기타음료식품"}]},{"lat":"37.261964518","long":"127.26367398","items":[{"name":"주식회사 로송","tel":"031-338-3389","addr":"경기도 용인시 처인구 양지면 대대리 470번지","category":"일반휴게음식 - 일반한식"}]},{"lat":"37.254968721","long":"127.24422813","items":[{"name":"주식회사 브랜드하우징","tel":"031-713-2426","addr":"경기도 용인시 처인구 양지면 주북리 759번지","category":"용역 서비스 - 기타용역서비스"}]},{"lat":"37.253354063","long":"127.24067236","items":[{"name":"주식회사 빈스테이블","tel":"031-714-8938","addr":"경기도 용인시 처인구 양지면 주북리 780-1번지","category":"음료식품 - 기타음료식품"}]},{"lat":"37.256608245","long":"127.27747533","items":[{"name":"주식회사 스토리윤","tel":"031-111-1111","addr":"경기도 용인시 처인구 양지면 대대리 671-9번지","category":"용역 서비스 - 종합용역"}]},{"lat":"37.247328524","long":"127.26920263","items":[{"name":"주식회사 신일씨푸드","tel":"031-333-9240","addr":"경기도 용인시 처인구 양지면 주북리 67-4번지","category":"음료식품 - 농·축·수산품"}]},{"lat":"37.234273984","long":"127.26453644","items":[{"name":"주식회사 참신홀딩스","tel":"02-575-7093","addr":"경기도 용인시 처인구 양지면 주북리 169-3번지 169-5","category":"약국 - 약국"}]},{"lat":"37.217807257","long":"127.27859649","items":[{"name":"주식회사 탑코세일즈코리아","tel":"02-2268-7833","addr":"경기도 용인시 처인구 양지면 남곡리 645-1번지","category":"신변잡화 - 기타잡화"}]},{"lat":"37.225943087","long":"127.25453572","items":[{"name":"주식회사 핸슨앤한국갤러리","tel":"031-339-4460","addr":"경기도 용인시 처인구 양지면 송문리 414번지","category":"가구 - 일반가구"}]},{"lat":"37.226582915","long":"127.27092125","items":[{"name":"주식회사동방씨앤씨","tel":"031-333-0878","addr":"경기도 용인시 처인구 양지면 남곡리 254-6번지","category":"건축자재 - 기타건축자재"}]},{"lat":"37.220111251","long":"127.31592066","items":[{"name":"주식회사진양농건","tel":"031-335-1120","addr":"경기도 용인시 처인구 양지면 평창리 674-10번지","category":"농업 - 기타농업관련"},{"name":"진양농자재","tel":"031-335-1120","addr":"경기도 용인시 처인구 양지면 평창리674-10","category":"농업 - 비료,사료,종자"}]},{"lat":"37.242469277","long":"127.25815203","items":[{"name":"주식회사창의체험","tel":"031-323-2028","addr":"경기도 용인시 처인구 양지면 주북리 253-2번지","category":"학원 - 기타 교육기관"}]},{"lat":"37.233691164","long":"127.27526239","items":[{"name":"주식회사핸즈굿","tel":"070-7123-2510","addr":"경기도 용인시 처인구 양지면 양지리 663-2번지","category":"음료식품 - 제과점"}]},{"lat":"37.215473548","long":"127.32502708","items":[{"name":"지산골","tel":"031-322-9292","addr":"경기도 용인시 처인구 양지면 평창리 620-3번지","category":"일반휴게음식 - 일반한식"}]},{"lat":"37.212002914","long":"127.2793189","items":[{"name":"지영갤러리","tel":"031-000-0000","addr":"경기도 용인시 처인구 양지면 남곡리 722-2번지","category":"문화.취미 - 화랑"},{"name":"지영갤러리카페","tel":"","addr":"경기도 용인시 처인구 양지면 남곡리 722-2번지 1층","category":"일반휴게음식 - 서양음식"}]},{"lat":"37.267183418","long":"127.29008407","items":[{"name":"지혜네토종닭","tel":"031-321-3126","addr":"경기도 용인시 처인구 양지면 정수리 249-11번지","category":"일반휴게음식 - 일반한식"}]},{"lat":"37.235278811","long":"127.28600756","items":[{"name":"진성공업사","tel":"031-338-3446","addr":"경기도 용인시 처인구 양지면 양지리 455-1번지","category":"용역 서비스 - 기타용역서비스"}]},{"lat":"37.235134548","long":"127.28225441","items":[{"name":"찌찌닭발","tel":"031-333-1436","addr":"경기도 용인시 처인구 양지면 양지리 628-7번지","category":"일반휴게음식 - 일반한식"},{"name":"피자컴퍼니","tel":"","addr":"경기도 용인시 처인구 양지면 양지리 628-7번지 1층 일부","category":"일반휴게음식 - 서양음식"}]},{"lat":"37.228362905","long":"127.29180729","items":[{"name":"착한밥상","tel":"031-323-6168","addr":"경기도 용인시 처인구 양지면 양지리 138-32번지","category":"일반휴게음식 - 일반한식"}]},{"lat":"37.253270611","long":"127.24184437","items":[{"name":"창우실업","tel":"031-338-9066","addr":"경기도 용인시 처인구 양지면 주북리 787-2","category":"서적문구 - 과학기자재"}]},{"lat":"37.261632452","long":"127.26714493","items":[{"name":"창작공간미술교습소","tel":"031-321-1429","addr":"경기도 용인시 처인구 양지면 대대리 457번지 B동 101호","category":"학원 - 예·체능계학원"}]},{"lat":"37.25494334","long":"127.32661533","items":[{"name":"창호식품","tel":"031-335-8126","addr":"경기도 용인시 처인구 양지면 추계리25","category":"음료식품 - 기타음료식품"}]},{"lat":"37.229912871","long":"127.27262328","items":[{"name":"천향 샤브샤브","tel":"031-338-1101","addr":"경기도 용인시 처인구 양지면 양지리 756-4번지 2층","category":"일반휴게음식 - 일반한식"}]},{"lat":"37.220334729","long":"127.31317247","items":[{"name":"초원","tel":"031-322-0456","addr":"경기도 용인시 처인구 양지면 평창리 679-15번지","category":"농업 - 비료,사료,종자"}]},{"lat":"37.234548883","long":"127.28225225","items":[{"name":"최고봉갈매기살","tel":"031-321-8827","addr":"경기도 용인시 처인구 양지면 양지리 630-10번지","category":"일반휴게음식 - 일반한식"}]},{"lat":"37.23394164","long":"127.27992862","items":[{"name":"충무수산","tel":"031-338-5456","addr":"경기도 용인시 처인구 양지면 양지리 637-6","category":"일반휴게음식 - 일식·회집"},{"name":"충무수산직판장","tel":"031-338-5456","addr":"경기도 용인시 처인구 양지면 양지리 637-6번지","category":"음료식품 - 농·축·수산품"}]},{"lat":"37.246497188","long":"127.25379255","items":[{"name":"치루개마트","tel":"031-333-6223","addr":"경기도 용인시 처인구 양지면 주북리 391-4번지","category":"유통업 영리 - 슈퍼마켓"}]},{"lat":"37.23252904","long":"127.31872155","items":[{"name":"치즈버프","tel":"070-7423-6603","addr":"경기도 용인시 처인구 양지면 평창리 237번지 1층","category":"일반휴게음식 - 서양음식"}]},{"lat":"37.234022076","long":"127.2840308","items":[{"name":"친구네","tel":"031-321-7774","addr":"경기도 용인시 처인구 양지면 양지리575-2","category":"일반휴게음식 - 일반한식"}]},{"lat":"37.240189012","long":"127.26667561","items":[{"name":"카맨타워","tel":"031-321-9872","addr":"경기도 용인시 처인구 양지면 주북리 136-2번지","category":"자동차정비 유지 - 자동차부품"}]},{"lat":"37.263381128","long":"127.28253908","items":[{"name":"카페801너에게말을걸다/주식회사 고도","tel":"031-326-0811","addr":"경기도 용인시 처인구 양지면 대대리 801번지 1-2층","category":"일반휴게음식 - 서양음식"}]},{"lat":"37.233994989","long":"127.28023307","items":[{"name":"카페코아","tel":"031-336-8958","addr":"경기도 용인시 처인구 양지면 양지리 560-1번지 1층","category":"일반휴게음식 - 서양음식"},{"name":"코아문구할인마트","tel":"031-334-1175","addr":"경기도 용인시 처인구 양지면 양지리 560-1번지","category":"서적문구 - 문구용품"}]},{"lat":"37.223724262","long":"127.27978983","items":[{"name":"카페포레","tel":"","addr":"경기도 용인시 처인구 양지면 남곡리 898번지 양지포레스토리 상가동 401호","category":"일반휴게음식 - 서양음식"}]},{"lat":"37.243250153","long":"127.3088597","items":[{"name":"칸이벤트","tel":"070-8865-1414","addr":"경기도 용인시 처인구 양지면 제일리 504-4번지 2층 호","category":"용역 서비스 - 사무서비스"}]},{"lat":"37.231497898","long":"127.28833728","items":[{"name":"캐슬","tel":"031-321-2729","addr":"경기도 용인시 처인구 양지면 양지리 492-5번지 모텔캐슬","category":"숙박업 - 여관/기타숙박업"},{"name":"캐슬","tel":"031-321-2729","addr":"경기도 용인시 처인구 양지면 양지리492-5","category":"숙박업 - 여관/기타숙박업"}]},{"lat":"37.262742041","long":"127.278422","items":[{"name":"코드라인 아트","tel":"","addr":"경기도 용인시 처인구 양지면 대대리 620번지 2층","category":"가구 - 기타가구"},{"name":"코드라인(Code line)","tel":"031-211-9033","addr":"경기도 용인시 처인구 양지면 대대리 620번지","category":"일반휴게음식 - 일반한식"}]},{"lat":"37.216556772","long":"127.31758466","items":[{"name":"코윈아이엔지","tel":"031-339-4496","addr":"경기도 용인시 처인구 양지면 평창리 653-5번지","category":"건축자재 - 기타건축자재"}]},{"lat":"37.231582593","long":"127.28683888","items":[{"name":"콩마당","tel":"031-338-0821","addr":"경기도 용인시 처인구 양지면 남곡리 127-18번지 2층","category":"일반휴게음식 - 일반한식"}]},{"lat":"37.247438205","long":"127.243201","items":[{"name":"쿠데타","tel":"031-321-3307","addr":"경기도 용인시 처인구 양지면 주북리 947-1번지","category":"일반휴게음식 - 서양음식"}]},{"lat":"37.230303625","long":"127.28284508","items":[{"name":"쿠키에 반하다 르방","tel":"02-000-0000","addr":"경기도 용인시 처인구 양지면 남곡리 160-14번지 1층 101호","category":"일반휴게음식 - 일반한식"}]},{"lat":"37.236078211","long":"127.28705858","items":[{"name":"크로키","tel":"031-336-3199","addr":"경기도 용인시 처인구 양지면 양지리 450-1번지 1층","category":"일반휴게음식 - 일반한식"}]},{"lat":"37.230445174","long":"127.28394991","items":[{"name":"크린위드 양지점","tel":"031-322-7977","addr":"경기도 용인시 처인구 양지면 남곡리 152-5번지 405동 101호","category":"수리서비스 - 세탁소"}]},{"lat":"37.242747603","long":"127.28253045","items":[{"name":"키즈카페플로레스타","tel":"031-111-1111","addr":"경기도 용인시 처인구 양지면 양지리 316-5번지","category":"일반휴게음식 - 서양음식"}]},{"lat":"37.247601375","long":"127.24712381","items":[{"name":"킹콩부대찌개(용인주북리점)","tel":"031-332-1110","addr":"경기도 용인시 처인구 양지면 주북리 560번지 진성빌딩 1층","category":"일반휴게음식 - 일반한식"}]},{"lat":"37.249358807","long":"127.23801107","items":[{"name":"태창전력","tel":"031-337-1713","addr":"경기도 용인시 처인구 양지면 주북리 888-2번지 1층 101호","category":"전기제품 - 기타전기제품"}]},{"lat":"37.282766891","long":"127.27666824","items":[{"name":"태화산곤드레밥","tel":"031-337-0710","addr":"경기도 용인시 처인구 양지면 대대리 20-1번지","category":"일반휴게음식 - 일반한식"}]},{"lat":"37.227663712","long":"127.27111663","items":[{"name":"테마","tel":"031-321-1996","addr":"경기도 용인시 처인구 양지면 남곡리 256번지","category":"숙박업 - 여관/기타숙박업"}]},{"lat":"37.230278223","long":"127.28969615","items":[{"name":"템프터제이","tel":"031-337-0811","addr":"경기도 용인시 처인구 양지면 양지리 138-12번지","category":"일반휴게음식 - 서양음식"}]},{"lat":"37.217418291","long":"127.25501439","items":[{"name":"토션필드","tel":"031-243-3920","addr":"경기도 용인시 처인구 양지면 송문리 300-1","category":"신변잡화 - 기타잡화"}]},{"lat":"37.248073357","long":"127.25409082","items":[{"name":"토탈P&C","tel":"031-335-5505","addr":"경기도 용인시 처인구 양지면 주북리367-2","category":"기타 - 기타 전문점"}]},{"lat":"37.250887284","long":"127.327139","items":[{"name":"통영굴밥","tel":"031-336-4404","addr":"경기도 용인시 처인구 양지면 추계리 122-1번지","category":"일반휴게음식 - 일반한식"},{"name":"통영굴밥","tel":"031-336-4404","addr":"경기도 용인시 처인구 양지면 추계리 122-1번지 통영굴밥","category":"일반휴게음식 - 일반한식"}]},{"lat":"37.240031342","long":"127.3026483","items":[{"name":"통이","tel":"","addr":"경기도 용인시 처인구 양지면 양지리 2번지 담안빌라 A동 401호","category":"학원 - 기타 교육기관"}]},{"lat":"37.239444595","long":"127.31355506","items":[{"name":"티제이알","tel":"","addr":"경기도 용인시 처인구 양지면 제일리 453-10번지 2층 210호","category":"음료식품 - 기타음료식품"}]},{"lat":"37.261022078","long":"127.27408693","items":[{"name":"팀버랜드","tel":"031-322-9383","addr":"경기도 용인시 처인구 양지면 대대리628","category":"일반휴게음식 - 일반한식"}]},{"lat":"37.260244185","long":"127.24203548","items":[{"name":"파구스","tel":"031-333-3282","addr":"경기도 용인시 처인구 양지면 주북리 697번지 지하1층","category":"일반휴게음식 - 서양음식"}]},{"lat":"37.229720325","long":"127.28938979","items":[{"name":"파로스클럽","tel":"031-335-0889","addr":"경기도 용인시 처인구 양지면 남곡리 123-10번지","category":"레져용품 - 스포츠·레져용품"}]},{"lat":"37.238411856","long":"127.3156695","items":[{"name":"파워특장","tel":"031-339-3870","addr":"경기도 용인시 처인구 양지면 제일리 118번지","category":"자동차정비 유지 - 자동차정비"}]},{"lat":"37.218027785","long":"127.31328695","items":[{"name":"파인타운","tel":"031-339-4407","addr":"경기도 용인시 처인구 양지면 평창리 681-17번지 통나무전원마을펜션 가동","category":"숙박업 - 여관/기타숙박업"}]},{"lat":"37.227938269","long":"127.29227893","items":[{"name":"파인편의점","tel":"070-8171-9878","addr":"경기도 용인시 처인구 양지면 양지리 137-1","category":"유통업 영리 - 슈퍼마켓"}]},{"lat":"37.242666449","long":"127.27086549","items":[{"name":"팔관재전승보전회 삼성사","tel":"031-332-3670","addr":"경기도 용인시 처인구 양지면 주북리 12-5번지","category":"보건위생 - 기타대인서비스"}]},{"lat":"37.234300537","long":"127.28439244","items":[{"name":"펀비어킹(용인양지점)","tel":"031-339-9248","addr":"경기도 용인시 처인구 양지면 양지리 575-3번지","category":"일반휴게음식 - 주점"}]},{"lat":"37.262605036","long":"127.26331544","items":[{"name":"평양막국수","tel":"031-332-1157","addr":"경기도 용인시 처인구 양지면 대대리 429-2번지","category":"일반휴게음식 - 일반한식"}]},{"lat":"37.232745645","long":"127.31858723","items":[{"name":"평창한식","tel":"031-335-6789","addr":"경기도 용인시 처인구 양지면 평창리 237-4번지 1층","category":"일반휴게음식 - 일반한식"}]},{"lat":"37.223803194","long":"127.31336695","items":[{"name":"포니클럽","tel":"031-322-8522","addr":"경기도 용인시 처인구 양지면 평창리 339-1번지","category":"레저업소 - 기타레져업소"}]},{"lat":"37.266073841","long":"127.28311272","items":[{"name":"푸드가","tel":"031-322-7889","addr":"경기도 용인시 처인구 양지면 대대리 843번지 가동","category":"음료식품 - 기타음료식품"}]},{"lat":"37.262407042","long":"127.28295258","items":[{"name":"푸른달빛정원","tel":"031-333-1313","addr":"경기도 용인시 처인구 양지면 대대리 797-3번지","category":"일반휴게음식 - 일반한식"}]},{"lat":"37.228965407","long":"127.27322839","items":[{"name":"푸른솔","tel":"031-323-2328","addr":"경기도 용인시 처인구 양지면 남곡리 233번지","category":"건축자재 - 인테리어전문"}]},{"lat":"37.230720134","long":"127.2895288","items":[{"name":"풍년","tel":"031-338-4211","addr":"경기도 용인시 처인구 양지면 양지리 493-23 19/","category":"일반휴게음식 - 일반한식"},{"name":"한결수산","tel":"031-338-4211","addr":"경기도 용인시 처인구 양지면 양지리 493-23번지","category":"음료식품 - 농·축·수산품"}]},{"lat":"37.261466204","long":"127.28072832","items":[{"name":"프렌드패밀리(한터점)","tel":"031-335-0724","addr":"경기도 용인시 처인구 양지면 대대리 770-6","category":"유통업 영리 - 편 의 점"}]},{"lat":"37.229972692","long":"127.28180717","items":[{"name":"피씨퍼니처 주식회사","tel":"00-1522-7658","addr":"경기도 용인시 처인구 양지면 남곡리 181-1번지","category":"가구 - 기타가구"}]},{"lat":"37.258518983","long":"127.26530789","items":[{"name":"피오리","tel":"","addr":"경기도 용인시 처인구 양지면 대대리 483번지","category":"일반휴게음식 - 서양음식"}]},{"lat":"37.232997412","long":"127.3084802","items":[{"name":"핀아 플라워","tel":"031-338-1101","addr":"경기도 용인시 처인구 양지면 제일리 245번지","category":"문화.취미 - 화원"}]},{"lat":"37.237886365","long":"127.30639254","items":[{"name":"하늘꽃식물원","tel":"031-769-3268","addr":"경기도 용인시 처인구 양지면 제일리595","category":"문화.취미 - 화원"}]},{"lat":"37.217495237","long":"127.3136453","items":[{"name":"하늘이닿는집","tel":"031-321-7355","addr":"경기도 용인시 처인구 양지면 평창리661-9","category":"숙박업 - 여관/기타숙박업"}]},{"lat":"37.238158571","long":"127.28748336","items":[{"name":"하우젠 에어컨","tel":"02-1577-3321","addr":"경기도 용인시 처인구 양지면 양지리 383-4번지 대성주택","category":"용역 서비스 - 기타용역서비스"}]},{"lat":"37.236049003","long":"127.28419609","items":[{"name":"하은헤어","tel":"031-333-0508","addr":"경기도 용인시 처인구 양지면 양지리598-7","category":"보건위생 - 미용원"}]},{"lat":"37.235218107","long":"127.28120669","items":[{"name":"한국유통","tel":"031-321-6200","addr":"경기도 용인시 처인구 양지면 양지리 617번지","category":"유통업 영리 - 슈퍼마켓"}]},{"lat":"37.228106412","long":"127.2705886","items":[{"name":"한국전통발효식품협동조합","tel":"031-321-7800","addr":"경기도 용인시 처인구 양지면 양지리 790-3번지","category":"음료식품 - 기타음료식품"},{"name":"행복한마당","tel":"031-321-7800","addr":"경기도 용인시 처인구 양지면 양지리 790-3번지","category":"일반휴게음식 - 일반한식"}]},{"lat":"37.256219994","long":"127.2403432","items":[{"name":"한상차림","tel":"031-332-8868","addr":"경기도 용인시 처인구 양지면 주북리716","category":"일반휴게음식 - 일반한식"}]},{"lat":"37.251966104","long":"127.26230947","items":[{"name":"한옥에서의 하루 예랑","tel":"","addr":"경기도 용인시 처인구 양지면 주북리 324-3번지 A동,B동(예랑)","category":"숙박업 - 여관/기타숙박업"}]},{"lat":"37.252074573","long":"127.26215203","items":[{"name":"한옥에서의 하루 예랑","tel":"","addr":"경기도 용인시 처인구 양지면 주북리 324-1번지","category":"숙박업 - 여관/기타숙박업"}]},{"lat":"37.252020955","long":"127.26194896","items":[{"name":"한옥에서의 하루-예랑","tel":"031-000-0000","addr":"경기도 용인시 처인구 양지면 주북리 324-2번지","category":"숙박업 - 여관/기타숙박업"}]},{"lat":"37.234386582","long":"127.28609437","items":[{"name":"한일식당","tel":"031-338-3737","addr":"경기도 용인시 처인구 양지면 448","category":"일반휴게음식 - 일반한식"},{"name":"한일정육점","tel":"031-338-3737","addr":"경기도 용인시 처인구 양지면 양지리448","category":"음료식품 - 정육점"}]},{"lat":"37.225361203","long":"127.26114789","items":[{"name":"한진샤링","tel":"031-335-0351","addr":"경기도 용인시 처인구 양지면 송문리 134-1번지","category":"기타 - 기계공구"}]},{"lat":"37.254548636","long":"127.23806102","items":[{"name":"한터골프","tel":"031-322-7661","addr":"경기도 용인시 처인구 양지면 주북리 1110번지 1층 103,104호","category":"레져용품 - 골프용품 전문점"},{"name":"한터스크린","tel":"031-337-0795","addr":"경기도 용인시 처인구 양지면 주북리 1110번지 3층 301-309호","category":"레저업소 - 스크린골프"}]},{"lat":"37.259718955","long":"127.27653971","items":[{"name":"한터낚시공원","tel":"031-322-2782","addr":"경기도 용인시 처인구 양지면 대대리 639-1번지","category":"레저업소 - 기타레져업소"}]},{"lat":"37.270051813","long":"127.26544938","items":[{"name":"한터농원영농조합법인","tel":"031-332-3685","addr":"경기도 용인시 처인구 양지면 대대리 95-1번지 1층 축사","category":"학원 - 기타 교육기관"}]},{"lat":"37.262021707","long":"127.28206058","items":[{"name":"한터농장가든","tel":"031-339-6999","addr":"경기도 용인시 처인구 양지면 대대리 789번지","category":"일반휴게음식 - 일반한식"}]},{"lat":"37.264659348","long":"127.28306238","items":[{"name":"한터마을","tel":"031-339-9332","addr":"경기도 용인시 처인구 양지면 대대리 803-3","category":"일반휴게음식 - 스넥"}]},{"lat":"37.261105928","long":"127.28067063","items":[{"name":"한터시골농장","tel":"031-339-6600","addr":"경기도 용인시 처인구 양지면 대대리 773 1.2.3층","category":"일반휴게음식 - 일반한식"}]},{"lat":"37.257601037","long":"127.2767575","items":[{"name":"한터장수오리골","tel":"031-321-0860","addr":"경기도 용인시 처인구 양지면 대대리 665-1번지 (665)","category":"일반휴게음식 - 일반한식"}]},{"lat":"37.272931939","long":"127.26686872","items":[{"name":"한터캠프청소년수련원","tel":"031-334-7877","addr":"경기도 용인시 처인구 양지면 대대리 70번지","category":"숙박업 - 여관/기타숙박업"}]},{"lat":"37.26057385","long":"127.2525654","items":[{"name":"한터팜펜션","tel":"031-322-6611","addr":"경기도 용인시 처인구 양지면 대대리 299-1번지","category":"숙박업 - 여관/기타숙박업"}]},{"lat":"37.228274082","long":"127.29859033","items":[{"name":"함지박","tel":"031-336-8758","addr":"경기도 용인시 처인구 양지면 제일리 667-1번지","category":"일반휴게음식 - 일반한식"}]},{"lat":"37.236165495","long":"127.28823091","items":[{"name":"항아리농장","tel":"031-338-8150","addr":"경기도 용인시 처인구 양지면 양지리 441번지","category":"일반휴게음식 - 일반한식"}]},{"lat":"37.225271734","long":"127.29206592","items":[{"name":"해오름마트","tel":"031-338-1101","addr":"경기도 용인시 처인구 양지면 남곡리 70-1번지 첼시 1층 101호","category":"유통업 영리 - 슈퍼마켓"}]},{"lat":"37.253497474","long":"127.24548588","items":[{"name":"해창상사","tel":"031-334-3929","addr":"경기도 용인시 처인구 양지면 주북리 803-12 외2필지","category":"신변잡화 - 기타잡화"}]},{"lat":"37.241659715","long":"127.31064521","items":[{"name":"핸디페어 용인 구갈점","tel":"031-339-5024","addr":"경기도 용인시 처인구 양지면 제일리 477-64 삼성전원마을 D-21","category":"수리서비스 - 기타수리서비스"}]},{"lat":"37.21694619","long":"127.3202226","items":[{"name":"햇빛농원","tel":"","addr":"경기도 용인시 처인구 양지면 평창리 640-11번지","category":"음료식품 - 농·축·수산품"}]},{"lat":"37.234634638","long":"127.28408942","items":[{"name":"햇살북카페","tel":"070-8879-9177","addr":"경기도 용인시 처인구 양지면 양지리 592-2번지 2층","category":"일반휴게음식 - 서양음식"}]},{"lat":"37.232465832","long":"127.29780662","items":[{"name":"행복국밥","tel":"031-322-4559","addr":"경기도 용인시 처인구 양지면 양지리 117-5번지","category":"일반휴게음식 - 일반한식"}]},{"lat":"37.231913976","long":"127.28389901","items":[{"name":"헤어카페","tel":"031-322-8503","addr":"경기도 용인시 처인구 양지면 남곡리 169번지 1층 101호","category":"보건위생 - 미용원"}]},{"lat":"37.230770401","long":"127.28736545","items":[{"name":"헤이미쉬티","tel":"","addr":"경기도 용인시 처인구 양지면 남곡리 126-12번지 나동 302호","category":"신변잡화 - 가방"}]},{"lat":"37.245491763","long":"127.26045016","items":[{"name":"현대3급자동차공업사","tel":"031-338-0084","addr":"경기도 용인시 처인구 양지면 주북리271-6","category":"자동차정비 유지 - 자동차정비"}]},{"lat":"37.233801387","long":"127.28964188","items":[{"name":"현대카센타","tel":"031-338-1790","addr":"경기도 용인시 처인구 양지면 양지리 486-2번지","category":"자동차정비 유지 - 자동차정비"}]},{"lat":"37.230909972","long":"127.27395651","items":[{"name":"현진정밀기계","tel":"031-321-0885","addr":"경기도 용인시 처인구 양지면 양지리 539-4","category":"건축자재 - 목재·석재·철물"}]},{"lat":"37.228777156","long":"127.29189902","items":[{"name":"호텔마리","tel":"031-321-0212","addr":"경기도 용인시 처인구 양지면 양지리 138-42번지 모텔황태자","category":"숙박업 - 여관/기타숙박업"}]},{"lat":"37.230105143","long":"127.29047301","items":[{"name":"호텔미","tel":"031-321-4104","addr":"경기도 용인시 처인구 양지면 양지리 493-54번지","category":"숙박업 - 여관/기타숙박업"}]},{"lat":"37.233778954","long":"127.28014213","items":[{"name":"홀인원스크린골프","tel":"031-335-0043","addr":"경기도 용인시 처인구 양지면 양지리 559-1 2층","category":"회원제형태 - 레져업소"}]},{"lat":"37.228799097","long":"127.29028776","items":[{"name":"홈마켓","tel":"031-336-5289","addr":"경기도 용인시 처인구 양지면 남곡리 123-2번지","category":"유통업 영리 - 슈퍼마켓"}]},{"lat":"37.234025545","long":"127.28256585","items":[{"name":"홍쌤과외교실","tel":"031-323-1695","addr":"경기도 용인시 처인구 양지면 양지리 568-11번지 현대파크 102호","category":"학원 - 보습학원"}]},{"lat":"37.234635681","long":"127.28364993","items":[{"name":"홍인의료소비자생활협동조합/우리현대의원","tel":"031-338-8012","addr":"경기도 용인시 처인구 양지면 양지리 627-3번지","category":"의원 - 의원"}]},{"lat":"37.254936843","long":"127.24217652","items":[{"name":"환호종합건설","tel":"031-339-0042","addr":"경기도 용인시 처인구 양지면 주북리 769-4번지 1층","category":"용역 서비스 - 기타용역서비스"}]},{"lat":"37.239359222","long":"127.318581","items":[{"name":"황순옥옛날감자탕","tel":"031-334-6121","addr":"경기도 용인시 처인구 양지면 제일리 139-1번지","category":"일반휴게음식 - 일반한식"}]},{"lat":"37.227139383","long":"127.27970091","items":[{"name":"회영식당","tel":"031-321-3132","addr":"경기도 용인시 처인구 양지면 남곡리 420-6번지","category":"일반휴게음식 - 일반한식"}]},{"lat":"37.230025664","long":"127.28980788","items":[{"name":"효담정육점","tel":"031-333-0082","addr":"경기도 용인시 처인구 양지면 양지리 138-16번지","category":"음료식품 - 정육점"},{"name":"효담정육점식당","tel":"","addr":"경기도 용인시 처인구 양지면 양지리 138-16번지","category":"일반휴게음식 - 일반한식"}]},{"lat":"37.248575622","long":"127.31900266","items":[{"name":"후하","tel":"031-338-1101","addr":"경기도 용인시 처인구 양지면 추계리 189-2번지","category":"유통업 영리 - 편 의 점"},{"name":"후하참숯고기","tel":"031-338-5275","addr":"경기도 용인시 처인구 양지면 추계리 189-2 외1필지","category":"일반휴게음식 - 일반한식"}]},{"lat":"37.239746312","long":"127.25901062","items":[{"name":"힐링메이커","tel":"","addr":"경기도 용인시 처인구 양지면 주북리 201-1번지","category":"가구 - 일반가구"}]}]