[{"lat":"37.702805797","long":"127.49213614","items":[{"name":"(주)캠프통포레스트","tel":"031-584-6000","addr":"경기도 가평군 설악면 사룡리 234-1번지","category":"숙박업 - 여관/기타숙박업"}]},{"lat":"37.697885703","long":"127.48358845","items":[{"name":"GS25인재개발원점","tel":"02-2006-2485","addr":"경기도 가평군 설악면 사룡리 525번지 인재개발원 B1층","category":"유통업 영리 - 편 의 점"}]},{"lat":"37.698972171","long":"127.50182834","items":[{"name":"blossom view","tel":"031-584-6932","addr":"경기도 가평군 설악면 사룡리 산 3-154 1층","category":"숙박업 - 여관/기타숙박업"}]},{"lat":"37.697752273","long":"127.50480223","items":[{"name":"가평 레이크카운티 수상레저","tel":"031-584-5886","addr":"경기도 가평군 설악면 사룡리 산 3-141번지","category":"레저업소 - 기타레져업소"},{"name":"레이크카운티","tel":"","addr":"경기도 가평군 설악면 사룡리 산 3-141","category":"레저업소 - 기타레져업소"}]},{"lat":"37.691968642","long":"127.48745045","items":[{"name":"나루수상","tel":"031-000-0000","addr":"경기도 가평군 설악면 사룡리 612-22번지","category":"레저업소 - 기타레져업소"}]},{"lat":"37.698689811","long":"127.50255213","items":[{"name":"라인247수상레저","tel":"","addr":"경기도 가평군 설악면 사룡리 14-7번지","category":"레져용품 - 스포츠·레져용품"}]},{"lat":"37.695918667","long":"127.48431275","items":[{"name":"레이크베이","tel":"031-584-4001","addr":"경기도 가평군 설악면 사룡리 543번지","category":"음료식품 - 기타음료식품"}]},{"lat":"37.69780821","long":"127.5043604","items":[{"name":"레이크카운티자잠골","tel":"031-584-5886","addr":"경기도 가평군 설악면 사룡리 산3-36번지","category":"일반휴게음식 - 일반한식"}]},{"lat":"37.697914361","long":"127.48977956","items":[{"name":"수영인의마을","tel":"031-584-5862","addr":"경기도 가평군 설악면 사룡리 185-2","category":"일반휴게음식 - 일반한식"}]},{"lat":"37.695917872","long":"127.50819138","items":[{"name":"썸머타임 수상레져","tel":"031-584-5830","addr":"경기도 가평군 설악면 사룡리 6-1번지","category":"레저업소 - 기타레져업소"}]},{"lat":"37.691306392","long":"127.48855724","items":[{"name":"아말피","tel":"031-584-7111","addr":"경기도 가평군 설악면 사룡리 610-2번지 2층","category":"숙박업 - 여관/기타숙박업"},{"name":"아말피","tel":"031-584-7111","addr":"경기도 가평군 설악면 사룡리 610-2번지 1층","category":"일반휴게음식 - 서양음식"}]},{"lat":"37.696082176","long":"127.5076936","items":[{"name":"아쿠아비타펜션","tel":"031-585-8797","addr":"경기도 가평군 설악면 사룡리 9-37번지","category":"숙박업 - 여관/기타숙박업"}]},{"lat":"37.701055684","long":"127.49700048","items":[{"name":"어거스트 매점","tel":"031-584-3365","addr":"경기도 가평군 설악면 사룡리 140-2번지 1층","category":"음료식품 - 기타음료식품"},{"name":"호텔8월(청평점)","tel":"031-584-3365","addr":"경기도 가평군 설악면 사룡리 140-2번지","category":"신변잡화 - 기타잡화"}]},{"lat":"37.695972268","long":"127.50811238","items":[{"name":"쥬얼리","tel":"031-584-8845","addr":"경기도 가평군 설악면 사룡리 6-2번지","category":"숙박업 - 여관/기타숙박업"}]},{"lat":"37.697139139","long":"127.49205355","items":[{"name":"천섬화통삼가평점","tel":"031-584-9240","addr":"경기도 가평군 설악면 사룡리 177-4번지","category":"일반휴게음식 - 일반한식"}]},{"lat":"37.703079449","long":"127.48914431","items":[{"name":"청평우리집","tel":"031-585-8122","addr":"경기도 가평군 설악면 사룡리 225-7번지 1층","category":"숙박업 - 여관/기타숙박업"}]},{"lat":"37.701530332","long":"127.49119794","items":[{"name":"청평호오케이펜션","tel":"031-585-7292","addr":"경기도 가평군 설악면 사룡리 217","category":"숙박업 - 여관/기타숙박업"}]},{"lat":"37.700802711","long":"127.49716888","items":[{"name":"팅 어거스트 수상레저","tel":"02-0000-0000","addr":"경기도 가평군 설악면 사룡리 133-3번지","category":"레저업소 - 기타레져업소"}]},{"lat":"37.698805394","long":"127.50291575","items":[{"name":"하이수상레저","tel":"","addr":"경기도 가평군 설악면 사룡리 산 3-145 지선","category":"레저업소 - 기타레져업소"}]},{"lat":"37.699025987","long":"127.50188539","items":[{"name":"화이트큐브24","tel":"031-584-6932","addr":"경기도 가평군 설악면 사룡리 9-65번지","category":"일반휴게음식 - 일반한식"}]}]