[{"lat":"38.090447917","long":"127.27068208","items":[{"name":"88반점","tel":"031-531-0002","addr":"경기도 포천시 영북면 운천리 517-18번지","category":"일반휴게음식 - 중국식"},{"name":"하오츠","tel":"031-531-9294","addr":"경기도 포천시 영북면 운천리 517-18","category":"일반휴게음식 - 중국식"}]},{"lat":"38.077778967","long":"127.27559365","items":[{"name":"88수산","tel":"031-534-8977","addr":"경기도 포천시 영북면 운천리 260-7번지","category":"음료식품 - 농·축·수산품"},{"name":"한국판넬","tel":"031-534-3272","addr":"경기도 포천시 영북면 운천리 260-7번지","category":"기타 - 기계공구"}]},{"lat":"38.091450834","long":"127.27334178","items":[{"name":"CROWN(크라운)","tel":"031-534-8465","addr":"경기도 포천시 영북면 운천리 505-11번지","category":"용역 서비스 - 종합용역"},{"name":"만나푸드","tel":"533-3253","addr":"경기도 포천시 영북면 운천리 505-11번지","category":"음식 - 분식"},{"name":"전의전쟁","tel":"031-534-8465","addr":"경기도 포천시 영북면 운천리 505-11번지","category":"일반휴게음식 - 일반한식"},{"name":"주식회사 조은","tel":"031-531-0178","addr":"경기도 포천시 영북면 운천리 505-11번지","category":"여행 - 관광여행"},{"name":"청춘호프","tel":"031-531-9056","addr":"경기도 포천시 영북면 운천리 505-11번지 1층","category":"일반휴게음식 - 주점"}]},{"lat":"38.090943537","long":"127.2706269","items":[{"name":"CU운천점","tel":"532-4317","addr":"경기도 포천시 영북면 운천리 517-14번지","category":"소매업 - 편의점"},{"name":"멍멍톡톡","tel":"031-533-1766","addr":"경기도 포천시 영북면 운천리 517-14번지 2층","category":"문화.취미 - 애완동물"}]},{"lat":"38.09080752","long":"127.27101397","items":[{"name":"FA매직헤어","tel":"031-534-3994","addr":"경기도 포천시 영북면 운천리 517-20번지","category":"서비스 - 미용실"},{"name":"FM(에프엠)","tel":"031-534-2577","addr":"경기도 포천시 영북면 운천리 517-20번지","category":"숙박업 - 여관/기타숙박업"},{"name":"FM노래연습장","tel":"031-534-2577","addr":"경기도 포천시 영북면 운천리 517-20번지","category":"레저업소 - 노 래 방"},{"name":"에프엠 (FM)","tel":"031-534-2577","addr":"경기도 포천시 영북면 운천리 517-20번지","category":"유통업 영리 - 슈퍼마켓"},{"name":"에프엠(FM)노래연습장","tel":"031-534-2577","addr":"경기도 포천시 영북면 운천리 517-20번지","category":"레저업소 - 노 래 방"}]},{"lat":"38.091336388","long":"127.27217863","items":[{"name":"FM매직헤어","tel":"031-534-3994","addr":"경기도 포천시 영북면 운천리 513-16번지","category":"보건위생 - 미용원"},{"name":"나나노래방","tel":"-","addr":"경기도 포천시 영북면 운천리 513-16번지","category":"서비스 - 노래연습장"},{"name":"나나노래연습장","tel":"031-534-9370","addr":"경기도 포천시 영북면 운천리 513-16번지","category":"레저업소 - 노 래 방"},{"name":"나나노래연습장","tel":"031-534-9370","addr":"경기도 포천시 영북면 운천리 513-16번지 2층","category":"레저업소 - 노 래 방"},{"name":"르네헤어","tel":"031-532-3353","addr":"경기도 포천시 영북면 운천리 513-16번지","category":"보건위생 - 미용원"}]},{"lat":"38.091004831","long":"127.27140227","items":[{"name":"GS25운천본","tel":"-","addr":"경기도 포천시 영북면 운천리 516-6번지","category":"편의점 - 편의점"},{"name":"GS25운천본점","tel":"531-6146","addr":"경기도 포천시 영북면 운천리 516-6번지","category":"소매업 - 편의점"},{"name":"GS25운천본점","tel":"531-6146","addr":"경기도 포천시 영북면 운천리 516-6번지","category":"편의점 - 잡화"},{"name":"GS25운천본점","tel":"","addr":"경기도 포천시 영북면 운천리 516-6번지","category":"유통업 영리 - 편 의 점"},{"name":"신화사","tel":"532-5257","addr":"경기도 포천시 영북면 운천리 516-6번지","category":"소매업 - 금은방"},{"name":"아이비스PC(포천운천점)","tel":"070-8745-3452","addr":"경기도 포천시 영북면 운천리 516-6번지 2층","category":"레저업소 - 기타레져업소"},{"name":"안선아미용실","tel":"031-533-6080","addr":"경기도 포천시 영북면 운천리 516-6번지","category":"보건위생 - 미용원"}]},{"lat":"38.090782808","long":"127.27393207","items":[{"name":"HI음악","tel":"031-111-1111","addr":"경기도 포천시 영북면 운천리 506-22번지 3층 오근빌딩","category":"학원 - 예·체능계학원"},{"name":"뼈다귀천국","tel":"031-534-3335","addr":"경기도 포천시 영북면 운천리 506-22번지 1층 오근빌딩","category":"일반휴게음식 - 일반한식"},{"name":"뼈다귀천국(운천점)","tel":"534-3335","addr":"경기도 포천시 영북면 운천리 506-22번지","category":"음식 - 한식"}]},{"lat":"38.09114621","long":"127.26865557","items":[{"name":"K.L.E.C","tel":"031-532-5311","addr":"경기도 포천시 영북면 운천리 523-17번지","category":"회원제형태 - 기타4"},{"name":"토지무도장","tel":"031-532-4817","addr":"경기도 포천시 영북면 운천리 523-17번지","category":"학원 - 예·체능계학원"}]},{"lat":"38.091696517","long":"127.27618111","items":[{"name":"LEATHER ROSA","tel":"","addr":"경기도 포천시 영북면 운천리 353-1번지 산내들아이파크 204동 6층 604호","category":"신변잡화 - 액세서리"},{"name":"산내들어린이집[아이행복]","tel":"031-533-3113","addr":"경기도 포천시 영북면 운천리 353-1번지 산내들아이파크","category":"학원 - 유아원"}]},{"lat":"38.091027021","long":"127.2735112","items":[{"name":"Q-BOX당구장","tel":"031-534-5988","addr":"경기도 포천시 영북면 운천리 506-8번지 2층","category":"레저업소 - 당 구 장"},{"name":"구이가","tel":"031-534-6998","addr":"경기도 포천시 영북면 운천리 506-8번지 1층","category":"일반휴게음식 - 일반한식"},{"name":"구이가운천점","tel":"031-534-6988","addr":"경기도 포천시 영북면 운천리 506-8번지","category":"일반휴게음식 - 일반한식"}]},{"lat":"38.08816719","long":"127.27523327","items":[{"name":"㈜피트로랩","tel":"532-5401","addr":"경기도 포천시 영북면 운천리 338-7번지","category":"도소매 - 에너지"}]},{"lat":"38.088889645","long":"127.27448363","items":[{"name":"강남보일러","tel":"031-534-5161","addr":"경기도 포천시 영북면 운천리 539-4번지 7통8반","category":"건축자재 - 보일러·펌프·샷시"},{"name":"종점마트","tel":"532-5372","addr":"경기도 포천시 영북면 운천리 539-4번지","category":"소매업 - 잡화"}]},{"lat":"38.082619001","long":"127.29709668","items":[{"name":"강원한약방","tel":"031-532-5275","addr":"경기도 포천시 영북면 운천리 2","category":"약국 - 한약방"},{"name":"박태호라사","tel":"031-532-5933","addr":"경기도 포천시 영북면 운천리 2번지","category":"의류 - 맞춤복점"}]},{"lat":"38.091417912","long":"127.27198514","items":[{"name":"갤러리PC","tel":"070-6331-1148","addr":"경기도 포천시 영북면 운천리 513-6번지 1층","category":"레저업소 - 기타레져업소"},{"name":"리틀비틀","tel":"031-533-7285","addr":"경기도 포천시 영북면 운천리 513-6번지 2층","category":"일반휴게음식 - 일반한식"}]},{"lat":"38.088811375","long":"127.26931965","items":[{"name":"경동목공소","tel":"031-534-3851","addr":"경기도 포천시 영북면 운천리 552-51, 8/5","category":"건축자재 - 목재·석재·철물"}]},{"lat":"38.088142352","long":"127.27428708","items":[{"name":"경동하우징","tel":"031-532-5507","addr":"경기도 포천시 영북면 운천리 539-37번지","category":"용역 서비스 - 기타용역서비스"}]},{"lat":"38.079389846","long":"127.27634046","items":[{"name":"광주식당","tel":"031-533-3579","addr":"경기도 포천시 영북면 운천리 270-15","category":"일반휴게음식 - 일반한식"}]},{"lat":"38.088918592","long":"127.27365162","items":[{"name":"교원학원","tel":"031-532-0272","addr":"경기도 포천시 영북면 운천리 511-14번지","category":"회원제형태 - 학원"},{"name":"몬테소리어린이집[아이행복]","tel":"031-531-4906","addr":"경기도 포천시 영북면 운천리 511-14번지","category":"학원 - 유아원"},{"name":"이화음악학원","tel":"","addr":"경기도 포천시 영북면 운천리 511-14번지","category":"교육서비스 - 학원"}]},{"lat":"38.090890133","long":"127.27034172","items":[{"name":"구이마루","tel":"070-8153-7059","addr":"경기도 포천시 영북면 운천리 517-33","category":"일반휴게음식 - 일반한식"},{"name":"구이마루","tel":"070-8153-7059","addr":"경기도 포천시 영북면 운천리 517-33번지","category":"음식 - 한식"}]},{"lat":"38.074646967","long":"127.28570226","items":[{"name":"국수집","tel":"031-532-9920","addr":"경기도 포천시 영북면 운천리 235-19번지","category":"일반휴게음식 - 일반한식"},{"name":"약사골흑염소요리전문점","tel":"532-9920","addr":"경기도 포천시 영북면 운천리 235-19번지","category":"음식 - 한식"}]},{"lat":"38.090638473","long":"127.26608892","items":[{"name":"굴다리편의점","tel":"031-534-7083","addr":"경기도 포천시 영북면 운천리 583-72번지","category":"유통업 영리 - 편 의 점"},{"name":"운천중앙종합설비","tel":"031-533-4950","addr":"경기도 포천시 영북면 운천리 583-72","category":"용역 서비스 - 기타용역서비스"},{"name":"현대창호집수리","tel":"031-532-7083","addr":"경기도 포천시 영북면 운천리 583-72","category":"용역 서비스 - 기타용역서비스"}]},{"lat":"38.091450125","long":"127.27364955","items":[{"name":"굽네치킨 운천점","tel":"031-534-9493","addr":"경기도 포천시 영북면 운천리 505-45번지","category":"일반휴게음식 - 스넥"},{"name":"움터광고","tel":"031-531-2848","addr":"경기도 포천시 영북면 운천리 505-45","category":"용역 서비스 - 종합용역"}]},{"lat":"38.077811003","long":"127.28114419","items":[{"name":"굿미디어","tel":"","addr":"경기도 포천시 영북면 운천리 217번지","category":"용역 서비스 - 종합용역"}]},{"lat":"38.090336188","long":"127.27226615","items":[{"name":"기활력엄마반찬","tel":"031-531-2791","addr":"경기도 포천시 영북면 운천리 513-56번지 1층","category":"음료식품 - 기타음료식품"},{"name":"기활력엄마반찬","tel":"531-2791","addr":"경기도 포천시 영북면 운천리 513-56번지","category":"소매업 - 반찬"}]},{"lat":"38.090088227","long":"127.27431708","items":[{"name":"김밥천국운천점","tel":"031-531-3558","addr":"경기도 포천시 영북면 운천리 509-13번지","category":"일반휴게음식 - 스넥"},{"name":"김밥천국운천점","tel":"531-3558","addr":"경기도 포천시 영북면 운천리 509-13번지 1층","category":"음식 - 분식"},{"name":"닥터폰인하텔레콤","tel":"031-531-5945","addr":"경기도 포천시 영북면 운천리 509-13","category":"사무통신 - 통신기기"},{"name":"종점마트","tel":"031-534-5372","addr":"경기도 포천시 영북면 운천리 509-13번지 1층","category":"문화.취미 - 화원"},{"name":"터미널곱창","tel":"031-532-1700","addr":"경기도 포천시 영북면 운천리 509-13번지","category":"일반휴게음식 - 일반한식"},{"name":"터미널곱창","tel":"532-1700","addr":"경기도 포천시 영북면 운천리 509-13번지 1층","category":"음식 - 한식"}]},{"lat":"38.090169886","long":"127.2740666","items":[{"name":"김선생 안경","tel":"031-534-2494","addr":"경기도 포천시 영북면 운천리 509-1번지","category":"보건위생 - 안경"}]},{"lat":"38.090918914","long":"127.2735108","items":[{"name":"까페베네운천점","tel":"534-4580","addr":"경기도 포천시 영북면 운천리 506-11번지 1층","category":"음식 - 커피 등"},{"name":"비비큐 운천점","tel":"031-1588-9282","addr":"경기도 포천시 영북면 운천리 506-11번지 1층","category":"일반휴게음식 - 스넥"},{"name":"전우사","tel":"031-534-6374","addr":"경기도 포천시 영북면 운천리 506-11","category":"신변잡화 - 기념품점"},{"name":"카페베네 운천점","tel":"031-534-4580","addr":"경기도 포천시 영북면 운천리 506-11번지 1층","category":"일반휴게음식 - 서양음식"},{"name":"포크(Fork)","tel":"","addr":"경기도 포천시 영북면 운천리 506-11번지","category":"일반휴게음식 - 일반한식"}]},{"lat":"38.089221762","long":"127.27500921","items":[{"name":"꼬꼬마","tel":"031-536-0288","addr":"경기도 포천시 영북면 운천리 340-3번지 2층","category":"일반휴게음식 - 일반한식"}]},{"lat":"38.090334933","long":"127.27281331","items":[{"name":"꼬마네 옷장","tel":"031-532-9532","addr":"경기도 포천시 영북면 운천리 513-29번지","category":"의류 - 아동의류"},{"name":"예그린음악학원","tel":"534-5370","addr":"경기도 포천시 영북면 운천리 513-29번지","category":"교육서비스 - 학원"},{"name":"오렌지","tel":"031-536-3672","addr":"경기도 포천시 영북면 운천리 513-29번지","category":"의류 - 정장"}]},{"lat":"38.091421218","long":"127.27053744","items":[{"name":"꿀벌장","tel":"031-532-5064","addr":"경기도 포천시 영북면 운천리 518-51번지","category":"숙박업 - 여관/기타숙박업"}]},{"lat":"38.089694828","long":"127.27301613","items":[{"name":"꿈의궁전","tel":"031-531-0508","addr":"경기도 포천시 영북면 운천리 512-61번지","category":"숙박업 - 여관/기타숙박업"}]},{"lat":"38.091057503","long":"127.27200662","items":[{"name":"나들목","tel":"031-532-5476","addr":"경기도 포천시 영북면 운천리 513-8번지","category":"일반휴게음식 - 일반한식"},{"name":"대신정육점식당","tel":"031-531-4288","addr":"경기도 포천시 영북면 운천리 513-8, 514-7","category":"일반휴게음식 - 일반한식"},{"name":"안경마트","tel":"532-0700","addr":"경기도 포천시 영북면 운천리 513-8번지","category":"소매업 - 안경점"},{"name":"영북정육점","tel":"031-531-4945","addr":"경기도 포천시 영북면 운천리 513-8번지","category":"음료식품 - 정육점"}]},{"lat":"38.090645801","long":"127.2708196","items":[{"name":"남양여관","tel":"031-533-3050","addr":"경기도 포천시 영북면 운천리 517-17","category":"숙박업 - 여관/기타숙박업"}]},{"lat":"38.091058129","long":"127.27173304","items":[{"name":"네네치킨운천점","tel":"534-9293","addr":"경기도 포천시 영북면 운천리 514-8번지 1층","category":"음식 - 치킨등"},{"name":"네네치킨운천점","tel":"031-534-9293","addr":"경기도 포천시 영북면 운천리 514-8번지 1동","category":"일반휴게음식 - 스넥"},{"name":"수용DC마트","tel":"031-534-1810","addr":"경기도 포천시 영북면 운천리 514-8번지","category":"신변잡화 - 기타잡화"},{"name":"포천 운천서점","tel":"031-531-5772","addr":"경기도 포천시 영북면 운천리 514-8번지","category":"서적문구 - 일반서적"},{"name":"포천연합서점","tel":"531-5772","addr":"경기도 포천시 영북면 운천리 514-8번지","category":"도매업 - 서점"}]},{"lat":"38.091172449","long":"127.27295318","items":[{"name":"네일앤젤(nail N.gel)","tel":"070-2755-1524","addr":"경기도 포천시 영북면 운천리 506-35번지","category":"보건위생 - 미용재료"}]},{"lat":"38.08980895","long":"127.27431604","items":[{"name":"농민상회","tel":"031-532-5201","addr":"경기도 포천시 영북면 운천리 509-8번지","category":"농업 - 비료,사료,종자"}]},{"lat":"38.091443998","long":"127.27239561","items":[{"name":"누굴돼지로아나","tel":"531-0570","addr":"경기도 포천시 영북면 운천리 513-5번지","category":"음식 - 한식"},{"name":"누굴돼지로아나?","tel":"031-531-0570","addr":"경기도 포천시 영북면 운천리 513-5번지","category":"일반휴게음식 - 일반한식"},{"name":"땡큐","tel":"532-8444","addr":"경기도 포천시 영북면 운천리 513-5번지","category":"음식 - 양식"},{"name":"땡큐","tel":"031-532-8444","addr":"경기도 포천시 영북면 운천리 513-5번지 2층","category":"일반휴게음식 - 일반한식"},{"name":"밥그릇","tel":"","addr":"경기도 포천시 영북면 운천리 513-5번지","category":"음식 - 한식"},{"name":"밥그릇","tel":"031-532-8444","addr":"경기도 포천시 영북면 운천리 513-5번지","category":"일반휴게음식 - 일반한식"},{"name":"이디야 커피","tel":"031-532-7075","addr":"경기도 포천시 영북면 운천리 513-5번지","category":"일반휴게음식 - 서양음식"},{"name":"이디야커피(운천점)","tel":"532-7075","addr":"경기도 포천시 영북면 운천리 513-5번지 1층","category":"음식 - 커피 등"}]},{"lat":"38.090813243","long":"127.27245029","items":[{"name":"누나네","tel":"031-535-2240","addr":"경기도 포천시 영북면 운천리 513-22번지","category":"일반휴게음식 - 일반한식"},{"name":"누나네","tel":"535-2240","addr":"경기도 포천시 영북면 운천리 513-22번지","category":"음식 - 한식"},{"name":"명보닭갈비","tel":"031-531-2692","addr":"경기도 포천시 영북면 운천리 513-22번지","category":"일반휴게음식 - 일반한식"}]},{"lat":"38.091415558","long":"127.27301107","items":[{"name":"늘봄화원","tel":"031-532-5582","addr":"경기도 포천시 영북면 운천리 505-43","category":"문화.취미 - 화원"},{"name":"늘봄화원","tel":"532-5582","addr":"경기도 포천시 영북면 운천리 505-43번지","category":"도소매 - 꽃,생화"}]},{"lat":"38.090532291","long":"127.2731788","items":[{"name":"다미추어탕","tel":"532-6065","addr":"경기도 포천시 영북면 운천리 506-17번지","category":"음식 - 한식"},{"name":"다미추어탕","tel":"031-532-6065","addr":"경기도 포천시 영북면 운천리 506-17번지","category":"일반휴게음식 - 일반한식"},{"name":"호식이두마리치킨(영북점)","tel":"031-532-8089","addr":"경기도 포천시 영북면 운천리 506-17번지 1층","category":"일반휴게음식 - 스넥"},{"name":"호식이두마리치킨영북점","tel":"532-8089","addr":"경기도 포천시 영북면 운천리 506-17번지","category":"음식 - 치킨"}]},{"lat":"38.091888981","long":"127.27084693","items":[{"name":"다온다네","tel":"","addr":"경기도 포천시 영북면 운천리 518-10번지","category":"의류 - 내의판매"}]},{"lat":"38.091364302","long":"127.27179116","items":[{"name":"다이소 포천운천점","tel":"031-532-6051","addr":"경기도 포천시 영북면 운천리 514-1번지","category":"신변잡화 - 기타잡화"},{"name":"다이소(운천점)","tel":"532-6051","addr":"경기도 포천시 영북면 운천리 514-1번지","category":"도소매 - 잡화"},{"name":"맘스터치","tel":"031-533-2262","addr":"경기도 포천시 영북면 운천리 514-1번지","category":"일반휴게음식 - 스넥"},{"name":"맘스터치","tel":"533-2262","addr":"경기도 포천시 영북면 운천리 514-1번지","category":"음식 - 치킨등"},{"name":"스타노래연습장","tel":"031-533-3386","addr":"경기도 포천시 영북면 운천리 514-1번지 2층","category":"레저업소 - 노 래 방"},{"name":"철원사","tel":"031-532-5785","addr":"경기도 포천시 영북면 운천리 514-1","category":"문화.취미 - 화방·표구점"},{"name":"피자에땅 운천점","tel":"531-7272","addr":"경기도 포천시 영북면 운천리 514-1번지","category":"음식 - 피자 등"},{"name":"피자에땅운천점","tel":"031-531-7272","addr":"경기도 포천시 영북면 운천리 514-1","category":"일반휴게음식 - 서양음식"}]},{"lat":"38.091001462","long":"127.27287275","items":[{"name":"닭이봉닭갈비","tel":"532-5359","addr":"경기도 포천시 영북면 운천리 506-42번지","category":"음식 - 한식"}]},{"lat":"38.089751268","long":"127.26801217","items":[{"name":"닭이봉원조춘천닭갈비","tel":"031-532-5359","addr":"경기도 포천시 영북면 운천리 581-15번지 1층","category":"일반휴게음식 - 일반한식"}]},{"lat":"38.090729674","long":"127.27353291","items":[{"name":"대가식당","tel":"031-536-3123","addr":"경기도 포천시 영북면 운천리 506-21번지","category":"일반휴게음식 - 일반한식"},{"name":"대박헤어샵","tel":"031-532-2010","addr":"경기도 포천시 영북면 운천리 506-21번지","category":"보건위생 - 미용원"},{"name":"더(The)토스트&야식","tel":"","addr":"경기도 포천시 영북면 운천리 506-21번지 1층","category":"음식 - 한식"},{"name":"더(The)토스트&야식","tel":"031-531-0882","addr":"경기도 포천시 영북면 운천리 506-21번지 1층","category":"일반휴게음식 - 일반한식"}]},{"lat":"38.09097168","long":"127.27406956","items":[{"name":"대곡한의원","tel":"031-532-1981","addr":"경기도 포천시 영북면 운천리 506-58번지","category":"의원 - 한의원"},{"name":"삼성가정의학과의원","tel":"031-534-7582","addr":"경기도 포천시 영북면 운천리 506-58번지 2층","category":"의원 - 의원"}]},{"lat":"38.078143523","long":"127.28148736","items":[{"name":"대박집","tel":"031-534-9004","addr":"경기도 포천시 영북면 운천리 188번지","category":"일반휴게음식 - 일반한식"}]},{"lat":"38.080283399","long":"127.27562574","items":[{"name":"대성자동차공업사","tel":"031-532-0833","addr":"경기도 포천시 영북면 운천리 270-9번지","category":"자동차정비 유지 - 자동차정비"}]},{"lat":"38.091057738","long":"127.27190403","items":[{"name":"대신정육점","tel":"531-4288","addr":"경기도 포천시 영북면 운천리 514-7","category":"소매업 - 축산물"},{"name":"스포츠당구장","tel":"031-535-6464","addr":"경기도 포천시 영북면 운천리 514-7번지 2층","category":"레저업소 - 당 구 장"},{"name":"안경마트","tel":"031-532-0700","addr":"경기도 포천시 영북면 운천리 514-7번지","category":"보건위생 - 안경"}]},{"lat":"38.085473944","long":"127.27504091","items":[{"name":"대신화물운천영업소","tel":"","addr":"경기도 포천시 영북면 운천리 334-4번지","category":"운수업 - 개별화물"}]},{"lat":"38.091115615","long":"127.27022855","items":[{"name":"대영자전자","tel":"031-532-5149","addr":"경기도 포천시 영북면 운천리 517-57번지","category":"수리서비스 - 레져용품수리"},{"name":"대영자전차","tel":"532-5149","addr":"경기도 포천시 영북면 운천리 517-57번지","category":"서비스 - 자전거수리"},{"name":"몸편한세상","tel":"031-535-9500","addr":"경기도 포천시 영북면 운천리 517-57번지","category":"보건위생 - 기타대인서비스"}]},{"lat":"38.090558032","long":"127.27373746","items":[{"name":"대원갈비","tel":"532-5440","addr":"경기도 포천시 영북면 운천리 506-46번지","category":"음식 - 한식"}]},{"lat":"38.089808766","long":"127.27439584","items":[{"name":"대학약국","tel":"531-3900","addr":"경기도 포천시 영북면 운천리 509-4번지","category":"보건업 - 약국"},{"name":"대학약국","tel":"031-531-3900","addr":"경기도 포천시 영북면 운천리 509-4번지","category":"약국 - 약국"},{"name":"조아헤어샵","tel":"031-1111-1111","addr":"경기도 포천시 영북면 운천리 509-4번지","category":"보건위생 - 미용원"},{"name":"조아헤어샵","tel":"","addr":"경기도 포천시 영북면 운천리 509-4번지","category":"서비스 - 미용"},{"name":"쥬씨 포천운천점","tel":"031-532-1079","addr":"경기도 포천시 영북면 운천리 509-4번지","category":"일반휴게음식 - 서양음식"}]},{"lat":"38.090561434","long":"127.280007","items":[{"name":"대한불교조계종 보현사","tel":"","addr":"경기도 포천시 영북면 운천리 358번지","category":"기타 - 비영리/대상"}]},{"lat":"38.090027162","long":"127.27345052","items":[{"name":"댑(운천점)","tel":"031-533-1215","addr":"경기도 포천시 영북면 운천리 512-23번지","category":"의류 - 내의판매"},{"name":"댑(운천점)","tel":"533-1215","addr":"경기도 포천시 영북면 운천리 512-23번지","category":"소매업 - 의류"},{"name":"동의보감한의원","tel":"031-534-8275","addr":"경기도 포천시 영북면 운천리 512-23번지","category":"의원 - 한의원"},{"name":"비버리플로점","tel":"533-9011","addr":"경기도 포천시 영북면 운천리 512-23번지","category":"도소매 - 의류"},{"name":"이시크","tel":"031-533-9011","addr":"경기도 포천시 영북면 운천리 512-23","category":"의류 - 스포츠의류"}]},{"lat":"38.086728319","long":"127.27412228","items":[{"name":"더덕세상","tel":"031-533-2786","addr":"경기도 포천시 영북면 운천리 541-3번지","category":"음료식품 - 농·축·수산품"}]},{"lat":"38.090861914","long":"127.2747873","items":[{"name":"도사왕족발","tel":"535-5688","addr":"경기도 포천시 영북면 운천리 345-15번지","category":"음식 - 한식"},{"name":"운천도레미음악학원","tel":"031-533-2829","addr":"경기도 포천시 영북면 운천리 345-15번지 3층","category":"학원 - 예·체능계학원"},{"name":"현대카센타","tel":"031-534-1149","addr":"경기도 포천시 영북면 운천리 345-15","category":"자동차정비 유지 - 자동차정비"}]},{"lat":"38.090221735","long":"127.26712474","items":[{"name":"돈까스해머","tel":"02-531-6190","addr":"경기도 포천시 영북면 운천리 583-59번지 1층","category":"일반휴게음식 - 서양음식"}]},{"lat":"38.091252428","long":"127.27343224","items":[{"name":"돈까스해머","tel":"531-6190","addr":"경기도 포천시 영북면 운천리 506-7번지","category":"음식 - 양식"}]},{"lat":"38.091337588","long":"127.27165427","items":[{"name":"돈아돈아","tel":"531-9394","addr":"경기도 포천시 영북면 운천리 514-28번지 1층","category":"음식 - 한식"},{"name":"돈아돈아","tel":"","addr":"경기도 포천시 영북면 운천리 514-28번지 1층","category":"일반휴게음식 - 일반한식"}]},{"lat":"38.09017238","long":"127.27298369","items":[{"name":"돌고래","tel":"031-532-5623","addr":"경기도 포천시 영북면 운천리 512-10번지 시장내 1층","category":"의류 - 정장"},{"name":"운천정육점","tel":"031-532-5079","addr":"경기도 포천시 영북면 운천리 512-10번지","category":"음료식품 - 정육점"}]},{"lat":"38.089841089","long":"127.27209335","items":[{"name":"동신제분소","tel":"031-532-5356","addr":"경기도 포천시 영북면 운천리 513-15번지","category":"음료식품 - 기타음료식품"},{"name":"서울반찬가게","tel":"031-532-6972","addr":"경기도 포천시 영북면 운천리 513-15번지 운천상설시장 1층 15호","category":"음료식품 - 기타음료식품"},{"name":"서울반찬가게(이모네)","tel":"532-5215","addr":"경기도 포천시 영북면 운천리 513-15번지","category":"소매업 - 반찬"},{"name":"성훈상회","tel":"532-5163","addr":"경기도 포천시 영북면 운천리 513-15번지","category":"소매업 - 청과물"},{"name":"중앙기름집","tel":"031-532-5204","addr":"경기도 포천시 영북면 운천리 513-15번지 외3필지 운천상설시장 1층 12호","category":"음료식품 - 기타음료식품"}]},{"lat":"38.089728033","long":"127.27031469","items":[{"name":"동양에너지","tel":"031-533-2740","addr":"경기도 포천시 영북면 운천리 528-10번지","category":"연료판매점 - 유류판매"}]},{"lat":"38.091366073","long":"127.27101601","items":[{"name":"동해메밀촌","tel":"031-536-5860","addr":"경기도 포천시 영북면 운천리 518-35","category":"일반휴게음식 - 일반한식"}]},{"lat":"38.090943226","long":"127.27076369","items":[{"name":"돼지천국","tel":"031-534-8781","addr":"경기도 포천시 영북면 운천리 517-3번지","category":"일반휴게음식 - 일반한식"},{"name":"원조돼지갈비","tel":"531-0517","addr":"경기도 포천시 영북면 운천리 517-3번지","category":"음식 - 한식"},{"name":"원조돼지갈비","tel":"031-531-0517","addr":"경기도 포천시 영북면 운천리 517-3번지","category":"일반휴게음식 - 일반한식"}]},{"lat":"38.087726518","long":"127.27490108","items":[{"name":"두산사료","tel":"031-531-5303","addr":"경기도 포천시 영북면 운천리 336-11번지","category":"농업 - 비료,사료,종자"}]},{"lat":"38.088702378","long":"127.27365082","items":[{"name":"듀잇유어카","tel":"070-8221-9759","addr":"경기도 포천시 영북면 운천리 539-5","category":"자동차정비 유지 - 자동차부품"},{"name":"산삼이야기","tel":"-","addr":"경기도 포천시 영북면 운천리 539-5번지","category":"음식 - 건강원"}]},{"lat":"38.089116158","long":"127.27392592","items":[{"name":"떡이야기","tel":"532-1232","addr":"경기도 포천시 영북면 운천리 511-16번지","category":"제조업 - 떡집"},{"name":"떡이야기","tel":"031-532-1232","addr":"경기도 포천시 영북면 운천리 511-16번지 가동 1층","category":"음료식품 - 제과점"},{"name":"죽이야기","tel":"533-6288","addr":"경기도 포천시 영북면 운천리 511-16번지","category":"음식 - 한식"},{"name":"죽이야기 포천운천점","tel":"031-533-6288","addr":"경기도 포천시 영북면 운천리 511-16번지","category":"일반휴게음식 - 일반한식"}]},{"lat":"38.088311201","long":"127.26740284","items":[{"name":"뜰안의 향기","tel":"031-536-9925","addr":"경기도 포천시 영북면 운천리 577-55번지","category":"문화.취미 - 화원"}]},{"lat":"38.091172187","long":"127.27306717","items":[{"name":"라펫트그릴","tel":"534-1108","addr":"경기도 포천시 영북면 운천리 506-13번지","category":"음식 - 한식"},{"name":"피자나라치킨공주","tel":"031-533-9283","addr":"경기도 포천시 영북면 운천리 506-13번지","category":"일반휴게음식 - 스넥"},{"name":"피자나라치킨공주","tel":"533-9283","addr":"경기도 포천시 영북면 운천리 506-13번지","category":"음식 - 치킨등"}]},{"lat":"38.090225725","long":"127.27329167","items":[{"name":"라헬미용실","tel":"031-532-5553","addr":"경기도 포천시 영북면 운천리 512-37번지","category":"보건위생 - 미용원"}]},{"lat":"38.090531924","long":"127.27333839","items":[{"name":"럭스pc방","tel":"070-2556-6339","addr":"경기도 포천시 영북면 운천리 506-18번지 2층","category":"레저업소 - 기타레져업소"},{"name":"짱구분식","tel":"031-532-1909","addr":"경기도 포천시 영북면 운천리 506-18번지","category":"일반휴게음식 - 스넥"},{"name":"필승사","tel":"-","addr":"경기도 포천시 영북면 운천리 506-18번지","category":"소매업 - 잡화"}]},{"lat":"38.091389056","long":"127.27278298","items":[{"name":"레몬비 운천점","tel":"534-7031","addr":"경기도 포천시 영북면 운천리 505-23번지","category":"소매업 - 잡화"},{"name":"아리산","tel":"031-536-9677","addr":"경기도 포천시 영북면 운천리 505-23","category":"일반휴게음식 - 중국식"}]},{"lat":"38.09075435","long":"127.27062621","items":[{"name":"렌탈파크","tel":"031-534-1263","addr":"경기도 포천시 영북면 운천리 517-28번지","category":"숙박업 - 여관/기타숙박업"}]},{"lat":"38.089837003","long":"127.27387159","items":[{"name":"롯데리아운천점","tel":"031-533-8000","addr":"경기도 포천시 영북면 운천리 510-3번지","category":"일반휴게음식 - 서양음식"},{"name":"롯데리아운천점","tel":"533-8000","addr":"경기도 포천시 영북면 운천리 510-3번지","category":"음식 - 햄버거"}]},{"lat":"38.090144514","long":"127.27334836","items":[{"name":"르망베이커리","tel":"531-1077","addr":"경기도 포천시 영북면 운천리 512-3번지","category":"음식 - 제빵"},{"name":"르방베이커리","tel":"031-531-1077","addr":"경기도 포천시 영북면 운천리 512-3번지","category":"음료식품 - 제과점"},{"name":"리치","tel":"031-534-7992","addr":"경기도 포천시 영북면 운천리 512-3번지 리지","category":"의류 - 정장"}]},{"lat":"38.083806711","long":"127.27528549","items":[{"name":"마당","tel":"031-531-5508","addr":"경기도 포천시 영북면 운천리 303번지","category":"일반휴게음식 - 일반한식"},{"name":"미래씽크","tel":"031-531-9971","addr":"경기도 포천시 영북면 운천리 303번지","category":"주방용구 - 주방용구"},{"name":"신세계 인테리어","tel":"031-111-1111","addr":"경기도 포천시 영북면 운천리 303번지","category":"직물 - 카페트,커튼,천막,지물"}]},{"lat":"38.092171364","long":"127.27342423","items":[{"name":"막내식당","tel":"031-534-9298","addr":"경기도 포천시 영북면 운천리 505-3번지 2층","category":"일반휴게음식 - 일반한식"}]},{"lat":"38.090892517","long":"127.27323713","items":[{"name":"만물상","tel":"031-531-3649","addr":"경기도 포천시 영북면 운천리 506-14번지 7통6반","category":"신변잡화 - 기타잡화"},{"name":"쉬즈","tel":"031-536-2093","addr":"경기도 포천시 영북면 운천리 506-14번지","category":"의류 - 정장"},{"name":"쉬즈","tel":"536-2093","addr":"경기도 포천시 영북면 운천리 506-14번지","category":"소매업 - 의류"}]},{"lat":"38.090837789","long":"127.26958918","items":[{"name":"만선","tel":"031-532-6300","addr":"경기도 포천시 영북면 운천리 525-11번지 2통6반","category":"일반휴게음식 - 중국식"}]},{"lat":"38.090892075","long":"127.26948679","items":[{"name":"매니아","tel":"031-532-5062","addr":"경기도 포천시 영북면 운천리 525-4","category":"일반휴게음식 - 주점"}]},{"lat":"38.091084086","long":"127.2722005","items":[{"name":"메가커피","tel":"","addr":"경기도 포천시 영북면 운천리 513-17번지","category":"음식 - 커피 등"},{"name":"메가커피 포천운천점","tel":"070-6378-2841","addr":"경기도 포천시 영북면 운천리 513-17번지","category":"일반휴게음식 - 서양음식"},{"name":"메가커피포천운천점","tel":"","addr":"경기도 포천시 영북면 운천리 513-17번지","category":"음식 - 커피 등"}]},{"lat":"38.090337989","long":"127.27147962","items":[{"name":"명성숯불갈비","tel":"031-531-5507","addr":"경기도 포천시 영북면 운천리 516-32번지","category":"일반휴게음식 - 일반한식"}]},{"lat":"38.090416066","long":"127.27279081","items":[{"name":"목포","tel":"031-535-0825","addr":"경기도 포천시 영북면 운천리 513-28번지 1층","category":"일반휴게음식 - 일반한식"}]},{"lat":"38.090754791","long":"127.27043242","items":[{"name":"목포","tel":"031-531-4688","addr":"경기도 포천시 영북면 운천리 517-24번지","category":"일반휴게음식 - 일반한식"}]},{"lat":"38.090561751","long":"127.27211879","items":[{"name":"문암개발(형제커튼)","tel":"031-532-5594","addr":"경기도 포천시 영북면 운천리 513-13","category":"직물 - 카페트,커튼,천막,지물"}]},{"lat":"38.090423738","long":"127.27337219","items":[{"name":"미래사","tel":"533-1950","addr":"경기도 포천시 영북면 운천리 506-20번지","category":"제조업 - 판촉,인쇄"},{"name":"미래사&광고디자인","tel":"031-533-4545","addr":"경기도 포천시 영북면 운천리 506-20번지","category":"건축자재 - 인테리어전문"},{"name":"선영이네","tel":"533-5202","addr":"경기도 포천시 영북면 운천리 506-20번지","category":"음식 - 건강원"}]},{"lat":"38.090978819","long":"127.2709576","items":[{"name":"미엘리커피숍","tel":"031-8800-1220","addr":"경기도 포천시 영북면 운천리 517-7번지 1층","category":"일반휴게음식 - 서양음식"},{"name":"스페이스당구장","tel":"031-534-7862","addr":"경기도 포천시 영북면 운천리 517-7번지","category":"레저업소 - 당 구 장"}]},{"lat":"38.091171924","long":"127.27318116","items":[{"name":"미이동통신","tel":"031-536-8017","addr":"경기도 포천시 영북면 운천리 506-12번지","category":"사무통신 - 통신기기"},{"name":"미이동통신","tel":"","addr":"경기도 포천시 영북면 운천리 506-12","category":"소매업 - 통신기기"},{"name":"태평당구장","tel":"031-532-9624","addr":"경기도 포천시 영북면 운천리 506-12번지","category":"레저업소 - 당 구 장"},{"name":"파더스김밥&카페","tel":"031-531-4776","addr":"경기도 포천시 영북면 운천리 506-12번지","category":"일반휴게음식 - 일반한식"}]},{"lat":"38.090143254","long":"127.27389551","items":[{"name":"민생약국","tel":"031-531-8275","addr":"경기도 포천시 영북면 운천리 512-27번지","category":"약국 - 약국"}]},{"lat":"38.09108934","long":"127.26989788","items":[{"name":"민서네","tel":"031-536-7583","addr":"경기도 포천시 영북면 운천리 517-61번지 1층","category":"일반휴게음식 - 일반한식"},{"name":"민서네","tel":"536-7533","addr":"경기도 포천시 영북면 운천리 517-61번지","category":"음식 - 한식"},{"name":"전곡수산","tel":"031-533-0702","addr":"경기도 포천시 영북면 운천리 517-61번지 1층","category":"일반휴게음식 - 일반한식"},{"name":"튀김과친구들","tel":"","addr":"경기도 포천시 영북면 운천리 517-61번지","category":"음식 - 분식"}]},{"lat":"38.091947347","long":"127.27289903","items":[{"name":"믿음대리운전","tel":"031-536-4154","addr":"경기도 포천시 영북면 운천리 505-33번지","category":"보건위생 - 기타대인서비스"}]},{"lat":"38.090173087","long":"127.27267592","items":[{"name":"바우신발","tel":"031-534-9028","addr":"경기도 포천시 영북면 운천리 513-14번지","category":"신변잡화 - 신발"},{"name":"바우신발","tel":"534-9028","addr":"경기도 포천시 영북면 운천리 513-14번지","category":"소매업 - 신발"},{"name":"제일정육점","tel":"533-2986","addr":"경기도 포천시 영북면 운천리 513-14번지","category":"소매업 - 식육"}]},{"lat":"38.089502383","long":"127.2744289","items":[{"name":"박치과의원","tel":"031-532-5207","addr":"경기도 포천시 영북면 운천리 511-8번지","category":"의원 - 치과의원"},{"name":"송사부수제쌀고로케","tel":"031-531-0117","addr":"경기도 포천시 영북면 운천리 511-8번지","category":"음식 - 분식"},{"name":"운천칼국수","tel":"532-8702","addr":"경기도 포천시 영북면 운천리 511-8번지","category":"음식 - 한식"},{"name":"운천칼국수","tel":"031-534-9029","addr":"경기도 포천시 영북면 운천리 511-8번지","category":"일반휴게음식 - 일반한식"},{"name":"육부촌육개장","tel":"535-3665","addr":"경기도 포천시 영북면 운천리 511-8번지","category":"음식 - 한식"},{"name":"육부촌육개장","tel":"031-111-1111","addr":"경기도 포천시 영북면 운천리 511-8번지","category":"일반휴게음식 - 일반한식"},{"name":"참가축약품","tel":"031-531-3325","addr":"경기도 포천시 영북면 운천리 511-8번지","category":"기타의료기관 - 동물병원"},{"name":"참가축약품","tel":"531-3325","addr":"경기도 포천시 영북면 운천리 511-8번지","category":"도소매 - 동물약품"},{"name":"피노키오치킨","tel":"031-533-0555","addr":"경기도 포천시 영북면 운천리 511-8번지","category":"일반휴게음식 - 스넥"}]},{"lat":"38.09114626","long":"127.2725883","items":[{"name":"박태호양복점","tel":"532-5933","addr":"경기도 포천시 영북면 운천리 513-10번지","category":"도소매 - 의류"},{"name":"한국산약초","tel":"070-4183-1900","addr":"경기도 포천시 영북면 운천리 513-10번지","category":"회원제형태 - 건강식품"},{"name":"휠","tel":"531-1891","addr":"경기도 포천시 영북면 운천리 513-10번지","category":"소매업 - 의류"}]},{"lat":"38.09281202","long":"127.27298201","items":[{"name":"반석공작소","tel":"031-532-5360","addr":"경기도 포천시 영북면 운천리 498-2","category":"수리서비스 - 기타수리서비스"}]},{"lat":"38.091145867","long":"127.27275929","items":[{"name":"베비라","tel":"533-5891","addr":"경기도 포천시 영북면 운천리 513-36번지","category":"소매업 - 의류"},{"name":"베비라운천","tel":"533-5891","addr":"경기도 포천시 영북면 운천리 513-36번지","category":"소매업 - 의류"},{"name":"헤어느낌","tel":"031-536-7724","addr":"경기도 포천시 영북면 운천리 513-36번지 1층","category":"보건위생 - 미용원"}]},{"lat":"38.090667556","long":"127.27312231","items":[{"name":"별미촌순대","tel":"031-534-7014","addr":"경기도 포천시 영북면 운천리 506-36번지","category":"일반휴게음식 - 일반한식"},{"name":"별미촌순대","tel":"534-7014","addr":"경기도 포천시 영북면 운천리 506-36번지","category":"음식 - 한식"}]},{"lat":"38.090450187","long":"127.27362307","items":[{"name":"보떼운천점","tel":"031-531-1718","addr":"경기도 포천시 영북면 운천리 506-24번지 1층","category":"보건위생 - 화장품"}]},{"lat":"38.087917913","long":"127.27001173","items":[{"name":"보현농원","tel":"031-532-6972","addr":"경기도 포천시 영북면 운천리 554-7번지","category":"음료식품 - 농·축·수산품"}]},{"lat":"38.088972146","long":"127.27386839","items":[{"name":"북극성유통","tel":"031-532-6280","addr":"경기도 포천시 영북면 운천리 511-19번지 가동","category":"음료식품 - 기타음료식품"}]},{"lat":"38.089809397","long":"127.27412226","items":[{"name":"비손","tel":"031-534-2428","addr":"경기도 포천시 영북면 운천리 509-6번지","category":"일반휴게음식 - 서양음식"},{"name":"비손","tel":"534-2428","addr":"경기도 포천시 영북면 운천리 509-6번지","category":"음식 - 커피 등"},{"name":"영북텔레콤","tel":"031-536-2737","addr":"경기도 포천시 영북면 운천리 509-6번지","category":"사무통신 - 통신기기"}]},{"lat":"38.090784278","long":"127.26934961","items":[{"name":"사거리슈퍼","tel":"031-531-6300","addr":"경기도 포천시 영북면 운천리 525-7","category":"유통업 영리 - 슈퍼마켓"}]},{"lat":"38.092695685","long":"127.27653822","items":[{"name":"산내들도담어린이집[아이행복]","tel":"031-531-3676","addr":"경기도 포천시 영북면 운천리 362-4번지 산내들아파트","category":"학원 - 유아원"}]},{"lat":"38.072590241","long":"127.290515","items":[{"name":"산들농원","tel":"031-532-6972","addr":"경기도 포천시 영북면 운천리 84-2번지","category":"문화.취미 - 화원"}]},{"lat":"38.090779296","long":"127.27153823","items":[{"name":"산정레져(SLT)","tel":"031-534-9967","addr":"경기도 포천시 영북면 운천리 516-14번지 2층","category":"레저업소 - 기타레져업소"}]},{"lat":"38.071509503","long":"127.29037402","items":[{"name":"산정수로생고기집","tel":"031-532-5548","addr":"경기도 포천시 영북면 운천리 93-13번지","category":"일반휴게음식 - 일반한식"},{"name":"산정호수생고기집","tel":"532-5546","addr":"경기도 포천시 영북면 운천리 93-13번지","category":"음식 - 한식"}]},{"lat":"38.091089029","long":"127.27003467","items":[{"name":"삼계탕","tel":"531-3463","addr":"경기도 포천시 영북면 운천리 517-58번지","category":"음식 - 한식"},{"name":"삼계탕","tel":"031-531-3463","addr":"경기도 포천시 영북면 운천리 517-58번지","category":"일반휴게음식 - 일반한식"}]},{"lat":"38.091337719","long":"127.27159727","items":[{"name":"삼미정","tel":"534-9234","addr":"경기도 포천시 영북면 운천리 514-42번지","category":"음식 - 한식"},{"name":"삼미정","tel":"031-534-9234","addr":"경기도 포천시 영북면 운천리 514-42번지","category":"일반휴게음식 - 일반한식"}]},{"lat":"38.077535726","long":"127.27559274","items":[{"name":"삼성공업사","tel":"031-532-8007","addr":"경기도 포천시 영북면 운천리 259-3번지","category":"자동차정비 유지 - 자동차정비"}]},{"lat":"38.087057305","long":"127.27209454","items":[{"name":"삼지원인","tel":"031-535-0825","addr":"경기도 포천시 영북면 운천리 546-4번지","category":"건강식품 - 홍삼제품"},{"name":"센트리아(center of korea)","tel":"031-531-8381","addr":"경기도 포천시 영북면 운천리 546-4","category":"건강식품 - 홍삼제품"}]},{"lat":"38.089646474","long":"127.27445223","items":[{"name":"생활용품이야기","tel":"031-535-9855","addr":"경기도 포천시 영북면 운천리 511-1","category":"신변잡화 - 기타잡화"},{"name":"운천오복떡집","tel":"532-5677","addr":"경기도 포천시 영북면 운천리 511-1번지","category":"제조업 - 떡집"}]},{"lat":"38.091446529","long":"127.27128989","items":[{"name":"샤론모텔","tel":"031-531-2805","addr":"경기도 포천시 영북면 운천리 518-25번지","category":"숙박업 - 여관/기타숙박업"}]},{"lat":"38.090506086","long":"127.26886983","items":[{"name":"서울장여관","tel":"031-534-4590","addr":"경기도 포천시 영북면 운천리 524-2번지","category":"숙박업 - 여관/기타숙박업"},{"name":"서울장여관","tel":"","addr":"경기도 포천시 영북면 운천리 524-2번지","category":"숙박업 - 여관"}]},{"lat":"38.09264053","long":"127.26917395","items":[{"name":"서울족발","tel":"031-532-5139","addr":"경기도 포천시 영북면 운천리 468-8","category":"일반휴게음식 - 일반한식"}]},{"lat":"38.091360048","long":"127.26970508","items":[{"name":"석화모텔","tel":"031-533-6846","addr":"경기도 포천시 영북면 운천리 518-83번지","category":"숙박업 - 여관/기타숙박업"}]},{"lat":"38.091305295","long":"127.27001266","items":[{"name":"석화장","tel":"031-533-6846","addr":"경기도 포천시 영북면 운천리 518-82,83","category":"숙박업 - 여관/기타숙박업"}]},{"lat":"38.082868804","long":"127.27570373","items":[{"name":"선스포츠타운","tel":"031-533-3337","addr":"경기도 포천시 영북면 운천리 308-2번지","category":"레저업소 - 헬스클럽"}]},{"lat":"38.074864113","long":"127.28531561","items":[{"name":"설렘게스트하우스","tel":"031-533-3337","addr":"경기도 포천시 영북면 운천리 235-9번지","category":"숙박업 - 여관/기타숙박업"}]},{"lat":"38.090388015","long":"127.26929117","items":[{"name":"성산파크","tel":"031-533-3240","addr":"경기도 포천시 영북면 운천리 525-28번지","category":"숙박업 - 여관/기타숙박업"}]},{"lat":"38.090365975","long":"127.27497925","items":[{"name":"성심외과의원","tel":"031-532-3500","addr":"경기도 포천시 영북면 운천리 345-17","category":"의원 - 의원"},{"name":"운천간호학원","tel":"031-535-5009","addr":"경기도 포천시 영북면 운천리 345-17번지 3층","category":"학원 - 기능학원"},{"name":"운천요양보호사교육원","tel":"031-535-5009","addr":"경기도 포천시 영북면 운천리 345-17번지","category":"학원 - 기능학원"},{"name":"하모니마트","tel":"031-533-3005","addr":"경기도 포천시 영북면 운천리 345-17번지","category":"도소매 - 슈퍼마켓"}]},{"lat":"38.090226164","long":"127.2691538","items":[{"name":"성진서적","tel":"031-532-5345","addr":"경기도 포천시 영북면 운천리 525-9번지 524-8","category":"회원제형태 - 서적"},{"name":"혜림서적","tel":"031-532-5345","addr":"경기도 포천시 영북면 운천리 525-9번지 524-8","category":"회원제형태 - 서적"}]},{"lat":"38.082448459","long":"127.29684524","items":[{"name":"세일사","tel":"031-532-6362","addr":"경기도 포천시 영북면 운천리 3번지","category":"서적문구 - 문구용품"}]},{"lat":"38.083473277","long":"127.297727","items":[{"name":"세진한약방","tel":"031-532-5443","addr":"경기도 포천시 영북면 운천리 1번지","category":"약국 - 한약방"}]},{"lat":"38.090304441","long":"127.27431788","items":[{"name":"소망약국","tel":"534-1486","addr":"경기도 포천시 영북면 운천리 508-11번지","category":"보건업 - 약국"}]},{"lat":"38.090229308","long":"127.27173","items":[{"name":"솔로몬학원","tel":"031-533-0684","addr":"경기도 포천시 영북면 운천리 515-15번지","category":"학원 - 보습학원"}]},{"lat":"38.076175402","long":"127.28323502","items":[{"name":"솜리골","tel":"031-531-2798","addr":"경기도 포천시 영북면 운천리 237-5번지","category":"일반휴게음식 - 일반한식"},{"name":"장수면옥","tel":"070-8161-8300","addr":"경기도 포천시 영북면 운천리 237-5번지","category":"일반휴게음식 - 일반한식"}]},{"lat":"38.089340223","long":"127.2744283","items":[{"name":"송사부수제쌀고로케(포천점)","tel":"031-531-0117","addr":"경기도 포천시 영북면 운천리 511-9번지","category":"일반휴게음식 - 서양음식"},{"name":"쥬스다커피다 포천점","tel":"","addr":"경기도 포천시 영북면 운천리 511-9번지","category":"일반휴게음식 - 서양음식"}]},{"lat":"38.090199144","long":"127.27309778","items":[{"name":"수","tel":"031-532-1242","addr":"경기도 포천시 영북면 운천리 512-39번지","category":"의류 - 정장"}]},{"lat":"38.090198961","long":"127.27317758","items":[{"name":"수","tel":"532-1242","addr":"경기도 포천시 영북면 운천리 512-49번지","category":"소매업 - 의류"}]},{"lat":"38.092359676","long":"127.2698683","items":[{"name":"수토기","tel":"031-531-6155","addr":"경기도 포천시 영북면 운천리 520-18 6/7","category":"음료식품 - 미곡상"}]},{"lat":"38.091195553","long":"127.27073041","items":[{"name":"스시쿠니","tel":"532-5242","addr":"경기도 포천시 영북면 운천리 517-54번지","category":"음식 - 일식"},{"name":"스시쿠니","tel":"031-532-5242","addr":"경기도 포천시 영북면 운천리 517-54번지","category":"일반휴게음식 - 일식·회집"}]},{"lat":"38.08786094","long":"127.27520934","items":[{"name":"스카이골프","tel":"031-542-5301","addr":"경기도 포천시 영북면 운천리 336-9","category":"레져용품 - 골프용품 전문점"}]},{"lat":"38.09100107","long":"127.27304374","items":[{"name":"스토리","tel":"070-4242-5075","addr":"경기도 포천시 영북면 운천리 506-54번지 2층","category":"일반휴게음식 - 주점"},{"name":"양문토속순대국","tel":"031-532-4642","addr":"경기도 포천시 영북면 운천리 506-54번지","category":"일반휴게음식 - 일반한식"},{"name":"양문토속순대국","tel":"532-4642","addr":"경기도 포천시 영북면 운천리 506-54번지","category":"음식 - 한식"}]},{"lat":"38.089891949","long":"127.27348422","items":[{"name":"신농약국","tel":"031-532-5209","addr":"경기도 포천시 영북면 운천리 512-7번지","category":"약국 - 약국"},{"name":"신농약국","tel":"532-5209","addr":"경기도 포천시 영북면 운천리 512-7번지","category":"소매업 - 의약품.의료용품"},{"name":"텐플러스피부관리","tel":"031-531-1975","addr":"경기도 포천시 영북면 운천리 512-7번지","category":"보건위생 - 피부미용실"}]},{"lat":"38.092360472","long":"127.27345912","items":[{"name":"신동기업","tel":"","addr":"경기도 포천시 영북면 운천리 505-18번지 1층","category":"용역 서비스 - 기타용역서비스"},{"name":"일품칼국수","tel":"531-2898","addr":"경기도 포천시 영북면 운천리 505-18번지","category":"음식 - 한식"},{"name":"일품칼국수","tel":"031-531-2898","addr":"경기도 포천시 영북면 운천리 505-18번지 2층","category":"일반휴게음식 - 일반한식"},{"name":"파라다이스 스포츠","tel":"031-531-8525","addr":"경기도 포천시 영북면 운천리 505-18번지","category":"용역 서비스 - 종합용역"}]},{"lat":"38.09105865","long":"127.27150506","items":[{"name":"신화사","tel":"031-532-5257","addr":"경기도 포천시 영북면 운천리 516-5번지","category":"신변잡화 - 귀금속"}]},{"lat":"38.090388096","long":"127.27320107","items":[{"name":"심플","tel":"031-531-0504","addr":"경기도 포천시 영북면 운천리 506-19번지","category":"의류 - 내의판매"},{"name":"심플","tel":"531-0504","addr":"경기도 포천시 영북면 운천리 506-19번지","category":"소매업 - 의류"}]},{"lat":"38.092082533","long":"127.27287673","items":[{"name":"싱싱해물나라","tel":"031-535-0825","addr":"경기도 포천시 영북면 운천리 505-19번지 1층","category":"일반휴게음식 - 일반한식"},{"name":"싱싱해물나라","tel":"533-9814","addr":"경기도 포천시 영북면 운천리 505-19번지","category":"음식 - 한식"}]},{"lat":"38.090035147","long":"127.27389512","items":[{"name":"씨유운천터미널점","tel":"031-534-4317","addr":"경기도 포천시 영북면 운천리 510-13번지 1층","category":"유통업 영리 - 편 의 점"}]},{"lat":"38.09233397","long":"127.27323104","items":[{"name":"아구마니","tel":"031-533-0708","addr":"경기도 포천시 영북면 운천리 505-17번지","category":"일반휴게음식 - 일반한식"},{"name":"아구마니","tel":"","addr":"경기도 포천시 영북면 운천리 505-17번지","category":"음식 - 한식"}]},{"lat":"38.090757252","long":"127.27329362","items":[{"name":"아람사","tel":"534-9240","addr":"경기도 포천시 영북면 운천리 506-15번지","category":"소매업 - 문구"},{"name":"아람사","tel":"031-534-9240","addr":"경기도 포천시 영북면 운천리 506-15번지","category":"신변잡화 - 기념품점"},{"name":"하우스콜","tel":"031-532-4813","addr":"경기도 포천시 영북면 운천리 506-15번지","category":"일반휴게음식 - 일반한식"}]},{"lat":"38.090978325","long":"127.27117419","items":[{"name":"아폴로세탁소","tel":"031-533-2743","addr":"경기도 포천시 영북면 운천리 516-7번지","category":"수리서비스 - 세탁소"},{"name":"운천516-7번지","tel":"031-532-8310","addr":"경기도 포천시 영북면 운천리 516-7번지","category":"일반휴게음식 - 일반한식"}]},{"lat":"38.073898265","long":"127.28609826","items":[{"name":"아현슈퍼","tel":"-","addr":"경기도 포천시 영북면 운천리 117-5번지","category":"소매업 - 잡화"}]},{"lat":"38.090281691","long":"127.27245974","items":[{"name":"안동식당","tel":"031-532-5393","addr":"경기도 포천시 영북면 운천리 513-58번지 1층","category":"일반휴게음식 - 일반한식"}]},{"lat":"38.094837504","long":"127.27365065","items":[{"name":"알뜰매장","tel":"031-531-0052","addr":"경기도 포천시 영북면 운천리 378-4","category":"전기제품 - 가전제품"}]},{"lat":"38.094721097","long":"127.27334243","items":[{"name":"애경페인트","tel":"031-8080-8023","addr":"경기도 포천시 영북면 운천리 492-13번지","category":"건축자재 - 인테리어전문"},{"name":"일진건설","tel":"031-534-9676","addr":"경기도 포천시 영북면 운천리 492-13번지","category":"건축자재 - 인테리어전문"}]},{"lat":"38.090225411","long":"127.27342845","items":[{"name":"앤돈","tel":"031-532-4145","addr":"경기도 포천시 영북면 운천리 512-35번지","category":"신변잡화 - 기타잡화"},{"name":"영레이디","tel":"031-532-4145","addr":"경기도 포천시 영북면 운천리 512-35번지","category":"의류 - 기타의류"},{"name":"운천종점신발","tel":"532-5418","addr":"경기도 포천시 영북면 운천리 512-35번지","category":"소매업 - 생활"},{"name":"퀸머리방","tel":"031-534-2903","addr":"경기도 포천시 영북면 운천리 512-35","category":"보건위생 - 미용원"}]},{"lat":"38.086779869","long":"127.27520533","items":[{"name":"앤앤에이게러지튠","tel":"","addr":"경기도 포천시 영북면 운천리 336-20번지","category":"자동차정비 유지 - 자동차시트·타이어"},{"name":"우진오토타운24시셀프세차장","tel":"000-000-0000","addr":"경기도 포천시 영북면 운천리 336-20번지","category":"자동차정비 유지 - 세차장"},{"name":"우진오토타운24시셀프세차장","tel":"532-4739","addr":"경기도 포천시 영북면 운천리 336-20번지","category":"서비스 - 세차장"}]},{"lat":"38.091114837","long":"127.27057053","items":[{"name":"앵콜노래연습장","tel":"031-532-6164","addr":"경기도 포천시 영북면 운천리 517-1","category":"레저업소 - 노 래 방"}]},{"lat":"38.09116889","long":"127.27057072","items":[{"name":"앵콜노래연습장","tel":"532-6164","addr":"경기도 포천시 영북면 운천리 517-55번지","category":"서비스 - 노래연습장"},{"name":"운천뚝백","tel":"533-9007","addr":"경기도 포천시 영북면 운천리 517-55번지","category":"음식 - 한식"},{"name":"운천뚝백","tel":"031-533-9007","addr":"경기도 포천시 영북면 운천리 517-55번지","category":"일반휴게음식 - 일반한식"},{"name":"운천뚝백","tel":"533-9007","addr":"경기도 포천시 영북면 운천리 517-55번지","category":"음식 - 한식"}]},{"lat":"38.090333071","long":"127.27362264","items":[{"name":"야인통닭","tel":"031-532-8992","addr":"경기도 포천시 영북면 운천리 506-28번지","category":"일반휴게음식 - 스넥"},{"name":"야인통닭(운천점)","tel":"532-8992","addr":"경기도 포천시 영북면 운천리 506-28번지","category":"음식 - 치킨등"},{"name":"장진영플라워shop","tel":"031-534-3512","addr":"경기도 포천시 영북면 운천리 506-28번지","category":"문화.취미 - 화원"}]},{"lat":"38.090891635","long":"127.26968057","items":[{"name":"어제오늘내일","tel":"031-532-5062","addr":"경기도 포천시 영북면 운천리 525-14번지","category":"일반휴게음식 - 일반한식"}]},{"lat":"38.090809151","long":"127.27422855","items":[{"name":"엄마약국","tel":"535-8863","addr":"경기도 포천시 영북면 운천리 507-17번지","category":"보건업 - 약국"},{"name":"해든엄마약국","tel":"031-535-8863","addr":"경기도 포천시 영북면 운천리 507-17번지","category":"약국 - 약국"},{"name":"해든엄마약국","tel":"535-8863","addr":"경기도 포천시 영북면 운천리 507-17번지 1층","category":"소매업 - 약국"}]},{"lat":"38.087500583","long":"127.275208","items":[{"name":"엘지농기계대리점","tel":"031-532-6060","addr":"경기도 포천시 영북면 운천리 336-8번지","category":"농업 - 농기계"},{"name":"크린토피아 코인워시 포천운천점","tel":"031-534-3200","addr":"경기도 포천시 영북면 운천리 336-8번지 1층","category":"수리서비스 - 세탁소"}]},{"lat":"38.09122219","long":"127.2709015","items":[{"name":"여수아구찜","tel":"031-532-1254","addr":"경기도 포천시 영북면 운천리 517-53번지","category":"일반휴게음식 - 일반한식"},{"name":"여수아구찜","tel":"","addr":"경기도 포천시 영북면 운천리 517-53번지","category":"음식 - 한식"}]},{"lat":"38.091415742","long":"127.27293127","items":[{"name":"열린피부화장품","tel":"031-455-2790","addr":"경기도 포천시 영북면 운천리 505-6","category":"보건위생 - 화장품"},{"name":"피자리아고","tel":"534-8490","addr":"경기도 포천시 영북면 운천리 505-6번지","category":"음식 - 양식"},{"name":"피자리아고","tel":"031-534-8490","addr":"경기도 포천시 영북면 운천리 505-6번지 1층","category":"일반휴게음식 - 서양음식"}]},{"lat":"38.086112891","long":"127.27533964","items":[{"name":"영북고등학교","tel":"031-532-6061","addr":"경기도 포천시 영북면 운천리 334-3번지 영북고등학교","category":"학원 - 초중고교육기관"},{"name":"영북고등학교_수업료","tel":"031-532-6061","addr":"경기도 포천시 영북면 운천리 334-3번지 영북고등학교","category":"학원 - 초중고교육기관"}]},{"lat":"38.086893864","long":"127.27265247","items":[{"name":"영북꿈나무어린이집[아이행복]","tel":"031-534-1500","addr":"경기도 포천시 영북면 운천리 545-3번지","category":"학원 - 유아원"}]},{"lat":"38.08483802","long":"127.2734314","items":[{"name":"영북면주민자치센터","tel":"538-4646","addr":"경기도 포천시 영북면 운천리 567번지","category":"주민자치센터 - 주민자치센터"}]},{"lat":"38.09109022","long":"127.26951031","items":[{"name":"영북상사도매할인마트","tel":"531-8872","addr":"경기도 포천시 영북면 운천리 522-3번지 APT","category":"도소매 - 잡화"}]},{"lat":"38.090724277","long":"127.2719598","items":[{"name":"영북생구이","tel":"031-532-7433","addr":"경기도 포천시 영북면 운천리 514-2번지","category":"일반휴게음식 - 일반한식"}]},{"lat":"38.086588763","long":"127.27212702","items":[{"name":"영북어린이집[아이행복]","tel":"031-534-7405","addr":"경기도 포천시 영북면 운천리 559-3번지","category":"학원 - 유아원"}]},{"lat":"38.090367687","long":"127.27423832","items":[{"name":"영북의류","tel":"031-534-5661","addr":"경기도 포천시 영북면 운천리 508-5번지","category":"의류 - 정장"}]},{"lat":"38.09389201","long":"127.27734065","items":[{"name":"영북중학교","tel":"031-531-1754","addr":"경기도 포천시 영북면 운천리 385-1번지 영북중학교","category":"학원 - 초중고교육기관"}]},{"lat":"38.090416163","long":"127.27664371","items":[{"name":"영북초등학교","tel":"031-531-2552","addr":"경기도 포천시 영북면 운천리 342-2번지 영북초등학교","category":"학원 - 초중고교육기관"},{"name":"영북초등학교_수업료","tel":"031-531-2552","addr":"경기도 포천시 영북면 운천리 342-2번지 영북초등학교","category":"학원 - 초중고교육기관"},{"name":"영북초등학교병설유치원[아이행복]","tel":"031-532-5011","addr":"경기도 포천시 영북면 운천리 342-2번지 영북초등학교","category":"학원 - 유치원"}]},{"lat":"38.092170359","long":"127.26992461","items":[{"name":"영북태권도장","tel":"031-532-6290","addr":"경기도 포천시 영북면 운천리 520-2번지","category":"학원 - 예·체능계학원"}]},{"lat":"38.091946507","long":"127.26931963","items":[{"name":"영빈목욕탕","tel":"031-532-5121","addr":"경기도 포천시 영북면 운천리 521-15번지","category":"보건위생 - 사우나"}]},{"lat":"38.089975466","long":"127.27242442","items":[{"name":"영신마트","tel":"533-6724","addr":"경기도 포천시 영북면 운천리 531-2번지","category":"도소매 - 잡화"}]},{"lat":"38.090144334","long":"127.26948407","items":[{"name":"영천상회","tel":"031-532-6070","addr":"경기도 포천시 영북면 운천리 528-6번지","category":"음료식품 - 기타음료식품"}]},{"lat":"38.091144268","long":"127.27345464","items":[{"name":"영희김밥","tel":"031-535-8122","addr":"경기도 포천시 영북면 운천리 506-47번지 1층","category":"일반휴게음식 - 일반한식"},{"name":"황금성","tel":"532-2225","addr":"경기도 포천시 영북면 운천리 506-47번지","category":"음식 - 중식"},{"name":"황금성","tel":"031-532-2225","addr":"경기도 포천시 영북면 운천리 506-47번지 1층","category":"일반휴게음식 - 중국식"}]},{"lat":"38.090145615","long":"127.27286961","items":[{"name":"예가","tel":"031-532-5755","addr":"경기도 포천시 영북면 운천리 512-48번지","category":"일반휴게음식 - 스넥"},{"name":"예가","tel":"532-5755","addr":"경기도 포천시 영북면 운천리 512-48번지","category":"음식 - 치킨등"}]},{"lat":"38.090554776","long":"127.27122963","items":[{"name":"예그린어린이집[아이행복]","tel":"031-531-1022","addr":"경기도 포천시 영북면 운천리 516-25번지","category":"학원 - 유아원"}]},{"lat":"38.090918533","long":"127.26973767","items":[{"name":"오뚜기식당","tel":"031-531-1384","addr":"경기도 포천시 영북면 운천리 525-18","category":"일반휴게음식 - 일반한식"}]},{"lat":"38.090864428","long":"127.26976027","items":[{"name":"오뚜기식당","tel":"531-1384","addr":"경기도 포천시 영북면 운천리 526-1번지","category":"음식 - 한식"}]},{"lat":"38.09020189","long":"127.27190089","items":[{"name":"오렌지","tel":"536-3672","addr":"경기도 포천시 영북면 운천리 515-12번지","category":"소매업 - 의류"}]},{"lat":"38.090311457","long":"127.27126294","items":[{"name":"오리마당","tel":"534-7986","addr":"경기도 포천시 영북면 운천리 516-30번지","category":"음식 - 한식"},{"name":"오리마당","tel":"031-534-7986","addr":"경기도 포천시 영북면 운천리 516-30번지","category":"일반휴게음식 - 일반한식"}]},{"lat":"38.093449496","long":"127.26998626","items":[{"name":"오리마을","tel":"031-533-9755","addr":"경기도 포천시 영북면 운천리 472번지","category":"일반휴게음식 - 일반한식"}]},{"lat":"38.085032823","long":"127.2749025","items":[{"name":"오인테리어","tel":"031-532-5127","addr":"경기도 포천시 영북면 운천리 299-6번지","category":"건축자재 - 인테리어전문"}]},{"lat":"38.090698215","long":"127.27153794","items":[{"name":"온니닭갈비","tel":"031-532-6370","addr":"경기도 포천시 영북면 운천리 516-3번지","category":"일반휴게음식 - 일반한식"}]},{"lat":"38.09250715","long":"127.26839831","items":[{"name":"온수온열매트 (수목토일라이트 운천점)","tel":"031-533-9999","addr":"경기도 포천시 영북면 운천리 589-14번지","category":"보건위생 - 의료용품"}]},{"lat":"38.088529235","long":"127.27450509","items":[{"name":"운남 주식회사","tel":"070-5055-0663","addr":"경기도 포천시 영북면 운천리 539-46번지 5층 501호","category":"학원 - 기능학원"}]},{"lat":"38.083809347","long":"127.27414569","items":[{"name":"운암골쉼터","tel":"031-533-5998","addr":"경기도 포천시 영북면 운천리 295-2번지","category":"일반휴게음식 - 일반한식"}]},{"lat":"38.091257472","long":"127.2712322","items":[{"name":"운천 닭발","tel":"532-0526","addr":"경기도 포천시 영북면 운천리 514-5번지","category":"음식 - 한식"},{"name":"운천닭발","tel":"031-532-0526","addr":"경기도 포천시 영북면 운천리 514-5번지","category":"일반휴게음식 - 일반한식"},{"name":"한길식당","tel":"031-532-9470","addr":"경기도 포천시 영북면 운천리 514-5번지","category":"일반휴게음식 - 일반한식"},{"name":"한길식당","tel":"532-9470","addr":"경기도 포천시 영북면 운천리 514-5번지","category":"음식 - 한식"}]},{"lat":"38.091027729","long":"127.27320343","items":[{"name":"운천리논골","tel":"","addr":"경기도 포천시 영북면 운천리 506-43번지 1층","category":"일반휴게음식 - 일반한식"},{"name":"치고박고 당구장","tel":"031-534-2220","addr":"경기도 포천시 영북면 운천리 506-43번지 2층","category":"레저업소 - 당 구 장"},{"name":"하우스콜","tel":"532-4813","addr":"경기도 포천시 영북면 운천리 506-43","category":"음식 - 한식"}]},{"lat":"38.089810107","long":"127.27381449","items":[{"name":"운천서울치과의원","tel":"031-531-2811","addr":"경기도 포천시 영북면 운천리 510-12번지","category":"의원 - 치과의원"},{"name":"운천치과","tel":"031-532-5445","addr":"경기도 포천시 영북면 운천리 510-12번지","category":"의원 - 치과의원"}]},{"lat":"38.09230731","long":"127.27307135","items":[{"name":"운천설렁탕","tel":"533-8350","addr":"경기도 포천시 영북면 운천리 505-16번지","category":"음식 - 한식"},{"name":"운천설렁탕","tel":"031-533-8350","addr":"경기도 포천시 영북면 운천리 505-16번지","category":"일반휴게음식 - 일반한식"}]},{"lat":"38.091500464","long":"127.26736873","items":[{"name":"운천수예","tel":"031-533-7973","addr":"경기도 포천시 영북면 운천리 582-42번지","category":"직물 - 침구·수예점"}]},{"lat":"38.086530123","long":"127.27412155","items":[{"name":"운천유치원[아이행복]","tel":"031-532-5597","addr":"경기도 포천시 영북면 운천리 541-4번지","category":"학원 - 유치원"}]},{"lat":"38.091668237","long":"127.26887405","items":[{"name":"운천이솝어린이집[아이행복]","tel":"070-4068-5697","addr":"경기도 포천시 영북면 운천리 521-27","category":"학원 - 유아원"}]},{"lat":"38.089728396","long":"127.27015511","items":[{"name":"운천지물포","tel":"031-534-6650","addr":"경기도 포천시 영북면 운천리 528-35번지","category":"직물 - 카페트,커튼,천막,지물"}]},{"lat":"38.088673431","long":"127.27448283","items":[{"name":"운천컴퓨터&cctv","tel":"031-534-3372","addr":"경기도 포천시 영북면 운천리 539-45번지","category":"사무통신 - 컴퓨터"}]},{"lat":"38.090035462","long":"127.27375833","items":[{"name":"운천터미널매표소/이비(발권)","tel":"031-1644-1472","addr":"경기도 포천시 영북면 운천리 512-30","category":"여행 - 고속버스"},{"name":"운천터미널매표소/이비(부도)","tel":"031-1644-1472","addr":"경기도 포천시 영북면 운천리 512-30","category":"여행 - 고속버스"},{"name":"운천터미널매표소/이비(취소)","tel":"031-1644-1472","addr":"경기도 포천시 영북면 운천리 512-30","category":"여행 - 고속버스"}]},{"lat":"38.09064142","long":"127.27273464","items":[{"name":"원대로식당","tel":"031-534-3337","addr":"경기도 포천시 영북면 운천리 513-11번지","category":"일반휴게음식 - 일반한식"}]},{"lat":"38.07897329","long":"127.2810916","items":[{"name":"은광건설산업","tel":"031-875-3851","addr":"경기도 포천시 영북면 운천리 185-2번지","category":"건축자재 - 기타건축자재"}]},{"lat":"38.090944446","long":"127.27022793","items":[{"name":"이끌림헤어","tel":"031-534-9727","addr":"경기도 포천시 영북면 운천리 517-9번지","category":"보건위생 - 미용원"}]},{"lat":"38.09066792","long":"127.2650061","items":[{"name":"이마트24 포천운천점","tel":"","addr":"경기도 포천시 영북면 운천리 585-2번지","category":"유통업 영리 - 편 의 점"},{"name":"이마트24 포천운천점","tel":"","addr":"경기도 포천시 영북면 운천리 585-2번지","category":"유통업 영리 - 편 의 점"}]},{"lat":"38.090228786","long":"127.27195798","items":[{"name":"이천청과","tel":"031-532-5236","addr":"경기도 포천시 영북면 운천리 515-11 2/2","category":"음료식품 - 농·축·수산품"}]},{"lat":"38.090255578","long":"127.27206067","items":[{"name":"이천청과","tel":"532-5236","addr":"경기도 포천시 영북면 운천리 514-37번지","category":"소매업 - 청과"}]},{"lat":"38.090003955","long":"127.27178617","items":[{"name":"인천방아간","tel":"031-532-5475","addr":"경기도 포천시 영북면 운천리 531-34번지","category":"음료식품 - 제과점"}]},{"lat":"38.090505788","long":"127.27295072","items":[{"name":"일류모텔","tel":"031-532-5131","addr":"경기도 포천시 영북면 운천리 513-26번지","category":"숙박업 - 여관/기타숙박업"}]},{"lat":"38.088701747","long":"127.27392439","items":[{"name":"일류보습학원","tel":"031-531-4813","addr":"경기도 포천시 영북면 운천리 539-14번지","category":"학원 - 보습학원"}]},{"lat":"38.090839694","long":"127.27270117","items":[{"name":"임경희헤어샵","tel":"031-531-8690","addr":"경기도 포천시 영북면 운천리 513-23","category":"보건위생 - 미용원"}]},{"lat":"38.09066711","long":"127.27331609","items":[{"name":"자매손맛","tel":"531-9500","addr":"경기도 포천시 영북면 운천리 506-16번지","category":"음식 - 한식"}]},{"lat":"38.090443668","long":"127.27254013","items":[{"name":"잔치국수","tel":"031-534-3538","addr":"경기도 포천시 영북면 운천리 513-34번지","category":"일반휴게음식 - 일반한식"}]},{"lat":"38.089584937","long":"127.27379086","items":[{"name":"장원숯불갈비","tel":"031-531-5123","addr":"경기도 포천시 영북면 운천리 510-5번지","category":"일반휴게음식 - 일반한식"}]},{"lat":"38.090756123","long":"127.27378379","items":[{"name":"전과찌게가만난집","tel":"031-532-4434","addr":"경기도 포천시 영북면 운천리 506-45번지 1층","category":"일반휴게음식 - 일반한식"}]},{"lat":"38.091835758","long":"127.27048196","items":[{"name":"정통숯불갈비","tel":"031-532-6420","addr":"경기도 포천시 영북면 운천리 518-27번지","category":"일반휴게음식 - 일반한식"},{"name":"정통숯불갈비","tel":"532-6420","addr":"경기도 포천시 영북면 운천리 518-27번지","category":"음식 - 한식"}]},{"lat":"38.091559832","long":"127.2729546","items":[{"name":"제일식당","tel":"031-532-0155","addr":"경기도 포천시 영북면 운천리 505-39번지","category":"일반휴게음식 - 일반한식"}]},{"lat":"38.08119622","long":"127.29684023","items":[{"name":"제일자동차공업사","tel":"031-532-5158","addr":"경기도 포천시 영북면 운천리 7번지","category":"자동차정비 유지 - 자동차정비"}]},{"lat":"38.083618922","long":"127.27468069","items":[{"name":"제일철물","tel":"532-5837","addr":"경기도 포천시 영북면 운천리 293-2번지","category":"도소매 - 일반철물.수공구"}]},{"lat":"38.090558426","long":"127.27356647","items":[{"name":"족발동1번지","tel":"070-8836-9242","addr":"경기도 포천시 영북면 운천리 506-23번지","category":"음식 - 족발"},{"name":"족발동1번지","tel":"031-000-0000","addr":"경기도 포천시 영북면 운천리 506-23번지 1층","category":"일반휴게음식 - 일반한식"},{"name":"짱구네분식","tel":"532-1909","addr":"경기도 포천시 영북면 운천리 506-23번지","category":"음식 - 분식"}]},{"lat":"38.090832958","long":"127.27170942","items":[{"name":"주변머리헤어샵","tel":"031-000-0000","addr":"경기도 포천시 영북면 운천리 514-14번지","category":"보건위생 - 미용원"}]},{"lat":"38.088781538","long":"127.27448323","items":[{"name":"주식회사 여행가자(지점)","tel":"031-532-1927","addr":"경기도 포천시 영북면 운천리 539-47번지 2층","category":"여행 - 관광여행"}]},{"lat":"38.094171291","long":"127.2734544","items":[{"name":"즉석중화요리 짜이홍","tel":"031-535-8751","addr":"경기도 포천시 영북면 운천리 492-20번지","category":"일반휴게음식 - 중국식"}]},{"lat":"38.093333147","long":"127.2735881","items":[{"name":"지성슈퍼","tel":"031-536-5092","addr":"경기도 포천시 영북면 운천리 500-7","category":"유통업 영리 - 슈퍼마켓"}]},{"lat":"38.090641053","long":"127.27289423","items":[{"name":"짱구빨대포차","tel":"031-535-5998","addr":"경기도 포천시 영북면 운천리 513-25번지","category":"일반휴게음식 - 일반한식"}]},{"lat":"38.091836147","long":"127.27031097","items":[{"name":"짱닭치킨","tel":"031-8080-3963","addr":"경기도 포천시 영북면 운천리 518-11번지","category":"일반휴게음식 - 스넥"}]},{"lat":"38.088781801","long":"127.27436924","items":[{"name":"창동해장국","tel":"031-533-9454","addr":"경기도 포천시 영북면 운천리 539-8","category":"일반휴게음식 - 일반한식"}]},{"lat":"38.090422767","long":"127.27379395","items":[{"name":"청수모텔","tel":"031-533-3334","addr":"경기도 포천시 영북면 운천리 506-25번지","category":"숙박업 - 여관/기타숙박업"}]},{"lat":"38.090752712","long":"127.27134435","items":[{"name":"청주야식","tel":"031-531-7412","addr":"경기도 포천시 영북면 운천리 516-16","category":"일반휴게음식 - 일반한식"}]},{"lat":"38.089224449","long":"127.27384653","items":[{"name":"최미용실","tel":"031-533-1675","addr":"경기도 포천시 영북면 운천리 511-26번지","category":"보건위생 - 미용원"}]},{"lat":"38.091221878","long":"127.27103828","items":[{"name":"추억마차","tel":"031-531-1805","addr":"경기도 포천시 영북면 운천리 517-25번지","category":"일반휴게음식 - 주점"}]},{"lat":"38.090193768","long":"127.27151329","items":[{"name":"축복상회","tel":"031-532-5363","addr":"경기도 포천시 영북면 운천리 516-37번지","category":"음료식품 - 농·축·수산품"}]},{"lat":"38.080948604","long":"127.27625508","items":[{"name":"코리아나 뷰티센터","tel":"031-533-2889","addr":"경기도 포천시 영북면 운천리 279-5번지","category":"보건위생 - 화장품"},{"name":"코리아나뷰티센터","tel":"031-533-2889","addr":"경기도 포천시 영북면 운천리 279-5번지","category":"보건위생 - 화장품"},{"name":"코리아나뷰티센터","tel":"533-2889","addr":"경기도 포천시 영북면 운천리 279-5번지","category":"도소매 - 화장품 등"}]},{"lat":"38.090361567","long":"127.27298439","items":[{"name":"코잠","tel":"532-6179","addr":"경기도 포천시 영북면 운천리 513-30번지","category":"소매업 - 침구류"}]},{"lat":"38.090506155","long":"127.27279114","items":[{"name":"태백생고기","tel":"533-0003","addr":"경기도 포천시 영북면 운천리 513-27번지","category":"음식 - 한식"},{"name":"태백생고기","tel":"031-533-0003","addr":"경기도 포천시 영북면 운천리 513-27번지","category":"일반휴게음식 - 일반한식"}]},{"lat":"38.084699229","long":"127.27501524","items":[{"name":"토리도시락","tel":"031-532-0148","addr":"경기도 포천시 영북면 운천리 299-14번지 1층","category":"일반휴게음식 - 일반한식"}]},{"lat":"38.090918468","long":"127.27370459","items":[{"name":"통나무집","tel":"031-532-5391","addr":"경기도 포천시 영북면 운천리 506-10번지","category":"일반휴게음식 - 일반한식"},{"name":"통나부집","tel":"532-5391","addr":"경기도 포천시 영북면 운천리 506-10번지","category":"음식 - 한식"}]},{"lat":"38.090723964","long":"127.27209659","items":[{"name":"투투","tel":"031-532-0220","addr":"경기도 포천시 영북면 운천리 513-48번지","category":"일반휴게음식 - 일반한식"},{"name":"투투","tel":"532-0220","addr":"경기도 포천시 영북면 운천리 513-48번지","category":"음식 - 한식"}]},{"lat":"38.090086434","long":"127.27509221","items":[{"name":"파리바게뜨 운천점","tel":"531-8240","addr":"경기도 포천시 영북면 운천리 345-6번지","category":"음식 - 제빵"},{"name":"파리바게트운천점","tel":"031-531-8240","addr":"경기도 포천시 영북면 운천리 345-6번지","category":"음료식품 - 제과점"}]},{"lat":"38.091451201","long":"127.27318219","items":[{"name":"페리카나통닭","tel":"031-533-7833","addr":"경기도 포천시 영북면 운천리 505-30번지","category":"일반휴게음식 - 스넥"},{"name":"페리카나통닭(운천점)","tel":"533-7833","addr":"경기도 포천시 영북면 운천리 505-30번지","category":"음식 - 한식"}]},{"lat":"38.091783208","long":"127.26982061","items":[{"name":"포근한 마차","tel":"031-533-9277","addr":"경기도 포천시 영북면 운천리 521-10번지 1층","category":"일반휴게음식 - 주점"}]},{"lat":"38.09025186","long":"127.27367933","items":[{"name":"포천 청년 꽃배달","tel":"031-534-3512","addr":"경기도 포천시 영북면 운천리 512-19번지","category":"문화.취미 - 화원"},{"name":"포천청년꽃배달","tel":"534-3512","addr":"경기도 포천시 영북면 운천리 512-19번지","category":"서비스 - 꽃배달"}]},{"lat":"38.089977632","long":"127.2714783","items":[{"name":"포천정보통신","tel":"031-532-6973","addr":"경기도 포천시 영북면 운천리 531-12","category":"사무통신 - 통신기기"}]},{"lat":"38.09445083","long":"127.27334143","items":[{"name":"플러스 시스템","tel":"","addr":"경기도 포천시 영북면 운천리 492-17번지","category":"용역 서비스 - 기타용역서비스"}]},{"lat":"38.080508622","long":"127.27562658","items":[{"name":"하남카센타","tel":"031-536-7598","addr":"경기도 포천시 영북면 운천리 270-4번지","category":"자동차정비 유지 - 자동차정비"}]},{"lat":"38.072866618","long":"127.28800888","items":[{"name":"하이델베르그","tel":"031-531-6438","addr":"경기도 포천시 영북면 운천리 90-10번지","category":"숙박업 - 모텔"}]},{"lat":"38.090699304","long":"127.27498049","items":[{"name":"하이플러스","tel":"031-123-4567","addr":"경기도 포천시 영북면 운천리 345-25번지","category":"학원 - 보습학원"}]},{"lat":"38.090587889","long":"127.27250646","items":[{"name":"한녹갈비","tel":"533-0770","addr":"경기도 포천시 영북면 운천리 513-12번지","category":"음식 - 한식"},{"name":"한녹갈비","tel":"031-533-0770","addr":"경기도 포천시 영북면 운천리 513-12번지","category":"일반휴게음식 - 일반한식"}]},{"lat":"38.089810291","long":"127.2737347","items":[{"name":"한사랑의원","tel":"031-532-8275","addr":"경기도 포천시 영북면 운천리 510-4 1,2 층","category":"의원 - 의원"}]},{"lat":"38.090887585","long":"127.27145883","items":[{"name":"한우촌","tel":"031-533-2071","addr":"경기도 포천시 영북면 운천리 516-11번지","category":"일반휴게음식 - 일반한식"}]},{"lat":"38.089558567","long":"127.27350579","items":[{"name":"한일방앗간","tel":"031-532-5239","addr":"경기도 포천시 영북면 운천리 510-8번지","category":"음료식품 - 제과점"}]},{"lat":"38.083393382","long":"127.27481664","items":[{"name":"한일종합공사","tel":"031-532-5833","addr":"경기도 포천시 영북면 운천리 292-2번지","category":"직물 - 카페트,커튼,천막,지물"}]},{"lat":"38.090671944","long":"127.27120726","items":[{"name":"행운양꼬치야채곱창","tel":"","addr":"경기도 포천시 영북면 운천리 516-17번지","category":"음식 - 한식"}]},{"lat":"38.086505983","long":"127.27286762","items":[{"name":"현대공업사","tel":"031-998-4979","addr":"경기도 포천시 영북면 운천리 559-10번지","category":"자동차정비 유지 - 자동차부품"}]},{"lat":"38.090224923","long":"127.26970095","items":[{"name":"현대노래연습장","tel":"031-533-2528","addr":"경기도 포천시 영북면 운천리 525-5번지","category":"레저업소 - 노 래 방"},{"name":"현대모텔","tel":"031-535-9300","addr":"경기도 포천시 영북면 운천리 525-5","category":"숙박업 - 여관/기타숙박업"}]},{"lat":"38.088866436","long":"127.26887529","items":[{"name":"현대지게차 A.S(수리)","tel":"031-532-6181","addr":"경기도 포천시 영북면 운천리 552-18번지","category":"자동차정비 유지 - 중장비수리"}]},{"lat":"38.090836362","long":"127.27414886","items":[{"name":"홍콩","tel":"031-531-2223","addr":"경기도 포천시 영북면 운천리 507-9번지","category":"일반휴게음식 - 중국식"}]},{"lat":"38.091443606","long":"127.2725666","items":[{"name":"황금당","tel":"532-5120","addr":"경기도 포천시 영북면 운천리 513-18번지","category":"소매업 - 생활"},{"name":"황금당","tel":"031-532-5120","addr":"경기도 포천시 영북면 운천리 513-18호 중앙로 22호","category":"신변잡화 - 시계"}]},{"lat":"38.091923637","long":"127.27145123","items":[{"name":"황해정미소","tel":"031-532-5385","addr":"경기도 포천시 영북면 운천리 518-16번지","category":"음료식품 - 미곡상"}]},{"lat":"38.083590047","long":"127.27547845","items":[{"name":"휴게소슈퍼","tel":"031-531-5553","addr":"경기도 포천시 영북면 운천리 307-3번지","category":"유통업 영리 - 슈퍼마켓"}]}]