[{"lat":"37.65416653","long":"127.36657495","items":[{"name":"(사)다문화지구촌센터경기도센터","tel":"031-111-1111","addr":"경기도 남양주시 화도읍 금남리 96-11번지","category":"학원 - 기타 교육기관"},{"name":"에딧의 커피스토리","tel":"","addr":"경기도 남양주시 화도읍 금남리 96-11번지","category":"레저업소 - 기타레져업소"},{"name":"챔프체험랜드","tel":"031-559-9334","addr":"경기도 남양주시 화도읍 금남리 96-11번지","category":"학원 - 기타 교육기관"},{"name":"캠핑바비큐아카데미","tel":"031-4414-8320","addr":"경기도 남양주시 화도읍 금남리 96-11번지","category":"레저업소 - 기타레져업소"}]},{"lat":"37.645972016","long":"127.36518663","items":[{"name":"(주)더베스트","tel":"031-591-0900","addr":"경기도 남양주시 화도읍 금남리 171-1번지","category":"용역 서비스 - 종합용역"},{"name":"독스아웃","tel":"070-1478-1236","addr":"경기도 남양주시 화도읍 금남리 171-1번지","category":"일반휴게음식 - 일반한식"}]},{"lat":"37.636670117","long":"127.35457111","items":[{"name":"(주)온담","tel":"02-877-3538","addr":"경기도 남양주시 화도읍 금남리 511-7번지","category":"일반휴게음식 - 일반한식"}]},{"lat":"37.650771242","long":"127.36905134","items":[{"name":"(주)플러스원","tel":"032-661-6554","addr":"경기도 남양주시 화도읍 금남리 137-30번지 리버데일 101동 405호","category":"건축자재 - 부동산 분양"}]},{"lat":"37.644279914","long":"127.36167726","items":[{"name":"HOYA 호야스토어","tel":"031-595-7258","addr":"경기도 남양주시 화도읍 금남리 355번지","category":"레져용품 - 스포츠·레져용품"}]},{"lat":"37.632917606","long":"127.3406869","items":[{"name":"SEG","tel":"031-511-9902","addr":"경기도 남양주시 화도읍 금남리 605-6","category":"전기제품 - 가전제품"}]},{"lat":"37.652750447","long":"127.36999027","items":[{"name":"The dreamping/(주) 엠엔엠레저코리아","tel":"031-595-2345","addr":"경기도 남양주시 화도읍 금남리 123번지 1층(제2호)","category":"일반휴게음식 - 일반한식"},{"name":"Woe/주식회사 엠엔엠레저코리아","tel":"031-595-2345","addr":"경기도 남양주시 화도읍 금남리 123번지","category":"일반휴게음식 - 일반한식"}]},{"lat":"37.644534865","long":"127.3607947","items":[{"name":"가람건설","tel":"031-592-6774","addr":"경기도 남양주시 화도읍 금남리 338-2번지 동부금남빌리지 204호","category":"건축자재 - 기타건축자재"}]},{"lat":"37.647755863","long":"127.36813005","items":[{"name":"가람수상스키","tel":"031-592-6774","addr":"경기도 남양주시 화도읍 금남리 146번지 151,152-2번지","category":"레저업소 - 기타레져업소"}]},{"lat":"37.642445718","long":"127.36043344","items":[{"name":"가람양푼이매운탕","tel":"031-592-8383","addr":"경기도 남양주시 화도읍 금남리 359-6번지","category":"일반휴게음식 - 일반한식"}]},{"lat":"37.648200097","long":"127.36723706","items":[{"name":"가람의집민물매운탕","tel":"031-593-1555","addr":"경기도 남양주시 화도읍 금남리 158-5번지 2층","category":"일반휴게음식 - 일반한식"},{"name":"하우스치맥앤커피","tel":"031-111-1111","addr":"경기도 남양주시 화도읍 금남리 158-5번지 가람의집팬션 가동 1층","category":"일반휴게음식 - 서양음식"}]},{"lat":"37.631118891","long":"127.35196203","items":[{"name":"강","tel":"031-592-4425","addr":"경기도 남양주시 화도읍 금남리 620-10번지","category":"일반휴게음식 - 일반한식"}]},{"lat":"37.655333281","long":"127.37093223","items":[{"name":"강가에","tel":"031-592-4248","addr":"경기도 남양주시 화도읍 금남리 113-6번지","category":"일반휴게음식 - 일반한식"}]},{"lat":"37.614256225","long":"127.3414859","items":[{"name":"강나루","tel":"031-592-0884","addr":"경기도 남양주시 화도읍 금남리 706번지 강나루","category":"일반휴게음식 - 일반한식"}]},{"lat":"37.613395033","long":"127.34017952","items":[{"name":"갤러리공인중개사사무소","tel":"031-593-6711","addr":"경기도 남양주시 화도읍 금남리 772번지","category":"용역 서비스 - 부동산 중개·임대"},{"name":"아빠나무cafe","tel":"031-593-6711","addr":"경기도 남양주시 화도읍 금남리 772번지","category":"일반휴게음식 - 일반한식"}]},{"lat":"37.636255914","long":"127.35448985","items":[{"name":"경성양꼬치","tel":"031-593-9669","addr":"경기도 남양주시 화도읍 금남리 511-3번지 1층","category":"일반휴게음식 - 중국식"}]},{"lat":"37.63309125","long":"127.33982669","items":[{"name":"고성","tel":"031-673-9113","addr":"경기도 남양주시 화도읍 금남리 605-5번지","category":"용역 서비스 - 가례서비스업"}]},{"lat":"37.645920461","long":"127.36437056","items":[{"name":"고야","tel":"031-592-1666","addr":"경기도 남양주시 화도읍 금남리 169-3번지","category":"일반휴게음식 - 일반한식"}]},{"lat":"37.638502784","long":"127.35634718","items":[{"name":"골동품이 돈","tel":"","addr":"경기도 남양주시 화도읍 금남리 445-2번지","category":"문화.취미 - 골동품점"}]},{"lat":"37.635030446","long":"127.35454072","items":[{"name":"곰아줌칼국수","tel":"031-577-7747","addr":"경기도 남양주시 화도읍 금남리 511-37번지","category":"일반휴게음식 - 스넥"},{"name":"예닮","tel":"031-592-4724","addr":"경기도 남양주시 화도읍 금남리 511-37번지 1층","category":"일반휴게음식 - 일반한식"},{"name":"예닮2","tel":"031-592-4723","addr":"경기도 남양주시 화도읍 금남리 511-37번지 1층","category":"일반휴게음식 - 일반한식"}]},{"lat":"37.613007199","long":"127.340325","items":[{"name":"그루","tel":"031-8004-7984","addr":"경기도 남양주시 화도읍 금남리 797-3번지","category":"일반휴게음식 - 일반한식"}]},{"lat":"37.634890068","long":"127.35327119","items":[{"name":"그린산장","tel":"031-591-6180","addr":"경기도 남양주시 화도읍 금남리 511-19번지","category":"일반휴게음식 - 일반한식"},{"name":"햇반","tel":"031-591-5554","addr":"경기도 남양주시 화도읍 금남리 511-19번지","category":"일반휴게음식 - 일반한식"}]},{"lat":"37.639112511","long":"127.35732443","items":[{"name":"금남노래방","tel":"031-592-3876","addr":"경기도 남양주시 화도읍 금남리 444-9번지","category":"레저업소 - 노 래 방"},{"name":"산장호텔","tel":"031-591-0002","addr":"경기도 남양주시 화도읍 금남리 444-9번지","category":"숙박업 - 여관/기타숙박업"}]},{"lat":"37.64917358","long":"127.36709451","items":[{"name":"금남리건강웰빙맛집","tel":"031-576-1997","addr":"경기도 남양주시 화도읍 금남리 186-13번지 대진북한광빌리지 101호","category":"일반휴게음식 - 일반한식"}]},{"lat":"37.646085055","long":"127.36062084","items":[{"name":"금남리커피","tel":"031-595-0128","addr":"경기도 남양주시 화도읍 금남리 272-3번지 1층 전체","category":"일반휴게음식 - 서양음식"},{"name":"꽃담한우","tel":"031-559-5755","addr":"경기도 남양주시 화도읍 금남리 272-3번지","category":"일반휴게음식 - 일반한식"}]},{"lat":"37.63725327","long":"127.35540091","items":[{"name":"금남리한강숯불민물장어","tel":"031-593-7070","addr":"경기도 남양주시 화도읍 금남리 507-1번지","category":"일반휴게음식 - 일반한식"}]},{"lat":"37.631725744","long":"127.35087731","items":[{"name":"금남멧돼지","tel":"031-591-0921","addr":"경기도 남양주시 화도읍 금남리 618-2번지","category":"일반휴게음식 - 일반한식"},{"name":"함앤스","tel":"031-559-3350","addr":"경기도 남양주시 화도읍 금남리 618-2번지","category":"일반휴게음식 - 일반한식"}]},{"lat":"37.639806688","long":"127.35718044","items":[{"name":"금남순대국","tel":"031-594-2388","addr":"경기도 남양주시 화도읍 금남리 443-1번지 1층","category":"일반휴게음식 - 일반한식"}]},{"lat":"37.644062065","long":"127.36220875","items":[{"name":"금남초등학교병설유치원[아이행복]","tel":"031-592-0573","addr":"경기도 남양주시 화도읍 금남리 372번지 금남초등학교","category":"학원 - 유치원"}]},{"lat":"37.644027888","long":"127.36159673","items":[{"name":"금남한식부페","tel":"031-595-3525","addr":"경기도 남양주시 화도읍 금남리 356번지","category":"일반휴게음식 - 일반한식"}]},{"lat":"37.643758015","long":"127.36145947","items":[{"name":"금중3급 자동차공업사","tel":"031-591-7447","addr":"경기도 남양주시 화도읍 금남리 358-1번지","category":"자동차정비 유지 - 자동차정비"}]},{"lat":"37.649194822","long":"127.36896428","items":[{"name":"금호 수상레져","tel":"031-592-2878","addr":"경기도 남양주시 화도읍 금남리 138번지 1층","category":"레져용품 - 스포츠·레져용품"}]},{"lat":"37.635642353","long":"127.35479285","items":[{"name":"기사식당 외갑집밥상","tel":"031-591-6028","addr":"경기도 남양주시 화도읍 금남리 511-97번지","category":"일반휴게음식 - 일반한식"},{"name":"낭만집시","tel":"","addr":"경기도 남양주시 화도읍 금남리 511-97번지 1층","category":"일반휴게음식 - 주점"},{"name":"소나기","tel":"031-594-0757","addr":"경기도 남양주시 화도읍 금남리 511-97번지 금남공인중계사 1호","category":"일반휴게음식 - 일반한식"},{"name":"씨유금남리점","tel":"031-591-9971","addr":"경기도 남양주시 화도읍 금남리 511-97번지","category":"유통업 영리 - 편 의 점"}]},{"lat":"37.646280078","long":"127.36462158","items":[{"name":"길성이백숙","tel":"031-559-5539","addr":"경기도 남양주시 화도읍 금남리 171-9번지","category":"일반휴게음식 - 일반한식"}]},{"lat":"37.646002727","long":"127.36398571","items":[{"name":"꾀꼬리동산","tel":"031-591-4917","addr":"경기도 남양주시 화도읍 금남리 168-3번지","category":"일반휴게음식 - 일반한식"},{"name":"원조 너와집 청국장","tel":"031-592-1023","addr":"경기도 남양주시 화도읍 금남리 168-3번지","category":"일반휴게음식 - 일반한식"}]},{"lat":"37.618114983","long":"127.34371209","items":[{"name":"나래유통","tel":"031-591-3655","addr":"경기도 남양주시 화도읍 금남리 산56-132","category":"음료식품 - 농·축·수산품"}]},{"lat":"37.64658536","long":"127.36496299","items":[{"name":"난타","tel":"031-591-1828","addr":"경기도 남양주시 화도읍 금남리 171-7번지 1층","category":"일반휴게음식 - 중국식"},{"name":"북한강코다리","tel":"031-593-8806","addr":"경기도 남양주시 화도읍 금남리 171-7번지 2층","category":"일반휴게음식 - 일반한식"},{"name":"양양막국수","tel":"031-511-1235","addr":"경기도 남양주시 화도읍 금남리 171-7번지","category":"일반휴게음식 - 일반한식"},{"name":"커피하우스달","tel":"031-592-7896","addr":"경기도 남양주시 화도읍 금남리 171-7번지 1층","category":"일반휴게음식 - 일반한식"}]},{"lat":"37.631592736","long":"127.35015166","items":[{"name":"남양주임실치즈체험장","tel":"031-592-7750","addr":"경기도 남양주시 화도읍 금남리 577-2번지","category":"일반휴게음식 - 서양음식"}]},{"lat":"37.654977663","long":"127.36940063","items":[{"name":"낭만제작소","tel":"031-511-2020","addr":"경기도 남양주시 화도읍 금남리 111-14번지","category":"자동차정비 유지 - 자동차부품"}]},{"lat":"37.64969507","long":"127.36451349","items":[{"name":"내미련가든","tel":"031-559-7868","addr":"경기도 남양주시 화도읍 금남리 214-2번지","category":"일반휴게음식 - 일반한식"}]},{"lat":"37.612203919","long":"127.3408197","items":[{"name":"너와집 도둑게장","tel":"031-594-6661","addr":"경기도 남양주시 화도읍 금남리 808-2번지 1층","category":"일반휴게음식 - 일반한식"}]},{"lat":"37.611535033","long":"127.34157549","items":[{"name":"논두렁","tel":"031-591-6082","addr":"경기도 남양주시 화도읍 금남리 806-4","category":"일반휴게음식 - 일반한식"}]},{"lat":"37.643084468","long":"127.36074242","items":[{"name":"농업회사법인 탐스팜 주식회사 (Toms Farm)","tel":"070-7164-7904","addr":"경기도 남양주시 화도읍 금남리 359-11번지 3층","category":"음료식품 - 농·축·수산품"}]},{"lat":"37.650666323","long":"127.36801965","items":[{"name":"느티나무집","tel":"031-592-2807","addr":"경기도 남양주시 화도읍 금남리 193-1번지","category":"일반휴게음식 - 일반한식"}]},{"lat":"37.631061805","long":"127.34993395","items":[{"name":"늘찬","tel":"031-521-0340","addr":"경기도 남양주시 화도읍 금남리 576-3번지","category":"일반휴게음식 - 일반한식"},{"name":"다송","tel":"031-591-8582","addr":"경기도 남양주시 화도읍 금남리 576-3","category":"일반휴게음식 - 일반한식"}]},{"lat":"37.634063345","long":"127.34015962","items":[{"name":"닥박골","tel":"031-511-1125","addr":"경기도 남양주시 화도읍 금남리 597-35번지","category":"일반휴게음식 - 일반한식"}]},{"lat":"37.615257928","long":"127.34405016","items":[{"name":"달빛 수상스키장","tel":"031-592-0511","addr":"경기도 남양주시 화도읍 금남리 694번지","category":"레저업소 - 기타레져업소"}]},{"lat":"37.613476415","long":"127.34321523","items":[{"name":"달빛식탁","tel":"","addr":"경기도 남양주시 화도읍 금남리 732번지","category":"일반휴게음식 - 일반한식"}]},{"lat":"37.65672164","long":"127.358904","items":[{"name":"더 플랏 the flat","tel":"031-493-5910","addr":"경기도 남양주시 화도읍 금남리 46-1","category":"유통업 영리 - 기타유통업"}]},{"lat":"37.635367495","long":"127.356321","items":[{"name":"더마힐 강북지점","tel":"031-000-0000","addr":"경기도 남양주시 화도읍 금남리 524-2번지","category":"보건위생 - 화장품"}]},{"lat":"37.631923553","long":"127.35101418","items":[{"name":"더츠커피가든","tel":"031-584-3383","addr":"경기도 남양주시 화도읍 금남리 572-2번지 1층","category":"일반휴게음식 - 서양음식"},{"name":"에델바이스","tel":"031-594-8837","addr":"경기도 남양주시 화도읍 금남리 572-2번지","category":"가구 - 일반가구"}]},{"lat":"37.635115072","long":"127.35335155","items":[{"name":"도자기마을","tel":"031-591-1811","addr":"경기도 남양주시 화도읍 금남리 511-108 16/2","category":"문화.취미 - 민예·공예품"},{"name":"뮤직108가든","tel":"","addr":"경기도 남양주시 화도읍 금남리 511-108번지 1층","category":"일반휴게음식 - 서양음식"}]},{"lat":"37.641563264","long":"127.36027058","items":[{"name":"동일노래연습장","tel":"031-592-3312","addr":"경기도 남양주시 화도읍 금남리 409-9번지 1층","category":"레저업소 - 노 래 방"}]},{"lat":"37.654553864","long":"127.36951186","items":[{"name":"디머(dimmer)","tel":"","addr":"경기도 남양주시 화도읍 금남리 108-1번지 주 1동 1층","category":"일반휴게음식 - 서양음식"},{"name":"케이마루","tel":"","addr":"경기도 남양주시 화도읍 금남리 108-1번지","category":"건축자재 - 기타건축자재"}]},{"lat":"37.618921847","long":"127.34509763","items":[{"name":"딜리카포USNS","tel":"031-521-9533","addr":"경기도 남양주시 화도읍 금남리 664-2, 664-3, 산56-316","category":"음료식품 - 기타음료식품"}]},{"lat":"37.644452507","long":"127.36121353","items":[{"name":"또래오래 금남점","tel":"02-1111-1111","addr":"경기도 남양주시 화도읍 금남리 335-9번지","category":"일반휴게음식 - 스넥"}]},{"lat":"37.621226723","long":"127.3456519","items":[{"name":"라타쎄","tel":"031-552-1205","addr":"경기도 남양주시 화도읍 금남리 628-10번지 1,2층","category":"음료식품 - 기타음료식품"}]},{"lat":"37.611536397","long":"127.34109983","items":[{"name":"래유카페","tel":"031-591-9959","addr":"경기도 남양주시 화도읍 금남리 811번지","category":"일반휴게음식 - 일반한식"}]},{"lat":"37.619976626","long":"127.34487593","items":[{"name":"리버힐빌리지","tel":"031-593-8916","addr":"경기도 남양주시 화도읍 금남리 662-14번지","category":"숙박업 - 여관/기타숙박업"},{"name":"세븐일레븐금남리점","tel":"","addr":"경기도 남양주시 화도읍 금남리 662-14","category":"유통업 영리 - 편 의 점"},{"name":"세븐일레븐남양주금남리점","tel":"","addr":"경기도 남양주시 화도읍 금남리 662-14번지","category":"유통업 영리 - 편 의 점"}]},{"lat":"37.633756847","long":"127.35259746","items":[{"name":"매봉골","tel":"031-591-5641","addr":"경기도 남양주시 화도읍 금남리 511-79번지","category":"일반휴게음식 - 일반한식"}]},{"lat":"37.651334184","long":"127.36764898","items":[{"name":"먹는풍경","tel":"031-511-9208","addr":"경기도 남양주시 화도읍 금남리 208-8번지","category":"일반휴게음식 - 일반한식"}]},{"lat":"37.645061881","long":"127.36229288","items":[{"name":"목포낙지마을","tel":"031-594-1381","addr":"경기도 남양주시 화도읍 금남리 376-1번지","category":"일반휴게음식 - 일반한식"}]},{"lat":"37.6346703","long":"127.35445972","items":[{"name":"무구","tel":"031-593-6446","addr":"경기도 남양주시 화도읍 금남리 511-100번지","category":"일반휴게음식 - 서양음식"}]},{"lat":"37.65022803","long":"127.36989853","items":[{"name":"물새 수상레저","tel":"031-592-8443","addr":"경기도 남양주시 화도읍 금남리 137-4번지","category":"레저업소 - 기타레져업소"}]},{"lat":"37.644083976","long":"127.3609285","items":[{"name":"미니스톱남양주금남점","tel":"031-1577-9621","addr":"경기도 남양주시 화도읍 금남리 338-3번지 1층","category":"유통업 영리 - 편 의 점"},{"name":"제로마트정육점","tel":"031-591-6541","addr":"경기도 남양주시 화도읍 금남리 338-3번지","category":"음료식품 - 정육점"},{"name":"조가네잔치국수생삼겹살","tel":"031-591-6541","addr":"경기도 남양주시 화도읍 금남리 338-3번지","category":"일반휴게음식 - 일반한식"}]},{"lat":"37.652193342","long":"127.36659932","items":[{"name":"미래레저마린 (Mirae Leisure Marine)","tel":"031-559-3691","addr":"경기도 남양주시 화도읍 금남리 202번지","category":"기타 - 기계공구"}]},{"lat":"37.643947457","long":"127.36138107","items":[{"name":"바람과구름","tel":"031-559-8878","addr":"경기도 남양주시 화도읍 금남리 358-5번지","category":"일반휴게음식 - 일반한식"}]},{"lat":"37.638807445","long":"127.35690378","items":[{"name":"백단목본점","tel":"031-594-0372","addr":"경기도 남양주시 화도읍 금남리 446-1번지","category":"일반휴게음식 - 일반한식"}]},{"lat":"37.641395783","long":"127.35904613","items":[{"name":"북경반점","tel":"031-593-4833","addr":"경기도 남양주시 화도읍 금남리 410-23번지","category":"일반휴게음식 - 중국식"},{"name":"여기1467","tel":"031-559-2601","addr":"경기도 남양주시 화도읍 금남리 410-23번지 1층","category":"일반휴게음식 - 일반한식"}]},{"lat":"37.614954511","long":"127.34304075","items":[{"name":"북한강 이디야 35127","tel":"031-593-3512","addr":"경기도 남양주시 화도읍 금남리 689-2번지 2-3층","category":"일반휴게음식 - 서양음식"}]},{"lat":"37.615144496","long":"127.34276979","items":[{"name":"북한강 참나무 바베큐","tel":"","addr":"경기도 남양주시 화도읍 금남리 689-1번지","category":"일반휴게음식 - 일반한식"}]},{"lat":"37.637811117","long":"127.3556528","items":[{"name":"북한강어탕국수","tel":"031-555-1565","addr":"경기도 남양주시 화도읍 금남리 446-5번지","category":"일반휴게음식 - 일반한식"}]},{"lat":"37.616006477","long":"127.34379307","items":[{"name":"북한강호텔/주식회사케이엠디에스","tel":"031-592-3355","addr":"경기도 남양주시 화도읍 금남리 671번지","category":"숙박업 - 여관/기타숙박업"}]},{"lat":"37.638451032","long":"127.35557651","items":[{"name":"불루문","tel":"031-559-1197","addr":"경기도 남양주시 화도읍 금남리 446-7번지 1층","category":"일반휴게음식 - 서양음식"},{"name":"하이디아","tel":"02-1661-4917","addr":"경기도 남양주시 화도읍 금남리 446-7번지","category":"문화.취미 - 애완동물"}]},{"lat":"37.621586284","long":"127.34593673","items":[{"name":"블루힐","tel":"","addr":"경기도 남양주시 화도읍 금남리 628-4번지","category":"일반휴게음식 - 서양음식"}]},{"lat":"37.650114847","long":"127.36862885","items":[{"name":"비자팍스","tel":"","addr":"경기도 남양주시 화도읍 금남리 192-5번지","category":"일반휴게음식 - 일반한식"}]},{"lat":"37.651387999","long":"127.37062947","items":[{"name":"삼영수상레저","tel":"070-8893-9088","addr":"경기도 남양주시 화도읍 금남리 137-3번지","category":"레저업소 - 기타레져업소"}]},{"lat":"37.615698382","long":"127.34440329","items":[{"name":"삼형제 레포츠","tel":"031-511-0200","addr":"경기도 남양주시 화도읍 금남리 814번지 (수상스키장내)","category":"레저업소 - 기타레져업소"},{"name":"올스타수상레저","tel":"031-591-9235","addr":"경기도 남양주시 화도읍 금남리 814번지","category":"레저업소 - 기타레져업소"},{"name":"피코수상레져","tel":"031-511-0200","addr":"경기도 남양주시 화도읍 금남리 814번지 피코수상스키장","category":"레저업소 - 기타레져업소"}]},{"lat":"37.632615985","long":"127.35145923","items":[{"name":"서호레스토랑","tel":"031-592-1864","addr":"경기도 남양주시 화도읍 금남리 571-17번지","category":"일반휴게음식 - 서양음식"}]},{"lat":"37.629224253","long":"127.34978946","items":[{"name":"선운산","tel":"031-595-1077","addr":"경기도 남양주시 화도읍 금남리 618-8번지","category":"일반휴게음식 - 일반한식"},{"name":"하이마트","tel":"031-591-2201","addr":"경기도 남양주시 화도읍 금남리 618-8번지","category":"일반휴게음식 - 일반한식"},{"name":"하이마트/태평양레저산업(주)","tel":"031-592-2345","addr":"경기도 남양주시 화도읍 금남리 618-8번지","category":"일반휴게음식 - 일반한식"}]},{"lat":"37.640086562","long":"127.35698916","items":[{"name":"세리모텔","tel":"031-591-2287","addr":"경기도 남양주시 화도읍 금남리 440-2","category":"숙박업 - 여관/기타숙박업"}]},{"lat":"37.64098066","long":"127.35927075","items":[{"name":"세븐일레븐남양주금남로점","tel":"031-1577-0711","addr":"경기도 남양주시 화도읍 금남리 412-3번지 1층","category":"유통업 영리 - 편 의 점"}]},{"lat":"37.646088304","long":"127.36545913","items":[{"name":"세븐일레븐남양주북한강점","tel":"","addr":"경기도 남양주시 화도읍 금남리 171-6번지","category":"유통업 영리 - 편 의 점"}]},{"lat":"37.652971777","long":"127.36834823","items":[{"name":"세븐일레븐화도북한강점","tel":"031-1577-0711","addr":"경기도 남양주시 화도읍 금남리 104-12번지","category":"유통업 영리 - 편 의 점"}]},{"lat":"37.641726293","long":"127.35998811","items":[{"name":"소리마을","tel":"031-559-6563","addr":"경기도 남양주시 화도읍 금남리 409-1번지","category":"일반휴게음식 - 일반한식"}]},{"lat":"37.644477365","long":"127.36192748","items":[{"name":"솔잎해물손칼국수","tel":"031-592-6364","addr":"경기도 남양주시 화도읍 금남리 374번지","category":"일반휴게음식 - 일반한식"}]},{"lat":"37.644702673","long":"127.36190591","items":[{"name":"싸유편의점","tel":"031-593-5652","addr":"경기도 남양주시 화도읍 금남리 354-6번지","category":"유통업 영리 - 편 의 점"}]},{"lat":"37.655201527","long":"127.36984368","items":[{"name":"썬","tel":"031-559-4480","addr":"경기도 남양주시 화도읍 금남리 111번지","category":"숙박업 - 여관/기타숙박업"}]},{"lat":"37.649643683","long":"127.36657556","items":[{"name":"아모레카운셀러","tel":"031-593-3292","addr":"경기도 남양주시 화도읍 금남리 186-3번지 북한강빌라 101호","category":"보건위생 - 화장품"}]},{"lat":"37.635005307","long":"127.35390617","items":[{"name":"아일랜드","tel":"031-591-2190","addr":"경기도 남양주시 화도읍 금남리 511-99번지","category":"일반휴게음식 - 서양음식"}]},{"lat":"37.643419263","long":"127.36026814","items":[{"name":"아쿠아119","tel":"031-575-1119","addr":"경기도 남양주시 화도읍 금남리 333-1번지 1층일부,2층","category":"문화.취미 - 수족관"}]},{"lat":"37.64086398","long":"127.3591229","items":[{"name":"양평뚝배기해장국","tel":"031-559-1501","addr":"경기도 남양주시 화도읍 금남리 412번지","category":"일반휴게음식 - 일반한식"}]},{"lat":"37.653090198","long":"127.36792953","items":[{"name":"어가명가","tel":"031-511-1193","addr":"경기도 남양주시 화도읍 금남리 99-5번지","category":"일반휴게음식 - 일반한식"}]},{"lat":"37.641117239","long":"127.35879553","items":[{"name":"에메랄드 모텔","tel":"031-591-1515","addr":"경기도 남양주시 화도읍 금남리 410-8번지","category":"숙박업 - 여관/기타숙박업"},{"name":"에메랄드모텔","tel":"031-592-1515","addr":"경기도 남양주시 화도읍 금남리 410-8번지","category":"숙박업 - 여관/기타숙박업"}]},{"lat":"37.652223285","long":"127.3685712","items":[{"name":"엠제이팩토리(MJ Factory)","tel":"031-595-4016","addr":"경기도 남양주시 화도읍 금남리 198-14번지","category":"레져용품 - 스포츠·레져용품"}]},{"lat":"37.636362137","long":"127.35512479","items":[{"name":"오색항아리","tel":"031-592-0032","addr":"경기도 남양주시 화도읍 금남리 509-6번지","category":"일반휴게음식 - 일반한식"}]},{"lat":"37.647110215","long":"127.36126029","items":[{"name":"우리하수도공사","tel":"080-559-8272","addr":"경기도 남양주시 화도읍 금남리 248-2번지","category":"용역 서비스 - 기타용역서비스"},{"name":"컨트리","tel":"031-591-1521","addr":"경기도 남양주시 화도읍 금남리 248-2","category":"숙박업 - 여관/기타숙박업"}]},{"lat":"37.643948283","long":"127.35812921","items":[{"name":"유명스크린골프","tel":"031-592-0305","addr":"경기도 남양주시 화도읍 금남리 317-7번지 1층","category":"레저업소 - 스크린골프"}]},{"lat":"37.615676714","long":"127.34254568","items":[{"name":"유키노하나","tel":"070-8823-7146","addr":"경기도 남양주시 화도읍 금남리 676-2번지","category":"일반휴게음식 - 주점"}]},{"lat":"37.652776302","long":"127.36746339","items":[{"name":"은성가구","tel":"031-592-2667","addr":"경기도 남양주시 화도읍 금남리 98-1","category":"가구 - 일반가구"}]},{"lat":"37.656226035","long":"127.37067599","items":[{"name":"은성가든","tel":"031-511-0320","addr":"경기도 남양주시 화도읍 금남리 산 2-8","category":"일반휴게음식 - 일반한식"}]},{"lat":"37.637613551","long":"127.3554366","items":[{"name":"은인무역(WAIWERA)","tel":"031-595-6490","addr":"경기도 남양주시 화도읍 금남리 511-96번지","category":"유통업 영리 - 기타유통업"}]},{"lat":"37.636142079","long":"127.35640397","items":[{"name":"이화에월백하고","tel":"031-592-3770","addr":"경기도 남양주시 화도읍 금남리 528-3번지","category":"일반휴게음식 - 일반한식"}]},{"lat":"37.633505398","long":"127.35534922","items":[{"name":"일피노","tel":"031-591-3377","addr":"경기도 남양주시 화도읍 금남리 560-2","category":"일반휴게음식 - 서양음식"}]},{"lat":"37.634644183","long":"127.35415371","items":[{"name":"자연산민물매운탕","tel":"031-591-1714","addr":"경기도 남양주시 화도읍 금남리 511-35번지","category":"일반휴게음식 - 일반한식"}]},{"lat":"37.61366956","long":"127.34184567","items":[{"name":"잣나무골","tel":"031-592-0881","addr":"경기도 남양주시 화도읍 금남리 726","category":"일반휴게음식 - 일반한식"}]},{"lat":"37.612178218","long":"127.34035523","items":[{"name":"정자뜰","tel":"031-591-1654","addr":"경기도 남양주시 화도읍 금남리 793-1번지","category":"일반휴게음식 - 일반한식"}]},{"lat":"37.638840541","long":"127.35487591","items":[{"name":"제니스","tel":"031-593-0377","addr":"경기도 남양주시 화도읍 금남리 463번지","category":"숙박업 - 여관/기타숙박업"}]},{"lat":"37.613699674","long":"127.34076984","items":[{"name":"조개닭","tel":"031-592-6694","addr":"경기도 남양주시 화도읍 금남리 747-2번지","category":"일반휴게음식 - 일반한식"}]},{"lat":"37.633172659","long":"127.33971377","items":[{"name":"주식회사 신화펌프","tel":"031-595-2570","addr":"경기도 남양주시 화도읍 금남리 605-4번지","category":"기타 - 기계공구"}]},{"lat":"37.651861428","long":"127.36904536","items":[{"name":"주식회사정앤정(JUNG & JUNG Co.,Ltd)","tel":"031-592-3000","addr":"경기도 남양주시 화도읍 금남리 136-2번지","category":"학원 - 보습학원"}]},{"lat":"37.649950356","long":"127.36646374","items":[{"name":"중앙산업","tel":"031-594-2756","addr":"경기도 남양주시 화도읍 금남리 187-6","category":"기타 - 기타 전문점"}]},{"lat":"37.61278938","long":"127.34087898","items":[{"name":"짚투커피(zip2coffee)","tel":"070-8863-3326","addr":"경기도 남양주시 화도읍 금남리 795-7번지 1동 1,2층","category":"일반휴게음식 - 서양음식"}]},{"lat":"37.645895683","long":"127.36067659","items":[{"name":"청록식당","tel":"031-591-5360","addr":"경기도 남양주시 화도읍 금남리 273번지","category":"일반휴게음식 - 일반한식"}]},{"lat":"37.646443673","long":"127.3641578","items":[{"name":"최가네보리굴비","tel":"031-595-1660","addr":"경기도 남양주시 화도읍 금남리 169-1번지 1,2층","category":"일반휴게음식 - 일반한식"}]},{"lat":"37.652915998","long":"127.36890322","items":[{"name":"최고집","tel":"031-591-5769","addr":"경기도 남양주시 화도읍 금남리 104-4번지 1층","category":"일반휴게음식 - 일반한식"}]},{"lat":"37.654003459","long":"127.36393379","items":[{"name":"칠성웰딩","tel":"031-591-7188","addr":"경기도 남양주시 화도읍 금남리 71-4번지","category":"기타 - 기계공구"}]},{"lat":"37.634835035","long":"127.35359948","items":[{"name":"카페마루","tel":"031-511-0062","addr":"경기도 남양주시 화도읍 금남리 511-16번지","category":"일반휴게음식 - 서양음식"}]},{"lat":"37.615701976","long":"127.34002004","items":[{"name":"코스타리카","tel":"031-592-2594","addr":"경기도 남양주시 화도읍 금남리 752-4","category":"유통업 영리 - 슈퍼마켓"}]},{"lat":"37.619704728","long":"127.3454297","items":[{"name":"테라스","tel":"031-511-2292","addr":"경기도 남양주시 화도읍 금남리 663-2","category":"음료식품 - 기타음료식품"}]},{"lat":"37.653446363","long":"127.36929111","items":[{"name":"하비연","tel":"031-593-5389","addr":"경기도 남양주시 화도읍 금남리 106-1","category":"일반휴게음식 - 일반한식"}]},{"lat":"37.627864741","long":"127.34946596","items":[{"name":"하이마트수상레저","tel":"031-591-2778","addr":"경기도 남양주시 화도읍 금남리 623-1","category":"레저업소 - 기타레져업소"}]},{"lat":"37.652755794","long":"127.36826785","items":[{"name":"한국토기","tel":"031-592-8839","addr":"경기도 남양주시 화도읍 금남리 198-4번지","category":"문화.취미 - 민예·공예품"}]},{"lat":"37.614116124","long":"127.34006951","items":[{"name":"한성엘이디 유한회사","tel":"031-557-7733","addr":"경기도 남양주시 화도읍 금남리 769번지","category":"건축자재 - 조명기구"}]},{"lat":"37.640252569","long":"127.35570966","items":[{"name":"한옥카페차마시는뜰","tel":"031-576-6555","addr":"경기도 남양주시 화도읍 금남리 450번지","category":"일반휴게음식 - 서양음식"}]},{"lat":"37.631557047","long":"127.34695681","items":[{"name":"함께일하기협동조합1호점","tel":"070-5001-3360","addr":"경기도 남양주시 화도읍 금남리 산44번지","category":"음료식품 - 기타음료식품"}]},{"lat":"37.631394659","long":"127.35010542","items":[{"name":"햇빛촌","tel":"031-591-4613","addr":"경기도 남양주시 화도읍 금남리 576-1번지","category":"일반휴게음식 - 일반한식"}]},{"lat":"37.655612614","long":"127.35918201","items":[{"name":"호수의집","tel":"031-591-1708","addr":"경기도 남양주시 화도읍 금남리 53번지","category":"일반휴게음식 - 일반한식"}]},{"lat":"37.637120088","long":"127.35474317","items":[{"name":"호텔발렌타인","tel":"031-592-0333","addr":"경기도 남양주시 화도읍 금남리 511-6번지","category":"숙박업 - 여관/기타숙박업"}]},{"lat":"37.643949142","long":"127.36082588","items":[{"name":"홍천막국수","tel":"031-511-9963","addr":"경기도 남양주시 화도읍 금남리 338-14번지 1층","category":"일반휴게음식 - 일반한식"}]},{"lat":"37.640419167","long":"127.35724","items":[{"name":"화도로타리클럽","tel":"031-594-1402","addr":"경기도 남양주시 화도읍 금남리 440-5번지","category":"기타 - 비영리/비대상"}]}]