[{"lat":"37.116033909","long":"126.82000109","items":[{"name":"대성중기상사","tel":"","addr":"경기도 화성시 장안면 금의리 568-15번지","category":"자동차판매 - 기타운송"}]},{"lat":"37.117194529","long":"126.82478023","items":[{"name":"대풍티엔엠","tel":"031-358-8721","addr":"경기도 화성시 장안면 금의리 571-52번지","category":"기타 - 기계공구"}]},{"lat":"37.106863932","long":"126.82177815","items":[{"name":"더커피팩토리(The Coffee Factory)","tel":"031-352-1673","addr":"경기도 화성시 장안면 금의리 395번지","category":"음료식품 - 기타음료식품"},{"name":"퍼니처월드","tel":"","addr":"경기도 화성시 장안면 금의리 395번지","category":"가구 - 일반가구"}]},{"lat":"37.108643886","long":"126.82500276","items":[{"name":"미래이엔지","tel":"031-351-0501","addr":"경기도 화성시 장안면 금의리 112-33번지","category":"건축자재 - 조명기구"}]},{"lat":"37.117248913","long":"126.82499388","items":[{"name":"보름달 감자탕","tel":"031-358-2358","addr":"경기도 화성시 장안면 금의리 571-59 1층","category":"일반휴게음식 - 일반한식"},{"name":"세븐일레븐화성금의점","tel":"031-1577-0711","addr":"경기도 화성시 장안면 금의리 571-59번지","category":"유통업 영리 - 편 의 점"}]},{"lat":"37.108611111","long":"126.83338433","items":[{"name":"스테이 모터스","tel":"","addr":"경기도 화성시 장안면 금의리 593-40번지","category":"자동차정비 유지 - 자동차부품"}]},{"lat":"37.110947399","long":"126.81705439","items":[{"name":"퓨어웨이 홈케어","tel":"","addr":"경기도 화성시 장안면 금의리 236번지","category":"용역 서비스 - 종합용역"}]},{"lat":"37.116143195","long":"126.82075467","items":[{"name":"한가득한식부페","tel":"031-351-3690","addr":"경기도 화성시 장안면 금의리 199-1번지 2층","category":"일반휴게음식 - 일반한식"}]},{"lat":"37.107812181","long":"126.83550115","items":[{"name":"한영전기전력","tel":"031-354-7629","addr":"경기도 화성시 장안면 금의리 612-40번지","category":"전기제품 - 기타전기제품"}]},{"lat":"37.117194276","long":"126.82461146","items":[{"name":"해두리치킨","tel":"031-358-0990","addr":"경기도 화성시 장안면 금의리 571-50번지","category":"일반휴게음식 - 일반한식"}]},{"lat":"37.11661611","long":"126.83596559","items":[{"name":"해오름","tel":"031-351-7577","addr":"경기도 화성시 장안면 금의리 574-33번지 2층","category":"일반휴게음식 - 일반한식"}]},{"lat":"37.107505427","long":"126.83522057","items":[{"name":"행복한 밥상","tel":"031-358-6939","addr":"경기도 화성시 장안면 금의리 612-28번지","category":"일반휴게음식 - 일반한식"}]}]