[{"lat":"37.654682534","long":"126.77260011","items":[{"name":"HSYH","tel":"031-818-5776","addr":"경기도 고양시 일산동구 정발산로","category":"의류 - 정장"},{"name":"SGPMALL","tel":"031-921-8897","addr":"경기도 고양시 일산동구 정발산로","category":"신변잡화 - 기타잡화"},{"name":"겐로쿠우동","tel":"031-901-9919","addr":"경기도 고양시 일산동구 정발산로","category":"일반휴게음식 - 일반한식"},{"name":"다니엘코리아 일산직영점","tel":"031-931-5050","addr":"경기도 고양시 일산동구 정발산로","category":"기타 - 기타 전문점"},{"name":"댑웨스턴돔점","tel":"031-907-4327","addr":"경기도 고양시 일산동구 정발산로","category":"의류 - 내의판매"},{"name":"레드아이","tel":"02-310-9733","addr":"경기도 고양시 일산동구 정발산로","category":"신변잡화 - 액세서리"},{"name":"로이드웨스턴돔","tel":"031-974-0881","addr":"경기도 고양시 일산동구 정발산로","category":"신변잡화 - 시계"},{"name":"미녀와 야수","tel":"0000-0000-0000","addr":"경기도 고양시 일산동구 정발산로","category":"신변잡화 - 액세서리"},{"name":"살롱드마샬","tel":"031-931-5080","addr":"경기도 고양시 일산동구 정발산로","category":"보건위생 - 미용원"},{"name":"아이리텍","tel":"070-8810-3100","addr":"경기도 고양시 일산동구 정발산로","category":"수리서비스 - 사무·통신기기수리"},{"name":"주식회사 에이치868","tel":"031-902-0220","addr":"경기도 고양시 일산동구 정발산로","category":"레저업소 - 헬스클럽"},{"name":"카이바","tel":"031-902-0424","addr":"경기도 고양시 일산동구 정발산로","category":"의류 - 정장"},{"name":"코너샵","tel":"031-336-3391","addr":"경기도 고양시 일산동구 정발산로","category":"의류 - 정장"},{"name":"타코비","tel":"031-907-8725","addr":"경기도 고양시 일산동구 정발산로","category":"일반휴게음식 - 스넥"},{"name":"패트리샤","tel":"031-904-5247","addr":"경기도 고양시 일산동구 정발산로","category":"의류 - 정장"},{"name":"폰케이스샵","tel":"070-7787-9539","addr":"경기도 고양시 일산동구 정발산로","category":"신변잡화 - 액세서리"},{"name":"폴미첼코리아주식회사","tel":"031-902-6330","addr":"경기도 고양시 일산동구 정발산로","category":"보건위생 - 화장품"}]},{"lat":"37.657078938","long":"126.77251339","items":[{"name":"강남곱창이야기 일산웨스턴점","tel":"031-903-9410","addr":"경기도 고양시 일산동구 정발산로","category":"일반휴게음식 - 일반한식"},{"name":"쟈끄데상쥬일산점","tel":"031-908-9711","addr":"경기도 고양시 일산동구 정발산로","category":"보건위생 - 미용원"},{"name":"죠스떡볶이일산웨스턴돔점","tel":"031-904-1105","addr":"경기도 고양시 일산동구 정발산로","category":"일반휴게음식 - 스넥"}]},{"lat":"37.656647648","long":"126.77311534","items":[{"name":"공릉동닭한마리","tel":"031-903-8885","addr":"경기도 고양시 일산동구 정발산로","category":"일반휴게음식 - 일반한식"},{"name":"장충동왕족발집","tel":"031-905-7375","addr":"경기도 고양시 일산동구 정발산로","category":"일반휴게음식 - 일반한식"}]},{"lat":"37.657269179","long":"126.77304543","items":[{"name":"그린비통신","tel":"0070-7101-0301","addr":"경기도 고양시 일산동구 정발산로","category":"별도관리 - 자체물품대금"},{"name":"주식회사 그린비통신","tel":"031-907-8867","addr":"경기도 고양시 일산동구 정발산로","category":"사무통신 - 통신기기"},{"name":"황실전통아로마","tel":"031-921-8837","addr":"경기도 고양시 일산동구 정발산로","category":"보건위생 - 미용재료"}]},{"lat":"37.656408694","long":"126.7707136","items":[{"name":"디딤","tel":"031-819-0988","addr":"경기도 고양시 일산동구 정발산로","category":"일반휴게음식 - 서양음식"},{"name":"무사시","tel":"031-901-2772","addr":"경기도 고양시 일산동구 정발산로","category":"일반휴게음식 - 일반한식"},{"name":"뮬(Mule)","tel":"031-978-4841","addr":"경기도 고양시 일산동구 정발산로","category":"일반휴게음식 - 서양음식"},{"name":"티원","tel":"031-907-4364","addr":"경기도 고양시 일산동구 정발산로","category":"보건위생 - 화장품"}]},{"lat":"37.657684922","long":"126.77371277","items":[{"name":"루비한의원","tel":"031-901-1075","addr":"경기도 고양시 일산동구 정발산로","category":"의원 - 한의원"},{"name":"리폼사","tel":"031-907-2485","addr":"경기도 고양시 일산동구 정발산로","category":"수리서비스 - 세탁소"},{"name":"스타일","tel":"031-903-5956","addr":"경기도 고양시 일산동구 정발산로","category":"신변잡화 - 신발"},{"name":"알파 동구청점","tel":"031-906-0274","addr":"경기도 고양시 일산동구 정발산로","category":"서적문구 - 문구용품"}]},{"lat":"37.656825317","long":"126.77182289","items":[{"name":"발리노래연습장","tel":"031-908-0506","addr":"경기도 고양시 일산동구 정발산로","category":"레저업소 - 노 래 방"}]},{"lat":"37.657294904","long":"126.77237673","items":[{"name":"소굿즈","tel":"031-902-7827","addr":"경기도 고양시 일산동구 정발산로","category":"주방용구 - 주방용식기"},{"name":"아가도스","tel":"031-905-2767","addr":"경기도 고양시 일산동구 정발산로","category":"레저업소 - 기타레져업소"},{"name":"온앤오프","tel":"031-901-1277","addr":"경기도 고양시 일산동구 정발산로","category":"신변잡화 - 가방"},{"name":"천하일미 호미불닭발","tel":"031-907-9379","addr":"경기도 고양시 일산동구 정발산로","category":"일반휴게음식 - 일반한식"}]},{"lat":"37.658269842","long":"126.77334833","items":[{"name":"아모레퍼시픽 카운셀러","tel":"031-906-4007","addr":"경기도 고양시 일산동구 정발산로","category":"보건위생 - 화장품"},{"name":"아모레퍼시픽카운셀러","tel":"031-906-4079","addr":"경기도 고양시 일산동구 정발산로","category":"보건위생 - 화장품"},{"name":"위드밴","tel":"0070-7017-4545","addr":"경기도 고양시 일산동구 정발산로","category":"별도관리 - 자체물품대금"},{"name":"이롬경매학원","tel":"031-932-2588","addr":"경기도 고양시 일산동구 정발산로","category":"회원제형태 - 학원"},{"name":"지환유통","tel":"031-902-3556","addr":"경기도 고양시 일산동구 정발산로","category":"사무통신 - 기타 사무용품"},{"name":"치유나무정신건강의학과","tel":"031-903-0123","addr":"경기도 고양시 일산동구 정발산로","category":"의원 - 의원"}]},{"lat":"37.657521183","long":"126.77290866","items":[{"name":"에이스중기","tel":"031-922-0451","addr":"경기도 고양시 일산동구 정발산로","category":"기타 - 기계공구"},{"name":"에이엠티코리아","tel":"02-571-3102","addr":"경기도 고양시 일산동구 정발산로","category":"보건위생 - 의료용품"},{"name":"용구비어(일산본점)","tel":"031-907-0915","addr":"경기도 고양시 일산동구 정발산로","category":"일반휴게음식 - 주점"}]},{"lat":"37.656461591","long":"126.77012414","items":[{"name":"잇아이티","tel":"031-907-6222","addr":"경기도 고양시 일산동구 정발산로","category":"사무통신 - 컴퓨터"}]},{"lat":"37.656660696","long":"126.77057682","items":[{"name":"주식회사스포츠피플","tel":"031-967-2015","addr":"경기도 고양시 일산동구 정발산로","category":"서적문구 - 정기간행물"},{"name":"피치스포츠","tel":"070-8802-6895","addr":"경기도 고양시 일산동구 정발산로","category":"레져용품 - 골프용품 전문점"}]},{"lat":"37.657077364","long":"126.77170878","items":[{"name":"착한곱창","tel":"031-907-5903","addr":"경기도 고양시 일산동구 정발산로","category":"일반휴게음식 - 일반한식"}]},{"lat":"37.657689329","long":"126.77135557","items":[{"name":"카페로제타(CAFFE ROSETTA)","tel":"031-902-7906","addr":"경기도 고양시 일산동구 정발산로","category":"일반휴게음식 - 서양음식"}]}]