[{"lat":"37.012441376","long":"127.26612242","items":[{"name":"(주)","tel":"031-674-0789","addr":"경기도 안성시 금산동 193번지 1층","category":"일반휴게음식 - 주점"},{"name":"대성축산물센타","tel":"031-676-8949","addr":"경기도 안성시 금산동 193번지","category":"음료식품 - 정육점"}]},{"lat":"37.011800328","long":"127.26670449","items":[{"name":"(주)경기전기안전관리","tel":"031-677-2111","addr":"경기도 안성시 금산동 118-1번지 3층","category":"용역 서비스 - 기타용역서비스"},{"name":"소문난감자탕","tel":"031-671-1960","addr":"경기도 안성시 금산동 118-1번지","category":"일반휴게음식 - 일반한식"},{"name":"와우소문난감자탕","tel":"031-671-1960","addr":"경기도 안성시 금산동 118-1번지 1층","category":"일반휴게음식 - 일반한식"}]},{"lat":"37.010218485","long":"127.26893494","items":[{"name":"(주)오이에스","tel":"031-672-0505","addr":"경기도 안성시 금산동 152-3.1층.3층","category":"회원제형태 - 학원"},{"name":"대성엔학원","tel":"031-674-0505","addr":"경기도 안성시 금산동 152-3번지","category":"학원 - 예·체능계학원"}]},{"lat":"37.012359358","long":"127.26653788","items":[{"name":"A플러스 당구장","tel":"031-677-3657","addr":"경기도 안성시 금산동 194번지","category":"레저업소 - 당 구 장"}]},{"lat":"37.012078947","long":"127.27104257","items":[{"name":"GS25안성에듀타운점","tel":"","addr":"경기도 안성시 금산동 41-3번지","category":"유통업 영리 - 편 의 점"}]},{"lat":"37.009020756","long":"127.26862741","items":[{"name":"LK정보통신","tel":"031-677-8450","addr":"경기도 안성시 금산동 162-2번지","category":"사무통신 - 컴퓨터"},{"name":"로즈데이","tel":"031-677-7288","addr":"경기도 안성시 금산동 162-2번지 1층","category":"보건위생 - 화장품"}]},{"lat":"37.010721034","long":"127.2698468","items":[{"name":"N카페","tel":"031-673-0712","addr":"경기도 안성시 금산동 134-1번지","category":"일반휴게음식 - 일반한식"},{"name":"미모아미용실","tel":"031-673-4669","addr":"경기도 안성시 금산동 134-1번지","category":"보건위생 - 미용원"},{"name":"한잔의 추억","tel":"031-672-6354","addr":"경기도 안성시 금산동 134-1번지 B호","category":"일반휴게음식 - 주점"}]},{"lat":"37.01126987","long":"127.27020827","items":[{"name":"PC대장간","tel":"070-4231-5040","addr":"경기도 안성시 금산동 43번지","category":"수리서비스 - 사무·통신기기수리"},{"name":"비비큐","tel":"031-677-9292","addr":"경기도 안성시 금산동 43번지","category":"일반휴게음식 - 스넥"}]},{"lat":"37.009913181","long":"127.26846198","items":[{"name":"ST학원","tel":"","addr":"경기도 안성시 금산동 139-2번지 외2필지 1층","category":"학원 - 보습학원"},{"name":"홍선생미술안성지사","tel":"031-675-6443","addr":"경기도 안성시 금산동 139-2번지","category":"회원제형태 - 서적"}]},{"lat":"37.011387438","long":"127.27001767","items":[{"name":"SUN JOY","tel":"031-672-2579","addr":"경기도 안성시 금산동 42","category":"회원제형태 - 기타1"},{"name":"냉면만두대박","tel":"031-676-3640","addr":"경기도 안성시 금산동 42번지 1층","category":"일반휴게음식 - 일반한식"},{"name":"명문피아노학원","tel":"031-674-9911","addr":"경기도 안성시 금산동 42번지","category":"학원 - 예·체능계학원"},{"name":"이문당떡방","tel":"031-676-3640","addr":"경기도 안성시 금산동 42번지 1층","category":"음료식품 - 제과점"}]},{"lat":"37.010777216","long":"127.26890318","items":[{"name":"S앨리스학원","tel":"031-673-1222","addr":"경기도 안성시 금산동 146-2번지 1~2층","category":"학원 - 기타 교육기관"}]},{"lat":"37.011551522","long":"127.26917554","items":[{"name":"on","tel":"031-677-3383","addr":"경기도 안성시 금산동 15-2번지","category":"의류 - 정장"},{"name":"장미노래방","tel":"031-675-7753","addr":"경기도 안성시 금산동 15-2번지","category":"레저업소 - 노 래 방"},{"name":"정하우징","tel":"031-675-4465","addr":"경기도 안성시 금산동 15-2번지","category":"건축자재 - 기타건축자재"},{"name":"해들향","tel":"070-7720-1223","addr":"경기도 안성시 금산동 15-2번지 1층 우측호","category":"음료식품 - 기타음료식품"}]},{"lat":"37.016330021","long":"127.2679","items":[{"name":"가가인테리어","tel":"031-677-2377","addr":"경기도 안성시 금산동 73-3번지","category":"직물 - 카페트,커튼,천막,지물"},{"name":"옛날장터 순대국밥","tel":"031-677-5333","addr":"경기도 안성시 금산동 73-3번지","category":"일반휴게음식 - 일반한식"},{"name":"카뷰티","tel":"031-674-4928","addr":"경기도 안성시 금산동 73-3번지","category":"자동차정비 유지 - 카인테리어"}]},{"lat":"37.012297207","long":"127.26612193","items":[{"name":"가장맛있는족발(한경대점)","tel":"031-672-7773","addr":"경기도 안성시 금산동 193-3번지 1층","category":"일반휴게음식 - 일반한식"}]},{"lat":"37.010163615","long":"127.2692943","items":[{"name":"갈막구이","tel":"031-672-7644","addr":"경기도 안성시 금산동 153번지 1층","category":"일반휴게음식 - 일반한식"},{"name":"신앙촌상회","tel":"031-674-9302","addr":"경기도 안성시 금산동 153번지","category":"신변잡화 - 기타잡화"}]},{"lat":"37.011800927","long":"127.26643482","items":[{"name":"경기문구","tel":"031-674-3144","addr":"경기도 안성시 금산동 117-4번지","category":"서적문구 - 문구용품"}]},{"lat":"37.012134817","long":"127.26621125","items":[{"name":"경기유리","tel":"031-673-1507","addr":"경기도 안성시 금산동 193-4번지","category":"건축자재 - 유리"},{"name":"씨유안성금산점","tel":"031-677-5622","addr":"경기도 안성시 금산동 193-4번지","category":"유통업 영리 - 편 의 점"}]},{"lat":"37.01096394","long":"127.27001619","items":[{"name":"경기지업사","tel":"031-674-7370","addr":"경기도 안성시 금산동 47-1번지","category":"직물 - 카페트,커튼,천막,지물"},{"name":"꼬마김밥","tel":"031-672-9120","addr":"경기도 안성시 금산동 47-1번지","category":"일반휴게음식 - 일반한식"},{"name":"꼬마김밥","tel":"070-8187-1160","addr":"경기도 안성시 금산동 47-1번지","category":"일반휴게음식 - 일반한식"}]},{"lat":"37.009857809","long":"127.26904604","items":[{"name":"경희주방가구","tel":"031-675-3002","addr":"경기도 안성시 금산동 154-4번지","category":"주방용구 - 주방용구"}]},{"lat":"37.010912199","long":"127.2689823","items":[{"name":"고려 러시아 학원","tel":"031-674-7000","addr":"경기도 안성시 금산동 146번지","category":"학원 - 외국어학원"},{"name":"김성근아트스페이스음악학원","tel":"031-674-5137","addr":"경기도 안성시 금산동 146번지 1층","category":"회원제형태 - 학원"},{"name":"아트스페이스 앤 아터테인먼트","tel":"031-674-5137","addr":"경기도 안성시 금산동 146번지","category":"문화.취미 - 티켓"},{"name":"제이엔보습학원","tel":"031-676-9974","addr":"경기도 안성시 금산동 146번지","category":"회원제형태 - 학원"}]},{"lat":"37.011413483","long":"127.27045596","items":[{"name":"국가대표 금산점","tel":"031-672-1190","addr":"경기도 안성시 금산동 46-5번지 1층","category":"일반휴게음식 - 일반한식"},{"name":"정철어학원안성일류캠퍼스","tel":"031-676-5224","addr":"경기도 안성시 금산동 46-5번지","category":"회원제형태 - 학원"}]},{"lat":"37.016102772","long":"127.2687869","items":[{"name":"금산슈퍼","tel":"031-671-0577","addr":"경기도 안성시 금산동 73-10번지 1층","category":"유통업 영리 - 슈퍼마켓"}]},{"lat":"37.011019393","long":"127.26939841","items":[{"name":"금산아구찜","tel":"031-672-6629","addr":"경기도 안성시 금산동 129-3번지","category":"일반휴게음식 - 일반한식"},{"name":"오랍드리","tel":"031-675-7001","addr":"경기도 안성시 금산동 129-3번지","category":"일반휴게음식 - 주점"}]},{"lat":"37.012715247","long":"127.26857285","items":[{"name":"금산오토바이","tel":"031-673-0985","addr":"경기도 안성시 금산동 57-5번지","category":"자동차판매 - 이륜차판매"},{"name":"소년,부엌","tel":"070-8623-9239","addr":"경기도 안성시 금산동 57-5번지 1층","category":"일반휴게음식 - 일반한식"},{"name":"에이비씨푸드","tel":"031-673-3825","addr":"경기도 안성시 금산동 57-5번지","category":"음료식품 - 농·축·수산품"},{"name":"정스포츠","tel":"031-674-7081","addr":"경기도 안성시 금산동 57-5번지 1층 5호","category":"레져용품 - 스포츠·레져용품"},{"name":"종합아이스크림백화점","tel":"031-676-7578","addr":"경기도 안성시 금산동 57-5번지 1층","category":"음료식품 - 기타음료식품"}]},{"lat":"37.010550085","long":"127.26973384","items":[{"name":"김기덕홈스터디","tel":"031-675-0080","addr":"경기도 안성시 금산동 135-1번지 2층","category":"회원제형태 - 학원"},{"name":"드레쉬펌","tel":"031-676-9979","addr":"경기도 안성시 금산동 135-1번지","category":"보건위생 - 미용원"},{"name":"서울정육점","tel":"031-675-2173","addr":"경기도 안성시 금산동 135-1번지","category":"음료식품 - 정육점"}]},{"lat":"37.010936732","long":"127.27009474","items":[{"name":"김밥천국","tel":"031-677-8806","addr":"경기도 안성시 금산동 47-2번지","category":"일반휴게음식 - 일반한식"}]},{"lat":"37.011522849","long":"127.26990578","items":[{"name":"까망머리","tel":"031-671-2719","addr":"경기도 안성시 금산동 30번지","category":"보건위생 - 미용원"}]},{"lat":"37.013913805","long":"127.26850961","items":[{"name":"까치네분식","tel":"031-674-3757","addr":"경기도 안성시 금산동 76-1번지","category":"일반휴게음식 - 일반한식"},{"name":"송남길카페","tel":"031-674-0413","addr":"경기도 안성시 금산동 76-1번지 2층","category":"일반휴게음식 - 서양음식"},{"name":"아트헤어샵","tel":"031-677-7303","addr":"경기도 안성시 금산동 76-1번지","category":"보건위생 - 미용원"}]},{"lat":"37.008687666","long":"127.26849142","items":[{"name":"꽃모임화원","tel":"031-676-9090","addr":"경기도 안성시 금산동 163-5번지","category":"문화.취미 - 화원"}]},{"lat":"37.011109297","long":"127.26948861","items":[{"name":"꿀꿀이숯불구이","tel":"031-673-0733","addr":"경기도 안성시 금산동 129-1번지 1층","category":"일반휴게음식 - 일반한식"},{"name":"멍블리","tel":"031-677-0234","addr":"경기도 안성시 금산동 129-1번지 1층","category":"문화.취미 - 애완동물"}]},{"lat":"37.011324996","long":"127.26973655","items":[{"name":"네네치킨안성1호점","tel":"031-674-4430","addr":"경기도 안성시 금산동 30-2번지","category":"일반휴게음식 - 스넥"}]},{"lat":"37.015357356","long":"127.26768312","items":[{"name":"네임온","tel":"031-692-7888","addr":"경기도 안성시 금산동 188-4번지","category":"신변잡화 - 기타잡화"},{"name":"한경컴퓨터","tel":"031-677-0311","addr":"경기도 안성시 금산동 188-4번지","category":"사무통신 - 컴퓨터"}]},{"lat":"37.013798575","long":"127.26765524","items":[{"name":"농산물포도판매","tel":"031-677-8847","addr":"경기도 안성시 금산동 77-4번지","category":"음료식품 - 농·축·수산품"}]},{"lat":"37.013382274","long":"127.27246292","items":[{"name":"다즐링북스","tel":"","addr":"경기도 안성시 금산동 33-25번지 1층","category":"서적문구 - 일반서적"}]},{"lat":"37.011270427","long":"127.26996108","items":[{"name":"대성유리","tel":"031-375-6365","addr":"경기도 안성시 금산동 32-1번지","category":"건축자재 - 유리"},{"name":"불타는토스트안성점","tel":"031-671-1090","addr":"경기도 안성시 금산동 32-1번지","category":"일반휴게음식 - 스넥"},{"name":"폭탄머리","tel":"031-671-4448","addr":"경기도 안성시 금산동 32-1번지","category":"보건위생 - 미용원"}]},{"lat":"37.011666412","long":"127.27017595","items":[{"name":"대우건강원","tel":"031-674-5739","addr":"경기도 안성시 금산동 46-1번지","category":"건강식품 - 기타건강식품"},{"name":"스마트 매스티안 수학교습소","tel":"031-672-7644","addr":"경기도 안성시 금산동 46-1번지","category":"학원 - 보습학원"}]},{"lat":"37.008797475","long":"127.26773902","items":[{"name":"대한치유연구회","tel":"031-691-1316","addr":"경기도 안성시 금산동 165번지","category":"보건위생 - 기타대인서비스"}]},{"lat":"37.011048037","long":"127.26867941","items":[{"name":"대흥상사","tel":"031-674-6265","addr":"경기도 안성시 금산동 141-7번지","category":"자동차정비 유지 - 자동차부품"}]},{"lat":"37.01235797","long":"127.27117839","items":[{"name":"더 베스트 안성태권도장","tel":"031-675-8585","addr":"경기도 안성시 금산동 41-1번지 1층","category":"학원 - 예·체능계학원"},{"name":"정윤영어교습소","tel":"02-1111-1111","addr":"경기도 안성시 금산동 41-1번지 2층","category":"학원 - 외국어학원"}]},{"lat":"37.009831407","long":"127.26876506","items":[{"name":"도담어린이집[아이행복]","tel":"031-677-4912","addr":"경기도 안성시 금산동 156번지","category":"학원 - 유아원"},{"name":"도담어린이집[아이행복]","tel":"031-671-4977","addr":"경기도 안성시 금산동 156번지","category":"학원 - 유아원"}]},{"lat":"37.015637986","long":"127.26709979","items":[{"name":"도미노피자 안성금산점","tel":"031-677-3082","addr":"경기도 안성시 금산동 186-4번지 1층 우측호","category":"일반휴게음식 - 서양음식"}]},{"lat":"37.011998537","long":"127.27073892","items":[{"name":"등대","tel":"031-675-9296","addr":"경기도 안성시 금산동 2-1번지","category":"일반휴게음식 - 일식·회집"},{"name":"마이다스학원","tel":"031-676-5773","addr":"경기도 안성시 금산동 2-1번지","category":"학원 - 보습학원"}]},{"lat":"37.011769638","long":"127.26834484","items":[{"name":"등대일식","tel":"031-675-9296","addr":"경기도 안성시 금산동 126-2번지","category":"일반휴게음식 - 일식·회집"}]},{"lat":"37.012277439","long":"127.26690838","items":[{"name":"디딤돌어린이집[아이행복]","tel":"031-677-8122","addr":"경기도 안성시 금산동 194-5번지","category":"학원 - 유아원"}]},{"lat":"37.011243218","long":"127.27003964","items":[{"name":"또또공판장","tel":"031-676-1711","addr":"경기도 안성시 금산동 32-2번지","category":"유통업 영리 - 슈퍼마켓"},{"name":"배터지는 생 동가스","tel":"031-677-6788","addr":"경기도 안성시 금산동 32-2번지 1층","category":"일반휴게음식 - 서양음식"},{"name":"배터지는생동가스","tel":"031-677-6788","addr":"경기도 안성시 금산동 32-2번지","category":"일반휴게음식 - 일반한식"},{"name":"통닭원5900","tel":"031-676-5995","addr":"경기도 안성시 금산동 32-2번지","category":"일반휴게음식 - 스넥"},{"name":"티움수학교습소","tel":"031-675-2480","addr":"경기도 안성시 금산동 32-2번지 2층","category":"학원 - 보습학원"}]},{"lat":"37.00891574","long":"127.26723383","items":[{"name":"롤스타롤러스케이트장","tel":"031-673-0370","addr":"경기도 안성시 금산동 167-1번지 2층","category":"레저업소 - 기타레져업소"},{"name":"본가","tel":"031-676-7752","addr":"경기도 안성시 금산동 167-1번지","category":"일반휴게음식 - 일반한식"}]},{"lat":"37.015354818","long":"127.26881801","items":[{"name":"리시오매점&카페","tel":"031-676-1062","addr":"경기도 안성시 금산동 189번지 안성시립중앙도서관 2층","category":"음료식품 - 기타음료식품"},{"name":"안성시립도서관","tel":"031-678-5317","addr":"경기도 안성시 금산동 189번지 안성시립중앙도서관","category":"학원 - 기타 교육기관"}]},{"lat":"37.01285279","long":"127.27151721","items":[{"name":"리틀명작어린이집[아이행복]","tel":"031-671-9394","addr":"경기도 안성시 금산동 34-15번지","category":"학원 - 유아원"},{"name":"와이즈해법 보습학원","tel":"031-671-5869","addr":"경기도 안성시 금산동 34-15번지 2층","category":"학원 - 보습학원"}]},{"lat":"37.015439878","long":"127.26704293","items":[{"name":"림바이크","tel":"031-677-2017","addr":"경기도 안성시 금산동 186-6번지","category":"레져용품 - 스포츠·레져용품"}]},{"lat":"37.010352459","long":"127.26946349","items":[{"name":"마니또감자탕","tel":"031-676-1603","addr":"경기도 안성시 금산동 135-5번지","category":"일반휴게음식 - 일반한식"},{"name":"진아자전차점","tel":"031-675-4754","addr":"경기도 안성시 금산동 135-5","category":"레져용품 - 스포츠·레져용품"},{"name":"필즈수학교습소","tel":"031-673-3881","addr":"경기도 안성시 금산동 135-5번지","category":"회원제형태 - 학원"}]},{"lat":"37.01135233","long":"127.26960182","items":[{"name":"만복식당","tel":"031-674-6741","addr":"경기도 안성시 금산동 31-2번지","category":"일반휴게음식 - 일반한식"},{"name":"만복식육","tel":"031-675-6741","addr":"경기도 안성시 금산동 31-2번지","category":"음료식품 - 정육점"},{"name":"용화정사","tel":"031-675-6784","addr":"경기도 안성시 금산동 31-2번지","category":"회원제형태 - 기타4"}]},{"lat":"37.010633173","long":"127.2688465","items":[{"name":"맛있는까닭","tel":"031-671-4945","addr":"경기도 안성시 금산동 146-3번지","category":"일반휴게음식 - 스넥"}]},{"lat":"37.016275456","long":"127.26812454","items":[{"name":"매직터치","tel":"070-4132-7575","addr":"경기도 안성시 금산동 73-7번지","category":"자동차정비 유지 - 카인테리어"},{"name":"매직터치","tel":"031-677-0467","addr":"경기도 안성시 금산동 73-7번지 1층","category":"자동차정비 유지 - 카인테리어"},{"name":"월드트레블관광(주)","tel":"031-677-7828","addr":"경기도 안성시 금산동 73-7번지","category":"여행 - 관광여행"}]},{"lat":"37.015664392","long":"127.2673808","items":[{"name":"명당농원","tel":"","addr":"경기도 안성시 금산동 187번지 1층 중앙호","category":"음료식품 - 기타음료식품"}]},{"lat":"37.012164494","long":"127.26906532","items":[{"name":"명자나무","tel":"031-673-0304","addr":"경기도 안성시 금산동 10-5번지","category":"문화.취미 - 화원"}]},{"lat":"37.014635957","long":"127.26792782","items":[{"name":"몬스터펫샵 안성금산점","tel":"031-672-0642","addr":"경기도 안성시 금산동 198-2번지","category":"문화.취미 - 애완동물"}]},{"lat":"37.011054729","long":"127.26971314","items":[{"name":"무드 인디고(Mood Indigo)","tel":"031-674-0789","addr":"경기도 안성시 금산동 48번지","category":"문화.취미 - 화원"},{"name":"별이 빛나는 금산동","tel":"031-672-9025","addr":"경기도 안성시 금산동 48번지 2층","category":"일반휴게음식 - 일반한식"},{"name":"봉구스밥버거(한경대점)","tel":"031-675-3382","addr":"경기도 안성시 금산동 48번지","category":"일반휴게음식 - 일반한식"},{"name":"안성실용음악사랑","tel":"031-672-9025","addr":"경기도 안성시 금산동 48번지","category":"레져용품 - 악기점"},{"name":"에덴제과","tel":"031-672-1157","addr":"경기도 안성시 금산동 48번지","category":"음료식품 - 제과점"},{"name":"허니닭강정","tel":"031-671-9993","addr":"경기도 안성시 금산동 48번지","category":"일반휴게음식 - 스넥"}]},{"lat":"37.011548895","long":"127.27034408","items":[{"name":"미가람화장품","tel":"031-675-2042","addr":"경기도 안성시 금산동 46-3번지","category":"보건위생 - 화장품"},{"name":"진보습학원","tel":"031-672-2442","addr":"경기도 안성시 금산동 46-3번지 2층","category":"학원 - 기타 교육기관"}]},{"lat":"37.012994776","long":"127.26848393","items":[{"name":"미니스톱금산주공점","tel":"031-1577-9621","addr":"경기도 안성시 금산동 59-4번지 가동4호","category":"유통업 영리 - 편 의 점"},{"name":"장군수산","tel":"031-672-7662","addr":"경기도 안성시 금산동 59-4번지","category":"일반휴게음식 - 일식·회집"},{"name":"참좋은한우","tel":"031-672-7644","addr":"경기도 안성시 금산동 59-4번지 가동 1층 3호","category":"일반휴게음식 - 일반한식"},{"name":"피타 영재원 과학교습소","tel":"","addr":"경기도 안성시 금산동 59-4번지 주공상가 가-2호 (102호상가)","category":"학원 - 보습학원"}]},{"lat":"37.010547532","long":"127.26684622","items":[{"name":"미쳐버린파닭","tel":"031-673-6799","addr":"경기도 안성시 금산동 22-7번지 1층","category":"일반휴게음식 - 스넥"}]},{"lat":"37.011191149","long":"127.26915182","items":[{"name":"민속촌","tel":"031-671-1261","addr":"경기도 안성시 금산동 141-3번지","category":"일반휴게음식 - 일반한식"},{"name":"아이씨지(I.C.G)치킨버거","tel":"031-677-9944","addr":"경기도 안성시 금산동 141-3번지","category":"일반휴게음식 - 서양음식"},{"name":"엄마 인테리어","tel":"031-677-8982","addr":"경기도 안성시 금산동 141-3번지","category":"건축자재 - 인테리어전문"},{"name":"이계령영어학원","tel":"031-671-2235","addr":"경기도 안성시 금산동 141-3번지 2층","category":"회원제형태 - 학원"}]},{"lat":"37.012215239","long":"127.26651491","items":[{"name":"박군치킨(한경대점)","tel":"070-4300-5783","addr":"경기도 안성시 금산동 194-2번지 1층","category":"일반휴게음식 - 스넥"}]},{"lat":"37.01155195","long":"127.26898453","items":[{"name":"밝은나라조명","tel":"070-7527-8848","addr":"경기도 안성시 금산동 14-2번지","category":"건축자재 - 조명기구"}]},{"lat":"37.015880595","long":"127.26740402","items":[{"name":"배달의쌀국수 안성금산점","tel":"031-672-1313","addr":"경기도 안성시 금산동 186-1번지","category":"일반휴게음식 - 일반한식"}]},{"lat":"37.010852415","long":"127.26751019","items":[{"name":"백성유치원[아이행복]","tel":"031-671-7162","addr":"경기도 안성시 금산동 119번지","category":"학원 - 유치원"}]},{"lat":"37.008770067","long":"127.26790746","items":[{"name":"벌집삼겹살","tel":"031-671-8592","addr":"경기도 안성시 금산동 165-3번지","category":"일반휴게음식 - 일반한식"},{"name":"비로고프(Pirogoff)","tel":"02-1111-1111","addr":"경기도 안성시 금산동 165-3번지 1층","category":"일반휴게음식 - 서양음식"}]},{"lat":"37.012269801","long":"127.26629037","items":[{"name":"별이네","tel":"031-675-8253","addr":"경기도 안성시 금산동 193-2번지 1층","category":"일반휴게음식 - 일반한식"}]},{"lat":"37.015746063","long":"127.26712264","items":[{"name":"본수원갈비","tel":"031-676-4776","addr":"경기도 안성시 금산동 186-3번지","category":"일반휴게음식 - 일반한식"}]},{"lat":"37.01049814","long":"127.26878985","items":[{"name":"부산족발","tel":"031-671-5882","addr":"경기도 안성시 금산동 146-4번지","category":"일반휴게음식 - 일반한식"},{"name":"피타고라스학원","tel":"031-676-7909","addr":"경기도 안성시 금산동 146-4번지","category":"학원 - 보습학원"}]},{"lat":"37.014194063","long":"127.26809483","items":[{"name":"블랙데이","tel":"031-111-1111","addr":"경기도 안성시 금산동 74-2번지","category":"일반휴게음식 - 일반한식"},{"name":"사랑하는사람들","tel":"031-675-7717","addr":"경기도 안성시 금산동 74-2번지","category":"보건위생 - 미용원"},{"name":"서해","tel":"031-671-8392","addr":"경기도 안성시 금산동 74-2번지","category":"일반휴게음식 - 일반한식"},{"name":"크린세탁소","tel":"031-673-6965","addr":"경기도 안성시 금산동 74-2번지","category":"수리서비스 - 세탁소"}]},{"lat":"37.013220339","long":"127.27234999","items":[{"name":"비봉세탁소","tel":"031-677-8939","addr":"경기도 안성시 금산동 34-1번지","category":"수리서비스 - 세탁소"}]},{"lat":"37.012133769","long":"127.26668317","items":[{"name":"비키당구장","tel":"","addr":"경기도 안성시 금산동 194-4번지 2층","category":"레저업소 - 당 구 장"},{"name":"와우소문난감자탕","tel":"031-671-1960","addr":"경기도 안성시 금산동 194-4번지 1층","category":"일반휴게음식 - 일반한식"}]},{"lat":"37.011748569","long":"127.26970432","items":[{"name":"삼부대중탕","tel":"031-676-0296","addr":"경기도 안성시 금산동 7번지","category":"회원제형태 - 레져업소"},{"name":"소드랭이","tel":"031-675-1576","addr":"경기도 안성시 금산동 7번지 삼부 상가 201동 208호","category":"일반휴게음식 - 일반한식"},{"name":"스터디뱅크 독서실","tel":"031-671-1230","addr":"경기도 안성시 금산동 7번지","category":"학원 - 독서실"}]},{"lat":"37.012052374","long":"127.26681772","items":[{"name":"상아탑당구장","tel":"031-676-0110","addr":"경기도 안성시 금산동 194-9번지","category":"레저업소 - 당 구 장"}]},{"lat":"37.013715371","long":"127.26859881","items":[{"name":"세븐일레븐안성금산점","tel":"","addr":"경기도 안성시 금산동 60-4번지 수정연립","category":"유통업 영리 - 편 의 점"},{"name":"수정미니수퍼","tel":"031-674-6905","addr":"경기도 안성시 금산동 60-4번지 수정연립","category":"유통업 영리 - 슈퍼마켓"}]},{"lat":"37.009138397","long":"127.2684031","items":[{"name":"수마린레스토랑","tel":"031-671-0221","addr":"경기도 안성시 금산동 161-2번지 다올오피스텔 1층 102호","category":"일반휴게음식 - 서양음식"}]},{"lat":"37.010884588","long":"127.26924063","items":[{"name":"순살로만치킨","tel":"031-675-5984","addr":"경기도 안성시 금산동 131번지","category":"일반휴게음식 - 서양음식"},{"name":"인터컴","tel":"031-672-0289","addr":"경기도 안성시 금산동 131번지","category":"용역 서비스 - 정보서비스"}]},{"lat":"37.011774286","long":"127.27028869","items":[{"name":"스토리텔러","tel":"031-111-1111","addr":"경기도 안성시 금산동 45번지","category":"일반휴게음식 - 서양음식"}]},{"lat":"37.015276812","long":"127.26743564","items":[{"name":"신대포차","tel":"031-677-8787","addr":"경기도 안성시 금산동 188-2번지","category":"일반휴게음식 - 일반한식"}]},{"lat":"37.011470301","long":"127.26923144","items":[{"name":"아싸 노래연습장","tel":"031-672-6956","addr":"경기도 안성시 금산동 16-2번지","category":"레저업소 - 노 래 방"}]},{"lat":"37.009578733","long":"127.26893271","items":[{"name":"아폴로여인숙","tel":"031-677-2020","addr":"경기도 안성시 금산동 158번지","category":"숙박업 - 여관/기타숙박업"}]},{"lat":"37.014024928","long":"127.27118424","items":[{"name":"안성고등학교","tel":"031-670-0300","addr":"경기도 안성시 금산동 33-1번지 안성고등학교","category":"학원 - 초중고교육기관"},{"name":"안성고등학교_수업료","tel":"031-670-0300","addr":"경기도 안성시 금산동 33-1번지 안성고등학교","category":"학원 - 초중고교육기관"}]},{"lat":"37.010686607","long":"127.26912758","items":[{"name":"안성랭귀지학원","tel":"031-1833-9527","addr":"경기도 안성시 금산동 137-3번지 2층","category":"학원 - 외국어학원"},{"name":"플라톤학원","tel":"031-672-2800","addr":"경기도 안성시 금산동 137-3번지 2층","category":"학원 - 보습학원"},{"name":"혜리네일","tel":"031-677-2501","addr":"경기도 안성시 금산동 137-3번지 1층 우측호","category":"보건위생 - 피부미용실"}]},{"lat":"37.010991301","long":"127.26987022","items":[{"name":"안성맞춤","tel":"031-675-2266","addr":"경기도 안성시 금산동 47번지","category":"유통업 영리 - 슈퍼마켓"},{"name":"이천석유","tel":"031-675-3978","addr":"경기도 안성시 금산동 47번지","category":"연료판매점 - 유류판매"}]},{"lat":"37.014021982","long":"127.26848751","items":[{"name":"안성무용학원","tel":"031-676-0765","addr":"경기도 안성시 금산동 178-6번지","category":"학원 - 예·체능계학원"},{"name":"한국야쿠르트안성점","tel":"031-672-6600","addr":"경기도 안성시 금산동 178-6번지","category":"음료식품 - 기타음료식품"}]},{"lat":"37.012435667","long":"127.26868424","items":[{"name":"안성소바","tel":"031-674-9200","addr":"경기도 안성시 금산동 107-7번지","category":"일반휴게음식 - 일식·회집"}]},{"lat":"37.012083197","long":"127.26915493","items":[{"name":"안성스포츠","tel":"031-671-0750","addr":"경기도 안성시 금산동 10-6번지","category":"레져용품 - 스포츠·레져용품"}]},{"lat":"37.011163613","long":"127.26937644","items":[{"name":"안성아이","tel":"031-671-0079","addr":"경기도 안성시 금산동 129번지","category":"전기제품 - 가전제품"},{"name":"에버그린 홈시스","tel":"031-673-4045","addr":"경기도 안성시 금산동 129번지","category":"회원제형태 - 기타3"},{"name":"예지플라워데코","tel":"031-675-1578","addr":"경기도 안성시 금산동 129번지 예지플라워데코","category":"문화.취미 - 화원"},{"name":"해와달","tel":"031-672-1817","addr":"경기도 안성시 금산동 129번지","category":"일반휴게음식 - 주점"}]},{"lat":"37.014358233","long":"127.26720773","items":[{"name":"안성의료소비자생활협동조합우리생협의원","tel":"031-675-0227","addr":"경기도 안성시 금산동 81-2주은청설상가2층","category":"의원 - 의원"},{"name":"죽마을","tel":"031-671-3688","addr":"경기도 안성시 금산동 81-2주은청설상가B동105호","category":"일반휴게음식 - 일반한식"},{"name":"카페125","tel":"070-8966-1983","addr":"경기도 안성시 금산동 81-2번지 주은청설 상가 B동 104호","category":"일반휴게음식 - 스넥"},{"name":"코바코","tel":"031-671-2332","addr":"경기도 안성시 금산동 81-2주은청설상가A-106","category":"일반휴게음식 - 일반한식"},{"name":"콘서트노래방","tel":"031-674-1333","addr":"경기도 안성시 금산동 81-2번지 주은청설아파트","category":"레저업소 - 노 래 방"},{"name":"황소곱창구이전문점","tel":"031-671-5966","addr":"경기도 안성시 금산동 81-2주은청설상가A-101","category":"일반휴게음식 - 일반한식"}]},{"lat":"37.013296567","long":"127.27051875","items":[{"name":"안성중학교","tel":"031-678-7504","addr":"경기도 안성시 금산동 33-12번지 안성중학교","category":"학원 - 초중고교육기관"}]},{"lat":"37.015384813","long":"127.2674922","items":[{"name":"약산골","tel":"031-672-8245","addr":"경기도 안성시 금산동 188-1번지","category":"일반휴게음식 - 일반한식"}]},{"lat":"37.012472087","long":"127.26851582","items":[{"name":"양박사","tel":"031-677-0673","addr":"경기도 안성시 금산동 107-3번지","category":"일반휴게음식 - 일반한식"}]},{"lat":"37.012107237","long":"127.26645835","items":[{"name":"언니네 순대국밥","tel":"031-675-7746","addr":"경기도 안성시 금산동 194-3번지 1층","category":"일반휴게음식 - 일반한식"}]},{"lat":"37.010443573","long":"127.26901438","items":[{"name":"여우단장","tel":"031-675-1123","addr":"경기도 안성시 금산동 137-6번지","category":"보건위생 - 미용원"}]},{"lat":"37.013301312","long":"127.26840635","items":[{"name":"영성재한우도매센터","tel":"031-672-2002","addr":"경기도 안성시 금산동 59-3번지","category":"음료식품 - 정육점"},{"name":"하롱베이","tel":"031-673-9602","addr":"경기도 안성시 금산동 59-3번지","category":"일반휴게음식 - 일반한식"}]},{"lat":"37.01132729","long":"127.26871409","items":[{"name":"예일음악학원","tel":"031-672-6659","addr":"경기도 안성시 금산동 141번지 힌돌집1층","category":"학원 - 예·체능계학원"},{"name":"한우리독서논술학원","tel":"031-676-1879","addr":"경기도 안성시 금산동 141번지 2층","category":"회원제형태 - 학원"}]},{"lat":"37.008777722","long":"127.2685142","items":[{"name":"오늘한잔","tel":"031-674-0789","addr":"경기도 안성시 금산동 163-2번지 1층","category":"일반휴게음식 - 주점"},{"name":"치킨포차","tel":"031-677-3642","addr":"경기도 안성시 금산동 163-2번지 2동 1층","category":"일반휴게음식 - 일반한식"}]},{"lat":"37.014526901","long":"127.26834319","items":[{"name":"오리섬","tel":"031-674-0609","addr":"경기도 안성시 금산동 71-3번지","category":"일반휴게음식 - 일반한식"}]},{"lat":"37.015133218","long":"127.2671767","items":[{"name":"용두동안성쭈꾸미","tel":"031-677-5553","addr":"경기도 안성시 금산동 197-1번지","category":"일반휴게음식 - 일반한식"}]},{"lat":"37.013968798","long":"127.26809405","items":[{"name":"용인대비호태권도장","tel":"031-400-8669","addr":"경기도 안성시 금산동 75-3","category":"학원 - 예·체능계학원"},{"name":"청정바지락칼국수","tel":"031-676-3788","addr":"경기도 안성시 금산동 75-3번지 1층","category":"일반휴게음식 - 일반한식"}]},{"lat":"37.012192507","long":"127.26862721","items":[{"name":"우리사무기","tel":"031-673-5037","addr":"경기도 안성시 금산동 108-5번지","category":"사무통신 - 컴퓨터"}]},{"lat":"37.011299956","long":"127.26884882","items":[{"name":"원조닭모래집닭내장전문점","tel":"031-677-2392","addr":"경기도 안성시 금산동 141-8번지","category":"일반휴게음식 - 일반한식"}]},{"lat":"37.011137514","long":"127.26896062","items":[{"name":"유성사","tel":"031-675-4884","addr":"경기도 안성시 금산동 141-2번지","category":"자동차정비 유지 - 자동차정비"}]},{"lat":"37.011579486","long":"127.26875991","items":[{"name":"이락/주식회사 마을도시락","tel":"","addr":"경기도 안성시 금산동 14번지 1층 102호","category":"일반휴게음식 - 일반한식"}]},{"lat":"37.012663262","long":"127.27165138","items":[{"name":"이정경음악학원(금산교육관)","tel":"031-674-1224","addr":"경기도 안성시 금산동 38-24번지","category":"학원 - 예·체능계학원"}]},{"lat":"37.015520297","long":"127.26734659","items":[{"name":"정직한사무기","tel":"031-677-5446","addr":"경기도 안성시 금산동 187-4번지","category":"사무통신 - 사무용 OA기기"}]},{"lat":"37.016220965","long":"127.26831537","items":[{"name":"조은사료상사","tel":"031-677-3632","addr":"경기도 안성시 금산동 73-9번지 1층","category":"농업 - 비료,사료,종자"}]},{"lat":"37.011297711","long":"127.26984882","items":[{"name":"족불장군 (안성점)","tel":"031-675-3838","addr":"경기도 안성시 금산동 32번지 1층","category":"일반휴게음식 - 일반한식"},{"name":"희래등","tel":"031-672-6656","addr":"경기도 안성시 금산동 32번지","category":"일반휴게음식 - 중국식"}]},{"lat":"37.01588022","long":"127.26757257","items":[{"name":"죽플러스카페","tel":"031-8052-8059","addr":"경기도 안성시 금산동 186번지 1층","category":"일반휴게음식 - 일반한식"}]},{"lat":"37.012770957","long":"127.27184277","items":[{"name":"지앤음악학원","tel":"031-674-9911","addr":"경기도 안성시 금산동 38-1번지 2층","category":"학원 - 예·체능계학원"}]},{"lat":"37.012075118","long":"127.26873916","items":[{"name":"지코바(안성1호점)","tel":"031-673-7989","addr":"경기도 안성시 금산동 11-2번지","category":"일반휴게음식 - 스넥"}]},{"lat":"37.013769434","long":"127.26859899","items":[{"name":"지현헤어","tel":"031-674-4554","addr":"경기도 안성시 금산동 60-1번지","category":"보건위생 - 미용원"}]},{"lat":"37.011741173","long":"127.26898519","items":[{"name":"채움","tel":"031-677-8638","addr":"경기도 안성시 금산동 13-1번지","category":"건축자재 - 인테리어전문"}]},{"lat":"37.01191609","long":"127.26732287","items":[{"name":"커피꽃향기","tel":"031-676-5989","addr":"경기도 안성시 금산동 114-2번지 ,1,2층","category":"일반휴게음식 - 서양음식"}]},{"lat":"37.008797851","long":"127.26757049","items":[{"name":"컴퓨터부동산","tel":"031-675-3055","addr":"경기도 안성시 금산동 166-1번지","category":"용역 서비스 - 부동산 중개·임대"}]},{"lat":"37.00944438","long":"127.2685727","items":[{"name":"퀵서비스","tel":"031-675-7101","addr":"경기도 안성시 금산동 160-1번지","category":"의류 - 단체복"}]},{"lat":"37.015213136","long":"127.2677051","items":[{"name":"투톱","tel":"031-675-8909","addr":"경기도 안성시 금산동 188-5번지","category":"보건위생 - 화장품"}]},{"lat":"37.015853864","long":"127.26726909","items":[{"name":"파저리삼겹살","tel":"031-672-0408","addr":"경기도 안성시 금산동 186-2번지","category":"일반휴게음식 - 일반한식"}]},{"lat":"37.013770314","long":"127.26820573","items":[{"name":"패밀리파닭","tel":"031-671-2988","addr":"경기도 안성시 금산동 76-5번지","category":"일반휴게음식 - 스넥"}]},{"lat":"37.015582745","long":"127.26762772","items":[{"name":"평화기획","tel":"031-673-0339","addr":"경기도 안성시 금산동 187-2번지","category":"용역 서비스 - 종합용역"}]},{"lat":"37.011943497","long":"127.26715442","items":[{"name":"풀꽃향기","tel":"031-676-5989","addr":"경기도 안성시 금산동 114-3번지","category":"문화.취미 - 화원"},{"name":"풀꽃향기","tel":"031-676-5989","addr":"경기도 안성시 금산동 114-3번지","category":"문화.취미 - 화원"}]},{"lat":"37.012186769","long":"127.27117778","items":[{"name":"하이엘리트학원","tel":"031-674-0910","addr":"경기도 안성시 금산동 41-8번지","category":"학원 - 보습학원"}]},{"lat":"37.01152128","long":"127.27060241","items":[{"name":"하이탑 학원","tel":"031-677-5509","addr":"경기도 안성시 금산동 44-5번지 1층","category":"학원 - 보습학원"}]},{"lat":"37.012885013","long":"127.26921391","items":[{"name":"학연shop","tel":"031-675-3152","addr":"경기도 안성시 금산동 57-12번지","category":"보건위생 - 피부미용실"}]},{"lat":"37.015331801","long":"127.26702008","items":[{"name":"해미수산","tel":"031-677-9435","addr":"경기도 안성시 금산동 186-7번지 1층","category":"일반휴게음식 - 일식·회집"},{"name":"해미칼국수","tel":"031-677-9435","addr":"경기도 안성시 금산동 186-7번지 1층","category":"일반휴게음식 - 일반한식"},{"name":"헤어팝미용실","tel":"031-671-0163","addr":"경기도 안성시 금산동 186-7번지","category":"보건위생 - 미용원"}]},{"lat":"37.011941342","long":"127.26812072","items":[{"name":"현대불교성불종","tel":"031-671-6666","addr":"경기도 안성시 금산동 125-2번지","category":"회원제형태 - 기타4"}]},{"lat":"37.011659825","long":"127.26909727","items":[{"name":"형님막창","tel":"031-674-1386","addr":"경기도 안성시 금산동 15-1번지","category":"일반휴게음식 - 일반한식"}]},{"lat":"37.010775527","long":"127.26965598","items":[{"name":"호식이두마리치킨안성2호점","tel":"031-671-9989","addr":"경기도 안성시 금산동 129-9번지 1층","category":"일반휴게음식 - 스넥"}]},{"lat":"37.012024122","long":"127.27137946","items":[{"name":"회나라","tel":"031-376-0122","addr":"경기도 안성시 금산동 205-1번지 1층","category":"일반휴게음식 - 일식·회집"}]},{"lat":"37.010829287","long":"127.269791","items":[{"name":"힐베르트수학학원","tel":"031-677-8286","addr":"경기도 안성시 금산동 129-7번지 2층","category":"학원 - 보습학원"}]}]