[{"lat":"37.191379093","long":"126.75111773","items":[{"name":"(주)상진산업","tel":"031-355-6544","addr":"경기도 화성시 마도면 금당리 214-17","category":"사무통신 - 기타 사무용품"}]},{"lat":"37.185656595","long":"126.74236384","items":[{"name":"금당골정육점","tel":"031-356-1658","addr":"경기도 화성시 마도면 금당리 531","category":"음료식품 - 정육점"}]},{"lat":"37.191629988","long":"126.74214059","items":[{"name":"금당엄나무마을","tel":"031-356-1681","addr":"경기도 화성시 마도면 금당리 71-5번지 일원","category":"레저업소 - 기타레져업소"}]},{"lat":"37.189269633","long":"126.74230638","items":[{"name":"금당한식부페","tel":"031-366-9993","addr":"경기도 화성시 마도면 금당리 164번지","category":"일반휴게음식 - 일반한식"}]},{"lat":"37.192276471","long":"126.74111346","items":[{"name":"다람쥐할머니","tel":"031-356-8636","addr":"경기도 화성시 마도면 금당리 74-1번지 1동","category":"일반휴게음식 - 일반한식"}]},{"lat":"37.177048467","long":"126.74919471","items":[{"name":"더드림푸드","tel":"031-356-3660","addr":"경기도 화성시 마도면 금당리 702-8번지 2동 2층","category":"음료식품 - 기타음료식품"}]},{"lat":"37.180049078","long":"126.75350887","items":[{"name":"동원풍천장어","tel":"031-356-7887","addr":"경기도 화성시 마도면 금당리 334-4번지 1층","category":"일반휴게음식 - 일반한식"},{"name":"천하제일만수산","tel":"031-356-6997","addr":"경기도 화성시 마도면 금당리 334-4번지 1층 좌측","category":"음료식품 - 농·축·수산품"}]},{"lat":"37.189655435","long":"126.74986207","items":[{"name":"들꽃향기부페식당","tel":"031-335-6687","addr":"경기도 화성시 마도면 금당리 214-14번지","category":"일반휴게음식 - 일반한식"}]},{"lat":"37.188800693","long":"126.73806214","items":[{"name":"맘스베리","tel":"","addr":"경기도 화성시 마도면 금당리 22번지","category":"음료식품 - 농·축·수산품"}]},{"lat":"37.191687288","long":"126.7436158","items":[{"name":"벅찬딸기","tel":"","addr":"경기도 화성시 마도면 금당리 96-1번지","category":"음료식품 - 농·축·수산품"}]},{"lat":"37.19166134","long":"126.74411144","items":[{"name":"벅찬딸기작은부엌","tel":"031-356-5470","addr":"경기도 화성시 마도면 금당리 96-2번지","category":"음료식품 - 농·축·수산품"}]},{"lat":"37.191662078","long":"126.74444932","items":[{"name":"유진농원","tel":"031-356-1676","addr":"경기도 화성시 마도면 금당리 106-2번지","category":"음료식품 - 농·축·수산품"}]},{"lat":"37.188659662","long":"126.74770306","items":[{"name":"제일마대","tel":"031-430-7163","addr":"경기도 화성시 마도면 금당리 195-10번지 1층","category":"유통업 영리 - 기타유통업"}]},{"lat":"37.189990904","long":"126.74250662","items":[{"name":"주식회사 원테크","tel":"031-357-9951","addr":"경기도 화성시 마도면 금당리 168-2번지","category":"용역 서비스 - 기타용역서비스"}]},{"lat":"37.190384501","long":"126.74949924","items":[{"name":"주식회사대영엠.티.씨","tel":"031-355-6655","addr":"경기도 화성시 마도면 금당리 214-10","category":"서적문구 - 과학기자재"},{"name":"주식회사대영엠.티.씨/원격지","tel":"031-355-6655","addr":"경기도 화성시 마도면 금당리 214-10","category":"기타 - 기타 전문점"}]},{"lat":"37.187882125","long":"126.74647811","items":[{"name":"주식회사우신판지","tel":"031-432-9587","addr":"경기도 화성시 마도면 금당리 194번지 C동","category":"유통업 영리 - 기타유통업"}]},{"lat":"37.191577679","long":"126.73886335","items":[{"name":"탱글이농장","tel":"031-4254-0160","addr":"경기도 화성시 마도면 금당리 1026번지","category":"음료식품 - 농·축·수산품"}]}]