[{"lat":"37.252523217","long":"127.10310999","items":[{"name":"(주)기흥장례식장","tel":"031-275-4444","addr":"경기도 용인시 기흥구 하갈동 163번지","category":"용역 서비스 - 가례서비스업"},{"name":"만다라꽃화원","tel":"031-283-4411","addr":"경기도 용인시 기흥구 하갈동 163번지","category":"문화.취미 - 화원"}]},{"lat":"37.255119666","long":"127.08983491","items":[{"name":"(주)디엔","tel":"070-4139-3060","addr":"경기도 용인시 기흥구 하갈동 631번지 청명호수마을신안인스빌1단지","category":"레져용품 - 스포츠·레져용품"},{"name":"플로리스트플라워","tel":"031-247-5344","addr":"경기도 용인시 기흥구 하갈동 631번지 청명호수마을신안인스빌1단지","category":"회원제형태 - 기타4"}]},{"lat":"37.254298322","long":"127.10302217","items":[{"name":"(주)아우라케어","tel":"031-281-3332","addr":"경기도 용인시 기흥구 하갈동 140-2번지","category":"보건위생 - 의료용품"},{"name":"(주)아우라코스메틱스","tel":"031-281-3332","addr":"경기도 용인시 기흥구 하갈동 140-2번지 3층","category":"보건위생 - 미용재료"}]},{"lat":"37.25260111","long":"127.08372274","items":[{"name":"(주)아워홈 노블카운티용인점","tel":"031-111-1111","addr":"경기도 용인시 기흥구 하갈동 471-3번지","category":"일반휴게음식 - 위탁급식업"},{"name":"강의하는아이들영통1학원","tel":"031-208-8822","addr":"경기도 용인시 기흥구 하갈동 471-3번지 생활문화센터 1층 3호","category":"학원 - 보습학원"},{"name":"강의하는아이들영통1학원/랭콘잉글리쉬영통","tel":"031-892-0503","addr":"경기도 용인시 기흥구 하갈동 471-3번지 리빙프라자 1층","category":"학원 - 외국어학원"},{"name":"노블카운티약국","tel":"031-208-8820","addr":"경기도 용인시 기흥구 하갈동 471-3번지 노블카운티리빙프라자 지하3층","category":"약국 - 약국"},{"name":"노블헤어","tel":"031-206-1222","addr":"경기도 용인시 기흥구 하갈동 471-3번지 삼성노블카운티생활문화센터 3층","category":"보건위생 - 미용원"},{"name":"랭콘잉글리쉬영통1캠퍼스 주식회사","tel":"031-892-0503","addr":"경기도 용인시 기흥구 하갈동 471-3번지 리빙프라자 1층","category":"학원 - 외국어학원"},{"name":"코페아커피 기흥점","tel":"031-202-5444","addr":"경기도 용인시 기흥구 하갈동 471-3번지 B3층","category":"일반휴게음식 - 서양음식"}]},{"lat":"37.249349048","long":"127.08274994","items":[{"name":"(주)에스에스 엠","tel":"031-208-8880","addr":"경기도 용인시 기흥구 하갈동 490","category":"회원제형태 - 레져업소"},{"name":"씨유노블카운티점","tel":"031-208-8660","addr":"경기도 용인시 기흥구 하갈동 490","category":"유통업 영리 - 편 의 점"},{"name":"주식회사 삼성토탈웨딩","tel":"031-208-8605","addr":"경기도 용인시 기흥구 하갈동 490 생활문화센터1층","category":"회원제형태 - 기타4"}]},{"lat":"37.256877559","long":"127.10027513","items":[{"name":"(주)일양약품(병원)","tel":"02-570-3813","addr":"경기도 용인시 기흥구 하갈동 182-4번지","category":"약국 - 약국"},{"name":"일양약품(주)","tel":"02-570-3834","addr":"경기도 용인시 기흥구 하갈동 182-4번지","category":"약국 - 제약회사"},{"name":"일양약품(주)","tel":"031-100-00","addr":"경기도 용인시 기흥구 하갈동 182-4번지","category":"약국 - 약국"},{"name":"일양약품(주)","tel":"02-570-3813","addr":"경기도 용인시 기흥구 하갈동 182-4번지","category":"약국 - 제약회사"},{"name":"일양약품(주)경인","tel":"02-570-3813","addr":"경기도 용인시 기흥구 하갈동 182-4번지","category":"약국 - 약국"},{"name":"일양약품(주)광주","tel":"062-266-1010","addr":"경기도 용인시 기흥구 하갈동 182-4번지","category":"약국 - 약국"},{"name":"일양약품(주)대구","tel":"053-527-6681","addr":"경기도 용인시 기흥구 하갈동 182-4번지","category":"약국 - 약국"},{"name":"일양약품(주)대전","tel":"042-622-9386","addr":"경기도 용인시 기흥구 하갈동 182-4번지","category":"약국 - 약국"},{"name":"일양약품(주)마산","tel":"031-232-6296","addr":"경기도 용인시 기흥구 하갈동 182-4번지","category":"약국 - 약국"},{"name":"일양약품(주)부산","tel":"051-513-6662","addr":"경기도 용인시 기흥구 하갈동 182-4번지","category":"약국 - 약국"},{"name":"일양약품(주)서울","tel":"02-929-8011","addr":"경기도 용인시 기흥구 하갈동 182-4번지","category":"약국 - 약국"},{"name":"일양약품(주)서울원비","tel":"02-570-3813","addr":"경기도 용인시 기흥구 하갈동 182-4번지","category":"약국 - 약국"},{"name":"일양약품(주)수원","tel":"031-217-7691","addr":"경기도 용인시 기흥구 하갈동 182-4번지","category":"약국 - 약국"},{"name":"일양약품(주)원주","tel":"033-748-1010","addr":"경기도 용인시 기흥구 하갈동 182-4번지","category":"약국 - 약국"},{"name":"일양약품(주)전주","tel":"063-211-1500","addr":"경기도 용인시 기흥구 하갈동 182-4번지","category":"약국 - 약국"},{"name":"일양약품(주)제주","tel":"064-742-0591","addr":"경기도 용인시 기흥구 하갈동 182-4번지","category":"약국 - 약국"},{"name":"일양약품주식회사","tel":"031-281-7851","addr":"경기도 용인시 기흥구 하갈동 182-4번지","category":"약국 - 약국"}]},{"lat":"37.254991581","long":"127.09243861","items":[{"name":"1급비손 모터스 공업사","tel":"031-204-0600","addr":"경기도 용인시 기흥구 하갈동 386번지","category":"자동차정비 유지 - 세차장"}]},{"lat":"37.249743849","long":"127.09724524","items":[{"name":"GS25SK행복드림구장점","tel":"","addr":"경기도 용인시 기흥구 하갈동 110-1번지","category":"유통업 영리 - 편 의 점"},{"name":"GS25포항선린대1호점","tel":"","addr":"경기도 용인시 기흥구 하갈동 110-1번지","category":"유통업 영리 - 편 의 점"},{"name":"GS25포항선린대2호점","tel":"","addr":"경기도 용인시 기흥구 하갈동 110-1번지","category":"유통업 영리 - 편 의 점"},{"name":"씨유대한항공큐브에스점","tel":"02-1577-8007","addr":"경기도 용인시 기흥구 하갈동 110-1번지","category":"유통업 영리 - 편 의 점"},{"name":"씨유블랙스톤벨포레점","tel":"02-1577-8007","addr":"경기도 용인시 기흥구 하갈동 110-1번지","category":"유통업 영리 - 편 의 점"},{"name":"씨유아산유성기업매점점","tel":"02-1577-8007","addr":"경기도 용인시 기흥구 하갈동 110-1번지","category":"유통업 영리 - 편 의 점"},{"name":"씨유여수디아크점","tel":"080-080-3663","addr":"경기도 용인시 기흥구 하갈동 110-1번지","category":"유통업 영리 - 편 의 점"},{"name":"씨유울산큐로점","tel":"02-1577-8007","addr":"경기도 용인시 기흥구 하갈동 110-1번지","category":"유통업 영리 - 편 의 점"},{"name":"씨제이프레시웨이(주)투썸여수디아크점","tel":"02-2149-6245","addr":"경기도 용인시 기흥구 하갈동 110-1번지","category":"일반휴게음식 - 서양음식"}]},{"lat":"37.257353445","long":"127.09088581","items":[{"name":"JS유통","tel":"031-226-4025","addr":"경기도 용인시 기흥구 하갈동 348-4번지","category":"음료식품 - 기타음료식품"}]},{"lat":"37.261465339","long":"127.09838716","items":[{"name":"L/G카크리닉","tel":"031-281-7639","addr":"경기도 용인시 기흥구 하갈동 279-27번지","category":"자동차정비 유지 - 자동차정비"}]},{"lat":"37.254098721","long":"127.10463379","items":[{"name":"SH컴퍼니","tel":"031-274-4179","addr":"경기도 용인시 기흥구 하갈동 143-4","category":"음료식품 - 농·축·수산품"},{"name":"감미옥","tel":"031-285-9999","addr":"경기도 용인시 기흥구 하갈동 143-4번지","category":"일반휴게음식 - 일반한식"},{"name":"지지샵","tel":"031-282-1830","addr":"경기도 용인시 기흥구 하갈동 143-4 405","category":"건강식품 - 기타건강식품"}]},{"lat":"37.238800539","long":"127.09177708","items":[{"name":"가마골","tel":"031-206-0052","addr":"경기도 용인시 기흥구 하갈동 7-2번지","category":"음료식품 - 기타음료식품"}]},{"lat":"37.241406217","long":"127.08949232","items":[{"name":"가마골","tel":"031-206-0052","addr":"경기도 용인시 기흥구 하갈동 16-1","category":"일반휴게음식 - 일반한식"}]},{"lat":"37.262041733","long":"127.09871481","items":[{"name":"경인삼성라지에터","tel":"031-282-5219","addr":"경기도 용인시 기흥구 하갈동 279-22번지","category":"자동차정비 유지 - 자동차정비"},{"name":"세븐일레븐용인청명점","tel":"","addr":"경기도 용인시 기흥구 하갈동 279-22번지 101호","category":"유통업 영리 - 편 의 점"}]},{"lat":"37.249939434","long":"127.08888217","items":[{"name":"경희골프용품점","tel":"031-202-2313","addr":"경기도 용인시 기흥구 하갈동 456-4번지 지하1층","category":"레져용품 - 골프용품 전문점"},{"name":"착한낙지","tel":"031-202-0998","addr":"경기도 용인시 기흥구 하갈동 456-4번지","category":"일반휴게음식 - 일반한식"}]},{"lat":"37.24110735","long":"127.09155439","items":[{"name":"경희대집","tel":"031-202-1135","addr":"경기도 용인시 기흥구 하갈동 20","category":"음료식품 - 기타음료식품"}]},{"lat":"37.250128347","long":"127.08929942","items":[{"name":"경희식당","tel":"031-202-8414","addr":"경기도 용인시 기흥구 하갈동 460-2번지 2층 일부","category":"일반휴게음식 - 일반한식"},{"name":"화이트스포츠","tel":"031-205-1872","addr":"경기도 용인시 기흥구 하갈동 460-2번지","category":"레져용품 - 골프용품 전문점"}]},{"lat":"37.249543538","long":"127.09982611","items":[{"name":"굿배스","tel":"031-281-1064","addr":"경기도 용인시 기흥구 하갈동 87번지","category":"레져용품 - 스포츠·레져용품"},{"name":"라비다하우스","tel":"031-283-7676","addr":"경기도 용인시 기흥구 하갈동 87번지 3층","category":"일반휴게음식 - 일반한식"},{"name":"피싱마트","tel":"031-285-9546","addr":"경기도 용인시 기흥구 하갈동 87번지","category":"레져용품 - 스포츠·레져용품"}]},{"lat":"37.265185394","long":"127.09985743","items":[{"name":"넥센타이어수지총판","tel":"031-896-6698","addr":"경기도 용인시 기흥구 하갈동 296-3번지 프라임스포츠아카데미 가동 4호","category":"자동차정비 유지 - 자동차시트·타이어"},{"name":"진일세차장","tel":"031-284-3368","addr":"경기도 용인시 기흥구 하갈동 296-3번지 프라임스포츠아카데미","category":"자동차정비 유지 - 카인테리어"},{"name":"할매순대국","tel":"031-274-8100","addr":"경기도 용인시 기흥구 하갈동 296-3번지 프라임스포츠아카데미 나동 1층","category":"일반휴게음식 - 일반한식"}]},{"lat":"37.262321588","long":"127.09805005","items":[{"name":"농구교실","tel":"031-282-5808","addr":"경기도 용인시 기흥구 하갈동 303-4번지 A동","category":"레저업소 - 기타레져업소"}]},{"lat":"37.251155051","long":"127.10144","items":[{"name":"대한불교조계종대덕사","tel":"031-283-3656","addr":"경기도 용인시 기흥구 하갈동 156-11번지","category":"기타 - 비영리/대상"}]},{"lat":"37.25646646","long":"127.09608131","items":[{"name":"두성산업","tel":"031-284-5962","addr":"경기도 용인시 기흥구 하갈동 219-8번지","category":"기타 - 기타 전문점"},{"name":"이마트24 하갈점","tel":"031-282-7417","addr":"경기도 용인시 기흥구 하갈동 219-8번지","category":"유통업 영리 - 편 의 점"}]},{"lat":"37.250183832","long":"127.087327","items":[{"name":"드림통상영통점","tel":"031-205-0111","addr":"경기도 용인시 기흥구 하갈동 477-1번지 LaKeGolf 1동","category":"레져용품 - 골프용품 전문점"},{"name":"레이크골프클럽","tel":"031-251-0808","addr":"경기도 용인시 기흥구 하갈동 477-1번지","category":"회원제형태 - 레져업소"}]},{"lat":"37.261625312","long":"127.08954929","items":[{"name":"라페스타/(주)엘에스씨","tel":"031-203-6758","addr":"경기도 용인시 기흥구 하갈동 327번지","category":"일반휴게음식 - 일반한식"}]},{"lat":"37.255245341","long":"127.10190748","items":[{"name":"롯데식당","tel":"031-269-5948","addr":"경기도 용인시 기흥구 하갈동 177번지","category":"일반휴게음식 - 위탁급식업"}]},{"lat":"37.255507653","long":"127.08909139","items":[{"name":"루비어스나잇","tel":"031-0000-0000","addr":"경기도 용인시 기흥구 하갈동 631번지 청명호수마을신안인스빌1단지 상가동 202호","category":"일반휴게음식 - 서양음식"},{"name":"신안행운마트","tel":"031-206-3303","addr":"경기도 용인시 기흥구 하갈동 631번지 청명호수마을신안인스빌1단지상가동제102호","category":"유통업 영리 - 슈퍼마켓"},{"name":"지씨엠스포츠","tel":"031-892-6700","addr":"경기도 용인시 기흥구 하갈동 631번지 청명호수마을신한인스빌휘트니스센터","category":"회원제형태 - 레져업소"},{"name":"헤어세정","tel":"031-273-8960","addr":"경기도 용인시 기흥구 하갈동 631번지 청명호수마을신안인스빌1단지 상가 204호","category":"보건위생 - 미용원"}]},{"lat":"37.249183864","long":"127.08707791","items":[{"name":"리틀파머스","tel":"031-202-2718","addr":"경기도 용인시 기흥구 하갈동 453-9번지 1층 102호","category":"일반휴게음식 - 서양음식"}]},{"lat":"37.263186148","long":"127.09858098","items":[{"name":"마스터랩","tel":"031-292-9530","addr":"경기도 용인시 기흥구 하갈동 301-5번지","category":"자동차정비 유지 - 자동차부품"},{"name":"오토크레드(Auto CRED)","tel":"","addr":"경기도 용인시 기흥구 하갈동 301-5번지 좌측","category":"자동차정비 유지 - 카인테리어"}]},{"lat":"37.261906643","long":"127.09863573","items":[{"name":"마포소금구이","tel":"031-281-9200","addr":"경기도 용인시 기흥구 하갈동 279-23번지 1층 일부","category":"일반휴게음식 - 일반한식"}]},{"lat":"37.257880336","long":"127.09701867","items":[{"name":"민속농원","tel":"031-285-4080","addr":"경기도 용인시 기흥구 하갈동 261-23번지","category":"문화.취미 - 화원"}]},{"lat":"37.25468441","long":"127.10461203","items":[{"name":"방가방가노래연습장","tel":"031-282-2201","addr":"경기도 용인시 기흥구 하갈동 143-10번지 지하1층","category":"레저업소 - 노 래 방"},{"name":"지후개발","tel":"031-1111-1111","addr":"경기도 용인시 기흥구 하갈동 143-10번지 별관","category":"건축자재 - 부동산 분양"},{"name":"힐링","tel":"031-223-9159","addr":"경기도 용인시 기흥구 하갈동 143-10번지 지하1층","category":"보건위생 - 미용재료"}]},{"lat":"37.254884105","long":"127.10288768","items":[{"name":"백암천막산업","tel":"031-282-9140","addr":"경기도 용인시 기흥구 하갈동 176-2번지 1층","category":"직물 - 카페트,커튼,천막,지물"}]},{"lat":"37.254855605","long":"127.10461226","items":[{"name":"사운드박스","tel":"02-000-0000","addr":"경기도 용인시 기흥구 하갈동 171","category":"자동차정비 유지 - 자동차부품"},{"name":"소양강","tel":"031-8-0330","addr":"경기도 용인시 기흥구 하갈동 171번지","category":"일반휴게음식 - 일반한식"}]},{"lat":"37.256133319","long":"127.09577654","items":[{"name":"삼성공업사","tel":"031-282-1464","addr":"경기도 용인시 기흥구 하갈동 219-10번지","category":"자동차정비 유지 - 자동차정비"},{"name":"삼성카센타","tel":"031-282-1464","addr":"경기도 용인시 기흥구 하갈동 219-10번지","category":"자동차정비 유지 - 카인테리어"}]},{"lat":"37.262492493","long":"127.09841101","items":[{"name":"삼일안전공사","tel":"031-283-3104","addr":"경기도 용인시 기흥구 하갈동 303-6번지","category":"건축자재 - 기타건축자재"}]},{"lat":"37.263600603","long":"127.09860405","items":[{"name":"서울팜","tel":"","addr":"경기도 용인시 기흥구 하갈동 300-3번지 평강빌라 301호","category":"음료식품 - 농·축·수산품"}]},{"lat":"37.256098514","long":"127.09418712","items":[{"name":"성희식품","tel":"031-283-3787","addr":"경기도 용인시 기흥구 하갈동 255-9번지","category":"음료식품 - 농·축·수산품"}]},{"lat":"37.256017264","long":"127.09438992","items":[{"name":"신갈오토","tel":"031-287-5582","addr":"경기도 용인시 기흥구 하갈동 253-7번지 1층","category":"자동차정비 유지 - 자동차정비"}]},{"lat":"37.255363774","long":"127.0886967","items":[{"name":"썬버드","tel":"031-298-8720","addr":"경기도 용인시 기흥구 하갈동 631번지 청명호수마을신안인스빌1단지","category":"회원제형태 - 기타4"}]},{"lat":"37.254820198","long":"127.09268639","items":[{"name":"씨유청명아이씨점","tel":"031-206-0091","addr":"경기도 용인시 기흥구 하갈동 389-1번지 1층 1호","category":"유통업 영리 - 편 의 점"}]},{"lat":"37.254057109","long":"127.08893193","items":[{"name":"아이천사","tel":"070-8727-5000","addr":"경기도 용인시 기흥구 하갈동 631번지 청명호수마을신안인스빌1단지","category":"학원 - 기타 교육기관"}]},{"lat":"37.255696581","long":"127.08948613","items":[{"name":"안선영프로","tel":"02-529-9400","addr":"경기도 용인시 기흥구 하갈동 631번지 청명호수마을신안인스빌1단지","category":"회원제형태 - 레져업소"},{"name":"주식회사 케어매니저유통","tel":"031-708-2621","addr":"경기도 용인시 기흥구 하갈동 631번지 청명호수마을신안인스빌1단지","category":"유통업 영리 - 기타유통업"},{"name":"태양네일 안산 안양","tel":"070-4254-0160","addr":"경기도 용인시 기흥구 하갈동 631번지 청명호수마을신안인스빌1단지","category":"보건위생 - 미용재료"}]},{"lat":"37.255293598","long":"127.09799612","items":[{"name":"에스엠아이","tel":"031-693-5452","addr":"경기도 용인시 기흥구 하갈동 239-2번지","category":"서적문구 - 과학기자재"}]},{"lat":"37.251938713","long":"127.10172281","items":[{"name":"엘림카페","tel":"070-4366-5917","addr":"경기도 용인시 기흥구 하갈동 156-67번지 1층","category":"일반휴게음식 - 서양음식"}]},{"lat":"37.253741884","long":"127.10038381","items":[{"name":"우양수산","tel":"031-8041-8809","addr":"경기도 용인시 기흥구 하갈동 150 세종주택 15-201 37/","category":"회원제형태 - 기타1"}]},{"lat":"37.253895291","long":"127.10010221","items":[{"name":"윈도우페인팅","tel":"031-338-8911","addr":"경기도 용인시 기흥구 하갈동 150-13번지 세종주택 13동 301호","category":"용역 서비스 - 기타용역서비스"}]},{"lat":"37.254298929","long":"127.09091607","items":[{"name":"유한회사 제이제이골프클럽","tel":"031-202-1771","addr":"경기도 용인시 기흥구 하갈동 403-3번지","category":"레저업소 - 골프연습장"},{"name":"쟈스민","tel":"031-6280-0037","addr":"경기도 용인시 기흥구 하갈동 403-3번지 1층","category":"일반휴게음식 - 일반한식"},{"name":"제이케이와이스포츠 기흥점","tel":"","addr":"경기도 용인시 기흥구 하갈동 403-3번지 1층","category":"레져용품 - 골프용품 전문점"}]},{"lat":"37.246938248","long":"127.10141197","items":[{"name":"이야기","tel":"","addr":"경기도 용인시 기흥구 하갈동 79-50번지","category":"일반휴게음식 - 서양음식"}]},{"lat":"37.255499724","long":"127.08759219","items":[{"name":"임박사","tel":"","addr":"경기도 용인시 기흥구 하갈동 631번지 청명호수마을신안인스빌1단지","category":"수리서비스 - 신변잡화수리"}]},{"lat":"37.252992066","long":"127.09141051","items":[{"name":"저수지집","tel":"031-283-3150","addr":"경기도 용인시 기흥구 하갈동 407-12번지","category":"일반휴게음식 - 일반한식"}]},{"lat":"37.249741387","long":"127.08863397","items":[{"name":"제트라무역","tel":"031-286-2651","addr":"경기도 용인시 기흥구 하갈동 455-3번지 1층","category":"기타 - 기타 전문점"},{"name":"흑돼지연탄구이","tel":"031-205-9293","addr":"경기도 용인시 기흥구 하갈동 455-3번지 1층","category":"일반휴게음식 - 일반한식"}]},{"lat":"37.256242269","long":"127.09471709","items":[{"name":"주식회사 블루넷","tel":"070-8809-0711","addr":"경기도 용인시 기흥구 하갈동 253-3번지","category":"레져용품 - 스포츠·레져용품"}]},{"lat":"37.247246039","long":"127.09966537","items":[{"name":"주식회사 인투이","tel":"070-7761-3790","addr":"경기도 용인시 기흥구 하갈동 78-31번지","category":"용역 서비스 - 소프트웨어"}]},{"lat":"37.265410697","long":"127.09980135","items":[{"name":"청명","tel":"031-283-0857","addr":"경기도 용인시 기흥구 하갈동 296-2번지","category":"음료식품 - 기타음료식품"}]},{"lat":"37.262213074","long":"127.08664149","items":[{"name":"청명산농원","tel":"031-206-9105","addr":"경기도 용인시 기흥구 하갈동 323-2번지","category":"음료식품 - 기타음료식품"}]},{"lat":"37.262184737","long":"127.0884677","items":[{"name":"청명산민물장어","tel":"031-202-2399","addr":"경기도 용인시 기흥구 하갈동 322-8번지 1층","category":"일반휴게음식 - 일반한식"}]},{"lat":"37.252828221","long":"127.10468844","items":[{"name":"카업워시 기흥점","tel":"031-306-2123","addr":"경기도 용인시 기흥구 하갈동 166-1번지","category":"자동차정비 유지 - 세차장"},{"name":"프리미어오토 (주)신갈지점","tel":"031-302-5800","addr":"경기도 용인시 기흥구 하갈동 166-1번지","category":"자동차정비 유지 - 자동차정비"}]},{"lat":"37.261768721","long":"127.0905753","items":[{"name":"카페정원","tel":"031-283-4941","addr":"경기도 용인시 기흥구 하갈동 329-4번지","category":"일반휴게음식 - 서양음식"}]},{"lat":"37.249128013","long":"127.08955752","items":[{"name":"코엠ise","tel":"031-236-2479","addr":"경기도 용인시 기흥구 하갈동 440-10번지","category":"전기제품 - 가전제품"}]},{"lat":"37.254189409","long":"127.09277582","items":[{"name":"타이어세상","tel":"031-281-1189","addr":"경기도 용인시 기흥구 하갈동 396번지","category":"자동차정비 유지 - 자동차시트·타이어"}]},{"lat":"37.261321202","long":"127.09835316","items":[{"name":"타이어프라자","tel":"031-283-9769","addr":"경기도 용인시 기흥구 하갈동 279-29번지","category":"자동차정비 유지 - 자동차시트·타이어"}]},{"lat":"37.262157901","long":"127.08819712","items":[{"name":"타짜오리하우스","tel":"031-206-7750","addr":"경기도 용인시 기흥구 하갈동 323-6번지","category":"일반휴게음식 - 일반한식"}]},{"lat":"37.250267878","long":"127.08307778","items":[{"name":"툴레캠프","tel":"031-202-5528","addr":"경기도 용인시 기흥구 하갈동 487번지","category":"자동차정비 유지 - 자동차부품"}]},{"lat":"37.255812609","long":"127.09098547","items":[{"name":"파란풍경미술교습소","tel":"031-285-8144","addr":"경기도 용인시 기흥구 하갈동 632번지 청명호수마을신안인스빌2단지","category":"학원 - 예·체능계학원"}]},{"lat":"37.261493193","long":"127.09736135","items":[{"name":"평화에스엔씨","tel":"031-282-9133","addr":"경기도 용인시 기흥구 하갈동 278-2번지","category":"기타 - 기계공구"}]},{"lat":"37.258211018","long":"127.10035575","items":[{"name":"풀빛","tel":"031-000-0000","addr":"경기도 용인시 기흥구 하갈동 207-1번지","category":"문화.취미 - 화원"}]},{"lat":"37.253624213","long":"127.08948376","items":[{"name":"퓨어골드(PUREGOLD)","tel":"","addr":"경기도 용인시 기흥구 하갈동 631번지 청명호수마을신안인스빌1단지","category":"신변잡화 - 귀금속"}]},{"lat":"37.26173647","long":"127.09736166","items":[{"name":"프랜드","tel":"031-286-1516","addr":"경기도 용인시 기흥구 하갈동 278번지 우성빌라 102호","category":"회원제형태 - 기타4"}]},{"lat":"37.245849533","long":"127.09955088","items":[{"name":"피아이씨(PIC)","tel":"031-282-2020","addr":"경기도 용인시 기흥구 하갈동 80-3번지","category":"신변잡화 - 기타잡화"}]},{"lat":"37.26137539","long":"127.09819541","items":[{"name":"한방건강타운","tel":"031-282-2332","addr":"경기도 용인시 기흥구 하갈동 279-28번지","category":"음료식품 - 기타음료식품"}]},{"lat":"37.252909236","long":"127.10477872","items":[{"name":"현대철물열쇠","tel":"031-286-2552","addr":"경기도 용인시 기흥구 하갈동 168-2","category":"기타 - 기계공구"}]},{"lat":"37.25493692","long":"127.10435312","items":[{"name":"화성써머","tel":"031-284-8417","addr":"경기도 용인시 기흥구 하갈동 172-1번지","category":"자동차정비 유지 - 자동차부품"}]},{"lat":"37.255519298","long":"127.09744407","items":[{"name":"황토","tel":"031-284-5252","addr":"경기도 용인시 기흥구 하갈동 232-3번지 1층","category":"일반휴게음식 - 일반한식"}]},{"lat":"37.256336559","long":"127.0891487","items":[{"name":"흥겹스튜디오","tel":"02-877-3921","addr":"경기도 용인시 기흥구 하갈동 631번지 청명호수마을신안인스빌1단지","category":"용역 서비스 - 소프트웨어"}]},{"lat":"37.262017259","long":"127.09550194","items":[{"name":"힐링그래스","tel":"031-412-3786","addr":"경기도 용인시 기흥구 하갈동 311-3번지","category":"신변잡화 - 가방"}]}]