[{"lat":"37.669882882","long":"126.75965449","items":[{"name":"구워더존치킨","tel":"031-919-9210","addr":"경기도 고양시 일산서구 주화로","category":"일반휴게음식 - 주점"},{"name":"막회산오징어","tel":"031-912-6789","addr":"경기도 고양시 일산서구 주화로","category":"일반휴게음식 - 일식·회집"}]},{"lat":"37.675576437","long":"126.74663424","items":[{"name":"동대문곱창","tel":"031-932-6584","addr":"경기도 고양시 일산서구 주화로","category":"일반휴게음식 - 일반한식"}]},{"lat":"37.665848324","long":"126.76493791","items":[{"name":"라렌느헤어","tel":"031-915-3344","addr":"경기도 고양시 일산서구 주화로","category":"보건위생 - 미용원"}]},{"lat":"37.669658856","long":"126.76024461","items":[{"name":"미드림네일","tel":"031-924-3956","addr":"경기도 고양시 일산서구 주화로","category":"보건위생 - 피부미용실"},{"name":"플라워더스타일","tel":"070-7787-7008","addr":"경기도 고양시 일산서구 주화로","category":"문화.취미 - 화원"},{"name":"헤어포맨","tel":"031-925-1535","addr":"경기도 고양시 일산서구 주화로","category":"보건위생 - 미용원"}]},{"lat":"37.66832259","long":"126.76326388","items":[{"name":"블록앤북스학원","tel":"031-922-1157","addr":"경기도 고양시 일산서구 주화로","category":"회원제형태 - 학원"},{"name":"빵굽는작은마을","tel":"031-919-0985","addr":"경기도 고양시 일산서구 주화로","category":"음료식품 - 제과점"},{"name":"카프카언어와논술학원","tel":"031-921-2333","addr":"경기도 고양시 일산서구 주화로","category":"회원제형태 - 학원"}]},{"lat":"37.670466092","long":"126.75848512","items":[{"name":"주엽지캠프클래스학원","tel":"031-912-5209","addr":"경기도 고양시 일산서구 주화로","category":"학원 - 기타 교육기관"},{"name":"푸른꿈영어학원","tel":"031-917-2583","addr":"경기도 고양시 일산서구 주화로","category":"학원 - 보습학원"}]},{"lat":"37.668493104","long":"126.76293464","items":[{"name":"초록만두","tel":"031-811-1580","addr":"경기도 고양시 일산서구 주화로","category":"일반휴게음식 - 스넥"},{"name":"취옹","tel":"031-912-1700","addr":"경기도 고양시 일산서구 주화로","category":"일반휴게음식 - 중국식"}]}]