[{"lat":"37.435940626","long":"127.00341302","items":[{"name":"대공원포도밭","tel":"02-503-6132","addr":"경기도 과천시 막계동 320-4번지","category":"일반휴게음식 - 주점"},{"name":"더지엘","tel":"02-3679-5114","addr":"경기도 과천시 막계동 320-4번지","category":"문화.취미 - 민예·공예품"}]},{"lat":"37.435273762","long":"127.0082829","items":[{"name":"대공원휴게소","tel":"02-504-0663","addr":"경기도 과천시 막계동 273-1","category":"일반휴게음식 - 일반한식"},{"name":"씨유서울대공원점","tel":"02-3418-3382","addr":"경기도 과천시 막계동 273-1 서울대공원 주차장 휴게소","category":"유통업 영리 - 편 의 점"}]},{"lat":"37.437136962","long":"127.02463318","items":[{"name":"라이언카페","tel":"02-507-4598","addr":"경기도 과천시 막계동 33번지 서울랜드사자우리","category":"일반휴게음식 - 서양음식"},{"name":"에이스티","tel":"02-999-9999","addr":"경기도 과천시 막계동 33번지 서울랜드길 121","category":"레저업소 - 기타레져업소"},{"name":"유푸드","tel":"031-465-5883","addr":"경기도 과천시 막계동 33번지 서울랜드 장터4호점","category":"음료식품 - 제과점"},{"name":"이디엠앤코 주식회사","tel":"02-1111-1111","addr":"경기도 과천시 막계동 33번지 서울랜드","category":"문화.취미 - 티켓"},{"name":"지아이월드","tel":"031-000-0000","addr":"경기도 과천시 막계동 33번지 서울랜드 121호","category":"레저업소 - 기타레져업소"},{"name":"파크랜드","tel":"02-999-9999","addr":"경기도 과천시 막계동 33번지 서울랜드","category":"레저업소 - 기타레져업소"},{"name":"플러스레져","tel":"02-999-9999","addr":"경기도 과천시 막계동 33번지 서울랜드","category":"레저업소 - 기타레져업소"},{"name":"플러스레져","tel":"02-999-9999","addr":"경기도 과천시 막계동 33번지 서울랜드","category":"레저업소 - 기타레져업소"}]},{"lat":"37.433913354","long":"127.00483666","items":[{"name":"마리아정레시피","tel":"02-532-4077","addr":"경기도 과천시 막계동 324-4번지","category":"일반휴게음식 - 서양음식"}]},{"lat":"37.433661079","long":"127.00447509","items":[{"name":"메디가이버","tel":"","addr":"경기도 과천시 막계동 1004-7번지","category":"보건위생 - 화장품"},{"name":"인피니트헬스어웨너스 (INFINTE HEALTH AWA","tel":"070-7525-2423","addr":"경기도 과천시 막계동 1004-7번지","category":"보건위생 - 의료용품"}]},{"lat":"37.433660818","long":"127.01089281","items":[{"name":"분수대푸드플라자","tel":"02-503-0391","addr":"경기도 과천시 막계동 394-1번지 분수대휴게소","category":"일반휴게음식 - 일반한식"}]},{"lat":"37.447797006","long":"127.0167256","items":[{"name":"분수대푸드플라자","tel":"02-503-3092","addr":"경기도 과천시 막계동 394-1번지 분수대휴게소","category":"음식점업 - 한식"}]},{"lat":"37.434994543","long":"127.00561632","items":[{"name":"서울대공원기프트샵","tel":"070-8138-2878","addr":"경기도 과천시 막계동 330번지","category":"신변잡화 - 기타잡화"}]},{"lat":"37.435886029","long":"127.0141698","items":[{"name":"서울대공원후생위원회","tel":"02-500-7216","addr":"경기도 과천시 막계동 159-1번지 서울대공원총무과","category":"일반휴게음식 - 위탁급식업"},{"name":"호랑이휴게소","tel":"02-502-1593","addr":"경기도 과천시 막계동 159-1번지 서울대공원 내","category":"일반휴게음식 - 일반한식"}]},{"lat":"37.430938747","long":"127.02049617","items":[{"name":"솔바람뜰(국립현대미술관)","tel":"031-979-1317","addr":"경기도 과천시 막계동 산58-4번지 국립현대미술관","category":"유통업 영리 - 편 의 점"}]},{"lat":"37.432498607","long":"127.00955945","items":[{"name":"씨유대공원분수대점","tel":"02-507-2906","addr":"경기도 과천시 막계동 354-3","category":"유통업 영리 - 편 의 점"}]},{"lat":"37.422441529","long":"127.02494525","items":[{"name":"씨유서울대공원호랑이점","tel":"02-507-1593","addr":"경기도 과천시 막계동 752호랑이휴게소","category":"유통업 영리 - 편 의 점"}]},{"lat":"37.434913459","long":"127.00531124","items":[{"name":"오닭먹자","tel":"02-3679-5252","addr":"경기도 과천시 막계동 327번지 1층","category":"일반휴게음식 - 일반한식"}]},{"lat":"37.427497423","long":"127.01664278","items":[{"name":"하트베베","tel":"02-500-7193","addr":"경기도 과천시 막계동 632번지","category":"서적문구 - 완구점"}]},{"lat":"37.434165643","long":"127.00430562","items":[{"name":"한국원예","tel":"02-504-0421","addr":"경기도 과천시 막계동 1002","category":"건축자재 - 기타건축자재"}]}]