[{"lat":"37.262294914","long":"126.90817613","items":[{"name":"21세기팜","tel":"031-295-7664","addr":"경기도 화성시 매송면 숙곡리 211번지 1층","category":"음료식품 - 농·축·수산품"}]},{"lat":"37.258706884","long":"126.90579083","items":[{"name":"논두렁추어탕","tel":"031-293-5778","addr":"경기도 화성시 매송면 숙곡리 272-4번지","category":"일반휴게음식 - 일반한식"}]},{"lat":"37.253233718","long":"126.90113132","items":[{"name":"다정식당","tel":"031-298-4073","addr":"경기도 화성시 매송면 숙곡리 435번지","category":"일반휴게음식 - 일반한식"},{"name":"신경기렉카","tel":"031-111-1111","addr":"경기도 화성시 매송면 숙곡리 435번지","category":"자동차정비 유지 - 견인서비스"}]},{"lat":"37.249183076","long":"126.89545608","items":[{"name":"레드존","tel":"031-296-8601","addr":"경기도 화성시 매송면 숙곡리 553-1번지","category":"자동차정비 유지 - 자동차부품"},{"name":"매송농산","tel":"031-227-0250","addr":"경기도 화성시 매송면 숙곡리 553-1","category":"음료식품 - 미곡상"}]},{"lat":"37.243794984","long":"126.90599029","items":[{"name":"산.내.들 어린이농원","tel":"031-000-0000","addr":"경기도 화성시 매송면 숙곡리 643번지","category":"학원 - 기타 교육기관"}]},{"lat":"37.263043173","long":"126.90868249","items":[{"name":"우리수산","tel":"031-294-1855","addr":"경기도 화성시 매송면 숙곡리 84-2","category":"음료식품 - 농·축·수산품"}]},{"lat":"37.252820704","long":"126.90284518","items":[{"name":"인스타일패드","tel":"02-3442-1998","addr":"경기도 화성시 매송면 숙곡리 425-2번지","category":"건축자재 - 기타건축자재"}]},{"lat":"37.246069073","long":"126.89946162","items":[{"name":"조아다","tel":"031-294-3568","addr":"경기도 화성시 매송면 숙곡리 605-1번지","category":"건강식품 - 기타건강식품"}]},{"lat":"37.249624438","long":"126.89529766","items":[{"name":"해드림","tel":"031-293-0126","addr":"경기도 화성시 매송면 숙곡리 551-1번지","category":"일반휴게음식 - 일반한식"},{"name":"헬로우(HELLO)","tel":"","addr":"경기도 화성시 매송면 숙곡리 551-1번지","category":"일반휴게음식 - 일반한식"}]}]