[{"lat":"37.131423084","long":"127.07939604","items":[{"name":"GS25오산자이점","tel":"080-555-2525","addr":"경기도 오산시 청호동 322번지 (청호동 322,상가101)","category":"유통업 영리 - 편 의 점"},{"name":"다이아뷰티네일","tel":"","addr":"경기도 오산시 청호동 322번지 오산자이 상가동 102호","category":"보건위생 - 피부미용실"},{"name":"미헤어","tel":"","addr":"경기도 오산시 청호동 322번지 오산자이 상가 2층 201호","category":"보건위생 - 미용원"},{"name":"보보헤어","tel":"031-667-7723","addr":"경기도 오산시 청호동 322번지 오산자이 상가동 1층 106호","category":"보건위생 - 미용원"},{"name":"분식대장","tel":"031-662-5401","addr":"경기도 오산시 청호동 322번지 오산자이 상가동 102호","category":"일반휴게음식 - 스넥"},{"name":"사쿠사쿠(청호점)","tel":"031-611-4978","addr":"경기도 오산시 청호동 322번지 오산자이 103호","category":"일반휴게음식 - 스넥"},{"name":"오븐데이(오산청호점)","tel":"031-666-5095","addr":"경기도 오산시 청호동 322번지 오산자이 상가동 101호","category":"일반휴게음식 - 스넥"},{"name":"오븐데이(오산청호점)","tel":"","addr":"경기도 오산시 청호동 322번지 오산자이 상가동 101호","category":"일반휴게음식 - 스넥"},{"name":"용인대석사청호태권도","tel":"031-372-3446","addr":"경기도 오산시 청호동 322번지 오산자이 상가 2층 202~203,205~207호","category":"학원 - 예·체능계학원"},{"name":"자이음악학원","tel":"031-611-5222","addr":"경기도 오산시 청호동 322번지 오산자이 상가 208호","category":"학원 - 기타 교육기관"},{"name":"자이하얀세탁","tel":"031-667-0644","addr":"경기도 오산시 청호동 322번지 오산자이 상가동 105호","category":"수리서비스 - 세탁소"},{"name":"지리산유기농마을","tel":"031-664-6279","addr":"경기도 오산시 청호동 322번지 오산자이 102호","category":"음료식품 - 농·축·수산품"},{"name":"지에스자이마트","tel":"031-611-0788","addr":"경기도 오산시 청호동 322번지 오산자이 상가 101호","category":"유통업 영리 - 슈퍼마켓"},{"name":"청호영재학원","tel":"031-667-0564","addr":"경기도 오산시 청호동 322번지 상가동 3층","category":"회원제형태 - 학원"}]},{"lat":"37.130507752","long":"127.08717135","items":[{"name":"GS25오산행복점","tel":"","addr":"경기도 오산시 청호동 341번지 오산청호 2블록 행복주택 내 희망상가 102호","category":"유통업 영리 - 편 의 점"},{"name":"시립청호행복어린이집[아이행복]","tel":"031-611-1622","addr":"경기도 오산시 청호동 341번지","category":"학원 - 유아원"}]},{"lat":"37.127614926","long":"127.08780957","items":[{"name":"O2노래연습장","tel":"031-622-9992","addr":"경기도 오산시 청호동 144-78번지 외3필지 3층","category":"레저업소 - 노 래 방"}]},{"lat":"37.129559625","long":"127.08997241","items":[{"name":"T스테이션손세차장","tel":"031-668-2828","addr":"경기도 오산시 청호동 165번지 1층","category":"자동차정비 유지 - 세차장"},{"name":"케이투정비기기","tel":"031-668-2225","addr":"경기도 오산시 청호동 165번지 2층","category":"기타 - 기계공구"},{"name":"티스테이션손세차","tel":"031-668-2828","addr":"경기도 오산시 청호동 165번지","category":"자동차정비 유지 - 세차장"}]},{"lat":"37.12937057","long":"127.08974712","items":[{"name":"가족민물매운탕","tel":"031-662-3936","addr":"경기도 오산시 청호동 165-4번지 1층","category":"일반휴게음식 - 일반한식"}]},{"lat":"37.127938908","long":"127.08836134","items":[{"name":"강릉짬뽕순두부","tel":"031-667-2550","addr":"경기도 오산시 청호동 144-83번지 B동 1층","category":"일반휴게음식 - 일반한식"}]},{"lat":"37.131474295","long":"127.08369502","items":[{"name":"공조 (JL)","tel":"","addr":"경기도 오산시 청호동 50번지 나동 301호","category":"용역 서비스 - 기타용역서비스"},{"name":"다오세 생고기","tel":"031-665-8904","addr":"경기도 오산시 청호동 50번지 나동 102호","category":"일반휴게음식 - 일반한식"},{"name":"대무관예신도장","tel":"031-611-2794","addr":"경기도 오산시 청호동 50번지 나동 102호","category":"학원 - 예·체능계학원"}]},{"lat":"37.130269223","long":"127.08019388","items":[{"name":"기쁨나라어린이집[아이행복]","tel":"031-667-7179","addr":"경기도 오산시 청호동 321번지 오산자이 107동 103호","category":"학원 - 유아원"}]},{"lat":"37.130168475","long":"127.08265831","items":[{"name":"꿈동산어린이집[아이행복]","tel":"031-611-9737","addr":"경기도 오산시 청호동 333번지 오산청호엘리시아 104동 101호","category":"학원 - 유아원"}]},{"lat":"37.130601499","long":"127.08188226","items":[{"name":"더잘","tel":"","addr":"경기도 오산시 청호동 321번지 오산자이 112동 602호","category":"보건위생 - 미용재료"}]},{"lat":"37.129898327","long":"127.08241045","items":[{"name":"도로시헤어","tel":"031-666-9947","addr":"경기도 오산시 청호동 333번지 오산청호엘리시아 112동 103호","category":"보건위생 - 미용원"},{"name":"진보보습학원","tel":"031-665-5443","addr":"경기도 오산시 청호동 333번지 엘리시아112동203호~204호","category":"회원제형태 - 학원"},{"name":"초연유통","tel":"031-664-7507","addr":"경기도 오산시 청호동 333번지 청호엘리시아 112동 101호","category":"유통업 영리 - 슈퍼마켓"},{"name":"하모니음악학원","tel":"","addr":"경기도 오산시 청호동 333번지 상가동 201,202호","category":"학원 - 예·체능계학원"},{"name":"하하쿠키","tel":"","addr":"경기도 오산시 청호동 333번지 오산청호엘리시아 112동 104호","category":"일반휴게음식 - 서양음식"},{"name":"행복나무어린이집[아이행복]","tel":"031-611-2720","addr":"경기도 오산시 청호동 333번지 오산청호엘리시아 관리동","category":"학원 - 유아원"}]},{"lat":"37.132338654","long":"127.08464126","items":[{"name":"드루와","tel":"031-375-6785","addr":"경기도 오산시 청호동 40-7번지","category":"일반휴게음식 - 일식·회집"}]},{"lat":"37.131366582","long":"127.0830872","items":[{"name":"루페스 빅풋 디테일링센터 오산점","tel":"031-667-1771","addr":"경기도 오산시 청호동 37-2번지","category":"자동차정비 유지 - 카인테리어"},{"name":"명인찬","tel":"031-664-7166","addr":"경기도 오산시 청호동 37-2번지 1층 아이마트","category":"음료식품 - 기타음료식품"},{"name":"신아푸드","tel":"031-157-7000","addr":"경기도 오산시 청호동 37-2번지","category":"음료식품 - 정육점"},{"name":"아이(I)마트","tel":"031-664-7166","addr":"경기도 오산시 청호동 37-2번지","category":"유통업 영리 - 슈퍼마켓"},{"name":"아이마트세탁편의점","tel":"031-668-5833","addr":"경기도 오산시 청호동 37-2번지 아이마트 3동 101호","category":"수리서비스 - 세탁소"},{"name":"정스(S)콩다방","tel":"031-667-8090","addr":"경기도 오산시 청호동 37-2번지","category":"일반휴게음식 - 서양음식"},{"name":"청해수산","tel":"031-372-6436","addr":"경기도 오산시 청호동 37-2번지 아이마트 제1동 1층일부","category":"일반휴게음식 - 일반한식"},{"name":"크린시아","tel":"031-668-5833","addr":"경기도 오산시 청호동 37-2번지 1층 아이마트내","category":"수리서비스 - 세탁소"},{"name":"하하떡케이크","tel":"031-664-7166","addr":"경기도 오산시 청호동 37-2번지 아이마트 3동 1층","category":"음료식품 - 제과점"}]},{"lat":"37.132392413","long":"127.08508022","items":[{"name":"무진장참치","tel":"","addr":"경기도 오산시 청호동 42-3번지 2층","category":"일반휴게음식 - 일식·회집"},{"name":"신나는수학영어학원","tel":"031-668-6896","addr":"경기도 오산시 청호동 42-3번지 3층","category":"학원 - 보습학원"},{"name":"심미회","tel":"031-662-2225","addr":"경기도 오산시 청호동 42-3번지 2층","category":"일반휴게음식 - 일반한식"},{"name":"육품","tel":"031-665-9393","addr":"경기도 오산시 청호동 42-3번지 1층","category":"일반휴게음식 - 일반한식"},{"name":"최상학원","tel":"031-664-7905","addr":"경기도 오산시 청호동 42-3번지 3층","category":"학원 - 보습학원"},{"name":"황금동태오산엘지점","tel":"031-665-9393","addr":"경기도 오산시 청호동 42-3번지","category":"일반휴게음식 - 일반한식"}]},{"lat":"37.13075537","long":"127.08083584","items":[{"name":"시립오산자이어린이집[아이행복]","tel":"031-611-7874","addr":"경기도 오산시 청호동 321번지 오산자이 시립오산자이어린이집","category":"학원 - 유아원"}]},{"lat":"37.13161814","long":"127.08416783","items":[{"name":"신성모터스","tel":"031-662-8572","addr":"경기도 오산시 청호동 48번지","category":"자동차정비 유지 - 자동차정비"}]},{"lat":"37.131364043","long":"127.08675591","items":[{"name":"온새미주유소","tel":"031-668-3024","addr":"경기도 오산시 청호동 111번지","category":"연료판매점 - GS주유소"}]},{"lat":"37.129453268","long":"127.08753029","items":[{"name":"용인대두빛나래비상태권도","tel":"031-664-2012","addr":"경기도 오산시 청호동 340번지 제주상가204,205호","category":"학원 - 예·체능계학원"}]},{"lat":"37.129412733","long":"127.08094699","items":[{"name":"웹비즈","tel":"070-8735-8633","addr":"경기도 오산시 청호동 321번지 오산자이 114동 1203호","category":"학원 - 기타 교육기관"}]},{"lat":"37.130530041","long":"127.08093689","items":[{"name":"이삭어린이집[아이행복]","tel":"031-616-1225","addr":"경기도 오산시 청호동 321번지 오산자이 109동 106호 오산자이","category":"학원 - 유아원"}]},{"lat":"37.128037861","long":"127.08858652","items":[{"name":"장가네반점","tel":"031-664-2203","addr":"경기도 오산시 청호동 144-83번지 A동 1층","category":"일반휴게음식 - 중국식"},{"name":"지(G)당구클럽","tel":"","addr":"경기도 오산시 청호동 144-83번지 A동 3층","category":"레저업소 - 당 구 장"},{"name":"지(G)당구클럽","tel":"031-111-1111","addr":"경기도 오산시 청호동 144-83번지 A동 3층","category":"레저업소 - 당 구 장"}]},{"lat":"37.131583949","long":"127.08142188","items":[{"name":"잭니클라우스골프","tel":"02-705-6202","addr":"경기도 오산시 청호동 321번지 오산자이 104동 602호","category":"레저업소 - 골프연습장"}]},{"lat":"37.132086778","long":"127.08403329","items":[{"name":"주식회사 유디피시스","tel":"031-665-3904","addr":"경기도 오산시 청호동 39번지 1층","category":"사무통신 - 통신기기"}]},{"lat":"37.13086876","long":"127.08633898","items":[{"name":"차이나짬뽕","tel":"031-8987-6522","addr":"경기도 오산시 청호동 114번지 1층","category":"일반휴게음식 - 중국식"}]},{"lat":"37.13203232","long":"127.08460717","items":[{"name":"취홍","tel":"031-667-0202","addr":"경기도 오산시 청호동 40-2번지 진성빌딩","category":"일반휴게음식 - 중국식"},{"name":"홍차이","tel":"031-667-0202","addr":"경기도 오산시 청호동 40-2번지 진성빌딩 1층","category":"일반휴게음식 - 중국식"}]},{"lat":"37.130004376","long":"127.085449","items":[{"name":"카페다(CafeDa)","tel":"","addr":"경기도 오산시 청호동 123-1번지 1층 101호","category":"일반휴게음식 - 서양음식"},{"name":"파랑새 음악 교습소","tel":"031-611-7978","addr":"경기도 오산시 청호동 123-1번지 2층","category":"학원 - 예·체능계학원"},{"name":"파랑새 음악교습소","tel":"031-611-7978","addr":"경기도 오산시 청호동 123-1번지 2층","category":"학원 - 예·체능계학원"},{"name":"힐링헤어","tel":"031-611-5040","addr":"경기도 오산시 청호동 123-1번지","category":"보건위생 - 미용원"},{"name":"힐링헤어","tel":"","addr":"경기도 오산시 청호동 123-1번지 1층","category":"보건위생 - 미용원"}]},{"lat":"37.131980678","long":"127.08101715","items":[{"name":"하늘나무어린이집[아이행복]","tel":"031-611-6114","addr":"경기도 오산시 청호동 321번지 오산자이 103동 105호","category":"학원 - 유아원"}]},{"lat":"37.12917252","long":"127.08949932","items":[{"name":"한잔의다이어트","tel":"031-111-1111","addr":"경기도 오산시 청호동 165-21번지 2층 201호","category":"건강식품 - 기타건강식품"}]},{"lat":"37.128145987","long":"127.08858664","items":[{"name":"핫썬치킨호프(청호점)","tel":"031-664-9990","addr":"경기도 오산시 청호동 144-136번지 2층","category":"일반휴게음식 - 스넥"}]},{"lat":"37.13170192","long":"127.08015033","items":[{"name":"해법공부방","tel":"031-663-8161","addr":"경기도 오산시 청호동 321번지 오산자이 102동 104호","category":"회원제형태 - 학원"}]},{"lat":"37.132257846","long":"127.08422478","items":[{"name":"해오름어린이집[아이행복]","tel":"031-662-8470","addr":"경기도 오산시 청호동 40-1번지 해오름어린이집","category":"학원 - 유아원"}]}]