[{"lat":"37.325496109","long":"127.66860768","items":[{"name":"(의)대암의료재단시애병원","tel":"031-886-6100","addr":"경기도 여주시 북내면 신남리 149-8번지","category":"병원 - 병원"},{"name":"주식회사에스엘","tel":"031-886-6100","addr":"경기도 여주시 북내면 신남리 149-8번지 4층","category":"음료식품 - 농·축·수산품"}]},{"lat":"37.323741867","long":"127.67132248","items":[{"name":"가마고을","tel":"031-885-4654","addr":"경기도 여주시 북내면 신남리 144-1번지","category":"주방용구 - 주방용식기"}]},{"lat":"37.32971469","long":"127.66827255","items":[{"name":"가마공방","tel":"031-000-0000","addr":"경기도 여주시 북내면 신남리 47-4번지","category":"주방용구 - 주방용식기"}]},{"lat":"37.324770769","long":"127.6694136","items":[{"name":"경기도립여주노인전문병원","tel":"031-886-4100","addr":"경기도 여주시 북내면 신남리 149-5번지","category":"의원 - 의원"}]},{"lat":"37.320489319","long":"127.67607709","items":[{"name":"경홍전통옹기","tel":"031-884-7075","addr":"경기도 여주시 북내면 신남리 236-7번지","category":"문화.취미 - 민예·공예품"},{"name":"한당도예","tel":"031-885-5355","addr":"경기도 여주시 북내면 신남리 236-7번지","category":"문화.취미 - 민예·공예품"},{"name":"한당도예","tel":"031-885-5355","addr":"경기도 여주시 북내면 신남리 236-7번지","category":"문화.취미 - 민예·공예품"}]},{"lat":"37.312577972","long":"127.67299466","items":[{"name":"그린에너지","tel":"031-1111-1111","addr":"경기도 여주시 북내면 신남리 285번지","category":"연료판매점 - 유류판매"},{"name":"북내자동차공업사","tel":"031-886-4465","addr":"경기도 여주시 북내면 신남리 285번지","category":"자동차정비 유지 - 자동차정비"}]},{"lat":"37.32144011","long":"127.6656612","items":[{"name":"느낌좋은도자기","tel":"031-885-1812","addr":"경기도 여주시 북내면 신남리 184-3번지","category":"문화.취미 - 민예·공예품"}]},{"lat":"37.32121487","long":"127.66565922","items":[{"name":"다은도예","tel":"031-885-6790","addr":"경기도 여주시 북내면 신남리 184-7번지","category":"문화.취미 - 민예·공예품"}]},{"lat":"37.31210123","long":"127.67285506","items":[{"name":"동서쎄라믹","tel":"031-885-0067","addr":"경기도 여주시 북내면 신남리 287-3번지","category":"문화.취미 - 민예·공예품"}]},{"lat":"37.321296996","long":"127.66708144","items":[{"name":"삼성요업기계","tel":"031-885-4030","addr":"경기도 여주시 북내면 신남리 193번지","category":"기타 - 기계공구"}]},{"lat":"37.323047814","long":"127.67455427","items":[{"name":"여주교재","tel":"031-882-0801","addr":"경기도 여주시 북내면 신남리 223-4번지","category":"서적문구 - 문구용품"}]},{"lat":"37.321212658","long":"127.66605406","items":[{"name":"용우도예방","tel":"031-886-0425","addr":"경기도 여주시 북내면 신남리 184-5번지","category":"문화.취미 - 민예·공예품"}]},{"lat":"37.329770777","long":"127.66791199","items":[{"name":"이경현 도예","tel":"031-886-8624","addr":"경기도 여주시 북내면 신남리 47-6번지","category":"문화.취미 - 민예·공예품"}]},{"lat":"37.320823636","long":"127.67591084","items":[{"name":"주식회사 효소세상","tel":"070-4465-6445","addr":"경기도 여주시 북내면 신남리 236-22번지","category":"회원제형태 - 건강식품"}]}]