[{"lat":"37.140285367","long":"127.02292721","items":[{"name":"(주)창성테크놀로지","tel":"031-366-2304","addr":"경기도 화성시 정남면 음양리 330-9번지","category":"기타 - 기계공구"}]},{"lat":"37.140528846","long":"127.02173423","items":[{"name":"김치House","tel":"031-374-8925","addr":"경기도 화성시 정남면 음양리 367-5번지","category":"일반휴게음식 - 일반한식"},{"name":"유진엠알오","tel":"","addr":"경기도 화성시 정남면 음양리 367-5번지","category":"기타 - 기계공구"}]},{"lat":"37.144448528","long":"127.02094731","items":[{"name":"대경","tel":"031-375-0449","addr":"경기도 화성시 정남면 음양리 610번지","category":"유통업 영리 - 기타유통업"},{"name":"주식회사제이엠보트","tel":"031-233-3677","addr":"경기도 화성시 정남면 음양리 610번지","category":"레져용품 - 스포츠·레져용품"}]},{"lat":"37.140609981","long":"127.02147539","items":[{"name":"면천추어탕","tel":"031-372-8049","addr":"경기도 화성시 정남면 음양리 367-11번지 1층","category":"일반휴게음식 - 일반한식"}]},{"lat":"37.141222979","long":"127.01956216","items":[{"name":"명성모터스","tel":"031-374-3509","addr":"경기도 화성시 정남면 음양리 645-8번지 가동","category":"자동차정비 유지 - 자동차정비"}]},{"lat":"37.140610126","long":"127.02052996","items":[{"name":"미가웰빙밥상","tel":"031-378-4733","addr":"경기도 화성시 정남면 음양리 642-2번지 1층","category":"일반휴게음식 - 일반한식"}]},{"lat":"37.140528929","long":"127.02120524","items":[{"name":"미니스톱정남대로점","tel":"031-1577-9621","addr":"경기도 화성시 정남면 음양리 638-2번지","category":"유통업 영리 - 편 의 점"},{"name":"케이에스(KS)와이어컷팅","tel":"031-374-0446","addr":"경기도 화성시 정남면 음양리 638-2 외 2필지","category":"전기제품 - 기타전기제품"}]},{"lat":"37.14134042","long":"127.01723236","items":[{"name":"보일종합축산","tel":"031-373-6763","addr":"경기도 화성시 정남면 음양리 436번지 B동","category":"농업 - 농기계"}]},{"lat":"37.151999735","long":"127.01784224","items":[{"name":"에띠임3","tel":"031-352-2812","addr":"경기도 화성시 정남면 음양리 679번지","category":"의류 - 내의판매"}]},{"lat":"37.147672708","long":"127.02931138","items":[{"name":"오감","tel":"031-373-6306","addr":"경기도 화성시 정남면 음양리 530-2번지","category":"레저업소 - 기타레져업소"}]},{"lat":"37.14691624","long":"127.02739759","items":[{"name":"정남한식뷔페","tel":"02-0000-0000","addr":"경기도 화성시 정남면 음양리 235번지 1층 101호","category":"일반휴게음식 - 일반한식"},{"name":"카페다인","tel":"031-376-6010","addr":"경기도 화성시 정남면 음양리 235번지 1층 103호","category":"일반휴게음식 - 서양음식"}]},{"lat":"37.140673114","long":"127.02109273","items":[{"name":"카페로아 (cafe Roa)","tel":"031-378-3330","addr":"경기도 화성시 정남면 음양리 336-6번지 102,103호","category":"일반휴게음식 - 서양음식"}]},{"lat":"37.141367581","long":"127.0161181","items":[{"name":"하나시스템","tel":"02-3482-4108","addr":"경기도 화성시 정남면 음양리 659번지","category":"사무통신 - 컴퓨터"}]},{"lat":"37.1482495","long":"127.02876003","items":[{"name":"흑돼지","tel":"031-233-0162","addr":"경기도 화성시 정남면 음양리 535-1번지","category":"일반휴게음식 - 일반한식"}]}]