[{"lat":"37.308273506","long":"127.6399404","items":[{"name":"(루나헤어) LUNA HAIR","tel":"031-885-8058","addr":"경기도 여주시 현암동 179-7번지 112호","category":"보건위생 - 미용원"},{"name":"도예매점","tel":"","addr":"경기도 여주시 현암동 179-7번지 1동 201호","category":"음료식품 - 기타음료식품"},{"name":"도예스크린골프","tel":"","addr":"경기도 여주시 현암동 179-7번지 유진빌딩 1동 201호","category":"레저업소 - 스크린골프"},{"name":"뜰안에","tel":"031-881-1020","addr":"경기도 여주시 현암동 179-7번지 유진빌딩 101호","category":"일반휴게음식 - 서양음식"},{"name":"미스터빠삭 여주오학점","tel":"031-884-8884","addr":"경기도 여주시 현암동 179-7번지","category":"일반휴게음식 - 일반한식"},{"name":"샵투모로우(# Tomor row)","tel":"","addr":"경기도 여주시 현암동 179-7번지 1층 111호","category":"보건위생 - 피부미용실"},{"name":"술이술술","tel":"031-886-4499","addr":"경기도 여주시 현암동 179-7번지 유진빌딩 109호, 110호","category":"일반휴게음식 - 일반한식"},{"name":"식탐","tel":"031-881-1054","addr":"경기도 여주시 현암동 179-7번지 107호","category":"일반휴게음식 - 일반한식"},{"name":"코코핏(CoCo Fit)","tel":"","addr":"경기도 여주시 현암동 179-7번지 1동 202호","category":"레저업소 - 헬스클럽"},{"name":"포차천국","tel":"031-881-1090","addr":"경기도 여주시 현암동 179-7번지 106호","category":"일반휴게음식 - 일반한식"}]},{"lat":"37.307637521","long":"127.63924697","items":[{"name":"(여강참기름)재대한구세군유지재단법인","tel":"031-885-1238","addr":"경기도 여주시 현암동 179-12번지 도명그린힐","category":"음료식품 - 기타음료식품"},{"name":"(여강참기름)재대한구세군유지재단법인","tel":"031-885-1238","addr":"경기도 여주시 현암동 179-12번지 도명그린힐 1층","category":"음료식품 - 농·축·수산품"}]},{"lat":"37.312886178","long":"127.63835492","items":[{"name":"24시간 온열해독","tel":"031-884-5860","addr":"경기도 여주시 현암동 164-22번지 라이프타운 101동 202호","category":"보건위생 - 의료용품"},{"name":"Lovely헤어","tel":"031-884-3848","addr":"경기도 여주시 현암동 164-22번지 라이프타운 101동 101호","category":"보건위생 - 미용원"},{"name":"탐헤어","tel":"031-884-3848","addr":"경기도 여주시 현암동 164-22번지 라이프타운 1층","category":"보건위생 - 미용원"}]},{"lat":"37.312601682","long":"127.63764186","items":[{"name":"339삼겹살","tel":"031-885-2339","addr":"경기도 여주시 현암동 312-1번지","category":"일반휴게음식 - 일반한식"},{"name":"섬마을해물찜","tel":"031-883-2347","addr":"경기도 여주시 현암동 312-1번지","category":"일반휴게음식 - 일반한식"}]},{"lat":"37.310464433","long":"127.6396656","items":[{"name":"3학년4반짬봉전문점","tel":"031-882-3433","addr":"경기도 여주시 현암동 155-10번지","category":"일반휴게음식 - 중국식"}]},{"lat":"37.311910599","long":"127.63713971","items":[{"name":"ALL DAY COFFEE (올데이커피)","tel":"070-8803-0884","addr":"경기도 여주시 현암동 304-6번지 1층","category":"일반휴게음식 - 서양음식"}]},{"lat":"37.307330404","long":"127.63939102","items":[{"name":"BBQ올리브카페(현암점)","tel":"031-883-0331","addr":"경기도 여주시 현암동 187-9번지 ,1,2층","category":"일반휴게음식 - 서양음식"},{"name":"정우정보통신","tel":"031-881-6914","addr":"경기도 여주시 현암동 187-9번지","category":"사무통신 - 통신기기"}]},{"lat":"37.313047322","long":"127.63854805","items":[{"name":"BHC치킨","tel":"031-883-5566","addr":"경기도 여주시 현암동 309-23번지 1층","category":"일반휴게음식 - 스넥"},{"name":"김가네 오학점","tel":"031-886-7590","addr":"경기도 여주시 현암동 309-23번지","category":"일반휴게음식 - 스넥"},{"name":"만리장성","tel":"031-883-9950","addr":"경기도 여주시 현암동 309-23번지","category":"일반휴게음식 - 중국식"},{"name":"크린토피아 여주e편한세상점","tel":"031-882-8411","addr":"경기도 여주시 현암동 309-23번지 102호","category":"수리서비스 - 세탁소"}]},{"lat":"37.308829102","long":"127.63882837","items":[{"name":"GS25여주삼진점","tel":"","addr":"경기도 여주시 현암동 177-8번지 1동","category":"유통업 영리 - 편 의 점"},{"name":"Mr.쭈꾸미보쌈","tel":"031-885-1353","addr":"경기도 여주시 현암동 177-8번지","category":"일반휴게음식 - 일반한식"},{"name":"달보드레","tel":"031-886-2951","addr":"경기도 여주시 현암동 177-8번지 1층 4호","category":"음료식품 - 기타음료식품"}]},{"lat":"37.306049104","long":"127.64141053","items":[{"name":"GS25여주이안점","tel":"","addr":"경기도 여주시 현암동 195번지 이안여주강변아파트","category":"유통업 영리 - 편 의 점"},{"name":"오렌지PC방","tel":"031-885-7393","addr":"경기도 여주시 현암동 195번지 이안여주강변아파트","category":"레저업소 - 기타레져업소"},{"name":"이안사랑어린이집[아이행복]","tel":"031-883-1347","addr":"경기도 여주시 현암동 193-2번지 여성근로자연립","category":"학원 - 유아원"},{"name":"피아노스토리","tel":"031-881-5552","addr":"경기도 여주시 현암동 195번지 이안상가 201층","category":"학원 - 예·체능계학원"}]},{"lat":"37.311857569","long":"127.6369475","items":[{"name":"OK365여주점","tel":"031-885-6663","addr":"경기도 여주시 현암동 304-1번지 103호","category":"유통업 영리 - 편 의 점"},{"name":"한가득바지락칼국수","tel":"031-884-6366","addr":"경기도 여주시 현암동 304-1번지 법무타운 101호","category":"일반휴게음식 - 일반한식"}]},{"lat":"37.312411006","long":"127.63285734","items":[{"name":"The flowe by yang(더플라워 바이앙)","tel":"02-0315-9282","addr":"경기도 여주시 현암동 668-3번지 101호","category":"문화.취미 - 화원"},{"name":"법무사이광식사무소","tel":"031-886-0048","addr":"경기도 여주시 현암동 668-3번지","category":"용역 서비스 - 법률회계서비스(개인)"}]},{"lat":"37.307831862","long":"127.64163992","items":[{"name":"The공감&모모래쉬 Hair","tel":"031-123-4567","addr":"경기도 여주시 현암동 190-6번지 201호","category":"보건위생 - 미용원"},{"name":"도담약국","tel":"031-881-4569","addr":"경기도 여주시 현암동 190-6번지 103호","category":"약국 - 약국"},{"name":"뚜레쥬르 여주오학","tel":"031-885-8053","addr":"경기도 여주시 현암동 190-6번지","category":"음료식품 - 제과점"},{"name":"손소아청소년과의원","tel":"031-883-9851","addr":"경기도 여주시 현암동 190-6번지 202호","category":"의원 - 의원"},{"name":"예감","tel":"031-882-9876","addr":"경기도 여주시 현암동 190-6번지 108호 107호","category":"일반휴게음식 - 일반한식"},{"name":"오학설비철물","tel":"031-885-7770","addr":"경기도 여주시 현암동 190-6번지","category":"기타 - 기계공구"},{"name":"제일정육마트","tel":"031-882-1069","addr":"경기도 여주시 현암동 190-6번지 106호","category":"음료식품 - 정육점"},{"name":"피오나손톱방","tel":"031-881-0988","addr":"경기도 여주시 현암동 190-6번지 105호","category":"보건위생 - 피부미용실"},{"name":"한솔치과","tel":"031-885-2879","addr":"경기도 여주시 현암동 190-6번지 203호","category":"의원 - 치과의원"},{"name":"휴대폰가게","tel":"031-885-2277","addr":"경기도 여주시 현암동 190-6번지 105호","category":"사무통신 - 통신기기"}]},{"lat":"37.322239416","long":"127.63652702","items":[{"name":"namm ceramic works","tel":"031-4108-8206","addr":"경기도 여주시 현암동 398-9번지","category":"주방용구 - 주방용식기"}]},{"lat":"37.316105349","long":"127.6361935","items":[{"name":"가마지기","tel":"031-881-2255","addr":"경기도 여주시 현암동 363번지","category":"주방용구 - 주방용식기"},{"name":"금양요업","tel":"031-881-2255","addr":"경기도 여주시 현암동 363번지","category":"주방용구 - 주방용식기"}]},{"lat":"37.320267857","long":"127.64291844","items":[{"name":"가정어린이집[아이행복]","tel":"031-885-1587","addr":"경기도 여주시 현암동 94-1번지 가정교회유아원","category":"학원 - 유아원"}]},{"lat":"37.308184753","long":"127.64303032","items":[{"name":"강남플라랜드","tel":"031-886-7795","addr":"경기도 여주시 현암동 191-5번지","category":"문화.취미 - 화원"}]},{"lat":"37.30771638","long":"127.64133439","items":[{"name":"강호동치킨678 여주1호점","tel":"031-886-0678","addr":"경기도 여주시 현암동 189-16번지","category":"일반휴게음식 - 스넥"},{"name":"대림","tel":"031-884-7553","addr":"경기도 여주시 현암동 189-16번지","category":"자동차정비 유지 - 주차장"},{"name":"열린치과","tel":"031-886-2753","addr":"경기도 여주시 현암동 189-16번지","category":"의원 - 치과의원"},{"name":"예쁘다 헤어샵","tel":"031-885-8388","addr":"경기도 여주시 현암동 189-16번지 1층 101호","category":"보건위생 - 미용원"},{"name":"이안스크린골프존","tel":"031-884-7553","addr":"경기도 여주시 현암동 189-16번지 2층","category":"회원제형태 - 레져업소"},{"name":"지존","tel":"","addr":"경기도 여주시 현암동 189-16번지 1층","category":"일반휴게음식 - 주점"},{"name":"지존","tel":"","addr":"경기도 여주시 현암동 189-16번지 1층","category":"일반휴게음식 - 주점"}]},{"lat":"37.308022892","long":"127.63627235","items":[{"name":"개라지 오브 도미닉 Garage of Dominick","tel":"","addr":"경기도 여주시 현암동 240-1번지 2동","category":"일반휴게음식 - 서양음식"},{"name":"종가집감자탕","tel":"031-881-6464","addr":"경기도 여주시 현암동 240-1번지","category":"일반휴게음식 - 일반한식"}]},{"lat":"37.312161976","long":"127.63224612","items":[{"name":"개성집","tel":"031-881-1777","addr":"경기도 여주시 현암동 668-6번지","category":"일반휴게음식 - 일반한식"},{"name":"도담도담산후도우미(여주이천점)","tel":"","addr":"경기도 여주시 현암동 668-6번지 2층 222호","category":"보건위생 - 기타대인서비스"},{"name":"셀트리온스킨큐어여주지원","tel":"","addr":"경기도 여주시 현암동 668-6번지 2층 206호","category":"보건위생 - 화장품"},{"name":"숨 필라테스","tel":"031-881-1070","addr":"경기도 여주시 현암동 668-6번지 2층 201호","category":"레저업소 - 헬스클럽"},{"name":"주식회사 태전푸드","tel":"031-884-6088","addr":"경기도 여주시 현암동 668-6번지 하우씨티빌딩 2층 221호","category":"음료식품 - 정육점"},{"name":"주식회사 프레스코","tel":"","addr":"경기도 여주시 현암동 668-6번지 2층 215호","category":"의류 - 정장"}]},{"lat":"37.310327649","long":"127.63996901","items":[{"name":"건강식당","tel":"034-883-2237","addr":"경기도 여주시 현암동 155-6번지","category":"일반휴게음식 - 일반한식"},{"name":"설우방","tel":"031-885-7892","addr":"경기도 여주시 현암동 155-6번지","category":"일반휴게음식 - 일반한식"}]},{"lat":"37.308882762","long":"127.64057722","items":[{"name":"경일정밀","tel":"031-885-7698","addr":"경기도 여주시 현암동 191-66번지","category":"기타 - 기타 전문점"},{"name":"오구쌀피자","tel":"031-886-5949","addr":"경기도 여주시 현암동 191-66번지 103호","category":"일반휴게음식 - 서양음식"},{"name":"오학파불고기","tel":"031-882-1250","addr":"경기도 여주시 현암동 191-66번지","category":"일반휴게음식 - 일반한식"}]},{"lat":"37.308246672","long":"127.64157575","items":[{"name":"고기요","tel":"031-881-1443","addr":"경기도 여주시 현암동 190-3번지","category":"일반휴게음식 - 일반한식"},{"name":"나이스당구장","tel":"031-885-4442","addr":"경기도 여주시 현암동 190-3번지","category":"레저업소 - 당 구 장"},{"name":"뿔난쭈꾸미","tel":"031-885-2886","addr":"경기도 여주시 현암동 190-3번지","category":"일반휴게음식 - 일반한식"},{"name":"을지로골뱅이","tel":"031-886-7744","addr":"경기도 여주시 현암동 190-3번지","category":"일반휴게음식 - 일반한식"},{"name":"처제네 숯불구이 전문점","tel":"031-881-2272","addr":"경기도 여주시 현암동 190-3번지 1층","category":"일반휴게음식 - 일반한식"},{"name":"칸타빌레노래연습장","tel":"031-886-6030","addr":"경기도 여주시 현암동 190-3번지 2층","category":"레저업소 - 노 래 방"},{"name":"한미머리방","tel":"031-886-5128","addr":"경기도 여주시 현암동 190-3번지","category":"보건위생 - 미용원"}]},{"lat":"37.307386612","long":"127.64233549","items":[{"name":"골목길","tel":"031-886-3399","addr":"경기도 여주시 현암동 192-3번지","category":"일반휴게음식 - 일반한식"}]},{"lat":"37.3114115404","long":"127.6394705420","items":[{"name":"관성요업","tel":"031-85-1208","addr":"경기도 여주시 현암동 159번지","category":"문화.취미 - 민예·공예품"}]},{"lat":"37.307969241","long":"127.63955432","items":[{"name":"그루","tel":"070-7767-0610","addr":"경기도 여주시 현암동 179-2번지","category":"주방용구 - 주방용식기"},{"name":"송정요업","tel":"031-885-1684","addr":"경기도 여주시 현암동 179-2번지","category":"문화.취미 - 민예·공예품"}]},{"lat":"37.308609732","long":"127.64275193","items":[{"name":"기가찬","tel":"031-883-6848","addr":"경기도 여주시 현암동 191-8번지","category":"일반휴게음식 - 일반한식"},{"name":"원조춘천닭갈비","tel":"031-886-1443","addr":"경기도 여주시 현암동 191-8번지","category":"일반휴게음식 - 일반한식"},{"name":"학동지물","tel":"031-885-5759","addr":"경기도 여주시 현암동 191-8번지","category":"직물 - 카페트,커튼,천막,지물"}]},{"lat":"37.307908441","long":"127.64247527","items":[{"name":"김동욱 토야약국","tel":"031-886-8558","addr":"경기도 여주시 현암동 192-2번지","category":"약국 - 약국"},{"name":"누가의원","tel":"031-886-8878","addr":"경기도 여주시 현암동 192-2번지","category":"의원 - 의원"},{"name":"서울치과","tel":"031-885-2275","addr":"경기도 여주시 현암동 192-2번지","category":"의원 - 치과의원"},{"name":"여주한의원","tel":"031-881-1075","addr":"경기도 여주시 현암동 192-2번지","category":"의원 - 한의원"},{"name":"오 계 절","tel":"031-885-7737","addr":"경기도 여주시 현암동 192-2번지","category":"일반휴게음식 - 일반한식"},{"name":"와와 노래연습장","tel":"031-881-5566","addr":"경기도 여주시 현암동 192-2번지","category":"레저업소 - 노 래 방"},{"name":"점핑N쉐이킹","tel":"031-635-2000","addr":"경기도 여주시 현암동 192-2번지 401호","category":"레저업소 - 헬스클럽"},{"name":"점핑하이 현암점","tel":"","addr":"경기도 여주시 현암동 192-2번지 4층","category":"레저업소 - 헬스클럽"}]},{"lat":"37.308134597","long":"127.64230799","items":[{"name":"김밥나라(여주학동점)","tel":"031-886-5266","addr":"경기도 여주시 현암동 191-22번지","category":"일반휴게음식 - 일반한식"},{"name":"럭셔리노래연습장","tel":"031-881-0883","addr":"경기도 여주시 현암동 191-22번지 지하1층","category":"레저업소 - 노 래 방"},{"name":"본죽 오학점","tel":"","addr":"경기도 여주시 현암동 191-22번지","category":"일반휴게음식 - 일반한식"}]},{"lat":"37.308492606","long":"127.64275094","items":[{"name":"김밥천국","tel":"031-885-4440","addr":"경기도 여주시 현암동 191-17번지","category":"일반휴게음식 - 일반한식"},{"name":"노래하는포차","tel":"031-886-5416","addr":"경기도 여주시 현암동 191-17번지","category":"일반휴게음식 - 일반한식"},{"name":"떡향기","tel":"031-884-2627","addr":"경기도 여주시 현암동 191-17번지","category":"음료식품 - 제과점"}]},{"lat":"37.308075123","long":"127.64164198","items":[{"name":"김백포차","tel":"031-885-1506","addr":"경기도 여주시 현암동 190-1번지","category":"일반휴게음식 - 일반한식"},{"name":"꼬치사께","tel":"031-885-8217","addr":"경기도 여주시 현암동 190-1번지 나동 1호","category":"일반휴게음식 - 주점"}]},{"lat":"37.312885395","long":"127.63344789","items":[{"name":"김종원법률사무소","tel":"031-886-3388","addr":"경기도 여주시 현암동 669-1번지 2층","category":"용역 서비스 - 법률회계서비스(개인)"},{"name":"달인녹취속기사무소","tel":"031-882-9957","addr":"경기도 여주시 현암동 669-1번지 302호","category":"용역 서비스 - 사무서비스"}]},{"lat":"37.313051966","long":"127.63936029","items":[{"name":"까끄리뽀끄리","tel":"031-881-3230","addr":"경기도 여주시 현암동 684번지 e편한세상 여주","category":"보건위생 - 미용원"},{"name":"아모레 카운셀러","tel":"031-882-1176","addr":"경기도 여주시 현암동 684번지 e편한세상 여주 102동 402호","category":"보건위생 - 화장품"},{"name":"아이편한어린이집[아이행복]","tel":"031-882-0220","addr":"경기도 여주시 현암동 684번지 이편한세상 105동 102호","category":"학원 - 유아원"},{"name":"올가뷰티","tel":"031-634-3722","addr":"경기도 여주시 현암동 684번지 e편한세상 여주 105호","category":"보건위생 - 피부미용실"},{"name":"쭈노치킨가게","tel":"031-882-9952","addr":"경기도 여주시 현암동 684번지 e편한세상 여주","category":"일반휴게음식 - 스넥"},{"name":"탑스탈코스메틱","tel":"","addr":"경기도 여주시 현암동 684번지 e편한세상 여주 103동 405호","category":"보건위생 - 화장품"}]},{"lat":"37.311409321","long":"127.63652636","items":[{"name":"꽃님이네일","tel":"031-881-0327","addr":"경기도 여주시 현암동 301-15번지","category":"보건위생 - 피부미용실"},{"name":"여백","tel":"031-000-0000","addr":"경기도 여주시 현암동 301-15번지","category":"일반휴게음식 - 서양음식"},{"name":"와다다펫푸드","tel":"031-881-0014","addr":"경기도 여주시 현암동 301-15번지 1동 103층","category":"문화.취미 - 애완동물"}]},{"lat":"37.306795556","long":"127.63999561","items":[{"name":"꽃사랑","tel":"031-884-3567","addr":"경기도 여주시 현암동 187-13번지","category":"문화.취미 - 화원"},{"name":"사천반점","tel":"031-885-0316","addr":"경기도 여주시 현암동 187-13번지","category":"일반휴게음식 - 중국식"},{"name":"오학얼음","tel":"031-886-8844","addr":"경기도 여주시 현암동 187-13번지","category":"유통업 영리 - 기타유통업"},{"name":"일파만파","tel":"031-886-6710","addr":"경기도 여주시 현암동 187-13번지 1층","category":"일반휴게음식 - 주점"},{"name":"헤어코밍","tel":"031-884-3567","addr":"경기도 여주시 현암동 187-13번지","category":"보건위생 - 미용원"}]},{"lat":"37.309049871","long":"127.64133438","items":[{"name":"남천묵은지족발탕","tel":"031-656-7766","addr":"경기도 여주시 현암동 191-78번지","category":"일반휴게음식 - 일반한식"},{"name":"본스치킨 오학점","tel":"031-885-9259","addr":"경기도 여주시 현암동 191-78번지","category":"일반휴게음식 - 스넥"}]},{"lat":"37.307684419","long":"127.64224778","items":[{"name":"남한강종합인쇄","tel":"031-886-7353","addr":"경기도 여주시 현암동 176번지 2층","category":"서적문구 - 출판 및 인쇄물"},{"name":"메이플","tel":"031-885-8908","addr":"경기도 여주시 현암동 192-6번지","category":"일반휴게음식 - 서양음식"},{"name":"웅진요업","tel":"031-885-1106","addr":"경기도 여주시 현암동 192-6번지","category":"문화.취미 - 민예·공예품"},{"name":"청하도재","tel":"031-885-5041","addr":"경기도 여주시 현암동 192-6번지","category":"문화.취미 - 민예·공예품"}]},{"lat":"37.311714982","long":"127.63833378","items":[{"name":"낮은담도자기","tel":"031-885-4441","addr":"경기도 여주시 현암동 167-4번지","category":"문화.취미 - 민예·공예품"}]},{"lat":"37.308045597","long":"127.6421042","items":[{"name":"네가 쏠께 (포차)","tel":"031-881-2022","addr":"경기도 여주시 현암동 191-32번지","category":"일반휴게음식 - 주점"},{"name":"봉자포차","tel":"031-885-6336","addr":"경기도 여주시 현암동 191-32번지","category":"일반휴게음식 - 주점"},{"name":"어울림노래연습장","tel":"031-886-1717","addr":"경기도 여주시 현암동 191-32번지","category":"레저업소 - 노 래 방"},{"name":"은헤어아트","tel":"031-885-1259","addr":"경기도 여주시 현암동 191-32번지","category":"보건위생 - 미용원"}]},{"lat":"37.307827232","long":"127.64249714","items":[{"name":"네네치킨(오학점)","tel":"031-885-4482","addr":"경기도 여주시 현암동 192-21번지 1층","category":"일반휴게음식 - 스넥"},{"name":"당월전사","tel":"031-885-6058","addr":"경기도 여주시 현암동 192-21번지","category":"문화.취미 - 민예·공예품"}]},{"lat":"37.307052135","long":"127.63919692","items":[{"name":"네일&뷰티","tel":"","addr":"경기도 여주시 현암동 187-28번지 2층","category":"보건위생 - 피부미용실"},{"name":"오학교동짬뽕","tel":"031-881-1799","addr":"경기도 여주시 현암동 187-28번지","category":"일반휴게음식 - 중국식"}]},{"lat":"37.303408054","long":"127.64161378","items":[{"name":"농가","tel":"","addr":"경기도 여주시 현암동 208-2번지","category":"일반휴게음식 - 일반한식"}]},{"lat":"37.308358071","long":"127.642637","items":[{"name":"뉴욕버거(현암점)","tel":"031-885-0072","addr":"경기도 여주시 현암동 191-12번지","category":"일반휴게음식 - 서양음식"},{"name":"신촌옛날떡볶이","tel":"031-881-0822","addr":"경기도 여주시 현암동 191-12번지","category":"일반휴게음식 - 스넥"},{"name":"컬러하우스","tel":"031-885-0072","addr":"경기도 여주시 현암동 191-12번지","category":"보건위생 - 미용원"},{"name":"황금돼지","tel":"031-885-6999","addr":"경기도 여주시 현암동 191-12번지","category":"일반휴게음식 - 일반한식"}]},{"lat":"37.304914356","long":"127.63964136","items":[{"name":"뉴평화수상레져","tel":"","addr":"경기도 여주시 현암동 219-6번지 662호","category":"레저업소 - 기타레져업소"}]},{"lat":"37.312969306","long":"127.6329184","items":[{"name":"늘찬속기사무소","tel":"031-884-3335","addr":"경기도 여주시 현암동 665-6번지 윤영빌딩 102호","category":"용역 서비스 - 사무서비스"},{"name":"변호사 안정수 법률사무소","tel":"031-886-5100","addr":"경기도 여주시 현암동 665-6번지 윤영빌딩 402호","category":"용역 서비스 - 법률회계서비스(개인)"},{"name":"변호사신동국법률사무소","tel":"031-884-8600","addr":"경기도 여주시 현암동 665-6번지 윤영빌딩 203호","category":"용역 서비스 - 법률회계서비스(개인)"},{"name":"변호사조노환법률사무소","tel":"031-884-8706","addr":"경기도 여주시 현암동 665-6번지 윤영빌딩","category":"용역 서비스 - 법률회계서비스(개인)"}]},{"lat":"37.311965627","long":"127.63358685","items":[{"name":"다올","tel":"","addr":"경기도 여주시 현암동 640-30번지 1층","category":"일반휴게음식 - 서양음식"},{"name":"마리플레르","tel":"","addr":"경기도 여주시 현암동 640-30번지","category":"일반휴게음식 - 서양음식"}]},{"lat":"37.31365704","long":"127.63405221","items":[{"name":"다원","tel":"031-885-1333","addr":"경기도 여주시 현암동 640-10번지","category":"일반휴게음식 - 위탁급식업"}]},{"lat":"37.308965156","long":"127.63866032","items":[{"name":"달달 플라워","tel":"","addr":"경기도 여주시 현암동 177-14번지 1층 102호","category":"음료식품 - 제과점"},{"name":"민경수산","tel":"031-882-9483","addr":"경기도 여주시 현암동 177-14번지","category":"음료식품 - 농·축·수산품"}]},{"lat":"37.31052013","long":"127.6393615","items":[{"name":"달쿠니&마리","tel":"","addr":"경기도 여주시 현암동 155-4번지 현암강변빌라 상가동 1층","category":"음료식품 - 농·축·수산품"}]},{"lat":"37.307425322","long":"127.64017012","items":[{"name":"대경유통","tel":"031-883-8047","addr":"경기도 여주시 현암동 188-1번지 여주벽산아파트","category":"음료식품 - 기타음료식품"}]},{"lat":"37.306521292","long":"127.63905709","items":[{"name":"대광세차장","tel":"031-111-1111","addr":"경기도 여주시 현암동 186-3번지","category":"자동차정비 유지 - 세차장"}]},{"lat":"37.3109704916","long":"127.6393878618","items":[{"name":"대웅도자","tel":"031-885-8785","addr":"경기도 여주시 현암동 157-1번지","category":"문화.취미 - 민예·공예품"}]},{"lat":"37.317102125","long":"127.63005363","items":[{"name":"대일유통","tel":"031-884-4477","addr":"경기도 여주시 현암동 586-22번지 101호","category":"음료식품 - 기타음료식품"}]},{"lat":"37.309187427","long":"127.63921491","items":[{"name":"더케이골프 (THE K GOLF)","tel":"031-880-8621","addr":"경기도 여주시 현암동 177-21번지 삼진 1층","category":"레져용품 - 골프용품 전문점"},{"name":"모아미용실","tel":"031-886-3688","addr":"경기도 여주시 현암동 177-21번지 삼진 상가 14호","category":"보건위생 - 미용원"},{"name":"서강설비","tel":"031-885-1507","addr":"경기도 여주시 현암동 177-21번지 삼진상가 9","category":"용역 서비스 - 기타용역서비스"},{"name":"소현왕족발","tel":"031-885-8899","addr":"경기도 여주시 현암동 177-21번지","category":"일반휴게음식 - 일반한식"},{"name":"코맥스ICT","tel":"031-883-5799","addr":"경기도 여주시 현암동 177-21번지 삼진 상가 7호","category":"회원제형태 - 기타1"}]},{"lat":"37.309023736","long":"127.63949553","items":[{"name":"덕성공예","tel":"031-886-7502","addr":"경기도 여주시 현암동 177-7번지","category":"문화.취미 - 민예·공예품"},{"name":"미니스톱 여주현암점","tel":"031-1577-9621","addr":"경기도 여주시 현암동 177-7번지","category":"유통업 영리 - 편 의 점"},{"name":"보리애견","tel":"031-886-0195","addr":"경기도 여주시 현암동 177-7번지","category":"문화.취미 - 애완동물"}]},{"lat":"37.307134341","long":"127.64233336","items":[{"name":"도헌공방","tel":"031-885-5859","addr":"경기도 여주시 현암동 192-14번지","category":"문화.취미 - 민예·공예품"},{"name":"민토","tel":"031-886-0940","addr":"경기도 여주시 현암동 192-14번지","category":"문화.취미 - 민예·공예품"}]},{"lat":"37.307522976","long":"127.64211105","items":[{"name":"돈장군","tel":"031-886-6102","addr":"경기도 여주시 현암동 192-28번지","category":"일반휴게음식 - 일반한식"},{"name":"여주전사","tel":"031-885-6908","addr":"경기도 여주시 현암동 192-28번지","category":"문화.취미 - 민예·공예품"},{"name":"여주전사인쇄","tel":"031-885-6908","addr":"경기도 여주시 현암동 192-28번지 2층","category":"서적문구 - 출판 및 인쇄물"},{"name":"파리바게뜨","tel":"031-886-9003","addr":"경기도 여주시 현암동 192-28번지","category":"음료식품 - 제과점"}]},{"lat":"37.309747082","long":"127.64069732","items":[{"name":"동네막국수","tel":"031-884-0434","addr":"경기도 여주시 현암동 191-60번지","category":"일반휴게음식 - 일반한식"},{"name":"씨유여주굿모닝점","tel":"031-239-6577","addr":"경기도 여주시 현암동 191-60번지 1층","category":"유통업 영리 - 편 의 점"},{"name":"참새방앗간","tel":"031-884-9080","addr":"경기도 여주시 현암동 191-60번지","category":"일반휴게음식 - 일반한식"}]},{"lat":"37.308687415","long":"127.64171484","items":[{"name":"동서네 해물파전","tel":"031-886-8582","addr":"경기도 여주시 현암동 191-51번지","category":"일반휴게음식 - 일반한식"}]},{"lat":"37.304407458","long":"127.64174631","items":[{"name":"동퓨전일식","tel":"031-885-0830","addr":"경기도 여주시 현암동 206-1번지","category":"일반휴게음식 - 일식·회집"},{"name":"소풍앤파티","tel":"","addr":"경기도 여주시 현암동 206-1번지","category":"일반휴게음식 - 일반한식"},{"name":"클레마티스플레르","tel":"","addr":"경기도 여주시 현암동 206-1번지 3호","category":"문화.취미 - 화원"},{"name":"투다리(오학점)","tel":"031-885-7814","addr":"경기도 여주시 현암동 206-1번지 1층 1호","category":"일반휴게음식 - 주점"}]},{"lat":"37.306024123","long":"127.63935745","items":[{"name":"드라이119","tel":"031-885-4119","addr":"경기도 여주시 현암동 219-1번지","category":"수리서비스 - 세탁소"}]},{"lat":"37.30894072","long":"127.64152522","items":[{"name":"또봉이통닭","tel":"031-882-3331","addr":"경기도 여주시 현암동 191-20번지","category":"일반휴게음식 - 스넥"},{"name":"예인헤어샵","tel":"031-886-5402","addr":"경기도 여주시 현암동 191-20번지","category":"보건위생 - 미용원"},{"name":"홍문해장국","tel":"031-886-1403","addr":"경기도 여주시 현암동 191-20번지","category":"일반휴게음식 - 일반한식"}]},{"lat":"37.317576886","long":"127.63057652","items":[{"name":"런키즈 엑티비티 스쿨","tel":"031-884-1191","addr":"경기도 여주시 현암동 586-8번지 1층","category":"학원 - 기타 교육기관"}]},{"lat":"37.307269486","long":"127.6423345","items":[{"name":"명주식당","tel":"031-886-1502","addr":"경기도 여주시 현암동 192-27번지","category":"일반휴게음식 - 일반한식"}]},{"lat":"37.309018305","long":"127.63882997","items":[{"name":"모드니에","tel":"031-883-0333","addr":"경기도 여주시 현암동 177-15번지","category":"일반휴게음식 - 일반한식"}]},{"lat":"37.315052063","long":"127.63602674","items":[{"name":"모터스","tel":"031-881-2929","addr":"경기도 여주시 현암동 345번지","category":"자동차정비 유지 - 자동차정비"}]},{"lat":"37.308575437","long":"127.63908568","items":[{"name":"몬스타","tel":"","addr":"경기도 여주시 현암동 179-17번지","category":"의류 - 정장"}]},{"lat":"37.307326398","long":"127.64013544","items":[{"name":"몽도리당구장","tel":"031-885-6504","addr":"경기도 여주시 현암동 188-1번지 상가동 지층","category":"레저업소 - 당 구 장"},{"name":"벽산세탁","tel":"031-886-0122","addr":"경기도 여주시 현암동 188-1번지 여주벽산아파트","category":"수리서비스 - 세탁소"},{"name":"이가네가마솥통닭","tel":"031-881-5592","addr":"경기도 여주시 현암동 188-1번지","category":"일반휴게음식 - 스넥"},{"name":"주식회사 픽아트","tel":"","addr":"경기도 여주시 현암동 188-1번지 여주벽산아파트","category":"신변잡화 - 기타잡화"},{"name":"피노키오방방","tel":"031-886-0702","addr":"경기도 여주시 현암동 188-1번지 여주벽산아파트","category":"레저업소 - 기타레져업소"}]},{"lat":"37.303633661","long":"127.64154801","items":[{"name":"미엘데코 여주점","tel":"031-8051-7919","addr":"경기도 여주시 현암동 207-2번지 1층","category":"직물 - 침구·수예점"}]},{"lat":"37.309162183","long":"127.64055702","items":[{"name":"바우대구왕뽈짐","tel":"031-885-7737","addr":"경기도 여주시 현암동 191-59번지","category":"일반휴게음식 - 일반한식"},{"name":"여럿이함께","tel":"031-883-3362","addr":"경기도 여주시 현암동 191-59번지","category":"일반휴게음식 - 스넥"},{"name":"예리한네일","tel":"","addr":"경기도 여주시 현암동 191-59번지 1층","category":"보건위생 - 피부미용실"}]},{"lat":"37.306908673","long":"127.6424104","items":[{"name":"백운반점","tel":"031-885-1839","addr":"경기도 여주시 현암동 192-32번지 외1필지","category":"일반휴게음식 - 중국식"},{"name":"엄지솥뚜껑삼겹살","tel":"031-885-9203","addr":"경기도 여주시 현암동 192-32번지 외1필지","category":"일반휴게음식 - 일반한식"}]},{"lat":"37.306101144","long":"127.64011382","items":[{"name":"범고래수산","tel":"031-8031-3022","addr":"경기도 여주시 현암동 196-5번지 1층","category":"일반휴게음식 - 일반한식"}]},{"lat":"37.312604172","long":"127.63380651","items":[{"name":"법무사이대근사무소","tel":"031-886-0088","addr":"경기도 여주시 현암동 670-3번지","category":"용역 서비스 - 법률회계서비스(개인)"},{"name":"원님한우곰탕","tel":"031-881-5106","addr":"경기도 여주시 현암동 670-3번지","category":"일반휴게음식 - 일반한식"},{"name":"합기도대한연무관","tel":"031-886-6076","addr":"경기도 여주시 현암동 670-3번지 2층","category":"학원 - 예·체능계학원"}]},{"lat":"37.312575401","long":"127.63244133","items":[{"name":"변호사김학모법률사무소","tel":"031-885-0009","addr":"경기도 여주시 현암동 667-5번지 정화빌딩 204호","category":"용역 서비스 - 법률회계서비스(개인)"},{"name":"양승찬법률사무소","tel":"031-881-3600","addr":"경기도 여주시 현암동 667-5번지","category":"용역 서비스 - 법률회계서비스(개인)"},{"name":"주식회사 웰스리더스","tel":"","addr":"경기도 여주시 현암동 667-5번지 3층 303호","category":"용역 서비스 - 사무서비스"}]},{"lat":"37.312215014","long":"127.63243833","items":[{"name":"변호사민수명법률사무소","tel":"031-886-7345","addr":"경기도 여주시 현암동 668-5번지","category":"용역 서비스 - 법률회계서비스(개인)"}]},{"lat":"37.293777191","long":"127.63641229","items":[{"name":"변호사변선종법률사무소","tel":"031-883-3500","addr":"경기도 여주시 현암동 668-5번지","category":"용역 서비스 - 법률회계서비스(개인)"}]},{"lat":"37.312609039","long":"127.63289283","items":[{"name":"변호사장동섭법률사무소","tel":"031-881-2345","addr":"경기도 여주시 현암동 668-2번지 3층 302호","category":"용역 서비스 - 법률회계서비스(개인)"},{"name":"변호사정강대법률사무소","tel":"031-886-4975","addr":"경기도 여주시 현암동 668-2번지 현암빌딩 301호","category":"용역 서비스 - 법률회계서비스(개인)"},{"name":"변호사황순일법률사무소","tel":"031-885-6300","addr":"경기도 여주시 현암동 668-2번지 103호","category":"용역 서비스 - 법률회계서비스(개인)"},{"name":"봄커피(Bom Coffee)","tel":"031-881-6718","addr":"경기도 여주시 현암동 668-2번지 현암빌딩","category":"일반휴게음식 - 서양음식"},{"name":"이명우법률사무소","tel":"031-884-2326","addr":"경기도 여주시 현암동 668-2번지 현암빌딩 2층 201호","category":"용역 서비스 - 법률회계서비스(개인)"}]},{"lat":"37.306408262","long":"127.63996978","items":[{"name":"본래순대여주현암점","tel":"031-885-7738","addr":"경기도 여주시 현암동 196-2번지","category":"일반휴게음식 - 일반한식"}]},{"lat":"37.307297429","long":"127.64216554","items":[{"name":"봄뷰티헤어샵","tel":"031-885-7753","addr":"경기도 여주시 현암동 192-11번지","category":"보건위생 - 미용원"},{"name":"쎄라테크","tel":"031-885-0077","addr":"경기도 여주시 현암동 192-11번지","category":"사무통신 - 컴퓨터"},{"name":"앨리스옷장","tel":"031-885-0077","addr":"경기도 여주시 현암동 192-11번지","category":"의류 - 정장"},{"name":"착한반찬","tel":"031-883-3329","addr":"경기도 여주시 현암동 192-11번지","category":"음료식품 - 기타음료식품"},{"name":"한판뒷고기","tel":"031-886-5031","addr":"경기도 여주시 현암동 192-11번지","category":"일반휴게음식 - 일반한식"}]},{"lat":"37.305469288","long":"127.63697281","items":[{"name":"부자통신","tel":"031-883-0073","addr":"경기도 여주시 현암동 224번지 1층","category":"사무통신 - 통신기기"}]},{"lat":"37.306661443","long":"127.63980272","items":[{"name":"블루하라","tel":"031-884-3934","addr":"경기도 여주시 현암동 187-18번지","category":"일반휴게음식 - 서양음식"},{"name":"하루한끼","tel":"031-881-5753","addr":"경기도 여주시 현암동 187-18번지","category":"일반휴게음식 - 일반한식"}]},{"lat":"37.308908249","long":"127.63919","items":[{"name":"비갑도예","tel":"031-886-5879","addr":"경기도 여주시 현암동 179-1번지","category":"문화.취미 - 민예·공예품"}]},{"lat":"37.308771662","long":"127.64279842","items":[{"name":"뽕뜨락피자","tel":"031-886-9889","addr":"경기도 여주시 현암동 191-2번지","category":"일반휴게음식 - 서양음식"},{"name":"소현음악학원","tel":"031-882-0629","addr":"경기도 여주시 현암동 191-2번지 2층","category":"학원 - 예·체능계학원"},{"name":"춘천진미닭갈비","tel":"031-884-4646","addr":"경기도 여주시 현암동 191-2번지","category":"일반휴게음식 - 일반한식"}]},{"lat":"37.322657973","long":"127.63744438","items":[{"name":"산신암","tel":"031-885-4608","addr":"경기도 여주시 현암동 398번지","category":"보건위생 - 기타대인서비스"}]},{"lat":"37.307158614","long":"127.63950237","items":[{"name":"서울우유오학대리점","tel":"031-886-4260","addr":"경기도 여주시 현암동 187-11번지","category":"음료식품 - 기타음료식품"}]},{"lat":"37.303858598","long":"127.64160631","items":[{"name":"선봉도예","tel":"031-885-2692","addr":"경기도 여주시 현암동 207-10번지","category":"문화.취미 - 화랑"}]},{"lat":"37.316271083","long":"127.63889106","items":[{"name":"세라믹 몽 (ceramic mong)","tel":"031-886-5893","addr":"경기도 여주시 현암동 134번지","category":"문화.취미 - 민예·공예품"}]},{"lat":"37.31746311","long":"127.62994382","items":[{"name":"세종건재","tel":"031-885-4525","addr":"경기도 여주시 현암동 586번지","category":"건축자재 - 기타건축자재"}]},{"lat":"37.323631458","long":"127.63400023","items":[{"name":"쉼토기","tel":"031-885-1044","addr":"경기도 여주시 현암동 437-2번지","category":"문화.취미 - 민예·공예품"},{"name":"푸른하늘","tel":"031-885-6653","addr":"경기도 여주시 현암동 437-2번지","category":"문화.취미 - 민예·공예품"}]},{"lat":"37.31105403","long":"127.64060683","items":[{"name":"슈브","tel":"031-882-0309","addr":"경기도 여주시 현암동 152-7번지 103호","category":"보건위생 - 미용원"},{"name":"양대산맥","tel":"","addr":"경기도 여주시 현암동 152-7번지 1층","category":"일반휴게음식 - 일반한식"},{"name":"현암축산물","tel":"031-882-1079","addr":"경기도 여주시 현암동 152-7번지","category":"음료식품 - 정육점"}]},{"lat":"37.305855395","long":"127.64224357","items":[{"name":"스푼스틱","tel":"031-1111-1111","addr":"경기도 여주시 현암동 194-3번지","category":"일반휴게음식 - 스넥"},{"name":"치킨더홈 여주점","tel":"031-885-9914","addr":"경기도 여주시 현암동 194-3번지","category":"일반휴게음식 - 스넥"}]},{"lat":"37.30762894","long":"127.63580658","items":[{"name":"신성닭볶음탕","tel":"031-885-7828","addr":"경기도 여주시 현암동 253번지","category":"일반휴게음식 - 일반한식"},{"name":"천연공방 마가렛모리","tel":"","addr":"경기도 여주시 현암동 253번지","category":"신변잡화 - 기타잡화"}]},{"lat":"37.307938752","long":"127.64019701","items":[{"name":"실버 바라","tel":"031-885-1138","addr":"경기도 여주시 현암동 189-13번지 1층","category":"음료식품 - 기타음료식품"}]},{"lat":"37.325078099","long":"127.63474568","items":[{"name":"썬바스","tel":"031-1668-1031","addr":"경기도 여주시 현암동 451-12번지","category":"건축자재 - 인테리어전문"}]},{"lat":"37.3065212923","long":"127.6390570901","items":[{"name":"씨티이천","tel":"031-635-5127","addr":"경기도 여주시 현암동 186-3","category":"유통업 영리 - 복지매장"}]},{"lat":"37.310025661","long":"127.63411209","items":[{"name":"아이파크식당","tel":"","addr":"경기도 여주시 현암동 285-1외 5필지","category":"일반휴게음식 - 일반한식"}]},{"lat":"37.308911825","long":"127.63852451","items":[{"name":"아토로","tel":"","addr":"경기도 여주시 현암동 177-19번지","category":"의류 - 정장"}]},{"lat":"37.306830562","long":"127.64018766","items":[{"name":"안경매니져","tel":"031-885-1001","addr":"경기도 여주시 현암동 193-18번지","category":"보건위생 - 안경"}]},{"lat":"37.30641545","long":"127.64030823","items":[{"name":"에이스마트","tel":"031-882-6355","addr":"경기도 여주시 현암동 187-4번지","category":"유통업 영리 - 슈퍼마켓"}]},{"lat":"37.308580334","long":"127.64152217","items":[{"name":"여주다방","tel":"031-1111-1111","addr":"경기도 여주시 현암동 191-88번지 여주다방 1동","category":"일반휴게음식 - 서양음식"}]},{"lat":"37.306135816","long":"127.6386929","items":[{"name":"여주종합인테리어","tel":"031-884-1103","addr":"경기도 여주시 현암동 185-4번지","category":"건축자재 - 인테리어전문"}]},{"lat":"37.30813275","long":"127.63930754","items":[{"name":"여흥도예","tel":"031-881-6914","addr":"경기도 여주시 현암동 179-29번지","category":"문화.취미 - 민예·공예품"}]},{"lat":"37.306049939","long":"127.63958326","items":[{"name":"예솔도예","tel":"031-885-0707","addr":"경기도 여주시 현암동 197-1번지","category":"문화.취미 - 민예·공예품"},{"name":"예솔도요","tel":"031-885-0707","addr":"경기도 여주시 현암동 197-1번지","category":"문화.취미 - 민예·공예품"}]},{"lat":"37.303159251","long":"127.64096877","items":[{"name":"예천칡냉면 오학점","tel":"031-885-7086","addr":"경기도 여주시 현암동 211-1번지","category":"일반휴게음식 - 일반한식"},{"name":"한국타이어(현암점)","tel":"031-885-8355","addr":"경기도 여주시 현암동 211-1번지 1층 101호","category":"자동차정비 유지 - 자동차정비"}]},{"lat":"37.306824224","long":"127.6396913","items":[{"name":"오토오아시스여주점","tel":"031-883-2299","addr":"경기도 여주시 현암동 187-6번지","category":"자동차정비 유지 - 자동차정비"},{"name":"형제석유","tel":"031-886-5188","addr":"경기도 여주시 현암동 187-6번지","category":"연료판매점 - 유류판매"}]},{"lat":"37.312406848","long":"127.6386893","items":[{"name":"오학마트 정육점","tel":"031-886-9577","addr":"경기도 여주시 현암동 164-25번지","category":"음료식품 - 정육점"}]},{"lat":"37.31868491","long":"127.62891608","items":[{"name":"오학철강","tel":"031-884-5655","addr":"경기도 여주시 현암동 604-12번지","category":"건축자재 - 기타건축자재"}]},{"lat":"37.30829604","long":"127.64244471","items":[{"name":"오학통신","tel":"031-886-8860","addr":"경기도 여주시 현암동 191-6번지","category":"사무통신 - 통신기기"},{"name":"현대미술학원","tel":"031-884-6766","addr":"경기도 여주시 현암동 191-6번지","category":"학원 - 예·체능계학원"}]},{"lat":"37.308939918","long":"127.64000242","items":[{"name":"오학특수부위","tel":"031-885-2777","addr":"경기도 여주시 현암동 179-25번지","category":"일반휴게음식 - 일반한식"},{"name":"위드치킨","tel":"031-885-9293","addr":"경기도 여주시 현암동 179-25번지","category":"일반휴게음식 - 스넥"}]},{"lat":"37.306184477","long":"127.63969719","items":[{"name":"오학한의원","tel":"031-883-7510","addr":"경기도 여주시 현암동 196-6번지","category":"의원 - 한의원"}]},{"lat":"37.318856094","long":"127.6289175","items":[{"name":"우드마트(주)","tel":"031-886-0028","addr":"경기도 여주시 현암동 604-1번지","category":"건축자재 - 기타건축자재"}]},{"lat":"37.316966221","long":"127.63863745","items":[{"name":"우석도자기","tel":"031-885-1802","addr":"경기도 여주시 현암동 132번지","category":"문화.취미 - 민예·공예품"}]},{"lat":"37.317048552","long":"127.64008213","items":[{"name":"유한세라믹","tel":"031-884-9882","addr":"경기도 여주시 현암동 129-3번지","category":"주방용구 - 주방용식기"}]},{"lat":"37.310743997","long":"127.63794209","items":[{"name":"은우도예","tel":"031-8852-6805","addr":"경기도 여주시 현암동 306-2번지","category":"문화.취미 - 민예·공예품"}]},{"lat":"37.305751846","long":"127.64139674","items":[{"name":"이안미술교습소","tel":"031-883-5743","addr":"경기도 여주시 현암동 193-2번지 여성근로자연립","category":"회원제형태 - 학원"}]},{"lat":"37.32065698","long":"127.64260585","items":[{"name":"이조도예체험학습장","tel":"031-885-2108","addr":"경기도 여주시 현암동 94-4번지","category":"학원 - 기타 교육기관"}]},{"lat":"37.315435113","long":"127.63516132","items":[{"name":"일봉도예","tel":"031-886-7055","addr":"경기도 여주시 현암동 339번지 339호","category":"문화.취미 - 민예·공예품"}]},{"lat":"37.31141283","long":"127.6375529","items":[{"name":"작은천사어린이집[아이행복]","tel":"031-884-1279","addr":"경기도 여주시 현암동 303-10번지","category":"학원 - 유아원"}]},{"lat":"37.308800155","long":"127.64085852","items":[{"name":"잘풀리는아이","tel":"","addr":"경기도 여주시 현암동 191-38번지 여강맨숀 102호","category":"학원 - 기타 교육기관"}]},{"lat":"37.31205068","long":"127.63957745","items":[{"name":"장모님손만두","tel":"031-881-6430","addr":"경기도 여주시 현암동 164-3번지","category":"일반휴게음식 - 일반한식"}]},{"lat":"37.323406217","long":"127.63399834","items":[{"name":"장유도예","tel":"031-886-1405","addr":"경기도 여주시 현암동 426번지","category":"문화.취미 - 민예·공예품"}]},{"lat":"37.30480284","long":"127.64027206","items":[{"name":"제이원시스템","tel":"031-884-4257","addr":"경기도 여주시 현암동 202-5번지","category":"사무통신 - 컴퓨터"}]},{"lat":"37.311990356","long":"127.63738855","items":[{"name":"제주 뒷고기집","tel":"031-883-9279","addr":"경기도 여주시 현암동 304-4번지","category":"일반휴게음식 - 일반한식"}]},{"lat":"37.31807617","long":"127.63663873","items":[{"name":"주식회사지앤세라믹","tel":"031-884-1935","addr":"경기도 여주시 현암동 378번지","category":"주방용구 - 주방용식기"}]},{"lat":"37.311187937","long":"127.63916409","items":[{"name":"천진도예","tel":"031-885-5171","addr":"경기도 여주시 현암동 159-4번지","category":"문화.취미 - 민예·공예품"}]},{"lat":"37.312692524","long":"127.63413439","items":[{"name":"칼디의 커피","tel":"031-880-7337","addr":"경기도 여주시 현암동 669-4번지","category":"음료식품 - 기타음료식품"},{"name":"플레르즈느루","tel":"070-8822-1827","addr":"경기도 여주시 현암동 669-4번지","category":"문화.취미 - 화원"}]},{"lat":"37.313465276","long":"127.63621648","items":[{"name":"큰집한우","tel":"031-885-0102","addr":"경기도 여주시 현암동 315번지 1층","category":"일반휴게음식 - 일반한식"}]},{"lat":"37.304882894","long":"127.64046448","items":[{"name":"태산에어컨","tel":"","addr":"경기도 여주시 현암동 202-2번지 102동 402호","category":"용역 서비스 - 기타용역서비스"}]},{"lat":"37.3118863474","long":"127.6383013859","items":[{"name":"토기장이","tel":"031-885-3578","addr":"경기도 여주시 현암동 166-2번지","category":"문화.취미 - 민예·공예품"}]},{"lat":"37.311351274","long":"127.63727038","items":[{"name":"토화공방","tel":"031-885-9539","addr":"경기도 여주시 현암동 303-5번지","category":"문화.취미 - 민예·공예품"}]},{"lat":"37.303104","long":"127.63447156","items":[{"name":"팀우노수상레저","tel":"031-1111-1111","addr":"경기도 여주시 현암동 217-3","category":"레저업소 - 기타레져업소"}]},{"lat":"37.311050866","long":"127.63616239","items":[{"name":"평창무지개송어","tel":"031-881-2559","addr":"경기도 여주시 현암동 301-6번지","category":"일반휴게음식 - 일반한식"}]},{"lat":"37.312741294","long":"127.63174333","items":[{"name":"포차7080라이브","tel":"031-881-2807","addr":"경기도 여주시 현암동 666-1번지 2층","category":"일반휴게음식 - 주점"}]},{"lat":"37.312101434","long":"127.63683674","items":[{"name":"하오하오 중국어교습소","tel":"","addr":"경기도 여주시 현암동 304번지","category":"학원 - 기타 교육기관"}]},{"lat":"37.308691916","long":"127.64254959","items":[{"name":"한맥도예","tel":"031-885-3003","addr":"경기도 여주시 현암동 191-9번지","category":"문화.취미 - 민예·공예품"}]},{"lat":"37.304579555","long":"127.64157857","items":[{"name":"혜리by뷰티&수재샵","tel":"031-882-0992","addr":"경기도 여주시 현암동 194-12번지","category":"의류 - 정장"}]},{"lat":"37.31643659","long":"127.638272","items":[{"name":"혜진도예","tel":"031-885-1647","addr":"경기도 여주시 현암동 133-3번지","category":"문화.취미 - 민예·공예품"}]},{"lat":"37.306272935","long":"127.64000248","items":[{"name":"홍초야 불날개 불닭발","tel":"031-884-2232","addr":"경기도 여주시 현암동 196-8번지","category":"일반휴게음식 - 일반한식"}]},{"lat":"37.311552808","long":"127.63833242","items":[{"name":"효천도예","tel":"031-885-5589","addr":"경기도 여주시 현암동 168번지","category":"문화.취미 - 민예·공예품"}]},{"lat":"37.308824392","long":"127.63802746","items":[{"name":"힐링캠프","tel":"031-882-9208","addr":"경기도 여주시 현암동 177-20번지","category":"일반휴게음식 - 일반한식"}]}]