[{"lat":"37.586481077","long":"127.17353642","items":[{"name":"(주)101비씨(101B.C)","tel":"070-7782-7080","addr":"경기도 남양주시 수석동 139번지","category":"일반휴게음식 - 일반한식"}]},{"lat":"37.598731841","long":"127.18134378","items":[{"name":"(주)성원지엠이엔지","tel":"031-555-2746","addr":"경기도 남양주시 수석동 1129번지","category":"건축자재 - 기타건축자재"}]},{"lat":"37.586366505","long":"127.16533915","items":[{"name":"(주)이유엔인터내셔널","tel":"031-569-1236","addr":"경기도 남양주시 수석동 394번지","category":"의류 - 정장"}]},{"lat":"37.588817095","long":"127.17180946","items":[{"name":"ANTEER KOREA","tel":"031-555-5820","addr":"경기도 남양주시 수석동 214-3번지","category":"신변잡화 - 신발"},{"name":"BnM모터스","tel":"031-565-3004","addr":"경기도 남양주시 수석동 214-3번지 2층","category":"자동차정비 유지 - 카인테리어"},{"name":"주식회사 텍스메이드","tel":"02-533-4460","addr":"경기도 남양주시 수석동 214-3번지","category":"직물 - 카페트,커튼,천막,지물"}]},{"lat":"37.586561329","long":"127.17411402","items":[{"name":"CP소프트","tel":"031-541-9797","addr":"경기도 남양주시 수석동 136번지","category":"용역 서비스 - 소프트웨어"},{"name":"밀밭","tel":"031-551-1118","addr":"경기도 남양주시 수석동 136번지","category":"일반휴게음식 - 일반한식"},{"name":"에프에이 이탈리아","tel":"070-4060-0055","addr":"경기도 남양주시 수석동 136번지 나동 1층 ,2,옥상","category":"일반휴게음식 - 서양음식"},{"name":"은행나무집","tel":"031-566-3558","addr":"경기도 남양주시 수석동 136번지","category":"일반휴게음식 - 일반한식"}]},{"lat":"37.586035434","long":"127.17015019","items":[{"name":"JDX/(주)신한코리아 미음나루점","tel":"031-568-8797","addr":"경기도 남양주시 수석동 364번지","category":"레져용품 - 스포츠·레져용품"}]},{"lat":"37.596365732","long":"127.17903949","items":[{"name":"MD코리아(MD COREA)","tel":"031-567-4057","addr":"경기도 남양주시 수석동 1074-1번지","category":"기타 - 기계공구"}]},{"lat":"37.587813882","long":"127.17398102","items":[{"name":"가든갤러리","tel":"031-566-7777","addr":"경기도 남양주시 수석동 143번지","category":"일반휴게음식 - 서양음식"},{"name":"힐링힐스","tel":"031-566-7777","addr":"경기도 남양주시 수석동 143번지 1층","category":"음료식품 - 기타음료식품"},{"name":"힐링힐스","tel":"031-566-7777","addr":"경기도 남양주시 수석동 143번지","category":"일반휴게음식 - 서양음식"}]},{"lat":"37.586256389","long":"127.17315097","items":[{"name":"강나루","tel":"031-552-4994","addr":"경기도 남양주시 수석동 162-4번지","category":"일반휴게음식 - 일반한식"}]},{"lat":"37.592949539","long":"127.17392484","items":[{"name":"고향가는길","tel":"031-556-3389","addr":"경기도 남양주시 수석동 263번지","category":"일반휴게음식 - 일반한식"}]},{"lat":"37.593031789","long":"127.17925809","items":[{"name":"골프존파크","tel":"031-566-8801","addr":"경기도 남양주시 수석동 26번지 2,3층","category":"레져용품 - 골프용품 전문점"}]},{"lat":"37.589088649","long":"127.17092693","items":[{"name":"곰가네","tel":"031-565-8812","addr":"경기도 남양주시 수석동 212-2번지","category":"일반휴게음식 - 일반한식"},{"name":"주식회사 로엔그린플러스","tel":"031-553-3119","addr":"경기도 남양주시 수석동 212-2번지","category":"음료식품 - 농·축·수산품"}]},{"lat":"37.595113885","long":"127.17869685","items":[{"name":"광신이엔지","tel":"031-568-0832","addr":"경기도 남양주시 수석동 1159번지","category":"건축자재 - 보일러·펌프·샷시"}]},{"lat":"37.5963911","long":"127.18014924","items":[{"name":"국제냉동설비","tel":"02-764-7118","addr":"경기도 남양주시 수석동 1085-2번지","category":"전기제품 - 냉열기기"}]},{"lat":"37.589892763","long":"127.16934361","items":[{"name":"금교상사","tel":"","addr":"경기도 남양주시 수석동 350-8번지","category":"레져용품 - 스포츠·레져용품"}]},{"lat":"37.585645968","long":"127.17158718","items":[{"name":"까페테리아","tel":"031-558-5171","addr":"경기도 남양주시 수석동 185-1번지","category":"일반휴게음식 - 서양음식"}]},{"lat":"37.586203649","long":"127.17223378","items":[{"name":"나룻터","tel":"031-557-6235","addr":"경기도 남양주시 수석동 160번지","category":"일반휴게음식 - 일반한식"}]},{"lat":"37.589369413","long":"127.16989724","items":[{"name":"남양주다산로타리클럽","tel":"031-558-6223","addr":"경기도 남양주시 수석동 349-3번지","category":"기타 - 비영리/비대상"},{"name":"대덕상회","tel":"031-529-4500","addr":"경기도 남양주시 수석동 349-3번지 1층","category":"음료식품 - 기타음료식품"},{"name":"마스터테크","tel":"031-556-9651","addr":"경기도 남양주시 수석동 349-3번지 102호","category":"자동차판매 - 이륜차판매"},{"name":"에이치.엠(H.M)","tel":"031-556-1091","addr":"경기도 남양주시 수석동 349-3번지","category":"자동차판매 - 이륜차판매"}]},{"lat":"37.591454457","long":"127.17967331","items":[{"name":"농가맛집봉바위","tel":"031-563-6772","addr":"경기도 남양주시 수석동 106번지","category":"일반휴게음식 - 일반한식"},{"name":"더 숯불","tel":"031-1111-1111","addr":"경기도 남양주시 수석동 106번지 1층","category":"일반휴게음식 - 일반한식"}]},{"lat":"37.588508447","long":"127.16706477","items":[{"name":"누리밴딩","tel":"","addr":"경기도 남양주시 수석동 338-1번지","category":"음료식품 - 기타음료식품"},{"name":"누리밴딩/게이트뱅크(일반)","tel":"","addr":"경기도 남양주시 수석동 338-1번지","category":"기타 - 기타 전문점"}]},{"lat":"37.585761178","long":"127.1729234","items":[{"name":"느티나무가든","tel":"031-555-8833","addr":"경기도 남양주시 수석동 168번지","category":"일반휴게음식 - 일반한식"},{"name":"느티나무별채","tel":"031-555-8838","addr":"경기도 남양주시 수석동 168번지 느티나무 169호","category":"일반휴게음식 - 일반한식"},{"name":"느티나무사랑채","tel":"031-555-8833","addr":"경기도 남양주시 수석동 168번지","category":"일반휴게음식 - 일반한식"}]},{"lat":"37.585926304","long":"127.17086322","items":[{"name":"다산","tel":"031-555-7733","addr":"경기도 남양주시 수석동 201번지","category":"레져용품 - 골프용품 전문점"}]},{"lat":"37.585701446","long":"127.17059099","items":[{"name":"다산비젼골프존신관","tel":"031-559-9999","addr":"경기도 남양주시 수석동 200번지 1층","category":"레저업소 - 골프연습장"}]},{"lat":"37.588926827","long":"127.17067748","items":[{"name":"다원종합주방","tel":"031-555-5105","addr":"경기도 남양주시 수석동 212-5번지","category":"주방용구 - 주방용구"}]},{"lat":"37.589280769","long":"127.16886671","items":[{"name":"대광발코니","tel":"031-566-0581","addr":"경기도 남양주시 수석동 343번지","category":"건축자재 - 기타건축자재"}]},{"lat":"37.588983447","long":"127.16886605","items":[{"name":"더블유클럽(W-club)","tel":"02-529-8155","addr":"경기도 남양주시 수석동 344번지","category":"레저업소 - 헬스클럽"}]},{"lat":"37.58731693","long":"127.17495358","items":[{"name":"도우코퍼레이션","tel":"02-6000-6874","addr":"경기도 남양주시 수석동 142-1번지 1층","category":"음료식품 - 기타음료식품"},{"name":"본가제주밥상","tel":"031-569-5553","addr":"경기도 남양주시 수석동 142-1번지","category":"일반휴게음식 - 일반한식"},{"name":"제주명품마을","tel":"031-551-0012","addr":"경기도 남양주시 수석동 142-1번지","category":"음료식품 - 기타음료식품"}]},{"lat":"37.586256992","long":"127.17273206","items":[{"name":"동강의향기","tel":"031-528-0833","addr":"경기도 남양주시 수석동 162-8번지","category":"일반휴게음식 - 일반한식"}]},{"lat":"37.586121095","long":"127.17325255","items":[{"name":"두레박","tel":"031-555-8228","addr":"경기도 남양주시 수석동 164번지","category":"일반휴게음식 - 일반한식"}]},{"lat":"37.589176097","long":"127.16639822","items":[{"name":"드림필드볼파크","tel":"070-4153-0130","addr":"경기도 남양주시 수석동 327-3번지","category":"레저업소 - 기타레져업소"}]},{"lat":"37.589835958","long":"127.17127961","items":[{"name":"레브스에스제이","tel":"031-557-5721","addr":"경기도 남양주시 수석동 248-2번지","category":"주방용구 - 주방용구"}]},{"lat":"37.59172463","long":"127.1797532","items":[{"name":"로스니버거","tel":"031-000-0000","addr":"경기도 남양주시 수석동 8번지 가동 1층,2층,3층","category":"일반휴게음식 - 서양음식"},{"name":"르쟈뎅드카페","tel":"070-4109-5986","addr":"경기도 남양주시 수석동 8번지","category":"일반휴게음식 - 서양음식"}]},{"lat":"37.588757022","long":"127.16970339","items":[{"name":"리하이","tel":"031-474-6608","addr":"경기도 남양주시 수석동 347번지 2층 일부","category":"일반휴게음식 - 중국식"},{"name":"에이스침대 구리점","tel":"031-566-9998","addr":"경기도 남양주시 수석동 347번지","category":"가구 - 일반가구"},{"name":"에이피에스","tel":"070-7720-1912","addr":"경기도 남양주시 수석동 347번지 1층 창고","category":"자동차정비 유지 - 자동차정비"},{"name":"제이엘티엠(JLTM)유통","tel":"031-564-6540","addr":"경기도 남양주시 수석동 347번지","category":"레져용품 - 스포츠·레져용품"}]},{"lat":"37.585924866","long":"127.17187085","items":[{"name":"미음매운탕","tel":"031-566-3564","addr":"경기도 남양주시 수석동 186-1번지","category":"일반휴게음식 - 일반한식"}]},{"lat":"37.594395037","long":"127.17739301","items":[{"name":"미의 뜰","tel":"031-558-9410","addr":"경기도 남양주시 수석동 1182-3번지","category":"가구 - 일반가구"}]},{"lat":"37.592615337","long":"127.1805932","items":[{"name":"미호박물관","tel":"031-566-7377","addr":"경기도 남양주시 수석동 3-1번지","category":"문화.취미 - 티켓"}]},{"lat":"37.591150152","long":"127.17214308","items":[{"name":"바이네르아울렛","tel":"031-569-3117","addr":"경기도 남양주시 수석동 255번지","category":"신변잡화 - 가방"}]},{"lat":"37.589002673","long":"127.1680056","items":[{"name":"백서방 푸드","tel":"070-8945-3313","addr":"경기도 남양주시 수석동 322-7번지","category":"음료식품 - 농·축·수산품"}]},{"lat":"37.586865516","long":"127.17558657","items":[{"name":"버드나무집","tel":"031-554-1140","addr":"경기도 남양주시 수석동 133-1","category":"일반휴게음식 - 일반한식"}]},{"lat":"37.59025898","long":"127.17158627","items":[{"name":"본가남원추어탕","tel":"031-568-4777","addr":"경기도 남양주시 수석동 247번지","category":"일반휴게음식 - 일반한식"}]},{"lat":"37.586677203","long":"127.16867978","items":[{"name":"블랙아이스","tel":"031-111-1111","addr":"경기도 남양주시 수석동 383번지","category":"레저업소 - 기타레져업소"}]},{"lat":"37.586287081","long":"127.1705923","items":[{"name":"빠네빠네","tel":"031-564-2277","addr":"경기도 남양주시 수석동 205번지","category":"일반휴게음식 - 일반한식"}]},{"lat":"37.592649332","long":"127.16964414","items":[{"name":"산들메유통","tel":"031-556-9004","addr":"경기도 남양주시 수석동 302-1번지","category":"음료식품 - 농·축·수산품"}]},{"lat":"37.588395734","long":"127.17033662","items":[{"name":"살구나무집","tel":"031-563-7115","addr":"경기도 남양주시 수석동 357번지","category":"일반휴게음식 - 일반한식"}]},{"lat":"37.585952898","long":"127.17116896","items":[{"name":"삼다도회대게","tel":"031-566-5885","addr":"경기도 남양주시 수석동 195번지 1층","category":"일반휴게음식 - 일반한식"}]},{"lat":"37.595671034","long":"127.17967196","items":[{"name":"색디자인","tel":"031-558-5340","addr":"경기도 남양주시 수석동 1106-2번지","category":"서적문구 - 출판 및 인쇄물"},{"name":"세현참치","tel":"031-516-0564","addr":"경기도 남양주시 수석동 1106-2번지","category":"음료식품 - 농·축·수산품"}]},{"lat":"37.591841383","long":"127.18000258","items":[{"name":"석실농원","tel":"031-565-4618","addr":"경기도 남양주시 수석동 7-3번지","category":"문화.취미 - 화원"}]},{"lat":"37.596977277","long":"127.17978828","items":[{"name":"성원특장","tel":"031-555-8181","addr":"경기도 남양주시 수석동 1080-1번지","category":"자동차정비 유지 - 자동차정비"}]},{"lat":"37.586810514","long":"127.16998209","items":[{"name":"세븐일레븐미음나루점","tel":"031-1577-0711","addr":"경기도 남양주시 수석동 369번지 1층","category":"유통업 영리 - 편 의 점"},{"name":"스마트전자(토평점)","tel":"031-563-5585","addr":"경기도 남양주시 수석동 369번지 1층 층","category":"자동차정비 유지 - 자동차부품"},{"name":"아크디자인(ARK design)","tel":"031-521-3311","addr":"경기도 남양주시 수석동 369번지","category":"가구 - 일반가구"},{"name":"에이스스포츠","tel":"031-567-8283","addr":"경기도 남양주시 수석동 369번지","category":"레져용품 - 스포츠·레져용품"}]},{"lat":"37.586669839","long":"127.17384254","items":[{"name":"송우리","tel":"031-568-5112","addr":"경기도 남양주시 수석동 138번지 1층","category":"음료식품 - 정육점"}]},{"lat":"37.586676593","long":"127.17539366","items":[{"name":"승진디젤","tel":"031-569-9295","addr":"경기도 남양주시 수석동 133-2번지","category":"자동차정비 유지 - 자동차정비"},{"name":"오동나무집","tel":"031-569-9295","addr":"경기도 남양주시 수석동 133-2번지","category":"일반휴게음식 - 일반한식"}]},{"lat":"37.598370199","long":"127.18216955","items":[{"name":"싸인텍(주)","tel":"031-551-8822","addr":"경기도 남양주시 수석동 1131-2번지","category":"건축자재 - 기타건축자재"}]},{"lat":"37.587919706","long":"127.1692826","items":[{"name":"아임이앤씨","tel":"031-569-2777","addr":"경기도 남양주시 수석동 374번지","category":"전기제품 - 냉열기기"},{"name":"제일유통","tel":"031-556-9056","addr":"경기도 남양주시 수석동 374번지","category":"음료식품 - 농·축·수산품"}]},{"lat":"37.586310774","long":"127.17292465","items":[{"name":"안채","tel":"031-557-3848","addr":"경기도 남양주시 수석동 162-2번지","category":"일반휴게음식 - 서양음식"}]},{"lat":"37.586203974","long":"127.17200734","items":[{"name":"압소담","tel":"031-558-5290","addr":"경기도 남양주시 수석동 159번지 1층","category":"일반휴게음식 - 일반한식"}]},{"lat":"37.58578308","long":"127.17020623","items":[{"name":"에이스페이드","tel":"031-551-5757","addr":"경기도 남양주시 수석동 365-4번지 1층","category":"일반휴게음식 - 서양음식"},{"name":"팝","tel":"","addr":"경기도 남양주시 수석동 365-4번지 2층","category":"일반휴게음식 - 서양음식"}]},{"lat":"37.586032821","long":"127.17198431","items":[{"name":"에이전시 꼬모(Agency Como)","tel":"031-565-4111","addr":"경기도 남양주시 수석동 163번지","category":"음료식품 - 기타음료식품"}]},{"lat":"37.598703765","long":"127.18203446","items":[{"name":"에이치에스(HS)컴퍼니","tel":"031-1661-8604","addr":"경기도 남양주시 수석동 1131-1번지","category":"용역 서비스 - 종합용역"}]},{"lat":"37.585702233","long":"127.17003623","items":[{"name":"엠버(EMBER)","tel":"031-565-2088","addr":"경기도 남양주시 수석동 367-2번지","category":"일반휴게음식 - 서양음식"}]},{"lat":"37.585756692","long":"127.1697533","items":[{"name":"여울목농원","tel":"031-552-2088","addr":"경기도 남양주시 수석동 368-19번지","category":"일반휴게음식 - 일반한식"}]},{"lat":"37.588586779","long":"127.169035","items":[{"name":"영원프라자","tel":"02-3424-3036","addr":"경기도 남양주시 수석동 346-3번지","category":"전기제품 - 가전제품"}]},{"lat":"37.590838867","long":"127.1692891","items":[{"name":"예일그래픽포토스튜디오","tel":"031-553-5106","addr":"경기도 남양주시 수석동 351","category":"광학제품 - 사진관"}]},{"lat":"37.586366393","long":"127.17183788","items":[{"name":"오두막","tel":"031-556-0952","addr":"경기도 남양주시 수석동 152번지","category":"일반휴게음식 - 일반한식"}]},{"lat":"37.591976649","long":"127.17992364","items":[{"name":"유투(U2)","tel":"031-565-4618","addr":"경기도 남양주시 수석동 7-1번지","category":"일반휴게음식 - 서양음식"}]},{"lat":"37.589475519","long":"127.17131276","items":[{"name":"자연그래픽","tel":"070-8628-7870","addr":"경기도 남양주시 수석동 223번지 201호","category":"서적문구 - 출판 및 인쇄물"}]},{"lat":"37.595922849","long":"127.17997828","items":[{"name":"장원공조","tel":"070-7759-2441","addr":"경기도 남양주시 수석동 1107-3번지 G.S.L물류내","category":"전기제품 - 가전제품"}]},{"lat":"37.590452085","long":"127.16883534","items":[{"name":"정원","tel":"031-563-8338","addr":"경기도 남양주시 수석동 319번지","category":"일반휴게음식 - 일반한식"},{"name":"프렌치불독스토리","tel":"031-8742-7454","addr":"경기도 남양주시 수석동 319번지 정원바베큐시대","category":"일반휴게음식 - 일반한식"}]},{"lat":"37.591310012","long":"127.17986545","items":[{"name":"제이파킹(J-Parking)","tel":"","addr":"경기도 남양주시 수석동 110번지","category":"자동차정비 유지 - 주차장"},{"name":"트윈트리","tel":"031-562-2022","addr":"경기도 남양주시 수석동 110번지","category":"일반휴게음식 - 서양음식"}]},{"lat":"37.588872253","long":"127.17103967","items":[{"name":"주식회사 비알코퍼레이션","tel":"031-1522-2508","addr":"경기도 남양주시 수석동 213번지 2층","category":"사무통신 - 통신기기"}]},{"lat":"37.592977289","long":"127.1734267","items":[{"name":"주식회사 엘엔디컴퍼니","tel":"02-6749-7709","addr":"경기도 남양주시 수석동 266번지 1층","category":"의류 - 정장"}]},{"lat":"37.590451447","long":"127.16928824","items":[{"name":"주식회사빈티지워터스","tel":"031-555-8899","addr":"경기도 남양주시 수석동 351-3번지","category":"음료식품 - 기타음료식품"}]},{"lat":"37.586705123","long":"127.17436343","items":[{"name":"쥬얼리","tel":"031-556-4934","addr":"경기도 남양주시 수석동 136-4번지","category":"일반휴게음식 - 서양음식"}]},{"lat":"37.590063757","long":"127.16947986","items":[{"name":"청송차바닥","tel":"031-557-6679","addr":"경기도 남양주시 수석동 350-5","category":"자동차정비 유지 - 자동차정비"}]},{"lat":"37.588593515","long":"127.17064277","items":[{"name":"칭송카네비","tel":"031-556-6679","addr":"경기도 남양주시 수석동 211번지","category":"자동차정비 유지 - 자동차시트·타이어"}]},{"lat":"37.585593007","long":"127.17081718","items":[{"name":"카페수석동 198","tel":"031-557-0661","addr":"경기도 남양주시 수석동 198번지 수석빌딩 3층","category":"일반휴게음식 - 서양음식"},{"name":"한강","tel":"031-556-5561","addr":"경기도 남양주시 수석동 198번지","category":"일반휴게음식 - 일반한식"}]},{"lat":"37.589621526","long":"127.17001102","items":[{"name":"태성서비스","tel":"031-554-6868","addr":"경기도 남양주시 수석동 349-7번지 101호","category":"자동차정비 유지 - 자동차부품"}]},{"lat":"37.586201578","long":"127.17367164","items":[{"name":"토방7080","tel":"031-562-7090","addr":"경기도 남양주시 수석동 165번지","category":"일반휴게음식 - 일반한식"}]},{"lat":"37.58628613","long":"127.17126029","items":[{"name":"토방촌","tel":"031-555-5575","addr":"경기도 남양주시 수석동 155번지","category":"일반휴게음식 - 일반한식"}]},{"lat":"37.595230302","long":"127.1791727","items":[{"name":"퍼펙트독애견훈련학교","tel":"031-553-4924","addr":"경기도 남양주시 수석동 1158번지","category":"문화.취미 - 애완동물"}]},{"lat":"37.586227754","long":"127.17426044","items":[{"name":"풍차","tel":"031-553-6005","addr":"경기도 남양주시 수석동 136-3번지 풍차","category":"일반휴게음식 - 일반한식"}]},{"lat":"37.593148245","long":"127.17358561","items":[{"name":"풍천민물장어이억집(수석점)","tel":"031-568-8881","addr":"경기도 남양주시 수석동 264번지","category":"일반휴게음식 - 일반한식"}]},{"lat":"37.598311396","long":"127.17933849","items":[{"name":"피엠 (P.M)스포츠","tel":"","addr":"경기도 남양주시 수석동 1078번지","category":"레져용품 - 스포츠·레져용품"}]},{"lat":"37.592897184","long":"127.17889544","items":[{"name":"필그림","tel":"070-8877-4620","addr":"경기도 남양주시 수석동 59번지 2층","category":"일반휴게음식 - 서양음식"}]},{"lat":"37.586338796","long":"127.17223409","items":[{"name":"하늘농수산","tel":"031-564-1717","addr":"경기도 남양주시 수석동 151-1번지","category":"음료식품 - 농·축·수산품"}]},{"lat":"37.593673239","long":"127.17189969","items":[{"name":"한농업기계","tel":"031-565-3081","addr":"경기도 남양주시 수석동 285-3번지","category":"농업 - 농기계"}]},{"lat":"37.588090492","long":"127.16956604","items":[{"name":"해풍장 팔팔장어","tel":"031-555-8892","addr":"경기도 남양주시 수석동 359-2번지 1층","category":"일반휴게음식 - 일반한식"}]},{"lat":"37.58947899","long":"127.17515103","items":[{"name":"해피동산","tel":"031-562-4997","addr":"경기도 남양주시 수석동 산2-28번지","category":"문화.취미 - 화원"},{"name":"해피동산","tel":"031-562-4997","addr":"경기도 남양주시 수석동 산2-28번지","category":"문화.취미 - 화원"}]},{"lat":"37.585975109","long":"127.16820271","items":[{"name":"현대콘테이너","tel":"031-566-6699","addr":"경기도 남양주시 수석동 385-21번지","category":"건축자재 - 기타건축자재"}]},{"lat":"37.590836992","long":"127.17061383","items":[{"name":"홍콩","tel":"031-555-5337","addr":"경기도 남양주시 수석동 251-1번지","category":"일반휴게음식 - 중국식"}]},{"lat":"37.589756833","long":"127.1698981","items":[{"name":"히트 배팅센터","tel":"031-564-1917","addr":"경기도 남양주시 수석동 354번지","category":"레저업소 - 기타레져업소"}]}]