[{"lat":"37.881970404","long":"127.17780786","items":[{"name":"(주)부성","tel":"070-8838-7423","addr":"경기도 포천시 어룡동 224-4번지","category":"유통업 영리 - 기타유통업"}]},{"lat":"37.881109473","long":"127.1870243","items":[{"name":"(주)에스오","tel":"031-535-8272","addr":"경기도 포천시 어룡동 298번지","category":"자동차정비 유지 - 자동차부품"},{"name":"성민자동차공업사","tel":"541-2844","addr":"경기도 포천시 어룡동 298번지","category":"서비스 - 자동차 수리"},{"name":"성민자동차공업사","tel":"031-541-2844","addr":"경기도 포천시 어룡동 298번지","category":"자동차정비 유지 - 자동차정비"},{"name":"형제렉카","tel":"031-535-8272","addr":"경기도 포천시 어룡동 298번지","category":"자동차정비 유지 - 견인서비스"}]},{"lat":"37.878833478","long":"127.18485901","items":[{"name":"CU포천어룡점","tel":"536-5086","addr":"경기도 포천시 어룡동 187-2번지","category":"소매업 - 편의점"},{"name":"씨유포천어룡점","tel":"031-536-5086","addr":"경기도 포천시 어룡동 187-2번지","category":"유통업 영리 - 편 의 점"}]},{"lat":"37.881001628","long":"127.18685353","items":[{"name":"GS25 포천 어룡점","tel":"533-6622","addr":"경기도 포천시 어룡동 298-2번지","category":"음식 - 커피 등"},{"name":"GS25포천어룡점","tel":"02-2006-2485","addr":"경기도 포천시 어룡동 298-2번지","category":"유통업 영리 - 편 의 점"},{"name":"GS25포천어룡점","tel":"031-533-6622","addr":"경기도 포천시 어룡동 298-2번지","category":"편의점 - 편의점"},{"name":"예두레종합장의개발","tel":"031-535-6412","addr":"경기도 포천시 어룡동 298-2번지","category":"용역 서비스 - 가례서비스업"}]},{"lat":"37.883528964","long":"127.18957657","items":[{"name":"㈜광일에너지","tel":"535-0920","addr":"경기도 포천시 어룡동 389-2번지","category":"도소매 - 에너지"}]},{"lat":"37.885939699","long":"127.19193574","items":[{"name":"㈜제일","tel":"535-5851","addr":"경기도 포천시 어룡동 410-2번지","category":"도소매 - 컴퓨터주변기기외"},{"name":"대경정보통신","tel":"535-5851","addr":"경기도 포천시 어룡동 410-2번지","category":"도소매 - 사무기기"},{"name":"대경정보통신","tel":"031-534-9496","addr":"경기도 포천시 어룡동 410-2번지","category":"사무통신 - 사무용 OA기기"},{"name":"스포츠뱅크(요넥스포천점)","tel":"535-1244","addr":"경기도 포천시 어룡동 410-2번지","category":"소매업 - 스포츠"},{"name":"스포츠뱅크(요넥스포천점)","tel":"031-535-1244","addr":"경기도 포천시 어룡동 410-2번지","category":"레져용품 - 스포츠·레져용품"}]},{"lat":"37.880973283","long":"127.1876946","items":[{"name":"갈비찜그뤠잇","tel":"","addr":"경기도 포천시 어룡동 292번지 나동 1층","category":"일반휴게음식 - 일반한식"},{"name":"갈비찜그뤠잇","tel":"534-5501","addr":"경기도 포천시 어룡동 292번지 나동 1층","category":"음식 - 한식"},{"name":"루마&쉴드런포천점","tel":"031-536-9595","addr":"경기도 포천시 어룡동 292번지","category":"자동차정비 유지 - 자동차부품"},{"name":"미래냉동설비","tel":"031-535-5425","addr":"경기도 포천시 어룡동 292","category":"전기제품 - 냉열기기"},{"name":"세계그릇냉동주방","tel":"536-0204","addr":"경기도 포천시 어룡동 292번지","category":"도소매 - 생활"},{"name":"세계냉동그릇주방","tel":"031-536-0204","addr":"경기도 포천시 어룡동 292번지","category":"주방용구 - 주방용구"},{"name":"한국지엠포천제일지정서비스","tel":"031-533-8256","addr":"경기도 포천시 어룡동 292번지 가동1호,2호일부외8필지","category":"자동차정비 유지 - 자동차정비"},{"name":"황덕골","tel":"535-0992","addr":"경기도 포천시 어룡동 292번지","category":"음식 - 한식"},{"name":"황덕골","tel":"031-535-0992","addr":"경기도 포천시 어룡동 292번지","category":"일반휴게음식 - 일반한식"}]},{"lat":"37.885858871","long":"127.19177639","items":[{"name":"경기옥 설렁탕","tel":"536-3391","addr":"경기도 포천시 어룡동 401번지","category":"음식 - 한식"},{"name":"경기옥설렁탕","tel":"031-536-3391","addr":"경기도 포천시 어룡동 401번지","category":"일반휴게음식 - 일반한식"}]},{"lat":"37.873329668","long":"127.18427719","items":[{"name":"고릴라캠핑포천점","tel":"544-3376","addr":"경기도 포천시 어룡동 145-7번지","category":"도소매 - 캠핑용품"},{"name":"고릴라캠핑포천점","tel":"031-544-3376","addr":"경기도 포천시 어룡동 145-7번지","category":"레져용품 - 스포츠·레져용품"}]},{"lat":"37.883834829","long":"127.18986153","items":[{"name":"구드레감자탕","tel":"534-6629","addr":"경기도 포천시 어룡동 390-5번지","category":"음식 - 한식"},{"name":"구드레감자탕","tel":"031-534-6629","addr":"경기도 포천시 어룡동 390-5번지","category":"일반휴게음식 - 일반한식"}]},{"lat":"37.88468921","long":"127.19080718","items":[{"name":"금강인테리어","tel":"533-8057","addr":"경기도 포천시 어룡동 394-2번지","category":"도소매 - 인테리어"}]},{"lat":"37.884086565","long":"127.19019181","items":[{"name":"금강인테리어","tel":"031-536-2849","addr":"경기도 포천시 어룡동 391번지","category":"직물 - 카페트,커튼,천막,지물"},{"name":"타이어웨이","tel":"031-532-5154","addr":"경기도 포천시 어룡동 391번지","category":"자동차정비 유지 - 자동차시트·타이어"}]},{"lat":"37.871915381","long":"127.18416007","items":[{"name":"금성기계","tel":"031-535-8615","addr":"경기도 포천시 어룡동 139-6번지","category":"기타 - 기계공구"}]},{"lat":"37.884390885","long":"127.19144299","items":[{"name":"대성기업","tel":"031-532-7744","addr":"경기도 포천시 어룡동 417-1번지","category":"기타 - 기타 전문점"}]},{"lat":"37.879193375","long":"127.18516679","items":[{"name":"대신사무용가구","tel":"031-535-2795","addr":"경기도 포천시 어룡동 195-12번지","category":"가구 - 일반가구"}]},{"lat":"37.879778258","long":"127.18563426","items":[{"name":"돌평양식 김치찌개","tel":"531-3456","addr":"경기도 포천시 어룡동 284-6번지 1층","category":"음식 - 한식"},{"name":"돌평양식 김치찌게","tel":"031-531-3456","addr":"경기도 포천시 어룡동 284-6번지 1층","category":"일반휴게음식 - 일반한식"},{"name":"풍천의정부부대찌개","tel":"031-536-6520","addr":"경기도 포천시 어룡동 284-6번지 외284-6","category":"일반휴게음식 - 일반한식"}]},{"lat":"37.878581516","long":"127.18466516","items":[{"name":"동태마을","tel":"031-536-1132","addr":"경기도 포천시 어룡동 188-15번지","category":"일반휴게음식 - 일반한식"},{"name":"지장산막국수(어룡동)","tel":"534-1802","addr":"경기도 포천시 어룡동 188-15번지","category":"음식 - 한식"},{"name":"지장산막국수어룡점","tel":"031-534-1802","addr":"경기도 포천시 어룡동 188-15번지","category":"일반휴게음식 - 일반한식"}]},{"lat":"37.880334068","long":"127.18740884","items":[{"name":"로얄(ROYAL)","tel":"","addr":"경기도 포천시 어룡동 290-1번지","category":"숙박업 - 여관/기타숙박업"},{"name":"로얄파크","tel":"031-535-7272","addr":"경기도 포천시 어룡동 290-1번지","category":"숙박업 - 여관/기타숙박업"},{"name":"로얄파크","tel":"535-7272","addr":"경기도 포천시 어룡동 290-1","category":"숙박업 - 모텔"}]},{"lat":"37.8808307","long":"127.18669397","items":[{"name":"맛고을","tel":"536-2497","addr":"경기도 포천시 어룡동 297번지","category":"음식 - 한식"},{"name":"맛고을","tel":"031-536-2497","addr":"경기도 포천시 어룡동 297","category":"일반휴게음식 - 일반한식"}]},{"lat":"37.879670657","long":"127.18530437","items":[{"name":"부강유통","tel":"535-7183","addr":"경기도 포천시 어룡동 284-3번지","category":"도소매 - 축산물"},{"name":"부강유통","tel":"031-535-7183","addr":"경기도 포천시 어룡동 284-3번지","category":"음료식품 - 정육점"},{"name":"한영중전기","tel":"031-535-5522","addr":"경기도 포천시 어룡동 284-3번지","category":"수리서비스 - 기타수리서비스"}]},{"lat":"37.880003578","long":"127.18557799","items":[{"name":"삼일공사","tel":"031-536-3104","addr":"경기도 포천시 어룡동 284-2","category":"건축자재 - 페인트"}]},{"lat":"37.880335933","long":"127.18621534","items":[{"name":"서울FOOD","tel":"031-535-8952","addr":"경기도 포천시 어룡동 286번지 1층","category":"일반휴게음식 - 일반한식"},{"name":"서울FOOD","tel":"535-8952","addr":"경기도 포천시 어룡동 286번지","category":"음식 - 한식"}]},{"lat":"37.877582044","long":"127.18429899","items":[{"name":"서울모터스","tel":"535-9922","addr":"경기도 포천시 어룡동 188-1","category":"서비스 - 자동차 수리"},{"name":"서울모터스","tel":"070-4150-9923","addr":"경기도 포천시 어룡동 188-1 ,190-20","category":"자동차정비 유지 - 자동차정비"}]},{"lat":"37.883608547","long":"127.18477982","items":[{"name":"세보마트","tel":"031-543-8836","addr":"경기도 포천시 어룡동 258-1번지 세보전원빌라트","category":"유통업 영리 - 슈퍼마켓"}]},{"lat":"37.876859666","long":"127.18535427","items":[{"name":"세운무역","tel":"031-536-6399","addr":"경기도 포천시 어룡동 149-2번지","category":"가구 - 일반가구"}]},{"lat":"37.886862366","long":"127.18960773","items":[{"name":"신도시 주유소","tel":"531-5005","addr":"경기도 포천시 어룡동 375번지","category":"도소매 - 주유소"}]},{"lat":"37.87891486","long":"127.18466598","items":[{"name":"심야전기119하우징","tel":"031-534-1567","addr":"경기도 포천시 어룡동 188-5번지","category":"건축자재 - 보일러·펌프·샷시"}]},{"lat":"37.88677355","long":"127.1888004","items":[{"name":"싱글벙글 요양원","tel":"535-5190","addr":"경기도 포천시 어룡동 373-2번지 1층","category":"보건업 - 요양원"}]},{"lat":"37.882079601","long":"127.1888568","items":[{"name":"씨유포천호국로점","tel":"080-080-3663","addr":"경기도 포천시 어룡동 85-1번지","category":"유통업 영리 - 편 의 점"}]},{"lat":"37.883689543","long":"127.18483686","items":[{"name":"아름농산","tel":"031-533-3535","addr":"경기도 포천시 어룡동 258-1번지 세보전원빌라트 가동 304호","category":"회원제형태 - 기타4"}]},{"lat":"37.883888835","long":"127.18413258","items":[{"name":"아린이네","tel":"","addr":"경기도 포천시 어룡동 312-2번지 뉴캐슬 103동 4층 402호","category":"의류 - 정장"}]},{"lat":"37.883415506","long":"127.19291823","items":[{"name":"아주전기","tel":"536-2255","addr":"경기도 포천시 어룡동 68-5번지","category":"소매업 - 전기"}]},{"lat":"37.879113923","long":"127.18410951","items":[{"name":"어룡슈퍼","tel":"","addr":"경기도 포천시 어룡동 195-21번지","category":"유통업 영리 - 슈퍼마켓"}]},{"lat":"37.886056272","long":"127.19227707","items":[{"name":"영광생선구이","tel":"031-532-0033","addr":"경기도 포천시 어룡동 410번지","category":"일반휴게음식 - 일반한식"},{"name":"이레해장국","tel":"031-532-3966","addr":"경기도 포천시 어룡동 410번지","category":"일반휴게음식 - 일반한식"},{"name":"이레해장국","tel":"532-3966","addr":"경기도 포천시 어룡동 410번지","category":"음식 - 한식"},{"name":"자다가도곱창","tel":"031-532-3968","addr":"경기도 포천시 어룡동 410번지 1층","category":"일반휴게음식 - 일반한식"},{"name":"홍두깨","tel":"535-7973","addr":"경기도 포천시 어룡동 410번지","category":"음식 - 한식"}]},{"lat":"37.885499428","long":"127.19119573","items":[{"name":"오병이어분식","tel":"","addr":"경기도 포천시 어룡동 397번지","category":"음료식품 - 기타음료식품"},{"name":"이디야 커피(포천 개성인삼 농협점)","tel":"536-2077","addr":"경기도 포천시 어룡동 397번지 가동 1층","category":"음식 - 커피 등"},{"name":"이디야 포천개성인삼농협점","tel":"031-536-2077","addr":"경기도 포천시 어룡동 397번지 가동 1층","category":"일반휴게음식 - 서양음식"},{"name":"포천지역자활센터","tel":"031-531-1327","addr":"경기도 포천시 어룡동 397번지 개성인삼농협 3층","category":"신변잡화 - 가방"},{"name":"포천지역자활센터","tel":"031-531-1327","addr":"경기도 포천시 어룡동 397번지 개성인삼농협 3층","category":"신변잡화 - 가방"},{"name":"포천지역자활센터","tel":"031-531-1327","addr":"경기도 포천시 어룡동 397번지 3층","category":"신변잡화 - 가방"}]},{"lat":"37.880110948","long":"127.18605565","items":[{"name":"온달칼국수만두","tel":"531-1587","addr":"경기도 포천시 어룡동 285번지","category":"음식 - 한식"},{"name":"온달칼국수만두","tel":"031-531-1587","addr":"경기도 포천시 어룡동 285번지","category":"일반휴게음식 - 일반한식"},{"name":"온달칼국수만두","tel":"531-1571","addr":"경기도 포천시 어룡동 285번지","category":"음식 - 한식"},{"name":"타이어프로(포천점)","tel":"536-8494","addr":"경기도 포천시 어룡동 285","category":"도소매 - 타이어등"},{"name":"타이어프로포천점","tel":"031-536-8494","addr":"경기도 포천시 어룡동 285번지","category":"자동차정비 유지 - 자동차시트·타이어"}]},{"lat":"37.88064042","long":"127.18738687","items":[{"name":"왕방지물","tel":"031-535-5122","addr":"경기도 포천시 어룡동 295-5번지","category":"직물 - 카페트,커튼,천막,지물"},{"name":"유명광고기획","tel":"031-535-8055","addr":"경기도 포천시 어룡동 295-5번지","category":"용역 서비스 - 종합용역"},{"name":"포천OA사무기","tel":"031-531-7571","addr":"경기도 포천시 어룡동 295-5번지","category":"사무통신 - 사무용 OA기기"}]},{"lat":"37.877501468","long":"127.18396917","items":[{"name":"원조강황추어탕","tel":"031-542-2698","addr":"경기도 포천시 어룡동 190-15번지 1층","category":"일반휴게음식 - 일반한식"},{"name":"원조강황추어탕","tel":"542-2698","addr":"경기도 포천시 어룡동 190-15번지","category":"음식 - 한식"}]},{"lat":"37.881829345","long":"127.18758307","items":[{"name":"원조포천이동갈비","tel":"031-535-6185","addr":"경기도 포천시 어룡동 301-4번지","category":"일반휴게음식 - 일반한식"},{"name":"하누돈","tel":"535-6185","addr":"경기도 포천시 어룡동 301-4","category":"음식 - 한식"},{"name":"하누돈","tel":"031-535-6185","addr":"경기도 포천시 어룡동 301-4번지","category":"일반휴게음식 - 일반한식"}]},{"lat":"37.882720411","long":"127.19376898","items":[{"name":"위너스(포천롯데)아이스크림","tel":"031-541-9596","addr":"경기도 포천시 어룡동 39-3번지","category":"음료식품 - 제과점"}]},{"lat":"37.87788836","long":"127.18429974","items":[{"name":"이가 인테리어","tel":"031-533-2927","addr":"경기도 포천시 어룡동 188-3번지","category":"건축자재 - 인테리어전문"},{"name":"호병자동차공업사","tel":"031-535-3939","addr":"경기도 포천시 어룡동 188-3번지","category":"자동차정비 유지 - 자동차정비"}]},{"lat":"37.878663073","long":"127.18435847","items":[{"name":"주식회사지엔엘코리아","tel":"031-543-1853","addr":"경기도 포천시 어룡동 190-14번지","category":"주방용구 - 주방용구"}]},{"lat":"37.885747085","long":"127.17661184","items":[{"name":"지윤이","tel":"","addr":"경기도 포천시 어룡동 676-2번지","category":"의류 - 내의판매"}]},{"lat":"37.883598887","long":"127.18520038","items":[{"name":"카페머신엔지니어","tel":"","addr":"경기도 포천시 어룡동 258-1번지 세보전원빌라트 나동 103호","category":"수리서비스 - 기타수리서비스"}]},{"lat":"37.874302586","long":"127.18433641","items":[{"name":"카페테이크(CAFE TAKE)","tel":"031-533-5758","addr":"경기도 포천시 어룡동 145-1번지","category":"일반휴게음식 - 서양음식"},{"name":"카페테이크(CAFE TAKE)","tel":"533-5758","addr":"경기도 포천시 어룡동 145-1번지","category":"음식 - 커피 등"}]},{"lat":"37.882198119","long":"127.18797047","items":[{"name":"캐리어포천센타","tel":"031-535-0665","addr":"경기도 포천시 어룡동 301-1번지","category":"전기제품 - 냉열기기"},{"name":"한국자동차공업사","tel":"031-536-2914","addr":"경기도 포천시 어룡동 301-1번지","category":"자동차정비 유지 - 자동차정비"}]},{"lat":"37.883138939","long":"127.19122382","items":[{"name":"팔구수산","tel":"536-8989","addr":"경기도 포천시 어룡동 73-3번지","category":"음식 - 한식"}]},{"lat":"37.883138503","long":"127.19149663","items":[{"name":"팔구수산","tel":"031-536-8989","addr":"경기도 포천시 어룡동 72-6","category":"음료식품 - 농·축·수산품"}]},{"lat":"37.884775655","long":"127.18157709","items":[{"name":"포천가스","tel":"031-532-0030","addr":"경기도 포천시 어룡동 614번지","category":"연료판매점 - LPG 취급점"}]},{"lat":"37.880001152","long":"127.18713521","items":[{"name":"포천원예종묘","tel":"031-536-0495","addr":"경기도 포천시 어룡동 289-1","category":"문화.취미 - 화원"}]},{"lat":"37.876807926","long":"127.18385381","items":[{"name":"포천조명","tel":"031-535-2988","addr":"경기도 포천시 어룡동 190-18번지","category":"건축자재 - 조명기구"}]},{"lat":"37.878634147","long":"127.18558597","items":[{"name":"포천종합목재","tel":"031-531-6967","addr":"경기도 포천시 어룡동 176-3번지","category":"건축자재 - 목재·석재·철물"}]},{"lat":"37.874472393","long":"127.18522335","items":[{"name":"포천파크","tel":"031-536-1011","addr":"경기도 포천시 어룡동 151-2번지","category":"숙박업 - 여관/기타숙박업"}]},{"lat":"37.881305984","long":"127.18810464","items":[{"name":"포천현대카독크","tel":"031-536-1756","addr":"경기도 포천시 어룡동 85-2번지","category":"자동차정비 유지 - 자동차정비"}]},{"lat":"37.877114242","long":"127.18385456","items":[{"name":"하나광고기획","tel":"534-8975","addr":"경기도 포천시 어룡동 190-3번지","category":"제조업 - 간판및 광고물"}]},{"lat":"37.88350147","long":"127.1841089","items":[{"name":"햇님어린이집[아이행복]","tel":"031-531-0958","addr":"경기도 포천시 어룡동 257-1번지 햇님어린이집","category":"학원 - 유아원"}]},{"lat":"37.886530694","long":"127.1885497","items":[{"name":"홍두깨국시집","tel":"031-535-7973","addr":"경기도 포천시 어룡동 372-1번지","category":"일반휴게음식 - 일반한식"}]}]