[{"lat":"37.371525659","long":"126.95206798","items":[{"name":"경안상사","tel":"031-479-5031","addr":"경기도 안양시 동안구 엘에스로","category":"기타 - 기계공구"},{"name":"곰테크","tel":"031-479-1850","addr":"경기도 안양시 동안구 엘에스로","category":"유통업 영리 - 기타유통업"},{"name":"동안전산","tel":"031-456-9706","addr":"경기도 안양시 동안구 엘에스로","category":"사무통신 - 컴퓨터"},{"name":"미래산전","tel":"031-479-7985","addr":"경기도 안양시 동안구 엘에스로","category":"전기제품 - 기타전기제품"},{"name":"미래엠알오","tel":"031-464-4911","addr":"경기도 안양시 동안구 엘에스로","category":"기타 - 기계공구"},{"name":"부경테크툴","tel":"031-8033-8855","addr":"경기도 안양시 동안구 엘에스로","category":"기타 - 기계공구"},{"name":"선인기전","tel":"031-479-1683","addr":"경기도 안양시 동안구 엘에스로","category":"전기제품 - 기타전기제품"},{"name":"수리측기","tel":"031-479-3133","addr":"경기도 안양시 동안구 엘에스로","category":"서적문구 - 과학기자재"},{"name":"써보넷","tel":"031-479-2591","addr":"경기도 안양시 동안구 엘에스로","category":"기타 - 기계공구"},{"name":"알앤디솔루션","tel":"070-8600-8848","addr":"경기도 안양시 동안구 엘에스로","category":"전기제품 - 기타전기제품"},{"name":"엘앤씨코리아(L&C KOREA)","tel":"031-479-1994","addr":"경기도 안양시 동안구 엘에스로","category":"건축자재 - 기타건축자재"},{"name":"영화종합상사","tel":"031-479-1241","addr":"경기도 안양시 동안구 엘에스로","category":"기타 - 기계공구"},{"name":"온누리프라스틱","tel":"031-479-0773","addr":"경기도 안양시 동안구 엘에스로","category":"직물 - 기타직물"},{"name":"우영상사","tel":"031-479-6858","addr":"경기도 안양시 동안구 엘에스로","category":"신변잡화 - 기타잡화"},{"name":"웰커피","tel":"031-479-4833","addr":"경기도 안양시 동안구 엘에스로","category":"일반휴게음식 - 서양음식"},{"name":"제이아이티에스주식회사","tel":"02-6247-6247","addr":"경기도 안양시 동안구 엘에스로","category":"회원제형태 - 기타3"},{"name":"콩나물","tel":"070-7434-5544","addr":"경기도 안양시 동안구 엘에스로","category":"가구 - 기타가구"},{"name":"태영인더스트리","tel":"070-8236-5071","addr":"경기도 안양시 동안구 엘에스로","category":"건축자재 - 기타건축자재"},{"name":"티엠세이프티","tel":"031-442-9382","addr":"경기도 안양시 동안구 엘에스로","category":"기타 - 기계공구"},{"name":"프로싸인 앤 스포츠","tel":"031-456-1944","addr":"경기도 안양시 동안구 엘에스로","category":"레져용품 - 스포츠·레져용품"},{"name":"현대에너지","tel":"031-1688-7560","addr":"경기도 안양시 동안구 엘에스로","category":"건축자재 - 보일러·펌프·샷시"},{"name":"효성산전 주식회사","tel":"031-479-5491","addr":"경기도 안양시 동안구 엘에스로","category":"기타 - 기계공구"}]},{"lat":"37.367310487","long":"126.95586388","items":[{"name":"곰배령메밀막국수","tel":"031-429-5923","addr":"경기도 안양시 동안구 엘에스로","category":"일반휴게음식 - 일반한식"}]},{"lat":"37.366725083","long":"126.9565077","items":[{"name":"그린파크","tel":"031-452-2560","addr":"경기도 안양시 동안구 엘에스로","category":"숙박업 - 여관/기타숙박업"}]},{"lat":"37.368138928","long":"126.95464415","items":[{"name":"비어캐빈군포구사거리점","tel":"031-477-8301","addr":"경기도 안양시 동안구 엘에스로","category":"일반휴게음식 - 일반한식"},{"name":"하트모텔","tel":"031-456-4678","addr":"경기도 안양시 동안구 엘에스로","category":"숙박업 - 여관/기타숙박업"}]},{"lat":"37.367670685","long":"126.95534436","items":[{"name":"서해동태아구탕","tel":"031-429-5392","addr":"경기도 안양시 동안구 엘에스로","category":"일반휴게음식 - 일반한식"}]},{"lat":"37.370470684","long":"126.9502624","items":[{"name":"용선식당","tel":"031-455-2693","addr":"경기도 안양시 동안구 엘에스로","category":"일반휴게음식 - 일반한식"}]},{"lat":"37.370048411","long":"126.95303985","items":[{"name":"재성엔지니어링","tel":"031-479-1458","addr":"경기도 안양시 동안구 엘에스로","category":"전기제품 - 기타전기제품"},{"name":"재성엔지니어링/원격지","tel":"031-479-1458","addr":"경기도 안양시 동안구 엘에스로","category":"기타 - 기타 전문점"},{"name":"제일전기","tel":"031-479-6860","addr":"경기도 안양시 동안구 엘에스로","category":"전기제품 - 기타전기제품"}]},{"lat":"37.370281726","long":"126.95083829","items":[{"name":"좋은컴퓨터","tel":"031-479-6589","addr":"경기도 안양시 동안구 엘에스로","category":"사무통신 - 컴퓨터"}]},{"lat":"37.368111648","long":"126.95403456","items":[{"name":"하루커피호프","tel":"031-429-9336","addr":"경기도 안양시 동안구 엘에스로","category":"일반휴게음식 - 일반한식"}]},{"lat":"37.370497835","long":"126.95053332","items":[{"name":"호계석치과의원","tel":"031-454-7575","addr":"경기도 안양시 동안구 엘에스로","category":"의원 - 치과의원"}]}]