[{"lat":"36.963329676","long":"127.06425937","items":[{"name":"(주)싸파에프앤씨 평택점","tel":"031-000-0000","addr":"경기도 평택시 팽성읍 남산리 99-1번지","category":"레져용품 - 스포츠·레져용품"},{"name":"미니스톱 평택싸파점","tel":"031-1577-9621","addr":"경기도 평택시 팽성읍 남산리 99-1번지","category":"유통업 영리 - 편 의 점"}]},{"lat":"36.945835882","long":"127.05340066","items":[{"name":"GS25팽성남산점","tel":"","addr":"경기도 평택시 팽성읍 남산리 317-69번지 1층 106, 107호","category":"유통업 영리 - 편 의 점"},{"name":"뉴골드공인중개사","tel":"031-691-2835","addr":"경기도 평택시 팽성읍 남산리 317-69번지 105호","category":"서비스업 - 부동산"},{"name":"타임레스","tel":"070-2964-7172","addr":"경기도 평택시 팽성읍 남산리 317-69번지 1층 101-102호","category":"일반휴게음식 - 서양음식"}]},{"lat":"36.962383721","long":"127.06392175","items":[{"name":"GS25팽성청담점","tel":"","addr":"경기도 평택시 팽성읍 남산리 98-8번지 1층","category":"유통업 영리 - 편 의 점"},{"name":"GS편의점","tel":"031-691-8700","addr":"경기도 평택시 팽성읍 남산리 98-8번지","category":"소매업 - 편의점"}]},{"lat":"36.9635003","long":"127.06537117","items":[{"name":"K팝스타 코인노래연습장","tel":"","addr":"경기도 평택시 팽성읍 남산리 98-70번지 301호","category":"레저업소 - 노 래 방"},{"name":"씨유팽성남산길점","tel":"070-5033-4317","addr":"경기도 평택시 팽성읍 남산리 98-70번지 103호","category":"유통업 영리 - 편 의 점"},{"name":"오케이당구클럽","tel":"031-618-2006","addr":"경기도 평택시 팽성읍 남산리 98-70번지 3층","category":"레저업소 - 당 구 장"},{"name":"커피베이 평택팽성점","tel":"031-692-7667","addr":"경기도 평택시 팽성읍 남산리 98-70","category":"일반휴게음식 - 서양음식"}]},{"lat":"36.962942341","long":"127.06401202","items":[{"name":"고벽돌","tel":"031-656-8592","addr":"경기도 평택시 팽성읍 남산리 98-41번지 2층","category":"일반휴게음식 - 일반한식"},{"name":"세계맥주1973","tel":"031-656-8592","addr":"경기도 평택시 팽성읍 남산리 98-41번지 2층","category":"일반휴게음식 - 주점"}]},{"lat":"36.955447355","long":"127.06006508","items":[{"name":"광신유리","tel":"031-651-2556","addr":"경기도 평택시 팽성읍 남산리 223-7번지 외2필지","category":"건축자재 - 유리"},{"name":"에몬스가구,명품갤러리","tel":"031-691-0025","addr":"경기도 평택시 팽성읍 남산리 223-7번지","category":"가구 - 일반가구"},{"name":"장인가구","tel":"031-691-2011","addr":"경기도 평택시 팽성읍 남산리 223-7번지","category":"가구 - 일반가구"}]},{"lat":"36.96063951","long":"127.07320636","items":[{"name":"국수시장","tel":"","addr":"경기도 평택시 팽성읍 남산리 55-2번지 1층","category":"일반휴게음식 - 일반한식"},{"name":"노와식당","tel":"031-653-6046","addr":"경기도 평택시 팽성읍 남산리 55-2번지","category":"일반휴게음식 - 일반한식"},{"name":"드림오피스 팽성점","tel":"031-653-3094","addr":"경기도 평택시 팽성읍 남산리 55-2번지","category":"서적문구 - 문구용품"},{"name":"뜰안채정식","tel":"031-662-3656","addr":"경기도 평택시 팽성읍 남산리 55-2번지 2층","category":"일반휴게음식 - 일반한식"},{"name":"커피에반하다(평택추팔산업단지점)","tel":"031-618-4657","addr":"경기도 평택시 팽성읍 남산리 55-2번지 1동 1층","category":"일반휴게음식 - 서양음식"}]},{"lat":"36.958863042","long":"127.05878761","items":[{"name":"굽네치킨팽성점","tel":"031-656-8294","addr":"경기도 평택시 팽성읍 남산리 138-10번지 A동 1층","category":"일반휴게음식 - 스넥"},{"name":"노걸대위드유&배터지는생돈까스","tel":"031-654-2651","addr":"경기도 평택시 팽성읍 남산리 138-10번지","category":"일반휴게음식 - 일반한식"},{"name":"현일툴스","tel":"031-647-4409","addr":"경기도 평택시 팽성읍 남산리 138-10번지","category":"기타 - 기계공구"}]},{"lat":"36.944691503","long":"127.05342236","items":[{"name":"남산식당","tel":"031-691-9797","addr":"경기도 평택시 팽성읍 남산리 317-37번지","category":"일반휴게음식 - 일반한식"}]},{"lat":"36.963835046","long":"127.06275509","items":[{"name":"남자를 위하여 미용실","tel":"031-656-2368","addr":"경기도 평택시 팽성읍 남산리 104-9","category":"보건위생 - 미용원"}]},{"lat":"36.958943627","long":"127.05986559","items":[{"name":"내고향면옥","tel":"031-691-2050","addr":"경기도 평택시 팽성읍 남산리 138-2번지 1층","category":"일반휴게음식 - 일반한식"},{"name":"내고향면옥","tel":"031-691-0826","addr":"경기도 평택시 팽성읍 남산리 138-2번지","category":"음식점 - 한식"},{"name":"한빛유통","tel":"02-1618-0112","addr":"경기도 평택시 팽성읍 남산리 138-2번지","category":"음료식품 - 농·축·수산품"}]},{"lat":"36.962617051","long":"127.065741","items":[{"name":"닥터PC","tel":"070-4327-1609","addr":"경기도 평택시 팽성읍 남산리 산76-9번지 진양주택 1동 103호","category":"수리서비스 - 사무·통신기기수리"}]},{"lat":"36.963194958","long":"127.06339463","items":[{"name":"도미노피자팽성점","tel":"031-8094-4684","addr":"경기도 평택시 팽성읍 남산리 103-4번지 1층","category":"일반휴게음식 - 서양음식"},{"name":"워시엔조이 팽성점","tel":"031-000-0000","addr":"경기도 평택시 팽성읍 남산리 103-4번지 1층","category":"수리서비스 - 세탁소"}]},{"lat":"36.963717861","long":"127.06284483","items":[{"name":"드림디포","tel":"031-691-0606","addr":"경기도 평택시 팽성읍 남산리 104-4번지","category":"소매업 - 문구"},{"name":"드림디포팽성점","tel":"031-654-2110","addr":"경기도 평택시 팽성읍 남산리 104-4번지 103,104호","category":"서적문구 - 문구용품"},{"name":"뜰쌈밥","tel":"031-654-7818","addr":"경기도 평택시 팽성읍 남산리 104-4번지","category":"음식점 - 한식"}]},{"lat":"36.960249416","long":"127.06144978","items":[{"name":"디테일링하우스","tel":"","addr":"경기도 평택시 팽성읍 남산리 149-10번지 1층 1호","category":"자동차정비 유지 - 세차장"},{"name":"우미관","tel":"031-692-3222","addr":"경기도 평택시 팽성읍 남산리 149-10번지 1층","category":"일반휴게음식 - 중국식"},{"name":"타고짐","tel":"031-658-7350","addr":"경기도 평택시 팽성읍 남산리 149-10번지 2층","category":"레저업소 - 헬스클럽"}]},{"lat":"36.962500617","long":"127.06439345","items":[{"name":"뜰아래","tel":"031-691-7467","addr":"경기도 평택시 팽성읍 남산리 98-14번지 1층","category":"일반휴게음식 - 일반한식"},{"name":"뜰아래","tel":"","addr":"경기도 평택시 팽성읍 남산리 98-14번지 여뜰타운 1층","category":"음식점 - 한식"}]},{"lat":"36.944358408","long":"127.05270367","items":[{"name":"림스치킨","tel":"031-657-7597","addr":"경기도 평택시 팽성읍 남산리 317-62번지 101호","category":"일반휴게음식 - 스넥"},{"name":"해피빈(행복한카페)","tel":"070-7715-3938","addr":"경기도 평택시 팽성읍 남산리 317-62번지","category":"일반휴게음식 - 서양음식"}]},{"lat":"36.959691008","long":"127.06092161","items":[{"name":"마이소잉노트(My sewing note)","tel":"031-111-2222","addr":"경기도 평택시 팽성읍 남산리 141번지","category":"문화.취미 - 문화취미기타"},{"name":"장모님 육개장.보쌈","tel":"031-658-9959","addr":"경기도 평택시 팽성읍 남산리 141번지 1층","category":"일반휴게음식 - 일반한식"}]},{"lat":"36.961888428","long":"127.06333746","items":[{"name":"메이드프롬","tel":"070-4108-2532","addr":"경기도 평택시 팽성읍 남산리 95-26번지 1층","category":"일반휴게음식 - 일반한식"}]},{"lat":"36.963330205","long":"127.06322631","items":[{"name":"명품오리","tel":"031-657-5250","addr":"경기도 평택시 팽성읍 남산리 104-12번지","category":"일반휴게음식 - 일반한식"},{"name":"초코나무","tel":"031-655-7660","addr":"경기도 평택시 팽성읍 남산리 104-12번지 1층","category":"문화.취미 - 문화취미기타"},{"name":"힐링타임클래식","tel":"031-658-9227","addr":"경기도 평택시 팽성읍 남산리 104-12번지 2층","category":"보건위생 - 피부미용실"}]},{"lat":"36.959105254","long":"127.06103345","items":[{"name":"무동력 터보","tel":"070-7725-0406","addr":"경기도 평택시 팽성읍 남산리 138-6번지 조이파크빌 501호","category":"자동차정비 유지 - 자동차부품"}]},{"lat":"36.961445949","long":"127.06517861","items":[{"name":"미니","tel":"","addr":"경기도 평택시 팽성읍 남산리 88-10번지 1층 101호","category":"음료식품 - 기타음료식품"}]},{"lat":"36.962635877","long":"127.06420267","items":[{"name":"뽀빠이바베큐","tel":"031-653-9291","addr":"경기도 평택시 팽성읍 남산리 98-3번지","category":"일반휴게음식 - 일반한식"}]},{"lat":"36.951057011","long":"127.07975419","items":[{"name":"삼거리식당","tel":"031-692-0600","addr":"경기도 평택시 팽성읍 남산리 3-9번지","category":"음식점 - 한식"},{"name":"삼거리식당","tel":"031-657-8455","addr":"경기도 평택시 팽성읍 남산리 3-9번지 1층","category":"일반휴게음식 - 일반한식"}]},{"lat":"36.956141909","long":"127.05853861","items":[{"name":"숲속갈비","tel":"031-651-6151","addr":"경기도 평택시 팽성읍 남산리 406-3번지","category":"일반휴게음식 - 일반한식"}]},{"lat":"36.95997027","long":"127.0610678","items":[{"name":"스타에어로빅","tel":"031-651-8211","addr":"경기도 평택시 팽성읍 남산리 143번지 2층","category":"레저업소 - 헬스클럽"},{"name":"호식이두마리치킨팽성점","tel":"0311-652-4555","addr":"경기도 평택시 팽성읍 남산리 143번지","category":"일반휴게음식 - 스넥"},{"name":"황포횟집","tel":"031-658-4970","addr":"경기도 평택시 팽성읍 남산리 143번지","category":"일반휴게음식 - 일반한식"}]},{"lat":"36.957772293","long":"127.05972998","items":[{"name":"시립팽성남산어린이집[아이행복]","tel":"031-692-3477","addr":"경기도 평택시 팽성읍 남산리 406-21번지 외5필지","category":"학원 - 유아원"},{"name":"팽성노인복지관위드카페","tel":"031-650-2626","addr":"경기도 평택시 팽성읍 남산리 406-21번지 1층","category":"일반휴게음식 - 서양음식"},{"name":"평택남부영어교육센터","tel":"031-668-0509","addr":"경기도 평택시 팽성읍 남산리 406-21번지","category":"회원제형태 - 학원"}]},{"lat":"36.944916806","long":"127.05334393","items":[{"name":"신가김치찌개","tel":"031-657-3392","addr":"경기도 평택시 팽성읍 남산리 317-32번지","category":"일반휴게음식 - 일반한식"}]},{"lat":"36.944890011","long":"127.0527826","items":[{"name":"씨유팽성남산로점","tel":"031-653-0292","addr":"경기도 평택시 팽성읍 남산리 317-26번지","category":"유통업 영리 - 편 의 점"}]},{"lat":"36.962689883","long":"127.064315","items":[{"name":"엄니시골추어탕(팽성점)","tel":"031-691-4707","addr":"경기도 평택시 팽성읍 남산리 98-25번지","category":"일반휴게음식 - 일반한식"}]},{"lat":"36.951661653","long":"127.07831772","items":[{"name":"에바다장애인종합복지관","tel":"031-692-2362","addr":"경기도 평택시 팽성읍 남산리 3-6번지","category":"보건위생 - 기타대인서비스"}]},{"lat":"36.964751518","long":"127.06775277","items":[{"name":"에이원","tel":"031-657-4513","addr":"경기도 평택시 팽성읍 남산리 80-96번지 1층","category":"자동차정비 유지 - 자동차부품"}]},{"lat":"36.963248948","long":"127.06354065","items":[{"name":"오정희미용실 팽성점","tel":"031-692-3126","addr":"경기도 평택시 팽성읍 남산리 103-1번지 1층","category":"서비스업 - 이미용"},{"name":"오정희미용실팽성점","tel":"031-655-7876","addr":"경기도 평택시 팽성읍 남산리 103-1번지 2층","category":"보건위생 - 미용원"}]},{"lat":"36.963411342","long":"127.06314777","items":[{"name":"온니원(Only one)","tel":"","addr":"경기도 평택시 팽성읍 남산리 104-11번지","category":"보건위생 - 미용원"}]},{"lat":"36.958925182","long":"127.06074138","items":[{"name":"우리협동조합","tel":"031-656-8980","addr":"경기도 평택시 팽성읍 남산리 138-17번지 조이파크빌 103동 402호","category":"음료식품 - 기타음료식품"}]},{"lat":"36.963275238","long":"127.06497798","items":[{"name":"주식회사 오투여행만들기","tel":"031-658-6700","addr":"경기도 평택시 팽성읍 남산리 98-77번지","category":"여행 - 관광여행"},{"name":"코다리냉면박박사","tel":"031-658-6780","addr":"경기도 평택시 팽성읍 남산리 98-77번지 1층 왼쪽","category":"일반휴게음식 - 일반한식"},{"name":"한빛법무사합동","tel":"031-691-0921","addr":"경기도 평택시 팽성읍 남산리 98-77번지 2층","category":"용역 서비스 - 법률회계서비스(개인)"}]},{"lat":"36.954472615","long":"127.063253","items":[{"name":"청호냉동공조","tel":"031-654-5560","addr":"경기도 평택시 팽성읍 남산리 561-2번지 지하","category":"수리서비스 - 가정용품수리"}]},{"lat":"36.950467624","long":"127.05292096","items":[{"name":"캐슬부페","tel":"02-655-3061","addr":"경기도 평택시 팽성읍 남산리 282-2번지","category":"일반휴게음식 - 일반한식"}]},{"lat":"36.954834758","long":"127.05978393","items":[{"name":"팽성제일주유소","tel":"031-654-0051","addr":"경기도 평택시 팽성읍 남산리 466번지","category":"소매업 - 주유소"}]},{"lat":"36.962779239","long":"127.06575236","items":[{"name":"평택출장세차 킹카워시 평택 팽성점","tel":"","addr":"경기도 평택시 팽성읍 남산리 산76-9번지 진양주택 2동 305호","category":"자동차정비 유지 - 세차장"}]},{"lat":"36.963167482","long":"127.06425924","items":[{"name":"한국전자담배천안화성지사","tel":"031-657-0209","addr":"경기도 평택시 팽성읍 남산리 98-68번지 1층","category":"기타 - 기타 전문점"}]},{"lat":"36.963112637","long":"127.06575264","items":[{"name":"한양유통","tel":"041-533-0137","addr":"경기도 평택시 팽성읍 남산리 76-9 진양주택4-306호","category":"음료식품 - 기타음료식품"}]},{"lat":"36.944637709","long":"127.05278243","items":[{"name":"해피빈(행복한 카페)","tel":"031-691-1981","addr":"경기도 평택시 팽성읍 남산리 317-46번지","category":"음식점 - 카페"}]},{"lat":"36.959946224","long":"127.07228499","items":[{"name":"현대디자인휀스","tel":"031-691-5880","addr":"경기도 평택시 팽성읍 남산리 42-1번지","category":"건축자재 - 기타건축자재"}]},{"lat":"36.953108583","long":"127.06961788","items":[{"name":"현성전력주식회사","tel":"031-499-1324","addr":"경기도 평택시 팽성읍 남산리 11-26","category":"용역 서비스 - 기타용역서비스"}]},{"lat":"36.963194757","long":"127.06378765","items":[{"name":"형제가설상사","tel":"031-691-6861","addr":"경기도 평택시 팽성읍 남산리 101","category":"건축자재 - 기타건축자재"}]}]