[{"lat":"37.381418688","long":"126.80049143","items":[{"name":"20000헤어아트","tel":"031-317-5456","addr":"경기도 시흥시 장현동 535-5번지 1층","category":"개인서비스업 - 미용실"}]},{"lat":"37.380301209","long":"126.80035894","items":[{"name":"74떡뽀끼","tel":"031-311-8815","addr":"경기도 시흥시 장현동 541-4번지 장현1 엔플러스빌 106호.107호","category":"음식점업 - 분식"},{"name":"뉴욕버거 시흥시청점","tel":"031-316-1393","addr":"경기도 시흥시 장현동 541-4번지 1층 117, 118호","category":"음식점업 - 햄버거"},{"name":"당근모바일","tel":"031-481-9010","addr":"경기도 시흥시 장현동 541-4번지 장현1 엔플러스빌 130호 당근모바일","category":"소매업 - 휴대폰,휴대폰악세사리"},{"name":"맥코윈숯불바베큐","tel":"031-317-8557","addr":"경기도 시흥시 장현동 541-4번지 장현1엔플러스빌 104호","category":"음식점업 - 치킨, 호프"},{"name":"손에핀꽃","tel":"031-435-3733","addr":"경기도 시흥시 장현동 541-4번지 장현1 엔플러스빌 1층 122호","category":"개인서비스업 - 네일아트"},{"name":"아르떼헤어샵","tel":"070-7561-6323","addr":"경기도 시흥시 장현동 541-4번지 장현1 엔플러스빌 지층 108호","category":"개인서비스업 - 미용업"},{"name":"예쁜걸","tel":"031-404-4914","addr":"경기도 시흥시 장현동 541-4번지 장현1엔플러스빌 1동 132호","category":"개인서비스업 - 미용업"},{"name":"우가뚝배기","tel":"031-317-3384","addr":"경기도 시흥시 장현동 541-4번지 유호엔플러스빌 1동","category":"음식점업 - 음식"},{"name":"유호세탁소","tel":"031-318-7010","addr":"경기도 시흥시 장현동 541-4번지 장현1 엔플러스빌","category":"개인서비스업 - 세탁"},{"name":"이든네이처 시흥장현지사","tel":"031-311-2006","addr":"경기도 시흥시 장현동 541-4번지 장현1 엔플러스빌 1층 123호","category":"소매업 - 화장품"},{"name":"이디야 시흥시청점","tel":"031-315-7776","addr":"경기도 시흥시 장현동 541-4번지 1동 1층 115,116호","category":"음식점업 - 커피"},{"name":"줄리엣홈","tel":"","addr":"경기도 시흥시 장현동 541-4번지 장현1 엔플러스빌","category":"소매업 - 의류"},{"name":"코디(Codi)","tel":"031-312-1190","addr":"경기도 시흥시 장현동 541-4번지 장현1엔플러스빌 124호","category":"소매업 - 의류잡화"}]},{"lat":"37.381521642","long":"126.80274934","items":[{"name":"Nu벨라움","tel":"","addr":"경기도 시흥시 장현동 548-7번지 101호","category":"개인서비스업 - 피부미용업"},{"name":"카페 베르","tel":"031-315-4006","addr":"경기도 시흥시 장현동 548-7번지 102호","category":"음식점업 - 퓨전음식"}]},{"lat":"37.382330034","long":"126.80126806","items":[{"name":"㈜경인기획","tel":"031-317-0323","addr":"경기도 시흥시 장현동 531-2번지","category":"제조업 - 인쇄, 광고대행"}]},{"lat":"37.381998218","long":"126.80218352","items":[{"name":"㈜다원복지","tel":"031-318-9696","addr":"경기도 시흥시 장현동 548-3번지 이지라이프 206호","category":"소매업 - 사회서비스,생활용품"},{"name":"노랑황태","tel":"031-413-4050","addr":"경기도 시흥시 장현동 548-3번지 이즈라이프","category":"음식점업 - 한식"},{"name":"늘품","tel":"","addr":"경기도 시흥시 장현동 548-3번지 이즈라이프 104,105호","category":"음식점업 - 음식"},{"name":"더낭(THE NANG)","tel":"031-520-2052","addr":"경기도 시흥시 장현동 548-3번지 이즈라이프상가 107호","category":"소매업 - 공예품"},{"name":"동영사무기","tel":"","addr":"경기도 시흥시 장현동 548-3번지 이즈라이프 2층 204호중2","category":"소매업 - 컴퓨터및주변기기"},{"name":"루비펫살롱(시흥점)","tel":"","addr":"경기도 시흥시 장현동 548-3번지 이즈라이프","category":"개인서비스업 - 애견용품,애견미용,애"},{"name":"베베산모도우미","tel":"031-494-7230","addr":"경기도 시흥시 장현동 548-3번지 이즈라이프 203호","category":"보건업 - 산모도우미"},{"name":"스테이크푸드트럭","tel":"","addr":"경기도 시흥시 장현동 548-3번지 이즈라이프 206호","category":"음식점업 - 휴게음식"},{"name":"아이미래로 시흥지사","tel":"031-499-7992","addr":"경기도 시흥시 장현동 548-3번지 이즈라이프 203호","category":"개인서비스업 - 산모도우미파견"},{"name":"장현가정식뷔페","tel":"","addr":"경기도 시흥시 장현동 548-3번지 이즈라이프 103호","category":"음식점업 - 한식"}]},{"lat":"37.381250191","long":"126.80207261","items":[{"name":"㈜연홍","tel":"","addr":"경기도 시흥시 장현동 547-6번지 해솔프라자","category":"소매업 - 침구"},{"name":"소풍caf?","tel":"031-318-0560","addr":"경기도 시흥시 장현동 547-6번지 해솔프라자 104호","category":"음식점업 - 샌드위치,음료"},{"name":"장수국수","tel":"031-314-7057","addr":"경기도 시흥시 장현동 547-6번지 해솔프라자 102호","category":"음식점업 - 기타음식"}]},{"lat":"37.381002327","long":"126.79938604","items":[{"name":"개구장이","tel":"","addr":"경기도 시흥시 장현동 538-2번지 101호","category":"소매업 - 문구,서적,팬시,컴퓨터용품"},{"name":"애니카랜드 연성점","tel":"031-317-7987","addr":"경기도 시흥시 장현동 538-2번지","category":"개인서비스업 - 자동차부분수리"}]},{"lat":"37.380885468","long":"126.79954443","items":[{"name":"경희대장현태권도","tel":"031-404-0667","addr":"경기도 시흥시 장현동 538-3번지 204호 경희대장현태권도","category":"교육서비스업 - 태권도"},{"name":"모닝글로리 장현점","tel":"031-435-1322","addr":"경기도 시흥시 장현동 538-3번지","category":"소매업 - 문구"},{"name":"몽땅달콤 장현점","tel":"","addr":"경기도 시흥시 장현동 538-3번지 106호","category":"소매업 - 아이스크림,과자,슬러시,군"},{"name":"세스토킹클래스시흥장현학원","tel":"031-505-9605","addr":"경기도 시흥시 장현동 538-3번지 새재타운 201호","category":"교육서비스업 - 보습학원"},{"name":"신통치킨 장현점","tel":"031-318-8555","addr":"경기도 시흥시 장현동 538-3번지 1층 101호","category":"음식점업 - 치킨"},{"name":"위드실음악학원","tel":"031-318-3137","addr":"경기도 시흥시 장현동 538-3번지 새재타운 205호","category":"교육서비스업 - 음악학원"},{"name":"크린토피아 장현점","tel":"031-435-1011","addr":"경기도 시흥시 장현동 538-3번지 새재타운 105호","category":"개인서비스업 - 세탁중개업"}]},{"lat":"37.382132621","long":"126.80174281","items":[{"name":"고기나라","tel":"031-318-8311","addr":"경기도 시흥시 장현동 530-3번지 1층","category":"소매업 - 육류"},{"name":"손금숙 피부사랑","tel":"031-316-3802","addr":"경기도 시흥시 장현동 530-3번지 삼하빌딩 4층 402호","category":"개인서비스업 - 피부미용업"},{"name":"이벤트종합상사","tel":"031-312-5000","addr":"경기도 시흥시 장현동 530-3번지 삼하빌딩 302호","category":"제조업 - 간판 및 광고물"},{"name":"점핑하이 ","tel":"","addr":"경기도 시흥시 장현동 530-3번지 삼하빌딩 5층 501호","category":"개인서비스업 - 운동"},{"name":"혜윰뷰티","tel":"","addr":"경기도 시흥시 장현동 530-3번지 1층 일부호","category":"개인서비스업 - 피부미용"}]},{"lat":"37.380914742","long":"126.80085409","items":[{"name":"고기와 면","tel":"031-318-6696","addr":"경기도 시흥시 장현동 545-5번지 봉빈빌딩 304호","category":"음식점업 - 한식"},{"name":"세망스크린골프","tel":"031-507-3345","addr":"경기도 시흥시 장현동 545-5번지","category":"개인서비스업 - 스크린골프"},{"name":"솔로몬초등전문학원","tel":"","addr":"경기도 시흥시 장현동 545-5번지 봉빈빌딩 5층 501호","category":"교육서비스업 - 학원"},{"name":"송탄부대찌개","tel":"031-318-5377","addr":"경기도 시흥시 장현동 545-5번지","category":"음식점업 - 한식"},{"name":"안심축산물전문점 시흥시청점","tel":"","addr":"경기도 시흥시 장현동 545-5번지","category":"소매업 - 식육"},{"name":"장미치과","tel":"031-318-6888","addr":"경기도 시흥시 장현동 545-5번지 봉빈빌딩 2층 302호","category":"보건업 - 치과의원"}]},{"lat":"37.380076903","long":"126.80091279","items":[{"name":"국수나무","tel":"031-509-8595","addr":"경기도 시흥시 장현동 542번지 장현2엔플러스빌 B동 103호","category":"음식점업 - 한식"},{"name":"누리그래픽","tel":"031-318-2456","addr":"경기도 시흥시 장현동 542번지 (장현2앤플러스빌지하1층108호)","category":"개인서비스업 - 복사업,판촉물"},{"name":"디아트헤어","tel":"","addr":"경기도 시흥시 장현동 542번지 장현2엔플러스빌 101호","category":"개인서비스업 - 미용업"},{"name":"요거프레소","tel":"","addr":"경기도 시흥시 장현동 542번지 N플러스빌 B동 102호","category":"음식점업 - 커피전문점"}]},{"lat":"37.381221701","long":"126.80121457","items":[{"name":"굿마트","tel":"031-404-3848","addr":"경기도 시흥시 장현동 545-2번지","category":"소매업 - 슈퍼"}]},{"lat":"37.380743975","long":"126.80110295","items":[{"name":"김가네낙지전문점","tel":"031-317-0688","addr":"경기도 시흥시 장현동 544-5번지","category":"음식점업 - 한식"},{"name":"시흥감자탕","tel":"031-318-5237","addr":"경기도 시흥시 장현동 544-5번지 장현빌딩 101호","category":"음식점업 - 한식"},{"name":"씽씽노래연습장","tel":"","addr":"경기도 시흥시 장현동 544-5번지","category":"스포츠및여가관련서비스업 - 노래연습장"},{"name":"존슨부대찌개 시흥시청점","tel":"031-404-2515","addr":"경기도 시흥시 장현동 544-5번지 장현빌딩 1층 103호","category":"음식점업 - 한식"},{"name":"한발두발놀이터협동조합","tel":"070-8803-1279","addr":"경기도 시흥시 장현동 544-5번지","category":"교육서비스업 - 놀이교육, 수업교구유"}]},{"lat":"37.379855429","long":"126.80313765","items":[{"name":"나는카페 시흥점","tel":"031-852-9203","addr":"경기도 시흥시 장현동 300번지","category":"음식점업 - 커피전문점"},{"name":"시흥꿈상회 시흥시청점","tel":"070-7797-4989","addr":"경기도 시흥시 장현동 300번지","category":"소매업 - 선물용품,민예품 소매업"},{"name":"시흥시청직장금고","tel":"031-310-2950","addr":"경기도 시흥시 장현동 300번지","category":"소매업 - 식잡,담배"}]},{"lat":"37.38169155","long":"126.80199239","items":[{"name":"다리미","tel":"031-318-7938","addr":"경기도 시흥시 장현동 546-1번지 드림펠리스","category":"소매업 - 귀금속, 시계"},{"name":"선도아구찜탕","tel":"031-404-1730","addr":"경기도 시흥시 장현동 546-1번지 드림펠리스 115호","category":"음식점업 - 한식"},{"name":"연성당구클럽","tel":"031-317-7715","addr":"경기도 시흥시 장현동 546-1번지 드림펠리스 201호","category":"개인서비스업 - 스포츠"},{"name":"초심 (시흥연성점)","tel":"031-435-7778","addr":"경기도 시흥시 장현동 546-1 드림팰리스 111호","category":"음식점업 - 한식"},{"name":"크리에이티브커피랩(creative coffeelab)","tel":"031-317-9379","addr":"경기도 시흥시 장현동 546-1번지 드림펠리스 1층 106호","category":"음식점업 - 카페"},{"name":"큰집가마솥순대국","tel":"","addr":"경기도 시흥시 장현동 546-1번지 드림펠리스 1층 113호","category":"음식점업 - 한식"}]},{"lat":"37.380940207","long":"126.79993946","items":[{"name":"대돈단결","tel":"031-317-4151","addr":"경기도 시흥시 장현동 537-6번지 101호","category":"음식점업 - 음식"}]},{"lat":"37.379668643","long":"126.79927673","items":[{"name":"대동청구부동산 공인중개사사무소","tel":"031-313-3318","addr":"경기도 시흥시 장현동 540번지 새재마을대동아파트 상가동 109호","category":"개인서비스업 - 부동산중개업"},{"name":"슬립인하노이","tel":"031-313-3002","addr":"경기도 시흥시 장현동 540번지 대동A 상가 102호","category":"음식점업 - 음식점"},{"name":"시흥우리치과의원","tel":"","addr":"경기도 시흥시 장현동 540번지 201호,202호,203호","category":"보건업 - 치과"},{"name":"이리오개","tel":"031-404-5125","addr":"경기도 시흥시 장현동 540번지","category":"소매업 - 애견용품"},{"name":"장현골프클럽","tel":"031-509-0307","addr":"경기도 시흥시 장현동 540번지 상가동 지하1층 101, 107호","category":"개인서비스업 - 스크린골프"}]},{"lat":"37.381327678","long":"126.799961","items":[{"name":"대운농장","tel":"031-435-0548","addr":"경기도 시흥시 장현동 536-8번지 1층","category":"소매업 - 계란"}]},{"lat":"37.382304234","long":"126.80199076","items":[{"name":"덕산종합상사","tel":"031-317-0036","addr":"경기도 시흥시 장현동 530-1번지 1층","category":"소매업 - 건설"}]},{"lat":"37.382386129","long":"126.80246477","items":[{"name":"도토리","tel":"031-435-2848","addr":"경기도 시흥시 장현동 527-6번지 대성빌딩 501호","category":"개인서비스업 - 스토리텔링, 인쇄"}]},{"lat":"37.381195286","long":"126.80157595","items":[{"name":"디자인스토리","tel":"031-506-3398","addr":"경기도 시흥시 장현동 544-1번지 101호","category":"제조업 - 안내판, 현수막"}]},{"lat":"37.381554784","long":"126.80104432","items":[{"name":"뜨는청국장시대","tel":"","addr":"경기도 시흥시 장현동 534-1번지 다성빌딩 2층","category":"음식점업 - 기타음식,청국장"},{"name":"장현족발","tel":"031-317-8989","addr":"경기도 시흥시 장현동 534-1번지","category":"음식점업 - 한식"},{"name":"황태마을","tel":"031-317-1610","addr":"경기도 시흥시 장현동 534-1번지","category":"음식점업 - 한식"}]},{"lat":"37.382413484","long":"126.80265664","items":[{"name":"롯데캐논 가이아텍","tel":"031-317-7484","addr":"경기도 시흥시 장현동 527-5번지 202호","category":"개인서비스업 - 프린터,팩스,스캐너"},{"name":"버니베이프","tel":"070-7723-0196","addr":"경기도 시흥시 장현동 527-5번지 2층 201호","category":"소매업 - 담배소매업"}]},{"lat":"37.381914492","long":"126.80063688","items":[{"name":"마주생태탕","tel":"031-317-1500","addr":"경기도 시흥시 장현동 533-2번지 일호주택 1층","category":"음식점업 - 음식"}]},{"lat":"37.380635623","long":"126.80096775","items":[{"name":"만나김밥","tel":"031-318-6753","addr":"경기도 시흥시 장현동 544-6번지","category":"음식점업 - 분식"},{"name":"장현약국","tel":"031-318-9479","addr":"경기도 시흥시 장현동 544-6번지","category":"보건업 - 약국"},{"name":"정관장한의원","tel":"031-404-7425","addr":"경기도 시흥시 장현동 544-6번지 3층","category":"보건업 - 한의원"}]},{"lat":"37.381943025","long":"126.8015175","items":[{"name":"만리장성","tel":"031-435-9001","addr":"경기도 시흥시 장현동 530-5번지","category":"음식점업 - 중식"}]},{"lat":"37.381299697","long":"126.79940782","items":[{"name":"무극 멀티짐","tel":"031-404-0480","addr":"경기도 시흥시 장현동 537-10번지 2층","category":"교육서비스업 - 합기도,검도"}]},{"lat":"37.380663693","long":"126.80157738","items":[{"name":"민트스튜디오","tel":"031-317-3880","addr":"경기도 시흥시 장현동 543-4번지 제이파크 107호","category":"개인서비스업 - 사진관"},{"name":"밝은세상안경원","tel":"","addr":"경기도 시흥시 장현동 543-4번지 J-PARK (주상복합아파트)","category":"소매업 - 안경"},{"name":"붐비어","tel":"031-317-6778","addr":"경기도 시흥시 장현동 543-4번지 제이파크 상가 103호","category":"음식점업 - 간이주점"},{"name":"뿅 닭도리탕&찜닭","tel":"031-503-9282","addr":"경기도 시흥시 장현동 543-4번지 J-PARK (주상복합아파트) 104호","category":"음식점업 - 닭"},{"name":"연세피아노실용음악학원","tel":"031-406-4066","addr":"경기도 시흥시 장현동 543-4번지 J-PARK (주상복합아파트)","category":"교육서비스업 - 피아노학원"},{"name":"탕이랑회랑","tel":"031-504-2230","addr":"경기도 시흥시 장현동 543-4번지 J-PARK (주상복합아파트) 101호","category":"음식점업 - 음식"}]},{"lat":"37.380634","long":"126.80001932","items":[{"name":"삼성영어쎈수학장현학원","tel":"031-503-1999","addr":"경기도 시흥시 장현동 539-3번지 3층","category":"교육서비스업 - 영어,수학교과학원"}]},{"lat":"37.381330053","long":"126.80134978","items":[{"name":"삼형제 시골순대","tel":"","addr":"경기도 시흥시 장현동 545-1번지 1층 102,103,105호","category":"음식점업 - 한식"}]},{"lat":"37.38139005","long":"126.79955435","items":[{"name":"샤론플라워","tel":"031-317-4540","addr":"경기도 시흥시 장현동 537-1번지 1층","category":"소매업 - 생화,식물"}]},{"lat":"37.381665516","long":"126.8025796","items":[{"name":"세일마트","tel":"031-317-9724","addr":"경기도 시흥시 장현동 548-6번지","category":"소매업 - 생활용품"}]},{"lat":"37.381833208","long":"126.80052418","items":[{"name":"소망","tel":"031-317-7292","addr":"경기도 시흥시 장현동 533-7번지","category":"개인서비스업 - 이발소"}]},{"lat":"37.38111134","long":"126.79990512","items":[{"name":"시흥기업","tel":"031-317-1117","addr":"경기도 시흥시 장현동 537-4번지","category":"제조업 - 철구조물,디자인"}]},{"lat":"37.380772294","long":"126.80185936","items":[{"name":"아리오돌뼈신닭발","tel":"031-312-9258","addr":"경기도 시흥시 장현동 543-3번지 제이파크주상복합 102호","category":"음식점업 - 한식"},{"name":"클린바다짐","tel":"","addr":"경기도 시흥시 장현동 543-3번지 5층","category":"개인서비스업 - 헬스장"}]},{"lat":"37.381110971","long":"126.7996906","items":[{"name":"안녕나의마카롱","tel":"","addr":"경기도 시흥시 장현동 537-8번지 102호","category":"제조업 - 빵및곡분과자제조업"}]},{"lat":"37.38154993","long":"126.80349447","items":[{"name":"연성동주민자치위원회","tel":"031-310-4717","addr":"경기도 시흥시 장현동 272-9번지 주민자치센터","category":"기타 -"}]},{"lat":"37.381052219","long":"126.80221992","items":[{"name":"오!왕서방","tel":"031-404-3700","addr":"경기도 시흥시 장현동 547-5번지 1층","category":"음식점업 - 중식"}]},{"lat":"37.381021491","long":"126.80005215","items":[{"name":"온율스시","tel":"031-317-5442","addr":"경기도 시흥시 장현동 537-5번지 1층 103호","category":"음식점업 - 일식"}]},{"lat":"37.381715749","long":"126.80033255","items":[{"name":"온정","tel":"","addr":"경기도 시흥시 장현동 535-2번지","category":"소매업 - 소매"}]},{"lat":"37.381888176","long":"126.80105472","items":[{"name":"이벤트광고","tel":"","addr":"경기도 시흥시 장현동 532-5번지 102호","category":"제조업 - 사인물,판촉물 등"}]},{"lat":"37.380859639","long":"126.80024453","items":[{"name":"장문석법무사사무소","tel":"031-317-1377","addr":"경기도 시흥시 장현동 539-1번지 은성빌딩 201호","category":"개인서비스업 - 부동산중개"},{"name":"파티세리마레","tel":"031-503-7202","addr":"경기도 시흥시 장현동 539-1번지 은성빌딩 102호","category":"음식점업 - 커피숍"}]},{"lat":"37.381743726","long":"126.80088574","items":[{"name":"장현뼈다귀해장국","tel":"031-404-4095","addr":"경기도 시흥시 장현동 533-4번지","category":"음식점업 - 한식"}]},{"lat":"37.380751325","long":"126.80013191","items":[{"name":"장현점 현대자동차","tel":"031-318-5197","addr":"경기도 시흥시 장현동 539-2번지","category":"개인서비스업 - 자동차정비"}]},{"lat":"37.380552677","long":"126.79988405","items":[{"name":"장현지앤비영어학원","tel":"031-404-8252","addr":"경기도 시흥시 장현동 539-4번지 3층","category":"교육서비스업 - 외국어학원"},{"name":"참좋은축산","tel":"031-318-0240","addr":"경기도 시흥시 장현동 539-4번지 1층","category":"소매업 - 축산물판매"},{"name":"하모니마트 연성점","tel":"031-317-3399","addr":"경기도 시흥시 장현동 539-4번지","category":"소매업 - 슈퍼마켓"}]},{"lat":"37.381246839","long":"126.800108","items":[{"name":"주식회사 미래기업","tel":"","addr":"경기도 시흥시 장현동 536-7번지 1층 102호","category":"제조업 - 현수막 및 홍보용품"}]},{"lat":"37.381499972","long":"126.80060412","items":[{"name":"참맛나정육식당","tel":"031-318-2818","addr":"경기도 시흥시 장현동 535-4번지","category":"음식점업 - 한식"}]},{"lat":"37.381277834","long":"126.80243384","items":[{"name":"카젠","tel":"031-435-5504","addr":"경기도 시흥시 장현동 547-3번지","category":"개인서비스업 - 자동차수리"}]},{"lat":"37.382466146","long":"126.80183225","items":[{"name":"카페섬김","tel":"031-317-3805","addr":"경기도 시흥시 장현동 529-5번지 1층","category":"음식점업 - 커피,음료"}]},{"lat":"37.381077963","long":"126.80146336","items":[{"name":"폰다방","tel":"031-317-4111","addr":"경기도 시흥시 장현동 544-2번지 명문타운 101호","category":"소매업 - 핸드폰판매,커피숍"}]},{"lat":"37.382051338","long":"126.80163012","items":[{"name":"함흥면옥","tel":"031-318-5562","addr":"경기도 시흥시 장현동 530-4번지 조현빌딩","category":"음식점업 - 한식,냉면"}]}]