[{"lat":"37.241081325","long":"127.50592815","items":[{"name":"OK건설기계","tel":"031-675-5825","addr":"경기도 이천시 부발읍 가산리 485-3번지","category":"수리서비스 - 기타수리서비스"},{"name":"광명전기","tel":"031-636-5210","addr":"경기도 이천시 부발읍 가산리 485-3번지","category":"전기제품 - 기타전기제품"},{"name":"훼미리 홈데코","tel":"031-637-8082","addr":"경기도 이천시 부발읍 가산리 485-3","category":"건축자재 - 인테리어전문"}]},{"lat":"37.240999311","long":"127.51036793","items":[{"name":"가산자동차공업사","tel":"031-638-2166","addr":"경기도 이천시 부발읍 가산리 466-39번지","category":"자동차정비 유지 - 자동차시트·타이어"}]},{"lat":"37.241110963","long":"127.51373838","items":[{"name":"대진설비","tel":"","addr":"경기도 이천시 부발읍 가산리 471-12번지","category":"용역 서비스 - 기타용역서비스"}]},{"lat":"37.240914784","long":"127.5069526","items":[{"name":"동원타이어","tel":"","addr":"경기도 이천시 부발읍 가산리 483-17번지","category":"자동차정비 유지 - 자동차시트·타이어"},{"name":"이천오일나라","tel":"031-633-2051","addr":"경기도 이천시 부발읍 가산리 483-17","category":"자동차정비 유지 - 윤활유 전문 판매"}]},{"lat":"37.245499621","long":"127.52187151","items":[{"name":"봄밭유치원[아이행복]","tel":"031-632-2922","addr":"경기도 이천시 부발읍 가산리 277-1번지","category":"학원 - 유치원"}]},{"lat":"37.248863128","long":"127.51295665","items":[{"name":"세계로 케이지 풋살장","tel":"031-636-8800","addr":"경기도 이천시 부발읍 가산리 422-4번지","category":"레저업소 - 기타레져업소"}]},{"lat":"37.242469351","long":"127.51214719","items":[{"name":"세계로풋볼클럽","tel":"031-636-8800","addr":"경기도 이천시 부발읍 가산리 468-17번지","category":"레저업소 - 기타레져업소"}]},{"lat":"37.241689986","long":"127.51109384","items":[{"name":"세븐일레븐이천가산점","tel":"031-1577-0711","addr":"경기도 이천시 부발읍 가산리 469-3번지 1층","category":"유통업 영리 - 편 의 점"}]},{"lat":"37.240781236","long":"127.51079472","items":[{"name":"쇠고집","tel":"031-636-2377","addr":"경기도 이천시 부발읍 가산리 469-4번지","category":"일반휴게음식 - 일반한식"},{"name":"스마트자동문","tel":"031-634-1754","addr":"경기도 이천시 부발읍 가산리 469-4번지","category":"건축자재 - 기타건축자재"}]},{"lat":"37.241940768","long":"127.50298111","items":[{"name":"쉘부르모텔","tel":"031-637-0252","addr":"경기도 이천시 부발읍 가산리 499번지","category":"숙박업 - 여관/기타숙박업"}]},{"lat":"37.24219349","long":"127.51760004","items":[{"name":"에스엠산업","tel":"043-233-6259","addr":"경기도 이천시 부발읍 가산리 316-11번지 104호","category":"건축자재 - 기타건축자재"}]},{"lat":"37.240528602","long":"127.50665701","items":[{"name":"염소마을","tel":"031-633-0036","addr":"경기도 이천시 부발읍 가산리 480번지 480호","category":"일반휴게음식 - 일반한식"}]},{"lat":"37.242136298","long":"127.50148349","items":[{"name":"유재정","tel":"031-634-2800","addr":"경기도 이천시 부발읍 가산리 504번지","category":"일반휴게음식 - 일반한식"}]},{"lat":"37.24185772","long":"127.51814998","items":[{"name":"이천가산초등학교","tel":"031-633-6567","addr":"경기도 이천시 부발읍 가산리 305-1번지 가산초등학교","category":"학원 - 초중고교육기관"},{"name":"이천가산초등학교병설유치원[아이행복]","tel":"031-632-6461","addr":"경기도 이천시 부발읍 가산리 305-1번지 가산초등학교","category":"학원 - 유치원"}]},{"lat":"37.241276788","long":"127.50232307","items":[{"name":"정희식품","tel":"070-4905-4059","addr":"경기도 이천시 부발읍 가산리 500-2번지","category":"음료식품 - 기타음료식품"},{"name":"케렌시아카페테리아","tel":"070-4905-4060","addr":"경기도 이천시 부발읍 가산리 500-2번지 3층","category":"일반휴게음식 - 서양음식"},{"name":"킴스스포츠아카데미","tel":"031-632-0030","addr":"경기도 이천시 부발읍 가산리 500-2번지","category":"학원 - 기타 교육기관"}]},{"lat":"37.240414544","long":"127.51225733","items":[{"name":"주식회사 태형에스엘","tel":"031-636-8944","addr":"경기도 이천시 부발읍 가산리 471-2번지","category":"건축자재 - 기타건축자재"},{"name":"태형하우징","tel":"031-636-8944","addr":"경기도 이천시 부발읍 가산리 471-2번지","category":"건축자재 - 기타건축자재"}]},{"lat":"37.241692231","long":"127.50634919","items":[{"name":"천서리막국수","tel":"031-632-9933","addr":"경기도 이천시 부발읍 가산리 491-11번지","category":"일반휴게음식 - 일반한식"}]},{"lat":"37.242580719","long":"127.50717782","items":[{"name":"테이크그린","tel":"070-7757-9196","addr":"경기도 이천시 부발읍 가산리 491-34번지","category":"일반휴게음식 - 서양음식"}]},{"lat":"37.241221208","long":"127.50481335","items":[{"name":"평원막국수","tel":"031-638-7549","addr":"경기도 이천시 부발읍 가산리 485-5번지 1층","category":"일반휴게음식 - 일반한식"}]},{"lat":"37.242273608","long":"127.50523732","items":[{"name":"푸른광고기획","tel":"031-636-8266","addr":"경기도 이천시 부발읍 가산리 491-3","category":"건축자재 - 인테리어전문"}]},{"lat":"37.248443145","long":"127.50581928","items":[{"name":"푸른들비료","tel":"031-637-3236","addr":"경기도 이천시 부발읍 가산리 426-4","category":"농업 - 비료,사료,종자"}]},{"lat":"37.242418915","long":"127.51339783","items":[{"name":"해피투어","tel":"031-645-7460","addr":"경기도 이천시 부발읍 가산리 471-13번지 1층 101호(해피엘엔비)","category":"보건위생 - 화장품"}]},{"lat":"37.242471422","long":"127.5010687","items":[{"name":"황제출장부페.한식부페","tel":"031-641-5090","addr":"경기도 이천시 부발읍 가산리 505번지","category":"일반휴게음식 - 일반한식"}]},{"lat":"37.241615454","long":"127.51998534","items":[{"name":"희원","tel":"031-636-5608","addr":"경기도 이천시 부발읍 가산리 216-5번지 1동1층","category":"일반휴게음식 - 스넥"}]},{"lat":"37.241697774","long":"127.51970415","items":[{"name":"희원플라워","tel":"031-636-5608","addr":"경기도 이천시 부발읍 가산리 216-2번지","category":"문화.취미 - 화원"}]}]