[{"lat":"37.382250815","long":"126.95991934","items":[{"name":"(주)서브라임보습학원","tel":"031-385-6513","addr":"경기도 안양시 동안구 평촌대로","category":"학원 - 보습학원"},{"name":"가온국어한빛수학학원","tel":"031-385-4333","addr":"경기도 안양시 동안구 평촌대로","category":"학원 - 기타 교육기관"},{"name":"올인학원","tel":"031-476-5151","addr":"경기도 안양시 동안구 평촌대로","category":"회원제형태 - 학원"}]},{"lat":"37.383998432","long":"126.95898117","items":[{"name":"(주)정한","tel":"031-387-7117","addr":"경기도 안양시 동안구 평촌대로","category":"학원 - 예·체능계학원"}]},{"lat":"37.383170159","long":"126.96078825","items":[{"name":"K1당구장","tel":"031-382-7465","addr":"경기도 안양시 동안구 평촌대로","category":"레저업소 - 당 구 장"},{"name":"나우인터렉티브","tel":"031-385-1470","addr":"경기도 안양시 동안구 평촌대로","category":"용역 서비스 - 종합용역"},{"name":"심미선수학교습소","tel":"031-385-7739","addr":"경기도 안양시 동안구 평촌대로","category":"회원제형태 - 학원"},{"name":"엠케이영어교습소","tel":"031-386-2940","addr":"경기도 안양시 동안구 평촌대로","category":"회원제형태 - 학원"},{"name":"연이정영어교습소","tel":"031-383-0199","addr":"경기도 안양시 동안구 평촌대로","category":"회원제형태 - 학원"},{"name":"정문수수학교습소","tel":"031-476-6678","addr":"경기도 안양시 동안구 평촌대로","category":"회원제형태 - 학원"}]},{"lat":"37.390556403","long":"126.95539767","items":[{"name":"REDBROWN(레드브라운)","tel":"031-381-1128","addr":"경기도 안양시 동안구 평촌대로","category":"일반휴게음식 - 서양음식"},{"name":"바이정","tel":"031-340-4387","addr":"경기도 안양시 동안구 평촌대로","category":"의류 - 정장"},{"name":"부자뱅크경매학원","tel":"031-342-8887","addr":"경기도 안양시 동안구 평촌대로","category":"회원제형태 - 학원"},{"name":"피티스쿨","tel":"031-385-9694","addr":"경기도 안양시 동안구 평촌대로","category":"회원제형태 - 레져업소"}]},{"lat":"37.408078794","long":"126.95014575","items":[{"name":"개성만두","tel":"031-386-4796","addr":"경기도 안양시 동안구 평촌대로","category":"일반휴게음식 - 스넥"}]},{"lat":"37.384917778","long":"126.95983878","items":[{"name":"고은미래의원","tel":"031-387-7531","addr":"경기도 안양시 동안구 평촌대로","category":"의원 - 의원"},{"name":"이엔어법휘학원","tel":"031-444-6780","addr":"경기도 안양시 동안구 평촌대로","category":"학원 - 보습학원"},{"name":"커반","tel":"070-4209-1444","addr":"경기도 안양시 동안구 평촌대로","category":"일반휴게음식 - 스넥"},{"name":"평촌덴마크보청기","tel":"031-381-0076","addr":"경기도 안양시 동안구 평촌대로","category":"보건위생 - 의료용품"}]},{"lat":"37.381530149","long":"126.96031494","items":[{"name":"김부섭수학학원","tel":"031-384-0090","addr":"경기도 안양시 동안구 평촌대로","category":"회원제형태 - 학원"},{"name":"세종기타","tel":"031-382-1972","addr":"경기도 안양시 동안구 평촌대로","category":"레져용품 - 악기점"}]},{"lat":"37.40574521","long":"126.95020385","items":[{"name":"끄레마","tel":"031-387-3777","addr":"경기도 안양시 동안구 평촌대로","category":"일반휴게음식 - 스넥"},{"name":"뽀빠이","tel":"031-385-6821","addr":"경기도 안양시 동안구 평촌대로","category":"일반휴게음식 - 주점"},{"name":"정웅경헤어샵","tel":"031-387-2353","addr":"경기도 안양시 동안구 평촌대로","category":"보건위생 - 미용원"}]},{"lat":"37.382278322","long":"126.96125168","items":[{"name":"디자인고흐미술학원","tel":"031-476-5111","addr":"경기도 안양시 동안구 평촌대로","category":"학원 - 예·체능계학원"}]},{"lat":"37.384529923","long":"126.95869857","items":[{"name":"라빈헤어","tel":"031-385-7462","addr":"경기도 안양시 동안구 평촌대로","category":"보건위생 - 미용원"},{"name":"여운영수학원","tel":"031-387-5936","addr":"경기도 안양시 동안구 평촌대로","category":"회원제형태 - 학원"},{"name":"특작수학일대일학원","tel":"031-388-6318","addr":"경기도 안양시 동안구 평촌대로","category":"회원제형태 - 학원"}]},{"lat":"37.382665202","long":"126.95970458","items":[{"name":"마에스트로영어학원","tel":"031-388-7266","addr":"경기도 안양시 동안구 평촌대로","category":"회원제형태 - 학원"}]},{"lat":"37.404411583","long":"126.94989984","items":[{"name":"미스터베이스볼","tel":"070-8748-8999","addr":"경기도 안양시 동안구 평촌대로","category":"레져용품 - 스포츠·레져용품"}]},{"lat":"37.38330529","long":"126.96073171","items":[{"name":"바슈영어학원","tel":"031-476-0502","addr":"경기도 안양시 동안구 평촌대로","category":"학원 - 보습학원"},{"name":"자유수학학원","tel":"070-8277-4748","addr":"경기도 안양시 동안구 평촌대로","category":"학원 - 보습학원"}]},{"lat":"37.39252908","long":"126.95408648","items":[{"name":"빅뷰티(BIG BEAUTY)","tel":"031-398-1995","addr":"경기도 안양시 동안구 평촌대로","category":"보건위생 - 화장품"},{"name":"지성메디칼","tel":"070-7527-3919","addr":"경기도 안양시 동안구 평촌대로","category":"보건위생 - 의료용품"},{"name":"황미나스킨케어","tel":"031-385-1230","addr":"경기도 안양시 동안구 평촌대로","category":"회원제형태 - 기타4"}]},{"lat":"37.384223642","long":"126.95886812","items":[{"name":"세가쉬수학학원","tel":"031-386-0030","addr":"경기도 안양시 동안구 평촌대로","category":"학원 - 보습학원"}]},{"lat":"37.382115696","long":"126.96000975","items":[{"name":"송선생종합국어학원","tel":"031-381-1249","addr":"경기도 안양시 동안구 평촌대로","category":"학원 - 보습학원"},{"name":"이쌤수학박쌤영어학원","tel":"031-382-2232","addr":"경기도 안양시 동안구 평촌대로","category":"회원제형태 - 학원"}]},{"lat":"37.383863808","long":"126.96042653","items":[{"name":"수학구루수학교습소","tel":"","addr":"경기도 안양시 동안구 평촌대로","category":"회원제형태 - 학원"},{"name":"이혜영영어교습소","tel":"031-382-7905","addr":"경기도 안양시 동안구 평촌대로","category":"회원제형태 - 학원"}]},{"lat":"37.384143069","long":"126.96027959","items":[{"name":"스쿨룩스 평촌점","tel":"031-388-1319","addr":"경기도 안양시 동안구 평촌대로","category":"의류 - 단체복"}]},{"lat":"37.402915931","long":"126.94994607","items":[{"name":"아모레카운셀러","tel":"031-382-6930","addr":"경기도 안양시 동안구 평촌대로","category":"보건위생 - 화장품"},{"name":"아모레카운셀러","tel":"031-382-6930","addr":"경기도 안양시 동안구 평촌대로","category":"보건위생 - 화장품"}]},{"lat":"37.405275074","long":"126.94670287","items":[{"name":"안양시테니스협회","tel":"031-382-3175","addr":"경기도 안양시 동안구 평촌대로","category":"레저업소 - 테니스장"}]},{"lat":"37.406799237","long":"126.94986427","items":[{"name":"엄마김밥,국수","tel":"031-383-5230","addr":"경기도 안양시 동안구 평촌대로","category":"일반휴게음식 - 스넥"}]},{"lat":"37.384746627","long":"126.9599518","items":[{"name":"에스에이테크(SA Tech)","tel":"031-443-3010","addr":"경기도 안양시 동안구 평촌대로","category":"사무통신 - 통신기기"},{"name":"패러다임보습학원","tel":"031-476-8879","addr":"경기도 안양시 동안구 평촌대로","category":"회원제형태 - 학원"}]},{"lat":"37.382944954","long":"126.96092387","items":[{"name":"엔알토학원","tel":"031-384-1793","addr":"경기도 안양시 동안구 평촌대로","category":"회원제형태 - 학원"}]},{"lat":"37.383413379","long":"126.96064132","items":[{"name":"주식회사제닛","tel":"031-388-9203","addr":"경기도 안양시 동안구 평촌대로","category":"회원제형태 - 서적"},{"name":"평촌제임스엠어학원","tel":"031-388-2345","addr":"경기도 안양시 동안구 평촌대로","category":"회원제형태 - 학원"}]},{"lat":"37.383746199","long":"126.95911681","items":[{"name":"지코스 수학영어학원","tel":"031-381-3415","addr":"경기도 안양시 동안구 평촌대로","category":"학원 - 보습학원"}]},{"lat":"37.384503395","long":"126.96006485","items":[{"name":"피트인그린골프아카데미","tel":"031-476-9945","addr":"경기도 안양시 동안구 평촌대로","category":"회원제형태 - 레져업소"}]},{"lat":"37.391448257","long":"126.95503575","items":[{"name":"하야트21","tel":"031-388-0052","addr":"경기도 안양시 동안구 평촌대로","category":"숙박업 - 여관/기타숙박업"}]},{"lat":"37.40694366","long":"126.9504515","items":[{"name":"해물명가","tel":"031-381-4333","addr":"경기도 안양시 동안구 평촌대로","category":"일반휴게음식 - 일반한식"}]},{"lat":"37.383169677","long":"126.95945588","items":[{"name":"홍영임피아노스튜디오피아노교습소","tel":"031-394-7747","addr":"경기도 안양시 동안구 평촌대로","category":"학원 - 예·체능계학원"}]}]