[{"lat":"37.820498118","long":"126.82711302","items":[{"name":"(주) 모던라이프","tel":"031-904-3193","addr":"경기도 파주시 파주읍 부곡리 201-15번지","category":"신변잡화 - 기타잡화"}]},{"lat":"37.810310662","long":"126.82261751","items":[{"name":"(주)유일","tel":"031-954-6625","addr":"경기도 파주시 파주읍 부곡리 404-3번지","category":"전기제품 - 기타전기제품"},{"name":"디디에스컴퍼니 (DDS COMPANY)","tel":"031-953-6477","addr":"경기도 파주시 파주읍 부곡리 404-3번지","category":"가구 - 일반가구"}]},{"lat":"37.817502091","long":"126.82989125","items":[{"name":"GS25파주부곡점","tel":"","addr":"경기도 파주시 파주읍 부곡리 177-3번지","category":"유통업 영리 - 편 의 점"},{"name":"김밥천국(파주읍점)","tel":"031-952-4447","addr":"경기도 파주시 파주읍 부곡리 177-3번지","category":"일반휴게음식 - 일반한식"},{"name":"휠링커피숍","tel":"031-954-1870","addr":"경기도 파주시 파주읍 부곡리 177-3번지","category":"일반휴게음식 - 서양음식"}]},{"lat":"37.822418708","long":"126.8281761","items":[{"name":"거산 전기.조명","tel":"031-952-8006","addr":"경기도 파주시 파주읍 부곡리 212-1번지","category":"전기제품 - 기타전기제품"}]},{"lat":"37.818614326","long":"126.82064388","items":[{"name":"까사팩토리","tel":"031-952-1290","addr":"경기도 파주시 파주읍 부곡리 322번지 외1필지 (가,나동)","category":"가구 - 일반가구"}]},{"lat":"37.815975904","long":"126.83361984","items":[{"name":"농업회사법인 주식회사 감흥로","tel":"031-954-6233","addr":"경기도 파주시 파주읍 부곡리 34-7","category":"음료식품 - 주류 판매점"}]},{"lat":"37.809499381","long":"126.82233559","items":[{"name":"농업회사법인(주)마하나임","tel":"031-954-0970","addr":"경기도 파주시 파주읍 부곡리 408-1번지","category":"서적문구 - 기타서적문구"}]},{"lat":"37.80425529","long":"126.83408944","items":[{"name":"두잇트리","tel":"","addr":"경기도 파주시 파주읍 부곡리 102-18번지","category":"주방용구 - 주방용구"}]},{"lat":"37.811449807","long":"126.81934418","items":[{"name":"라인","tel":"031-1522-0459","addr":"경기도 파주시 파주읍 부곡리 394-1번지","category":"용역 서비스 - 기타용역서비스"}]},{"lat":"37.816949441","long":"126.83398104","items":[{"name":"문 마운틴","tel":"031-945-5001","addr":"경기도 파주시 파주읍 부곡리 31-1번지","category":"서적문구 - 출판 및 인쇄물"}]},{"lat":"37.813277368","long":"126.81847657","items":[{"name":"미니스톱파주부곡점","tel":"031-426-3992","addr":"경기도 파주시 파주읍 부곡리 429-3","category":"유통업 영리 - 편 의 점"}]},{"lat":"37.806525908","long":"126.8342546","items":[{"name":"미래이노텍(주)","tel":"031-8007-8055","addr":"경기도 파주시 파주읍 부곡리 98-4번지","category":"자동차정비 유지 - 자동차부품"}]},{"lat":"37.818941232","long":"126.82828651","items":[{"name":"미미한식뷔페","tel":"031-953-6750","addr":"경기도 파주시 파주읍 부곡리 187번지","category":"일반휴게음식 - 일반한식"}]},{"lat":"37.809305373","long":"126.81922457","items":[{"name":"부곡마트","tel":"031-952-6665","addr":"경기도 파주시 파주읍 부곡리 418-1번지","category":"유통업 영리 - 슈퍼마켓"}]},{"lat":"37.819692486","long":"126.81873319","items":[{"name":"부곡정미소","tel":"031-953-5455","addr":"경기도 파주시 파주읍 부곡리 496-3번지","category":"음료식품 - 미곡상"}]},{"lat":"37.80986111","long":"126.82922772","items":[{"name":"사인산업","tel":"031-952-0561","addr":"경기도 파주시 파주읍 부곡리 124-2번지","category":"용역 서비스 - 기타용역서비스"}]},{"lat":"37.819527667","long":"126.82884164","items":[{"name":"서정전기조명","tel":"031-946-2385","addr":"경기도 파주시 파주읍 부곡리 184번지","category":"전기제품 - 기타전기제품"}]},{"lat":"37.818671034","long":"126.82834394","items":[{"name":"세븐일레븐파주부곡점","tel":"031-1577-0711","addr":"경기도 파주시 파주읍 부곡리 187-2번지","category":"유통업 영리 - 편 의 점"}]},{"lat":"37.812635977","long":"126.83542176","items":[{"name":"썬프레임","tel":"031-944-7227","addr":"경기도 파주시 파주읍 부곡리 72번지","category":"건축자재 - 기타건축자재"}]},{"lat":"37.816719902","long":"126.83100605","items":[{"name":"엘케이프렌즈","tel":"","addr":"경기도 파주시 파주읍 부곡리 43-5번지","category":"용역 서비스 - 기타용역서비스"}]},{"lat":"37.818359858","long":"126.81922485","items":[{"name":"우리집마트","tel":"070-8840-2262","addr":"경기도 파주시 파주읍 부곡리 341-6","category":"유통업 영리 - 슈퍼마켓"}]},{"lat":"37.818998674","long":"126.81867812","items":[{"name":"원주민공인중개사","tel":".031-954-0515","addr":"경기도 파주시 파주읍 부곡리 493-5번지","category":"용역 서비스 - 부동산 중개·임대"}]},{"lat":"37.80908644","long":"126.82331319","items":[{"name":"윤창금속","tel":"031-954-7071","addr":"경기도 파주시 파주읍 부곡리 407-5","category":"건축자재 - 기타건축자재"}]},{"lat":"37.811227171","long":"126.8269533","items":[{"name":"인엔인(IN&IN)","tel":"031-953-2291","addr":"경기도 파주시 파주읍 부곡리 137","category":"주방용구 - 주방용식기"}]},{"lat":"37.819864232","long":"126.8190962","items":[{"name":"자몽피치","tel":"031-111-1111","addr":"경기도 파주시 파주읍 부곡리 497번지","category":"의류 - 정장"},{"name":"파주환경","tel":"031-959-1000","addr":"경기도 파주시 파주읍 부곡리 497번지","category":"신변잡화 - 기타잡화"}]},{"lat":"37.815053923","long":"126.83153232","items":[{"name":"제이엠랩텍(JM LABTECH)","tel":"031-966-0311","addr":"경기도 파주시 파주읍 부곡리 64-5번지","category":"가구 - 기타가구"}]},{"lat":"37.817774124","long":"126.81914681","items":[{"name":"주식회사 기능성문구","tel":"031-947-3947","addr":"경기도 파주시 파주읍 부곡리 343-3번지","category":"서적문구 - 문구용품"}]},{"lat":"37.810475374","long":"126.82428644","items":[{"name":"주식회사네이처후레쉬 경인냉열점","tel":"070-4134-1061","addr":"경기도 파주시 파주읍 부곡리 404-9번지","category":"일반휴게음식 - 위탁급식업"}]},{"lat":"37.819192922","long":"126.82789977","items":[{"name":"집밥","tel":"031-954-8786","addr":"경기도 파주시 파주읍 부곡리 186-7번지","category":"일반휴게음식 - 일반한식"}]},{"lat":"37.807251706","long":"126.83150493","items":[{"name":"파주축산","tel":"02-111-1111","addr":"경기도 파주시 파주읍 부곡리 79-9번지","category":"농업 - 기타농업관련"}]}]