[{"lat":"37.64310854","long":"126.87609413","items":[{"name":"(주)디원바이크","tel":"02-381-5280","addr":"경기도 고양시 덕양구 삼송동 361-3번지","category":"자동차판매 - 이륜차판매"},{"name":"보보속눈썹","tel":"02-381-7111","addr":"경기도 고양시 덕양구 삼송동 361-3번지","category":""},{"name":"보보속눈썹","tel":"02-381-7111","addr":"경기도 고양시 덕양구 삼송동 361-3번지","category":"보건위생 - 피부미용실"},{"name":"저스트오토바이","tel":"02-381-5282","addr":"경기도 고양시 덕양구 삼송동 361-3번지","category":"자동차판매 - 이륜차판매"},{"name":"저스트오토바이","tel":"02-381-5282","addr":"경기도 고양시 덕양구 삼송동 361-3번지","category":""}]},{"lat":"37.645047052","long":"126.87742786","items":[{"name":"(주)명문코리아","tel":"02-381-0753","addr":"경기도 고양시 덕양구 삼송동 347-6번지","category":""},{"name":"(주)엔쓰리플러스","tel":"02-381-0753","addr":"경기도 고양시 덕양구 삼송동 347-6번지","category":"레져용품 - 골프용품 전문점"},{"name":"(주)엔쓰리플러스","tel":"02-381-0753","addr":"경기도 고양시 덕양구 삼송동 347-6번지","category":""},{"name":"루미르","tel":"02-381-5208","addr":"경기도 고양시 덕양구 삼송동 347-6번지","category":"직물 - 카페트,커튼,천막,지물"},{"name":"메이젠 삼송점","tel":"02-1234-1234","addr":"경기도 고양시 덕양구 삼송동 347-6번지","category":"일반휴게음식 - 서양음식"},{"name":"삼송골프존","tel":"031-381-0753","addr":"경기도 고양시 덕양구 삼송동 347-6번지","category":"레저업소 - 스크린골프"},{"name":"신식짬뽕","tel":"02-916-7440","addr":"경기도 고양시 덕양구 삼송동 347-6번지","category":""},{"name":"애플 노래연습장","tel":"","addr":"경기도 고양시 덕양구 삼송동 347-6번지","category":""},{"name":"애플 노래연습장","tel":"","addr":"경기도 고양시 덕양구 삼송동 347-6번지","category":"레저업소 - 노 래 방"},{"name":"애플노래연습장","tel":"070-7567-9478","addr":"경기도 고양시 덕양구 삼송동 347-6번지","category":""}]},{"lat":"37.643270348","long":"126.87575394","items":[{"name":"(주)범브(BOMB)","tel":"02-381-7817","addr":"경기도 고양시 덕양구 삼송동 360-3번지","category":""},{"name":"(주)범브(BOMB)","tel":"02-381-7817","addr":"경기도 고양시 덕양구 삼송동 360-3번지","category":"음료식품 - 주류 판매점"}]},{"lat":"37.657968125","long":"126.89700038","items":[{"name":"(주)삼송피티에스","tel":"02-381-7371","addr":"경기도 고양시 덕양구 삼송동 62-68번지","category":""},{"name":"(주)삼송피티에스","tel":"02-381-7371","addr":"경기도 고양시 덕양구 삼송동 62-68번지","category":"문화.취미 - 민예·공예품"}]},{"lat":"37.645271072","long":"126.87628308","items":[{"name":"(주)슈마그룹","tel":"02-1661-6836","addr":"경기도 고양시 덕양구 삼송동 352-16번지","category":""},{"name":"(주)슈마그룹","tel":"02-1661-6836","addr":"경기도 고양시 덕양구 삼송동 352-16번지","category":"전기제품 - 기타전기제품"},{"name":"(주)제이아이씨","tel":"00-1577-7935","addr":"경기도 고양시 덕양구 삼송동 352-16번지","category":"사무통신 - 통신기기"}]},{"lat":"37.644550175","long":"126.87617099","items":[{"name":"(주)조이벨로 (GIOIBELLO)","tel":"02-381-9362","addr":"경기도 고양시 덕양구 삼송동 353-15번지","category":"의류 - 정장"},{"name":"(주)조이벨로 (GIOIBELLO)","tel":"02-381-9362","addr":"경기도 고양시 덕양구 삼송동 353-15번지","category":""}]},{"lat":"37.652190574","long":"126.89442493","items":[{"name":"(주)코리아푸드 백반하우스 삼송점","tel":"02-381-5356","addr":"경기도 고양시 덕양구 삼송동 128-33번지","category":"일반휴게음식 - 일반한식"},{"name":"(주)코리아푸드 백반하우스 삼송점","tel":"02-381-5356","addr":"경기도 고양시 덕양구 삼송동 128-33번지","category":""},{"name":"오장동함흥냉면","tel":"02-381-7830","addr":"경기도 고양시 덕양구 삼송동 128-33번지","category":""}]},{"lat":"37.641414657","long":"126.87604036","items":[{"name":"(주)티에스에스아이스센터","tel":"02-6956-2165","addr":"경기도 고양시 덕양구 삼송동 371번지","category":"레저업소 - 기타레져업소"}]},{"lat":"37.652023558","long":"126.88928053","items":[{"name":"(주)힘트레이딩","tel":"","addr":"경기도 고양시 덕양구 삼송동 135-7번지","category":"음료식품 - 기타음료식품"},{"name":"(주)힘트레이딩","tel":"","addr":"경기도 고양시 덕양구 삼송동 135-7번지","category":""},{"name":"위니아24크린샵&아이지에이마트 고양삼송점","tel":"031-000-0000","addr":"경기도 고양시 덕양구 삼송동 135-7번지","category":"유통업 영리 - 편 의 점"}]},{"lat":"37.64416362","long":"126.87697612","items":[{"name":"0 연코스메틱","tel":"02-381-6018","addr":"경기도 고양시 덕양구 삼송동 355-5번지","category":""}]},{"lat":"37.650271035","long":"126.88455795","items":[{"name":"153가우스수학학원","tel":"02-381-1530","addr":"경기도 고양시 덕양구 삼송동 327-3번지","category":""},{"name":"153가우스수학학원","tel":"02-381-1530","addr":"경기도 고양시 덕양구 삼송동 327-3번지","category":"회원제형태 - 학원"},{"name":"라벨비음악학원","tel":"02-381-6008","addr":"경기도 고양시 덕양구 삼송동 327-3번지","category":""},{"name":"라벨비음악학원","tel":"02-381-6008","addr":"경기도 고양시 덕양구 삼송동 327-3번지","category":"학원 - 예·체능계학원"},{"name":"본 수학교습소","tel":"031-907-1064","addr":"경기도 고양시 덕양구 삼송동 327-3번지","category":"학원 - 보습학원"},{"name":"본 수학교습소","tel":"031-907-1064","addr":"경기도 고양시 덕양구 삼송동 327-3번지","category":""},{"name":"생선구이전문점 굽","tel":"02-381-9392","addr":"경기도 고양시 덕양구 삼송동 327-3번지","category":""},{"name":"소호447","tel":"070-8871-3505","addr":"경기도 고양시 덕양구 삼송동 327-3번지","category":"의류 - 정장"},{"name":"소호447","tel":"070-8871-3505","addr":"경기도 고양시 덕양구 삼송동 327-3번지","category":""},{"name":"씨엘어학원","tel":"070-4173-4123","addr":"경기도 고양시 덕양구 삼송동 327-3번지","category":"학원 - 보습학원"},{"name":"씨엘어학원","tel":"070-4173-4123","addr":"경기도 고양시 덕양구 삼송동 327-3번지","category":""},{"name":"와이비엠잉글루 삼송학원","tel":"031-000-0000","addr":"경기도 고양시 덕양구 삼송동 327-3번지","category":"학원 - 외국어학원"},{"name":"와이비엠잉글루 삼송학원","tel":"031-0-0000","addr":"경기도 고양시 덕양구 삼송동 327-3번지","category":""},{"name":"용인대MTA태권도","tel":"02-389-9997","addr":"경기도 고양시 덕양구 삼송동","category":"학원 - 예·체능계학원"},{"name":"용인대MTA태권도","tel":"02-389-9997","addr":"경기도 고양시 덕양구 삼송동 327-3번지","category":""},{"name":"이태리부대찌개 고양삼송점","tel":"02-371-0373","addr":"경기도 고양시 덕양구 삼송동 327-3번지","category":"일반휴게음식 - 일반한식"},{"name":"인정국물떡볶이","tel":"02-381-8001","addr":"경기도 고양시 덕양구 삼송동 327-3번지","category":"일반휴게음식 - 스넥"},{"name":"커팅클럽","tel":"070-4127-4005","addr":"경기도 고양시 덕양구 삼송동 327-3번지","category":""},{"name":"커팅클럽","tel":"070-4127-4005","addr":"경기도 고양시 덕양구 삼송동 327-3번지","category":"보건위생 - 미용원"},{"name":"커피에반하다 삼송점","tel":"02-381-8238","addr":"경기도 고양시 덕양구 삼송동 327-3번지","category":""},{"name":"커피에반하다 삼송점","tel":"02-381-8238","addr":"경기도 고양시 덕양구 삼송동 327-3번지","category":""},{"name":"코너헤어샵","tel":"02-381-0660","addr":"경기도 고양시 덕양구 삼송동 327-3번지","category":"보건위생 - 미용원"},{"name":"코너헤어샵","tel":"02-381-0660","addr":"경기도 고양시 덕양구 삼송동 327-3번지","category":""},{"name":"타임투필라테스 일산삼송점","tel":"02-371-1250","addr":"경기도 고양시 덕양구 삼송동 327-3번지","category":""},{"name":"피자스쿨(고양삼송점)","tel":"02-371-3380","addr":"경기도 고양시 덕양구 삼송동 327-3번지","category":""},{"name":"피자스쿨(고양삼송점)","tel":"02-371-3380","addr":"경기도 고양시 덕양구 삼송동 327-3번지","category":"일반휴게음식 - 서양음식"},{"name":"필음악학원","tel":"02-371-0402","addr":"경기도 고양시 덕양구 삼송동 327-3번지","category":""},{"name":"필음악학원","tel":"02-371-0402","addr":"경기도 고양시 덕양구 삼송동 327-3번지","category":"학원 - 예·체능계학원"},{"name":"하루삼송","tel":"02-381-4209","addr":"경기도 고양시 덕양구 삼송동 327-3번지","category":"일반휴게음식 - 일반한식"},{"name":"하루에","tel":"","addr":"경기도 고양시 덕양구 삼송동 327-3번지","category":""}]},{"lat":"37.648328859","long":"126.87958661","items":[{"name":"153유학","tel":"070-7651-5181","addr":"경기도 고양시 덕양구 삼송동 332번지 삼송마을18단지","category":""},{"name":"153유학","tel":"070-7651-5181","addr":"경기도 고양시 덕양구 삼송동 332번지 삼송마을18단지","category":"학원 - 외국어학원"},{"name":"E1IT(이원아이티)","tel":"","addr":"경기도 고양시 덕양구 삼송동 332번지 삼송마을18단지","category":"수리서비스 - 사무·통신기기수리"},{"name":"LH운송","tel":"02-381-3451","addr":"경기도 고양시 덕양구 삼송동 332번지 삼송마을18단지","category":"자동차정비 유지 - 견인서비스"},{"name":"LH운송","tel":"02-381-3451","addr":"경기도 고양시 덕양구 삼송동 332번지 삼송마을18단지","category":""},{"name":"고양시립큰솔어린이집[아이행복]","tel":"02-371-3113","addr":"경기도 고양시 덕양구 삼송동 332번지 삼송마을18단지","category":"학원 - 유아원"},{"name":"골드스토리","tel":"031-901-9088","addr":"경기도 고양시 덕양구 삼송동 332번지 삼송마을18단지","category":""},{"name":"골드스토리","tel":"031-901-9088","addr":"경기도 고양시 덕양구 삼송동 332번지 삼송마을18단지","category":"신변잡화 - 액세서리"},{"name":"다모리","tel":"02-371-3359","addr":"경기도 고양시 덕양구 삼송동 332번지 삼송마을18단지","category":""},{"name":"더미소","tel":"02-371-0922","addr":"경기도 고양시 덕양구 삼송동 332번지 삼송마을18단지","category":""},{"name":"덕양구 출장세차","tel":"","addr":"경기도 고양시 덕양구 삼송동 332번지 삼송마을18단지","category":""},{"name":"동양세탁소","tel":"02-6104-7732","addr":"경기도 고양시 덕양구 삼송동 332번지 삼송마을18단지","category":""},{"name":"동양세탁소","tel":"02-6104-7732","addr":"경기도 고양시 덕양구 삼송동 332번지 삼송마을18단지","category":"수리서비스 - 세탁소"},{"name":"베이직","tel":"02-737-4654","addr":"경기도 고양시 덕양구 삼송동 332번지 삼송마을18단지","category":""},{"name":"별과자","tel":"","addr":"경기도 고양시 덕양구 삼송동 332번지 삼송마을18단지","category":""},{"name":"별과자","tel":"000-0000-000","addr":"경기도 고양시 덕양구 삼송동 332번지 삼송마을18단지","category":"직물 - 침구·수예점"},{"name":"순수치킨 삼송점","tel":"02-381-3393","addr":"경기도 고양시 덕양구 삼송동 332번지 삼송마을18단지","category":""},{"name":"순수치킨 삼송점","tel":"02-381-3393","addr":"경기도 고양시 덕양구 삼송동 332번지 삼송마을18단지","category":"일반휴게음식 - 스넥"},{"name":"슈가클럽","tel":"","addr":"경기도 고양시 덕양구 삼송동 332번지 삼송마을18단지","category":"음료식품 - 제과점"},{"name":"시원함에 반하다","tel":"","addr":"경기도 고양시 덕양구 삼송동 332번지 삼송마을18단지","category":"전기제품 - 냉열기기"},{"name":"시원함에 반하다","tel":"","addr":"경기도 고양시 덕양구 삼송동 332번지 삼송마을18단지","category":""},{"name":"씨유고양삼송18단지점","tel":"080-080-3663","addr":"경기도 고양시 덕양구 삼송동 332번지 삼송마을18단지","category":"유통업 영리 - 편 의 점"},{"name":"씨유고양삼송18단지점","tel":"080-80-3663","addr":"경기도 고양시 덕양구 삼송동 332번지 삼송마을18단지","category":""},{"name":"카라","tel":"031-934-0066","addr":"경기도 고양시 덕양구 삼송동 332번지 삼송마을18단지","category":"의류 - 정장"},{"name":"크린토피아","tel":"02-379-3971","addr":"경기도 고양시 덕양구 삼송동 332번지 삼송마을18단지","category":""},{"name":"크린토피아","tel":"031-379-3971","addr":"경기도 고양시 덕양구 삼송동 332번지 삼송마을18단지","category":""},{"name":"플레르무미","tel":"","addr":"경기도 고양시 덕양구 삼송동 332번지 삼송마을18단지","category":"문화.취미 - 화원"},{"name":"헤어쥬히","tel":"02-371-3453","addr":"경기도 고양시 덕양구 삼송동 332번지 삼송마을18단지","category":"보건위생 - 미용원"},{"name":"헤어쥬히","tel":"02-371-3453","addr":"경기도 고양시 덕양구 삼송동 332번지 삼송마을18단지","category":""},{"name":"현미와누룽지(상송점)","tel":"","addr":"경기도 고양시 덕양구 삼송동 332번지 삼송마을18단지","category":""}]},{"lat":"37.650748298","long":"126.88430789","items":[{"name":"2관 아트피플 미술학원","tel":"031-352-7889","addr":"경기도 고양시 덕양구 삼송동 326-2번지","category":""},{"name":"2관 아트피플 미술학원","tel":"031-352-7889","addr":"경기도 고양시 덕양구 삼송동","category":"학원 - 예·체능계학원"},{"name":"SU자기주도학습학원","tel":"02-371-0810","addr":"경기도 고양시 덕양구 삼송동 326-2번지","category":""},{"name":"더함수학","tel":"","addr":"경기도 고양시 덕양구 삼송동 326-2번지","category":""},{"name":"더함수학","tel":"","addr":"경기도 고양시 덕양구 삼송동 326-2번지","category":"학원 - 보습학원"},{"name":"삼송사랑 동물의료센터","tel":"02-388-8275","addr":"경기도 고양시 덕양구 삼송동 326-2번지","category":"기타의료기관 - 동물병원"},{"name":"삼송사랑 동물의료센터","tel":"02-388-8275","addr":"경기도 고양시 덕양구 삼송동 326-2번지","category":""},{"name":"삼송사랑동물의료센터","tel":"02-388-8275","addr":"경기도 고양시 덕양구 삼송동 326-2번지","category":""},{"name":"삼송사랑동물의료센터","tel":"02-388-8275","addr":"경기도 고양시 덕양구 삼송동 326-2번지","category":"기타의료기관 - 동물병원"},{"name":"삼송우리들치과의원","tel":"02-382-0011","addr":"경기도 고양시 덕양구 삼송동 326-2번지","category":""},{"name":"삼송우리들치과의원","tel":"02-382-0011","addr":"경기도 고양시 덕양구 삼송동 326-2번지","category":"의원 - 치과의원"},{"name":"삼송우리들치과의원","tel":"02-382-0011","addr":"경기도 고양시 덕양구 삼송동 326-2번지","category":""}]},{"lat":"37.65388616","long":"126.89636025","items":[{"name":"369포장마차","tel":"031-381-1080","addr":"경기도 고양시 덕양구 삼송동 60-4번지","category":"일반휴게음식 - 일반한식"},{"name":"369포장마차","tel":"031-381-1080","addr":"경기도 고양시 덕양구 삼송동 60-4번지","category":""}]},{"lat":"37.653830949","long":"126.89509113","items":[{"name":"3Song(삼송)","tel":"031-962-8234","addr":"경기도 고양시 덕양구 삼송동 24-34번지","category":""},{"name":"호치킨","tel":"02-381-5720","addr":"경기도 고양시 덕양구 삼송동 24-34번지","category":"일반휴게음식 - 스넥"},{"name":"호치킨","tel":"02-381-5720","addr":"경기도 고양시 덕양구 삼송동 24-34번지","category":""},{"name":"호호텔레콤","tel":"02-381-5255","addr":"경기도 고양시 덕양구 삼송동 24-34번지","category":""}]},{"lat":"37.653715251","long":"126.88709086","items":[{"name":"60계치킨삼송점","tel":"02-381-7123","addr":"경기도 고양시 덕양구 삼송동 301번지","category":""},{"name":"60계치킨삼송점","tel":"02-381-7123","addr":"경기도 고양시 덕양구 삼송동 301번지","category":"일반휴게음식 - 스넥"},{"name":"인스타일 (instyle)","tel":"02-371-0906","addr":"경기도 고양시 덕양구 삼송동 301번지","category":""}]},{"lat":"37.65327421","long":"126.8875335","items":[{"name":"89폰삼송점","tel":"02-381-4843","addr":"경기도 고양시 덕양구 삼송동 302번지","category":""},{"name":"밥보다초밥","tel":"","addr":"경기도 고양시 덕양구 삼송동 302번지","category":"일반휴게음식 - 일식·회집"},{"name":"본프랑스","tel":"02-381-3669","addr":"경기도 고양시 덕양구 삼송동 302번지","category":""},{"name":"본프랑스","tel":"02-381-3669","addr":"경기도 고양시 덕양구 삼송동 302번지","category":"음료식품 - 제과점"}]},{"lat":"37.650469145","long":"126.88445565","items":[{"name":"ArtStudioJ","tel":"","addr":"경기도 고양시 덕양구 삼송동 327-2번지","category":"학원 - 예·체능계학원"},{"name":"ArtStudioJ","tel":"","addr":"경기도 고양시 덕양구 삼송동 327-2번지","category":""},{"name":"그리드헤어","tel":"02-371-1124","addr":"경기도 고양시 덕양구 삼송동 327-2번지","category":"보건위생 - 미용원"},{"name":"그리드헤어","tel":"02-371-1124","addr":"경기도 고양시 덕양구 삼송동 327-2번지","category":""},{"name":"김&밥","tel":"","addr":"경기도 고양시 덕양구 삼송동 327-2번지","category":"일반휴게음식 - 스넥"},{"name":"김&밥","tel":"","addr":"경기도 고양시 덕양구 삼송동 327-2번지","category":""},{"name":"리드라이프이즈드링크스토어","tel":"031-0-0000","addr":"경기도 고양시 덕양구 삼송동 327-2번지","category":""},{"name":"리드라이프이즈드링크스토어","tel":"031-000-0000","addr":"경기도 고양시 덕양구 삼송동 327-2번지","category":"일반휴게음식 - 서양음식"},{"name":"리얼어메리칸","tel":"031-0-0000","addr":"경기도 고양시 덕양구 삼송동 327-2번지","category":""},{"name":"블랑제리 람스파파","tel":"070-7740-0409","addr":"경기도 고양시 덕양구 삼송동 327-2번지","category":""},{"name":"삼송엣지 점핑 다이어트","tel":"","addr":"경기도 고양시 덕양구 삼송동 327-2번지","category":"건강식품 - 기타건강식품"},{"name":"셰프들의수다","tel":"02-381-5494","addr":"경기도 고양시 덕양구 삼송동 327-2번지","category":""},{"name":"알맞춤수학교습소","tel":"031-381-9875","addr":"경기도 고양시 덕양구 삼송동 327-2번지","category":"학원 - 보습학원"},{"name":"알맞춤수학교습소","tel":"031-381-9875","addr":"경기도 고양시 덕양구 삼송동 327-2번지","category":""},{"name":"예인아뜰리에미술학원","tel":"02-371-0670","addr":"경기도 고양시 덕양구 삼송동 327-2번지","category":""},{"name":"예인아뜰리에미술학원","tel":"02-371-0670","addr":"경기도 고양시 덕양구 삼송동 327-2번지","category":"학원 - 예·체능계학원"},{"name":"용배축산","tel":"032-566-1421","addr":"경기도 고양시 덕양구 삼송동 327-2번지","category":"음료식품 - 정육점"},{"name":"용배축산","tel":"032-566-1421","addr":"경기도 고양시 덕양구 삼송동 327-2번지","category":""},{"name":"울엄마떡볶이","tel":"070-5022-4846","addr":"경기도 고양시 덕양구 삼송동 327-2번지","category":""},{"name":"원바디 (one body)","tel":"","addr":"경기도 고양시 덕양구 삼송동 327-2번지","category":""},{"name":"이그잼영어교습소","tel":"02-371-0582","addr":"경기도 고양시 덕양구 삼송동 327-2번지","category":""},{"name":"이그잼영어교습소","tel":"02-371-0582","addr":"경기도 고양시 덕양구 삼송동 327-2번지","category":"학원 - 외국어학원"},{"name":"잠이편한라텍스","tel":"02-381-4959","addr":"경기도 고양시 덕양구 삼송동 327-2번지","category":""},{"name":"조이 리듬 스쿨","tel":"02-111-1111","addr":"경기도 고양시 덕양구 삼송동 327-2번지","category":"학원 - 예·체능계학원"},{"name":"조이 리듬 스쿨","tel":"","addr":"경기도 고양시 덕양구 삼송동 327-2번지","category":""},{"name":"지영수산","tel":"02-3712-2188","addr":"경기도 고양시 덕양구 삼송동 327-2번지","category":"음료식품 - 기타음료식품"},{"name":"짬뽕연구소","tel":"02-381-2211","addr":"경기도 고양시 덕양구 삼송동 327-2번지","category":"일반휴게음식 - 중국식"},{"name":"짬뽕연구소","tel":"02-381-2211","addr":"경기도 고양시 덕양구 삼송동 327-2번지","category":""},{"name":"춘원짬뽕신","tel":"02-381-2211","addr":"경기도 고양시 덕양구 삼송동 327-2번지","category":""},{"name":"포휴","tel":"","addr":"경기도 고양시 덕양구 삼송동 327-2번지","category":"일반휴게음식 - 서양음식"},{"name":"포휴","tel":"","addr":"경기도 고양시 덕양구 삼송동 327-2번지","category":""},{"name":"한류태권도코리아","tel":"070-4122-4041","addr":"경기도 고양시 덕양구 삼송동 327-2번지","category":""}]},{"lat":"37.653967143","long":"126.88670518","items":[{"name":"BBQ 삼송스타점","tel":"02-381-7070","addr":"경기도 고양시 덕양구 삼송동 300-1번지","category":""},{"name":"모노걸즈","tel":"031-111-1111","addr":"경기도 고양시 덕양구 삼송동 300-1번지","category":""},{"name":"모노걸즈","tel":"031-111-1111","addr":"경기도 고양시 덕양구 삼송동 300-1번지","category":"의류 - 정장"},{"name":"비비큐삼송스타점 (BBQ삼송스타점)","tel":"02-381-7070","addr":"경기도 고양시 덕양구 삼송동 300-1번지","category":""},{"name":"비비큐삼송스타점 (BBQ삼송스타점)","tel":"02-381-7070","addr":"경기도 고양시 덕양구 삼송동 300-1번지","category":"일반휴게음식 - 스넥"},{"name":"비손","tel":"02-381-1141","addr":"경기도 고양시 덕양구 삼송동 300-1번지","category":""},{"name":"심플리블랙","tel":"","addr":"경기도 고양시 덕양구 삼송동 300-1번지","category":""},{"name":"어나더미","tel":"","addr":"경기도 고양시 덕양구 삼송동 300-1번지","category":"의류 - 정장"}]},{"lat":"37.653940698","long":"126.89689278","items":[{"name":"BHC치킨 삼송역점","tel":"02-381-3311","addr":"경기도 고양시 덕양구 삼송동 61-29번지","category":""},{"name":"대박철판곱창순대볶음","tel":"02-381-9322","addr":"경기도 고양시 덕양구 삼송동 61-29번지","category":"일반휴게음식 - 일반한식"},{"name":"대박철판곱창순대볶음","tel":"02-381-9322","addr":"경기도 고양시 덕양구 삼송동 61-29번지","category":""}]},{"lat":"37.653662201","long":"126.88812216","items":[{"name":"BM필라테스&PT 삼송점","tel":"02-371-3016","addr":"경기도 고양시 덕양구 삼송동 301-6번지","category":"레저업소 - 헬스클럽"},{"name":"바디서클","tel":"070-7365-0492","addr":"경기도 고양시 덕양구 삼송동 301-6번지","category":""}]},{"lat":"37.652399348","long":"126.8865943","items":[{"name":"Comoda","tel":"070-7792-3123","addr":"경기도 고양시 덕양구 삼송동 306번지 삼송마을동원로얄듀크","category":""}]},{"lat":"37.654271476","long":"126.89405927","items":[{"name":"DN인테리어","tel":"02-381-6034","addr":"경기도 고양시 덕양구 삼송동 33-9번지","category":"건축자재 - 인테리어전문"},{"name":"DN인테리어","tel":"02-381-6034","addr":"경기도 고양시 덕양구 삼송동 33-9번지","category":""},{"name":"뜰헤어","tel":"02-381-4541","addr":"경기도 고양시 덕양구 삼송동 33-9번지","category":"보건위생 - 미용원"},{"name":"뜰헤어","tel":"","addr":"경기도 고양시 덕양구 삼송동 33-9번지","category":""},{"name":"산송꿀족","tel":"02-381-9298","addr":"경기도 고양시 덕양구 삼송동 33-9번지","category":"일반휴게음식 - 일반한식"}]},{"lat":"37.650240196","long":"126.88986115","items":[{"name":"Delight 포토","tel":"070-7792-5644","addr":"경기도 고양시 덕양구 삼송동 128-54번지","category":""}]},{"lat":"37.644632655","long":"126.87747388","items":[{"name":"GS25덕양삼송점","tel":"080-555-2525","addr":"경기도 고양시 덕양구 삼송동 355번지","category":""},{"name":"GS25덕양삼송점","tel":"080-555-2525","addr":"경기도 고양시 덕양구 삼송동 355번지","category":""}]},{"lat":"37.653157161","long":"126.887613","items":[{"name":"GS25삼송로얄점","tel":"","addr":"경기도 고양시 덕양구 삼송동 302-1번지","category":"유통업 영리 - 편 의 점"},{"name":"GS25삼송로얄점","tel":"","addr":"경기도 고양시 덕양구 삼송동 302-1번지","category":""},{"name":"GS25삼송로얄점","tel":"","addr":"경기도 고양시 덕양구 삼송동 302-1번지","category":""}]},{"lat":"37.650770895","long":"126.88895382","items":[{"name":"GS25삼송아이파크점","tel":"","addr":"경기도 고양시 덕양구 삼송동 313-7번지","category":""},{"name":"GS25삼송아이파크점","tel":"","addr":"경기도 고양시 덕양구 삼송동 313-7번지","category":"유통업 영리 - 편 의 점"},{"name":"GS25삼송아이파크점","tel":"","addr":"경기도 고양시 덕양구 삼송동 313-7번지","category":""},{"name":"치코스(Chico\"s)","tel":"","addr":"경기도 고양시 덕양구 삼송동 313-7번지","category":"의류 - 정장"}]},{"lat":"37.650135023","long":"126.88369697","items":[{"name":"GS25삼송중앙점","tel":"","addr":"경기도 고양시 덕양구 삼송동 324-1번지","category":"유통업 영리 - 편 의 점"},{"name":"GS25삼송중앙점","tel":"","addr":"경기도 고양시 덕양구 삼송동 324-1번지","category":""},{"name":"GS25삼송중앙점","tel":"","addr":"경기도 고양시 덕양구 삼송동 324-1번지","category":""},{"name":"맑은샘 이비인후과 의원","tel":"02-353-1475","addr":"경기도 고양시 덕양구 삼송동 324-1번지","category":""},{"name":"맑은샘 이비인후과 의원","tel":"02-353-1475","addr":"경기도 고양시 덕양구 삼송동 324-1번지","category":"의원 - 의원"},{"name":"코코온누리약국","tel":"02-381-5540","addr":"경기도 고양시 덕양구 삼송동 324-1번지","category":"약국 - 약국"},{"name":"코코온누리약국","tel":"02-381-5540","addr":"경기도 고양시 덕양구 삼송동 324-1번지","category":""}]},{"lat":"37.65232774","long":"126.89664577","items":[{"name":"GS25삼송힐스테이트점","tel":"","addr":"경기도 고양시 덕양구 삼송동 291번지","category":"유통업 영리 - 편 의 점"},{"name":"더힐헤어","tel":"02-0000-0000","addr":"경기도 고양시 덕양구 삼송동 291번지","category":"보건위생 - 미용원"},{"name":"멜로우네일","tel":"02-371-1265","addr":"경기도 고양시 덕양구 삼송동 291번지","category":"보건위생 - 피부미용실"},{"name":"비센 필라테스","tel":"","addr":"경기도 고양시 덕양구 삼송동 291번지","category":"레저업소 - 헬스클럽"},{"name":"이마트24 삼송힐스테이트점","tel":"031-1111-1111","addr":"경기도 고양시 덕양구 삼송동 291번지","category":"유통업 영리 - 편 의 점"}]},{"lat":"37.651410769","long":"126.88914548","items":[{"name":"Joshua lap (조슈아 랩)","tel":"070-8803-1592","addr":"경기도 고양시 덕양구 삼송동 314-4번지","category":""},{"name":"Joshua lap (조슈아 랩)","tel":"070-8803-1592","addr":"경기도 고양시 덕양구 삼송동 314-4번지","category":"문화.취미 - 문화취미기타"}]},{"lat":"37.642991353","long":"126.87603768","items":[{"name":"Just bike (저스트 바이크)","tel":"02-381-5253","addr":"경기도 고양시 덕양구 삼송동 361-4번지","category":""}]},{"lat":"37.644606274","long":"126.87808578","items":[{"name":"K-TOP(케이탑)PC존","tel":"","addr":"경기도 고양시 덕양구 삼송동 348-2번지","category":""},{"name":"디자인퍼니쳐(주)","tel":"02-381-9881","addr":"경기도 고양시 덕양구 삼송동 348-2번지","category":"가구 - 일반가구"},{"name":"디자인퍼니쳐주식회사","tel":"02-381-9881","addr":"경기도 고양시 덕양구 삼송동 348-2번지","category":"가구 - 일반가구"},{"name":"마루샤브 삼송점","tel":"02-381-1313","addr":"경기도 고양시 덕양구 삼송동 348-2번지","category":""},{"name":"마루샤브 삼송점","tel":"02-381-1313","addr":"경기도 고양시 덕양구 삼송동 348-2번지","category":"일반휴게음식 - 일반한식"},{"name":"세븐일레븐고양대로점","tel":"","addr":"경기도 고양시 덕양구 삼송동 348-2번지","category":"유통업 영리 - 편 의 점"},{"name":"세븐일레븐고양대로점","tel":"","addr":"경기도 고양시 덕양구 삼송동 348-2번지","category":""},{"name":"조이락골프존","tel":"02-381-8400","addr":"경기도 고양시 덕양구 삼송동 348-2번지","category":"레저업소 - 스크린골프"},{"name":"조이락골프존","tel":"02-381-8400","addr":"경기도 고양시 덕양구 삼송동 348-2번지","category":""},{"name":"조이락골프존","tel":"02-381-8400","addr":"경기도 고양시 덕양구 삼송동 348-2번지","category":""},{"name":"주식회사 삼송시몬스","tel":"031-932-9733","addr":"경기도 고양시 덕양구 삼송동 348-2번지","category":""}]},{"lat":"37.652295966","long":"126.89150116","items":[{"name":"K3 motors","tel":"02-371-0255","addr":"경기도 고양시 덕양구 삼송동 135-90번지","category":""}]},{"lat":"37.653022072","long":"126.88766987","items":[{"name":"M","tel":"070-7643-0616","addr":"경기도 고양시 덕양구 삼송동 302-2번지","category":""},{"name":"그린빈","tel":"02-381-9685","addr":"경기도 고양시 덕양구 삼송동 302-2번지","category":""},{"name":"그린빈","tel":"02-381-9685","addr":"경기도 고양시 덕양구 삼송동 302-2번지","category":"일반휴게음식 - 서양음식"},{"name":"마리살롱","tel":"02-381-9991","addr":"경기도 고양시 덕양구 삼송동 302-2번지","category":"보건위생 - 미용원"},{"name":"마리헤어","tel":"02-381-9991","addr":"경기도 고양시 덕양구 삼송동 302-2번지","category":""}]},{"lat":"37.653048502","long":"126.8870579","items":[{"name":"MEDI LAB(메디랩)","tel":"070-4589-7592","addr":"경기도 고양시 덕양구 삼송동 306번지 삼송마을동원로얄듀크","category":""},{"name":"MEDI LAB(메디랩)","tel":"070-4589-7592","addr":"경기도 고양시 덕양구 삼송동 306번지 삼송마을동원로얄듀크","category":"보건위생 - 화장품"}]},{"lat":"37.654300133","long":"126.89583838","items":[{"name":"MIKO(미코)","tel":"02-381-3721","addr":"경기도 고양시 덕양구 삼송동 58-14번지","category":""},{"name":"MIKO(미코)","tel":"02-381-3721","addr":"경기도 고양시 덕양구 삼송동 58-14번지","category":"유통업 영리 - 기타유통업"},{"name":"MIKO(미코)/비씨","tel":"02-381-3721","addr":"경기도 고양시 덕양구 삼송동 58-14번지","category":""},{"name":"MIKO(미코)/비씨","tel":"02-381-3721","addr":"경기도 고양시 덕양구 삼송동 58-14번지","category":"별도관리 - 자체물품대금"}]},{"lat":"37.641828223","long":"126.87522388","items":[{"name":"MR ENG(엠알엔지니어)","tel":"031-0-0000","addr":"경기도 고양시 덕양구 삼송동 366-5번지","category":""},{"name":"MR ENG(엠알엔지니어)","tel":"031-000-0000","addr":"경기도 고양시 덕양구 삼송동 366-5번지","category":"수리서비스 - 기타수리서비스"}]},{"lat":"37.643578026","long":"126.8770111","items":[{"name":"SL코리아","tel":"070-8688-0277","addr":"경기도 고양시 덕양구 삼송동 356-5번지","category":""},{"name":"SL코리아","tel":"070-8688-0277","addr":"경기도 고양시 덕양구 삼송동 356-5번지","category":"레져용품 - 스포츠·레져용품"}]},{"lat":"37.643912408","long":"126.87797364","items":[{"name":"SM승합차자동문","tel":"032-864-1777","addr":"경기도 고양시 덕양구 삼송동 357-3번지","category":""},{"name":"SM승합차자동문","tel":"032-864-1777","addr":"경기도 고양시 덕양구 삼송동 357-3번지","category":"자동차정비 유지 - 자동차정비"},{"name":"헤어바이엘(HAIR BY 엘)","tel":"031-901-6764","addr":"경기도 고양시 덕양구 삼송동 357-3번지","category":"보건위생 - 미용원"},{"name":"헤어바이엘(HAIR BY 엘)","tel":"031-901-6764","addr":"경기도 고양시 덕양구 삼송동 357-3번지","category":""}]},{"lat":"37.642216544","long":"126.87606165","items":[{"name":"SPCB SYSTEMS( 에스피씨비 시스템즈)","tel":"","addr":"경기도 고양시 덕양구 삼송동 368-7번지","category":""},{"name":"SPCB SYSTEMS( 에스피씨비 시스템즈)","tel":"","addr":"경기도 고양시 덕양구 삼송동 368-7번지","category":"수리서비스 - 사무·통신기기수리"}]},{"lat":"37.651410232","long":"126.88859023","items":[{"name":"h#157","tel":"02-381-1573","addr":"경기도 고양시 덕양구 삼송동 313-2번지","category":""},{"name":"h#157","tel":"02-381-1573","addr":"경기도 고양시 덕양구 삼송동 313-2번지","category":"보건위생 - 미용원"},{"name":"고모크라프트","tel":"02-371-0095","addr":"경기도 고양시 덕양구 삼송동 313-2번지","category":""}]},{"lat":"37.656884209","long":"126.89397613","items":[{"name":"hill and good","tel":"031-1566-6080","addr":"경기도 고양시 덕양구 삼송동 50-20번지","category":""},{"name":"베스킨라빈스 삼송점","tel":"02-371-1141","addr":"경기도 고양시 덕양구 삼송동 50-20번지","category":""},{"name":"베스킨라빈스 삼송점","tel":"02-371-1141","addr":"경기도 고양시 덕양구 삼송동 50-20번지","category":"음료식품 - 제과점"},{"name":"장독대(삼송2호점)","tel":"02-381-1045","addr":"경기도 고양시 덕양구 삼송동 50-20번지","category":""},{"name":"장독대(삼송2호점)","tel":"02-381-1045","addr":"경기도 고양시 덕양구 삼송동 50-20번지","category":"음료식품 - 기타음료식품"}]},{"lat":"37.651158125","long":"126.88876059","items":[{"name":"illuminante(일루미난떼)","tel":"","addr":"경기도 고양시 덕양구 삼송동 313-4번지","category":""},{"name":"illuminante(일루미난떼)","tel":"","addr":"경기도 고양시 덕양구 삼송동 313-4번지","category":"일반휴게음식 - 서양음식"},{"name":"illuminate(일루미난떼)","tel":"","addr":"경기도 고양시 덕양구 삼송동 313-4번지","category":""},{"name":"illuminate(일루미난떼)","tel":"","addr":"경기도 고양시 덕양구 삼송동 313-4번지","category":"문화.취미 - 화원"},{"name":"빵선생","tel":"031-474-9142","addr":"경기도 고양시 덕양구 삼송동 313-4번지","category":""},{"name":"스시  묘하다","tel":"031-351-4404","addr":"경기도 고양시 덕양구 삼송동 313-4번지","category":"일반휴게음식 - 일식·회집"},{"name":"스시家묘하다","tel":"031-351-4404","addr":"경기도 고양시 덕양구 삼송동 313-4번지","category":""},{"name":"카페인","tel":"070-7786-4348","addr":"경기도 고양시 덕양구 삼송동 313-4번지","category":"일반휴게음식 - 서양음식"},{"name":"카페인","tel":"070-7786-4348","addr":"경기도 고양시 덕양구 삼송동 313-4번지","category":""}]},{"lat":"37.643387535","long":"126.87581039","items":[{"name":"mdb메종드보떼","tel":"","addr":"경기도 고양시 덕양구 삼송동 360-2번지","category":""},{"name":"월드라인","tel":"031-901-5571","addr":"경기도 고양시 덕양구 삼송동 360-2번지","category":"유통업 영리 - 기타유통업"},{"name":"월드라인","tel":"031-901-5571","addr":"경기도 고양시 덕양구 삼송동 360-2번지","category":""}]},{"lat":"37.654272012","long":"126.88523153","items":[{"name":"가감승제imagefactory","tel":"02-371-1103","addr":"경기도 고양시 덕양구 삼송동 297번지","category":""},{"name":"가감승제imagefactory","tel":"02-371-1103","addr":"경기도 고양시 덕양구 삼송동 297번지","category":"광학제품 - 사진관"},{"name":"아벨라움","tel":"031-000-0000","addr":"경기도 고양시 덕양구 삼송동 297번지","category":"보건위생 - 미용원"},{"name":"아벨라움","tel":"031-0-0000","addr":"경기도 고양시 덕양구 삼송동 297번지","category":""},{"name":"주식회사 단아하우스","tel":"02-1588-9432","addr":"경기도 고양시 덕양구 삼송동 297번지","category":""},{"name":"주식회사 단아하우스","tel":"02-1588-9432","addr":"경기도 고양시 덕양구 삼송동","category":"사무통신 - 통신기기"}]},{"lat":"37.643993351","long":"126.87783754","items":[{"name":"가미당","tel":"02-381-4244","addr":"경기도 고양시 덕양구 삼송동 357-16번지","category":""},{"name":"가미당","tel":"02-381-4244","addr":"경기도 고양시 덕양구 삼송동 357-16번지","category":"일반휴게음식 - 스넥"}]},{"lat":"37.658886469","long":"126.89628511","items":[{"name":"가와이","tel":"02-395-2726","addr":"경기도 고양시 덕양구 삼송동 62-104번지","category":""},{"name":"가와이","tel":"02-395-2726","addr":"경기도 고양시 덕양구 삼송동 62-104번지","category":"보건위생 - 미용재료"}]},{"lat":"37.644992487","long":"126.87695206","items":[{"name":"가제트술집(삼송점)","tel":"070-7721-8520","addr":"경기도 고양시 덕양구 삼송동 353-1번지","category":""},{"name":"청춘미가","tel":"","addr":"경기도 고양시 덕양구 삼송동 353-1번지","category":"일반휴게음식 - 주점"}]},{"lat":"37.652578676","long":"126.89517227","items":[{"name":"갈비골","tel":"02-381-5353","addr":"경기도 고양시 덕양구 삼송동 16-46번지","category":"일반휴게음식 - 일반한식"},{"name":"굿바디 필라테스","tel":"02-381-9907","addr":"경기도 고양시 덕양구 삼송동 16-46번지","category":"레저업소 - 헬스클럽"},{"name":"누구나홀딱반한닭삼송역점","tel":"02-381-2511","addr":"경기도 고양시 덕양구 삼송동 16-46번지","category":"일반휴게음식 - 일반한식"},{"name":"더치앤빈 (DUTCH&BEAN)","tel":"02-381-5125","addr":"경기도 고양시 덕양구 삼송동 16-46번지","category":"일반휴게음식 - 서양음식"},{"name":"문헤어","tel":"02-1899-2192","addr":"경기도 고양시 덕양구 삼송동 16-46번지","category":"보건위생 - 미용원"},{"name":"삼송스마트치과의원","tel":"02-371-2879","addr":"경기도 고양시 덕양구 삼송동 16-46번지","category":"의원 - 치과의원"},{"name":"삼송스마트한의원","tel":"02-371-1082","addr":"경기도 고양시 덕양구 삼송동 16-46번지","category":"의원 - 한의원"},{"name":"삼송역 3번출구 약국","tel":"02-381-4532","addr":"경기도 고양시 덕양구 삼송동 16-46번지","category":"약국 - 약국"},{"name":"위드","tel":"02-381-2469","addr":"경기도 고양시 덕양구 삼송동 16-46번지","category":"일반휴게음식 - 일반한식"},{"name":"이준각가정의학과의원","tel":"02-353-8253","addr":"경기도 고양시 덕양구 삼송동 16-46번지","category":"의원 - 의원"}]},{"lat":"37.648081454","long":"126.8843348","items":[{"name":"강남프라자 관리단","tel":"02-0000-0000","addr":"경기도 고양시 덕양구 삼송동 337-3번지","category":"자동차정비 유지 - 주차장"},{"name":"눈 안경콘택트","tel":"02-857-1233","addr":"경기도 고양시 덕양구 삼송동 337-3번지","category":"보건위생 - 안경"},{"name":"대박폰마트","tel":"02-381-9757","addr":"경기도 고양시 덕양구 삼송동 337-3번지","category":"사무통신 - 통신기기"},{"name":"미용실주연","tel":"02-371-1348","addr":"경기도 고양시 덕양구 삼송동 337-3번지","category":"보건위생 - 미용원"},{"name":"비씨800(BC800)","tel":"02-371-3223","addr":"경기도 고양시 덕양구 삼송동 337-3번지","category":"일반휴게음식 - 서양음식"},{"name":"주식회사에스씨교육미디어","tel":"02-371-1800","addr":"경기도 고양시 덕양구 삼송동 337-3번지","category":"학원 - 보습학원"},{"name":"해광컴퍼니","tel":"02-381-9757","addr":"경기도 고양시 덕양구 삼송동 337-3번지","category":"사무통신 - 통신기기"},{"name":"회싸게파는집","tel":"031-381-0885","addr":"경기도 고양시 덕양구 삼송동 337-3번지","category":"일반휴게음식 - 일반한식"}]},{"lat":"37.648162382","long":"126.88417603","items":[{"name":"강남프라자 관리단","tel":"","addr":"경기도 고양시 덕양구 삼송동 337-3번지","category":""},{"name":"눈 안경콘택트","tel":"02-857-1233","addr":"경기도 고양시 덕양구 삼송동 337-3번지","category":""},{"name":"대박폰마트","tel":"02-381-9757","addr":"경기도 고양시 덕양구 삼송동 337-3번지","category":""},{"name":"도매폰마트(리안텔레콤)","tel":"","addr":"경기도 고양시 덕양구 삼송동 337-3번지","category":""},{"name":"미용실주연","tel":"02-371-1348","addr":"경기도 고양시 덕양구 삼송동 337-3번지","category":""},{"name":"비씨800(BC800)","tel":"02-371-3223","addr":"경기도 고양시 덕양구 삼송동 337-3번지","category":""},{"name":"삼송세레나데음악학원","tel":"070-4233-2335","addr":"경기도 고양시 덕양구 삼송동 337-3번지","category":""},{"name":"야미","tel":"02-371-0599","addr":"경기도 고양시 덕양구 삼송동 337-3번지","category":""},{"name":"주식회사에스씨교육미디어","tel":"02-371-1800","addr":"경기도 고양시 덕양구 삼송동 337-3번지","category":""},{"name":"활어회시장 삼송점","tel":"02-381-0885","addr":"경기도 고양시 덕양구 삼송동 337-3번지","category":""},{"name":"회싸게파는집","tel":"031-381-0885","addr":"경기도 고양시 덕양구 삼송동 337-3번지","category":""}]},{"lat":"37.652690514","long":"126.88952881","items":[{"name":"갤러리","tel":"02-371-1885","addr":"경기도 고양시 덕양구 삼송동 77-15번지","category":"의류 - 정장"},{"name":"갤러리","tel":"02-371-1885","addr":"경기도 고양시 덕양구 삼송동 77-15번지","category":""}]},{"lat":"37.65515635","long":"126.89616578","items":[{"name":"갤러리라움빌리아드클럽","tel":"","addr":"경기도 고양시 덕양구 삼송동 58-20번지","category":"레저업소 - 당 구 장"},{"name":"갤러리라움빌리아드클럽","tel":"02-381-0722","addr":"경기도 고양시 덕양구 삼송동 58-20번지","category":""},{"name":"갤러리라움빌리아드클럽","tel":"","addr":"경기도 고양시 덕양구 삼송동 58-20번지","category":""},{"name":"갤러리라움빌리아드클럽","tel":"0238-383-3443","addr":"경기도 고양시 덕양구 삼송동 58-20번지","category":""},{"name":"삼송레지던스","tel":"02-383-3443","addr":"경기도 고양시 덕양구 삼송동 58-20번지","category":"일반휴게음식 - 일반한식"},{"name":"삼송레지던스","tel":"02-383-3443","addr":"경기도 고양시 덕양구 삼송동 58-20번지","category":""}]},{"lat":"37.652712697","long":"126.89394823","items":[{"name":"거성","tel":"02-371-1818","addr":"경기도 고양시 덕양구 삼송동 30-28번지","category":""},{"name":"궈궈","tel":"","addr":"경기도 고양시 덕양구 삼송동 30-28번지","category":"일반휴게음식 - 일반한식"}]},{"lat":"37.655300915","long":"126.89661887","items":[{"name":"거성자동차공업사","tel":"02-381-6833","addr":"경기도 고양시 덕양구 삼송동 57-11번지","category":""},{"name":"거성자동차공업사","tel":"02-381-6833","addr":"경기도 고양시 덕양구 삼송동 57-11번지","category":"자동차정비 유지 - 자동차정비"}]},{"lat":"37.655660399","long":"126.89562111","items":[{"name":"건강한땅,착한먹거리","tel":"02-381-6047","addr":"경기도 고양시 덕양구 삼송동 50-81번지","category":""},{"name":"건강한땅,착한먹거리","tel":"02-381-6047","addr":"경기도 고양시 덕양구 삼송동 50-81번지","category":"신변잡화 - 기타잡화"}]},{"lat":"37.652884725","long":"126.89486586","items":[{"name":"건담샵 삼송역점","tel":"02-371-3797","addr":"경기도 고양시 덕양구 삼송동 16-45번지","category":""},{"name":"다이소 고양삼송점/(주) 동원삼송","tel":"02-381-4411","addr":"경기도 고양시 덕양구 삼송동 16-45번지","category":"신변잡화 - 기타잡화"},{"name":"다이소 고양삼송점/(주) 동원삼송","tel":"02-381-4411","addr":"경기도 고양시 덕양구 삼송동 16-45번지","category":""},{"name":"더불어 약국","tel":"02-371-0180","addr":"경기도 고양시 덕양구 삼송동 16-45번지","category":""},{"name":"더불어 약국","tel":"02-371-0180","addr":"경기도 고양시 덕양구 삼송동 16-45번지","category":"약국 - 약국"},{"name":"법무사 신혜주 사무소","tel":"02-381-8188","addr":"경기도 고양시 덕양구 삼송동 16-45번지","category":""},{"name":"법무사 신혜주 사무소","tel":"02-381-8188","addr":"경기도 고양시 덕양구 삼송동 16-45번지","category":"용역 서비스 - 법률회계서비스(개인)"},{"name":"삼송대박식당","tel":"02-2265-8594","addr":"경기도 고양시 덕양구 삼송동 16-45번지","category":"일반휴게음식 - 일반한식"},{"name":"삼송대박식당","tel":"02-2265-8594","addr":"경기도 고양시 덕양구 삼송동 16-45번지","category":""},{"name":"삼송서울정형외과의원","tel":"02-371-3232","addr":"경기도 고양시 덕양구 삼송동 16-45번지","category":""},{"name":"삼송서울정형외과의원","tel":"02-371-3232","addr":"경기도 고양시 덕양구 삼송동 16-45번지","category":"의원 - 의원"},{"name":"서울행복담은치과의원","tel":"031-381-0300","addr":"경기도 고양시 덕양구 삼송동 16-45번지","category":"의원 - 치과의원"},{"name":"위드미삼송역점","tel":"070-7018-5364","addr":"경기도 고양시 덕양구 삼송동 16-45번지","category":""},{"name":"지니텔레콤","tel":"02-371-1971","addr":"경기도 고양시 덕양구 삼송동 16-45번지","category":"사무통신 - 통신기기"},{"name":"커피에반하다 삼송역점","tel":"","addr":"경기도 고양시 덕양구 삼송동 16-45번지","category":"일반휴게음식 - 서양음식"}]},{"lat":"37.650603698","long":"126.88386619","items":[{"name":"경희삼송한의원","tel":"031-371-3375","addr":"경기도 고양시 덕양구 삼송동 326번지","category":"의원 - 한의원"},{"name":"경희삼송한의원","tel":"031-371-3375","addr":"경기도 고양시 덕양구 삼송동 326번지","category":""},{"name":"로즈산부인과의원","tel":"02-381-9115","addr":"경기도 고양시 덕양구 삼송동 326번지","category":"의원 - 의원"},{"name":"리멤버피부과의원(고양삼송점)","tel":"02-6959-0377","addr":"경기도 고양시 덕양구 삼송동 326번지","category":""},{"name":"맑은아침안과","tel":"02-381-8775","addr":"경기도 고양시 덕양구 삼송동 326번지","category":"의원 - 의원"},{"name":"맑은아침안과","tel":"02-381-8775","addr":"경기도 고양시 덕양구 삼송동 326번지","category":""},{"name":"별가람연세이비인후과","tel":"02-381-7077","addr":"경기도 고양시 덕양구 삼송동 326번지","category":"의원 - 의원"},{"name":"별가람연세이비인후과","tel":"02-381-7077","addr":"경기도 고양시 덕양구 삼송동 326번지","category":""},{"name":"별빛약국","tel":"02-381-9354","addr":"경기도 고양시 덕양구 삼송동 326번지","category":"약국 - 약국"},{"name":"별빛약국","tel":"02-381-9354","addr":"경기도 고양시 덕양구 삼송동 326번지","category":""},{"name":"본죽고양삼송점","tel":"02-371-1566","addr":"경기도 고양시 덕양구 삼송동 326번지","category":""},{"name":"본죽고양삼송점","tel":"02-371-1566","addr":"경기도 고양시 덕양구 삼송동 326번지","category":"일반휴게음식 - 일반한식"},{"name":"봄날그리고치과의원","tel":"02-735-2279","addr":"경기도 고양시 덕양구 삼송동 326번지","category":"의원 - 치과의원"},{"name":"봄날그리고치과의원","tel":"02-735-2279","addr":"경기도 고양시 덕양구 삼송동 326번지","category":""},{"name":"아이스토리안경","tel":"02-381-8856","addr":"경기도 고양시 덕양구 삼송동 326번지","category":"보건위생 - 안경"},{"name":"아이스토리안경","tel":"02-381-8856","addr":"경기도 고양시 덕양구 삼송동 326번지","category":""},{"name":"이디야 (고양 삼송)","tel":"02-371-3211","addr":"경기도 고양시 덕양구 삼송동 326번지","category":"일반휴게음식 - 서양음식"},{"name":"이디야 (고양 삼송)","tel":"02-371-3211","addr":"경기도 고양시 덕양구 삼송동 326번지","category":""},{"name":"파리바게뜨 고양삼송점","tel":"02-381-8203","addr":"경기도 고양시 덕양구 삼송동 326번지","category":"음료식품 - 제과점"},{"name":"파리바게뜨 고양삼송점","tel":"02-381-8203","addr":"경기도 고양시 덕양구 삼송동 326번지","category":""}]},{"lat":"37.653830544","long":"126.89464918","items":[{"name":"경희우소한의원","tel":"","addr":"경기도 고양시 덕양구 삼송동 27-1번지","category":"의원 - 한의원"},{"name":"더삼송치과","tel":"02-2038-3020","addr":"경기도 고양시 덕양구 삼송동 27-1번지","category":""},{"name":"더삼송치과","tel":"02-2038-3020","addr":"경기도 고양시 덕양구 삼송동 27-1번지","category":"의원 - 치과의원"},{"name":"보성","tel":"02-381-8484","addr":"경기도 고양시 덕양구 삼송동","category":"약국 - 약국"},{"name":"보성","tel":"02-381-8484","addr":"경기도 고양시 덕양구 삼송동 27-1번지","category":""},{"name":"삼성공감정신건강의학과의원","tel":"02-371-1544","addr":"경기도 고양시 덕양구 삼송동 27-1번지","category":"의원 - 의원"},{"name":"삼송왕족발","tel":"02-381-1313","addr":"경기도 고양시 덕양구 삼송동 27-1번지","category":""},{"name":"삼송왕족발","tel":"02-381-1313","addr":"경기도 고양시 덕양구 삼송동 27-1번지","category":"일반휴게음식 - 일반한식"},{"name":"우림인터내셔널","tel":"02-381-9815","addr":"경기도 고양시 덕양구 삼송동 27-1번지","category":"의류 - 아동의류"},{"name":"우림인터내셔널","tel":"02-381-9815","addr":"경기도 고양시 덕양구 삼송동 27-1번지","category":""},{"name":"이디야고양삼송역점","tel":"02-371-2701","addr":"경기도 고양시 덕양구 삼송동 27-1번지","category":""},{"name":"이디야고양삼송역점","tel":"02-371-2701","addr":"경기도 고양시 덕양구 삼송동 27-1번지","category":"일반휴게음식 - 서양음식"},{"name":"짝태앤노가리","tel":"02-303-3802","addr":"경기도 고양시 덕양구 삼송동 27-1번지","category":""},{"name":"짝태앤노가리","tel":"02-303-3802","addr":"경기도 고양시 덕양구 삼송동 27-1번지","category":"일반휴게음식 - 주점"},{"name":"포인트영어학원","tel":"","addr":"경기도 고양시 덕양구 삼송동 27-1번지","category":""},{"name":"포인트영어학원","tel":"","addr":"경기도 고양시 덕양구 삼송동 27-1번지","category":"학원 - 외국어학원"},{"name":"희성프라자","tel":"031-8800-8497","addr":"경기도 고양시 덕양구 삼송동 27-1번지","category":""},{"name":"희성프라자","tel":"031-8800-8497","addr":"경기도 고양시 덕양구 삼송동 27-1번지","category":"자동차정비 유지 - 주차장"}]},{"lat":"37.649990959","long":"126.88378785","items":[{"name":"고려삼송재활의학과의원","tel":"02-355-5599","addr":"경기도 고양시 덕양구 삼송동 324-2번지","category":""},{"name":"김대표김밥","tel":"02-381-6005","addr":"경기도 고양시 덕양구 삼송동 324-2번지","category":"일반휴게음식 - 스넥"},{"name":"김대표김밥","tel":"02-381-6005","addr":"경기도 고양시 덕양구 삼송동 324-2번지","category":""},{"name":"더 프리미엄 스터디카페","tel":"02-6409-0909","addr":"경기도 고양시 덕양구 삼송동 324-2번지","category":"용역 서비스 - 사무서비스"},{"name":"도매폰마트(마리텔레콤)","tel":"031-381-5022","addr":"경기도 고양시 덕양구 삼송동 324-2번지","category":"사무통신 - 통신기기"},{"name":"도매폰마트(마리텔레콤)","tel":"031-381-5022","addr":"경기도 고양시 덕양구 삼송동 324-2번지","category":""},{"name":"삼성키즈소아청소년과의원","tel":"031-388-1119","addr":"경기도 고양시 덕양구 삼송동 324-2번지","category":""},{"name":"삼송서울치과","tel":"02-356-2835","addr":"경기도 고양시 덕양구 삼송동 324-2번지","category":""},{"name":"올리브약국","tel":"02-381-5570","addr":"경기도 고양시 덕양구 삼송동 324-2번지","category":""},{"name":"올리브약국","tel":"02-381-5570","addr":"경기도 고양시 덕양구 삼송동 324-2번지","category":"약국 - 약국"}]},{"lat":"37.644549345","long":"126.87540051","items":[{"name":"고양가죽 작업실","tel":"02-371-3101","addr":"경기도 고양시 덕양구 삼송동 351-2번지","category":"문화.취미 - 문화취미기타"}]},{"lat":"37.654741885","long":"126.89614371","items":[{"name":"고양건강원","tel":"031-381-4613","addr":"경기도 고양시 덕양구 삼송동 61-56번지","category":"건강식품 - 기타건강식품"},{"name":"고양건강원","tel":"031-381-4613","addr":"경기도 고양시 덕양구 삼송동 61-56번지","category":""},{"name":"섬진강추어탕","tel":"02-381-6719","addr":"경기도 고양시 덕양구 삼송동 61-56번지","category":""}]},{"lat":"37.654855142","long":"126.89195062","items":[{"name":"고양고등학교","tel":"02-350-5700","addr":"경기도 고양시 덕양구 삼송동 45-2번지","category":"학원 - 초중고교육기관"},{"name":"고양고등학교_수업료","tel":"02-350-5700","addr":"경기도 고양시 덕양구 삼송동 45-2번지","category":"학원 - 초중고교육기관"}]},{"lat":"37.650691351","long":"126.89056303","items":[{"name":"고양동산초등학교병설유치원[아이행복]","tel":"02-381-2250","addr":"경기도 고양시 덕양구 삼송동 128-167번지","category":"학원 - 유치원"}]},{"lat":"37.649578014","long":"126.88528426","items":[{"name":"고양시립 삼송 어린이집[아이행복]","tel":"02-357-3200","addr":"경기도 고양시 덕양구 삼송동 321번지","category":"학원 - 유아원"}]},{"lat":"37.653081989","long":"126.89383437","items":[{"name":"고양신도동우체국","tel":"02-381-8284","addr":"경기도 고양시 덕양구 삼송동 30-50번지","category":""},{"name":"고양신도동우체국","tel":"02-381-8284","addr":"경기도 고양시 덕양구 삼송동 30-50번지","category":"용역 서비스 - 공공요금대행서비스/소"}]},{"lat":"37.649496293","long":"126.88464983","items":[{"name":"고양중학교","tel":"02-350-1115","addr":"경기도 고양시 덕양구 삼송동 322번지","category":"학원 - 초중고교육기관"},{"name":"고양중학교 분사무소 우꾸미/경기마을교육","tel":"02-350-1157","addr":"경기도 고양시 덕양구 삼송동 322번지","category":"음료식품 - 기타음료식품"}]},{"lat":"37.651608664","long":"126.88881656","items":[{"name":"고양커피본바리스타학원","tel":"032-000-0000","addr":"경기도 고양시 덕양구 삼송동 314-15번지","category":"학원 - 기능학원"},{"name":"임종호 커피","tel":"032-000-0000","addr":"경기도 고양시 덕양구 삼송동 314-15번지","category":"일반휴게음식 - 서양음식"}]},{"lat":"37.64268523","long":"126.87623081","items":[{"name":"고은맘한복이야기","tel":"","addr":"경기도 고양시 덕양구 삼송동 364-7번지","category":"의류 - 맞춤복점"}]},{"lat":"37.655355441","long":"126.89714008","items":[{"name":"고이재","tel":"02-381-5257","addr":"경기도 고양시 덕양구 삼송동 61-68번지","category":""},{"name":"디바인카페","tel":"02-381-5257","addr":"경기도 고양시 덕양구 삼송동 61-68번지","category":""},{"name":"디바인카페","tel":"02-381-5257","addr":"경기도 고양시 덕양구 삼송동 61-68번지","category":""}]},{"lat":"37.652325667","long":"126.89436807","items":[{"name":"고향먹거리","tel":"02-381-5745","addr":"경기도 고양시 덕양구 삼송동 128-91번지","category":"일반휴게음식 - 일반한식"},{"name":"고향먹거리","tel":"02-381-5745","addr":"경기도 고양시 덕양구 삼송동 128-91번지","category":""}]},{"lat":"37.652776047","long":"126.8942541","items":[{"name":"고향식당","tel":"02-371-3733","addr":"경기도 고양시 덕양구 삼송동 26-9번지","category":"일반휴게음식 - 일반한식"},{"name":"고향식당","tel":"02-371-3733","addr":"경기도 고양시 덕양구 삼송동 26-9번지","category":"일반휴게음식 - 일반한식"},{"name":"고향식당","tel":"02-371-3733","addr":"경기도 고양시 덕양구 삼송동 26-9번지","category":""},{"name":"휴","tel":"","addr":"경기도 고양시 덕양구 삼송동 26-9번지","category":"일반휴게음식 - 서양음식"},{"name":"휴","tel":"","addr":"경기도 고양시 덕양구 삼송동 26-9번지","category":""},{"name":"휴카페","tel":"070-4843-3486","addr":"경기도 고양시 덕양구 삼송동 26-9번지","category":""},{"name":"휴카페","tel":"02-381-0928","addr":"경기도 고양시 덕양구 삼송동 26-9번지","category":""}]},{"lat":"37.653713262","long":"126.89447937","items":[{"name":"고향칼국수","tel":"02-381-2416","addr":"경기도 고양시 덕양구 삼송동 27-34번지","category":""},{"name":"고향칼국수","tel":"02-381-2416","addr":"경기도 고양시 덕양구 삼송동 27-34번지","category":"일반휴게음식 - 일반한식"},{"name":"보금당","tel":"02-381-0001","addr":"경기도 고양시 덕양구 삼송동 27-34번지","category":""},{"name":"보금당","tel":"02-381-0001","addr":"경기도 고양시 덕양구 삼송동 27-34번지","category":"신변잡화 - 시계"},{"name":"처갓집양념통닭","tel":"02-381-1188","addr":"경기도 고양시 덕양구 삼송동 27-34번지","category":""},{"name":"처갓집양념통닭","tel":"02-381-1188","addr":"경기도 고양시 덕양구 삼송동 27-34번지","category":"일반휴게음식 - 일반한식"}]},{"lat":"37.654245591","long":"126.89530584","items":[{"name":"골드플라워","tel":"02-381-3377","addr":"경기도 고양시 덕양구 삼송동 25-4번지","category":""},{"name":"골드플라워","tel":"02-381-3377","addr":"경기도 고양시 덕양구 삼송동 25-4번지","category":"문화.취미 - 화원"},{"name":"하니웰테크","tel":"","addr":"경기도 고양시 덕양구 삼송동 25-4번지","category":"수리서비스 - 기타수리서비스"},{"name":"하니웰테크","tel":"","addr":"경기도 고양시 덕양구 삼송동 25-4번지","category":""}]},{"lat":"37.641801646","long":"126.87564314","items":[{"name":"공룡족발","tel":"02-353-6144","addr":"경기도 고양시 덕양구 삼송동 367-6번지","category":""},{"name":"공룡족발","tel":"02-353-6144","addr":"경기도 고양시 덕양구 삼송동 367-6번지","category":"일반휴게음식 - 일반한식"}]},{"lat":"37.645658135","long":"126.87595383","items":[{"name":"광어우럭15000","tel":"02-381-3444","addr":"경기도 고양시 덕양구 삼송동 349-1번지","category":"일반휴게음식 - 일식·회집"},{"name":"동하수산","tel":"031-381-6444","addr":"경기도 고양시 덕양구 삼송동 349-1번지","category":""},{"name":"화이트버블","tel":"02-381-3327","addr":"경기도 고양시 덕양구 삼송동 349-1번지","category":""},{"name":"화이트버블","tel":"02-381-3327","addr":"경기도 고양시 덕양구 삼송동 349-1번지","category":"문화.취미 - 애완동물"}]},{"lat":"37.644659189","long":"126.87700928","items":[{"name":"광염 자동문","tel":"02-2603-8237","addr":"경기도 고양시 덕양구 삼송동 354-2번지","category":""},{"name":"광염 자동문","tel":"02-2603-8237","addr":"경기도 고양시 덕양구 삼송동 354-2번지","category":"건축자재 - 기타건축자재"},{"name":"달구식탁","tel":"","addr":"경기도 고양시 덕양구 삼송동 354-2번지","category":"일반휴게음식 - 주점"},{"name":"달구식탁","tel":"","addr":"경기도 고양시 덕양구 삼송동 354-2번지","category":""}]},{"lat":"37.652880412","long":"126.89025377","items":[{"name":"구공탄서서갈비","tel":"02-381-5595","addr":"경기도 고양시 덕양구 삼송동 77-7번지","category":""},{"name":"미스터피자삼송점","tel":"02-371-0225","addr":"경기도 고양시 덕양구 삼송동 77-7번지","category":"일반휴게음식 - 서양음식"},{"name":"미스터피자삼송점","tel":"02-371-0225","addr":"경기도 고양시 덕양구 삼송동 77-7번지","category":""},{"name":"삼선각","tel":"","addr":"경기도 고양시 덕양구 삼송동 77-7번지","category":""},{"name":"우리종합철물","tel":"02-381-8082","addr":"경기도 고양시 덕양구 삼송동 77-7번지","category":"건축자재 - 목재·석재·철물"},{"name":"우리종합철물","tel":"02-381-8082","addr":"경기도 고양시 덕양구 삼송동 77-7번지","category":""},{"name":"장보고횟집","tel":"02-381-4955","addr":"경기도 고양시 덕양구 삼송동 77-7번지","category":""},{"name":"장보고횟집","tel":"02-381-4955","addr":"경기도 고양시 덕양구 삼송동 77-7번지","category":"일반휴게음식 - 일반한식"},{"name":"풍문구이캠프","tel":"02-371-2292","addr":"경기도 고양시 덕양구 삼송동 77-7번지","category":""}]},{"lat":"37.650303481","long":"126.89008769","items":[{"name":"구름다리","tel":"02-381-3282","addr":"경기도 고양시 덕양구 삼송동 128-71번지","category":""},{"name":"리얼PC","tel":"070-9467-2842","addr":"경기도 고양시 덕양구 삼송동 128-71번지","category":"레저업소 - 기타레져업소"}]},{"lat":"37.654299804","long":"126.89547575","items":[{"name":"국수줌카페","tel":"02-381-7047","addr":"경기도 고양시 덕양구 삼송동 24-2번지","category":""},{"name":"국수줌카페","tel":"02-381-7047","addr":"경기도 고양시 덕양구 삼송동 24-2번지","category":"일반휴게음식 - 일반한식"}]},{"lat":"37.652604884","long":"126.89427701","items":[{"name":"그날그날삼송족","tel":"02-381-5522","addr":"경기도 고양시 덕양구 삼송동 16-43번지","category":""},{"name":"먹거리풍경","tel":"02-381-5522","addr":"경기도 고양시 덕양구 삼송동 16-43번지","category":""},{"name":"신불떡볶이 삼송점","tel":"02-381-5533","addr":"경기도 고양시 덕양구 삼송동 16-43번지","category":"일반휴게음식 - 스넥"},{"name":"신불떡볶이 삼송점","tel":"02-381-5533","addr":"경기도 고양시 덕양구 삼송동 16-43번지","category":""},{"name":"장군곱창","tel":"02-381-1245","addr":"경기도 고양시 덕양구 삼송동 16-43번지","category":""},{"name":"장군곱창","tel":"02-381-1245","addr":"경기도 고양시 덕양구 삼송동 16-43번지","category":"일반휴게음식 - 일반한식"},{"name":"행복공인중개사사무소","tel":"","addr":"경기도 고양시 덕양구 삼송동 16-43번지","category":"용역 서비스 - 부동산 중개·임대"}]},{"lat":"37.644354386","long":"126.87844879","items":[{"name":"그랜드비엔케이","tel":"031-919-1703","addr":"경기도 고양시 덕양구 삼송동 348-4번지","category":"가구 - 일반가구"},{"name":"바다양푼이동태탕","tel":"02-831-9233","addr":"경기도 고양시 덕양구 삼송동 348-4번지","category":""},{"name":"삼성테크","tel":"02-388-7535","addr":"경기도 고양시 덕양구 삼송동 348-4번지","category":""},{"name":"삼성테크","tel":"02-388-7535","addr":"경기도 고양시 덕양구 삼송동 348-4번지","category":"건축자재 - 기타건축자재"},{"name":"전계능의 국밥집","tel":"02-381-9098","addr":"경기도 고양시 덕양구 삼송동 348-4번지","category":""},{"name":"참이맛감자탕(삼송점)","tel":"02-381-9098","addr":"경기도 고양시 덕양구 삼송동 348-4번지","category":"일반휴게음식 - 일반한식"},{"name":"참이맛감자탕(삼송점)","tel":"02-381-9098","addr":"경기도 고양시 덕양구 삼송동 348-4번지","category":""}]},{"lat":"37.643469789","long":"126.87689798","items":[{"name":"그린슈퍼","tel":"02-371-1414","addr":"경기도 고양시 덕양구 삼송동 356-6번지","category":""},{"name":"그린슈퍼","tel":"02-371-1414","addr":"경기도 고양시 덕양구 삼송동 356-6번지","category":"유통업 영리 - 슈퍼마켓"}]},{"lat":"37.650354685","long":"126.88714141","items":[{"name":"그림그림미술교습소","tel":"031-0-0000","addr":"경기도 고양시 덕양구 삼송동 311번지 삼송2차아이파크","category":""},{"name":"그림그림미술교습소","tel":"031-000-0000","addr":"경기도 고양시 덕양구 삼송동 311번지 삼송2차아이파크","category":"학원 - 예·체능계학원"},{"name":"뉴런수학교습소","tel":"02-381-9091","addr":"경기도 고양시 덕양구 삼송동 311번지 삼송2차아이파크","category":"학원 - 보습학원"},{"name":"로사","tel":"","addr":"경기도 고양시 덕양구 삼송동 311번지 삼송2차아이파크","category":"의류 - 정장"},{"name":"로사","tel":"","addr":"경기도 고양시 덕양구 삼송동 311번지 삼송2차아이파크","category":""},{"name":"모 스포츠 (MO SPORTS)","tel":"070-7781-1125","addr":"경기도 고양시 덕양구 삼송동 311번지 삼송2차아이파크","category":"레져용품 - 스포츠·레져용품"},{"name":"모 스포츠 (MO SPORTS)","tel":"070-7781-1125","addr":"경기도 고양시 덕양구 삼송동 311번지 삼송2차아이파크","category":""},{"name":"바이오스 라이프","tel":"031-2795-5692","addr":"경기도 고양시 덕양구 삼송동 311번지 삼송2차아이파크","category":"건강식품 - 기타건강식품"},{"name":"바이오스 라이프","tel":"031-2795-5692","addr":"경기도 고양시 덕양구 삼송동 311번지 삼송2차아이파크","category":""},{"name":"소진헤어","tel":"02-371-0122","addr":"경기도 고양시 덕양구 삼송동 311번지 삼송2차아이파크","category":""},{"name":"소진헤어","tel":"02-371-0122","addr":"경기도 고양시 덕양구 삼송동 311번지 삼송2차아이파크","category":"보건위생 - 미용원"},{"name":"씨유고양아이파크점","tel":"031-878-8205","addr":"경기도 고양시 덕양구 삼송동 311번지 삼송2차아이파크","category":""},{"name":"아이다움어린이집[아이행복]","tel":"02-381-1124","addr":"경기도 고양시 덕양구 삼송동 311번지 삼송2차아이파크","category":"학원 - 유아원"},{"name":"오마이디어(OH MY DEAR)","tel":"02-371-2242","addr":"경기도 고양시 덕양구 삼송동 311번지 삼송2차아이파크","category":""},{"name":"오마이디어(OH MY DEAR)","tel":"02-371-2242","addr":"경기도 고양시 덕양구 삼송동 311번지 삼송2차아이파크","category":"가구 - 기타가구"},{"name":"좋은나무 어린이집[아이행복]","tel":"02-6409-5959","addr":"경기도 고양시 덕양구 삼송동 311번지 삼송2차아이파크","category":"학원 - 유아원"},{"name":"코런셀프 빨래방","tel":"","addr":"경기도 고양시 덕양구 삼송동 311번지 삼송2차아이파크","category":"수리서비스 - 세탁소"},{"name":"펀펀뮤직 피아노 교습소","tel":"031-000-0000","addr":"경기도 고양시 덕양구 삼송동 311번지 삼송2차아이파크","category":"학원 - 예·체능계학원"},{"name":"펀펀뮤직 피아노 교습소","tel":"031-0-0000","addr":"경기도 고양시 덕양구 삼송동 311번지 삼송2차아이파크","category":""},{"name":"플랑플랑","tel":"02-457-2157","addr":"경기도 고양시 덕양구 삼송동 311번지 삼송2차아이파크","category":"문화.취미 - 화원"},{"name":"플랑플랑","tel":"02-457-2157","addr":"경기도 고양시 덕양구 삼송동 311번지 삼송2차아이파크","category":""}]},{"lat":"37.653993598","long":"126.89561217","items":[{"name":"극한수산","tel":"02-371-2797","addr":"경기도 고양시 덕양구 삼송동 24-20번지","category":"일반휴게음식 - 일반한식"},{"name":"대게향","tel":"02-371-2797","addr":"경기도 고양시 덕양구 삼송동 24-20번지","category":""},{"name":"혜원플라워","tel":"02-371-2700","addr":"경기도 고양시 덕양구 삼송동 24-20번지","category":""}]},{"lat":"37.652663387","long":"126.88942687","items":[{"name":"글로리골프","tel":"","addr":"경기도 고양시 덕양구 삼송동 78-50번지","category":""},{"name":"글로리골프","tel":"","addr":"경기도 고양시 덕양구 삼송동 78-50번지","category":"레져용품 - 골프용품 전문점"},{"name":"아실리","tel":"02-371-3369","addr":"경기도 고양시 덕양구 삼송동 78-50번지","category":""},{"name":"아실리","tel":"02-371-3369","addr":"경기도 고양시 덕양구 삼송동 78-50번지","category":"직물 - 침구·수예점"},{"name":"우리집한우사골만두국","tel":"02-381-1285","addr":"경기도 고양시 덕양구 삼송동 78-50번지","category":""}]},{"lat":"37.653604635","long":"126.89392426","items":[{"name":"금강보청기(경기고양센터)","tel":"02-381-5722","addr":"경기도 고양시 덕양구 삼송동 29-3번지","category":""},{"name":"금강보청기(경기고양센터)","tel":"02-381-5722","addr":"경기도 고양시 덕양구 삼송동 29-3번지","category":"보건위생 - 의료용품"},{"name":"청송상회","tel":"031-381-7766","addr":"경기도 고양시 덕양구 삼송동 29-3번지","category":""},{"name":"충무로 닭곰탕","tel":"02-396-7837","addr":"경기도 고양시 덕양구 삼송동 29-3번지","category":""},{"name":"충무로 닭곰탕","tel":"02-396-7837","addr":"경기도 고양시 덕양구 삼송동 29-3번지","category":"일반휴게음식 - 일반한식"},{"name":"하늘샘교회","tel":"02-381-9175","addr":"경기도 고양시 덕양구 삼송동","category":"기타 - 비영리/대상"}]},{"lat":"37.65357748","long":"126.89378831","items":[{"name":"금메달의집","tel":"02-381-4037","addr":"경기도 고양시 덕양구 삼송동 29-4번지","category":"수리서비스 - 가정용품수리"},{"name":"금메달의집","tel":"02-381-4037","addr":"경기도 고양시 덕양구 삼송동 29-4번지","category":""},{"name":"성제국한의원","tel":"02-381-0077","addr":"경기도 고양시 덕양구 삼송동 29-4번지","category":"의원 - 한의원"},{"name":"성제국한의원","tel":"02-381-0077","addr":"경기도 고양시 덕양구 삼송동 29-4번지","category":""},{"name":"세솔카페","tel":"031-814-4510","addr":"경기도 고양시 덕양구 삼송동 29-4번지","category":""},{"name":"차콜그릴하우스","tel":"02-371-3883","addr":"경기도 고양시 덕양구 삼송동 29-4번지","category":"일반휴게음식 - 일반한식"},{"name":"차콜그릴하우스","tel":"02-371-3883","addr":"경기도 고양시 덕양구 삼송동 29-4번지","category":""}]},{"lat":"37.651965613","long":"126.89473121","items":[{"name":"기성21","tel":"02-381-0627","addr":"경기도 고양시 덕양구 삼송동 128-28번지","category":"용역 서비스 - 종합용역"},{"name":"기성21","tel":"02-381-0627","addr":"경기도 고양시 덕양구 삼송동 128-28번지","category":""},{"name":"먹심","tel":"02-386-9800","addr":"경기도 고양시 덕양구 삼송동 128-28번지","category":""},{"name":"먹심","tel":"02-386-9800","addr":"경기도 고양시 덕양구 삼송동 128-28번지","category":"일반휴게음식 - 일반한식"}]},{"lat":"37.65210483","long":"126.88947305","items":[{"name":"기아오토큐삼송점","tel":"031-381-5777","addr":"경기도 고양시 덕양구 삼송동 135-2번지","category":"자동차정비 유지 - 자동차정비"},{"name":"기아오토큐삼송점","tel":"031-381-5777","addr":"경기도 고양시 덕양구 삼송동 135-2번지","category":""}]},{"lat":"37.653859008","long":"126.8962243","items":[{"name":"김민철수제족발","tel":"02-371-1289","addr":"경기도 고양시 덕양구 삼송동 60-10번지","category":""},{"name":"김민철수제족발","tel":"02-371-1289","addr":"경기도 고양시 덕양구 삼송동 60-10번지","category":"일반휴게음식 - 일반한식"}]},{"lat":"37.653018722","long":"126.89361915","items":[{"name":"깻잎치킨","tel":"02-3159-7772","addr":"경기도 고양시 덕양구 삼송동 30-34번지","category":""},{"name":"담우약국","tel":"02-381-5300","addr":"경기도 고양시 덕양구 삼송동 30-34번지","category":""},{"name":"담우약국","tel":"02-381-5300","addr":"경기도 고양시 덕양구 삼송동 30-34번지","category":"약국 - 약국"},{"name":"대성백반","tel":"02-381-9534","addr":"경기도 고양시 덕양구 삼송동 30-34번지","category":""},{"name":"마늘빵이맛있다","tel":"","addr":"경기도 고양시 덕양구 삼송동 30-34번지","category":"일반휴게음식 - 서양음식"},{"name":"원할머니보쌈족발 고양삼송배달점","tel":"","addr":"경기도 고양시 덕양구 삼송동 30-34번지","category":"일반휴게음식 - 일반한식"},{"name":"쿡스마일/주식회사 팡도르","tel":"02-371-2434","addr":"경기도 고양시 덕양구 삼송동 30-34번지","category":""},{"name":"쿡스마일/주식회사 팡도르","tel":"02-371-2434","addr":"경기도 고양시 덕양구 삼송동 30-34번지","category":"일반휴게음식 - 일반한식"}]},{"lat":"37.650356985","long":"126.8895097","items":[{"name":"꼬꼬시티삼송점","tel":"02-371-3333","addr":"경기도 고양시 덕양구 삼송동 318번지","category":"일반휴게음식 - 일반한식"},{"name":"달라라 플라워","tel":"02-1661-1216","addr":"경기도 고양시 덕양구 삼송동 318번지","category":""},{"name":"달라라 플라워","tel":"02-1661-1216","addr":"경기도 고양시 덕양구 삼송동 318번지","category":"문화.취미 - 화원"},{"name":"달라라가든","tel":"02-1661-1216","addr":"경기도 고양시 덕양구 삼송동 318번지","category":""},{"name":"카페센토레아","tel":"02-381-0057","addr":"경기도 고양시 덕양구 삼송동 318번지","category":""},{"name":"훌랄라바베큐치킨카페","tel":"02-371-3688","addr":"경기도 고양시 덕양구 삼송동 318번지","category":""}]},{"lat":"37.652186081","long":"126.8896429","items":[{"name":"꽃돼지곰탕곱창","tel":"02-381-8764","addr":"경기도 고양시 덕양구 삼송동 135-10번지","category":""},{"name":"꽃돼지곰탕곱창","tel":"02-381-8764","addr":"경기도 고양시 덕양구 삼송동 135-10번지","category":"일반휴게음식 - 일반한식"},{"name":"아이딕LED전기조명","tel":"031-111-1111","addr":"경기도 고양시 덕양구 삼송동 135-10번지","category":""},{"name":"아이딕LED전기조명","tel":"031-111-1111","addr":"경기도 고양시 덕양구 삼송동 135-10번지","category":"건축자재 - 조명기구"}]},{"lat":"37.652914044","long":"126.88776069","items":[{"name":"꽃집 메이(Flower Boutique May)","tel":"070-7716-1128","addr":"경기도 고양시 덕양구 삼송동 302-3번지","category":""},{"name":"본스치킨 삼송점","tel":"02-381-8292","addr":"경기도 고양시 덕양구 삼송동 302-3번지","category":""},{"name":"쭈욱치킨","tel":"02-381-8292","addr":"경기도 고양시 덕양구 삼송동 302-3번지","category":""}]},{"lat":"37.644604622","long":"126.87653348","items":[{"name":"꾸꼬닭발","tel":"02-381-9892","addr":"경기도 고양시 덕양구 삼송동 353-5번지","category":""},{"name":"꾸꼬닭발","tel":"02-381-9892","addr":"경기도 고양시 덕양구 삼송동 353-5번지","category":"일반휴게음식 - 일반한식"}]},{"lat":"37.64485648","long":"126.87614781","items":[{"name":"꿀비닭갈비","tel":"031-381-0262","addr":"경기도 고양시 덕양구 삼송동 352-5번지","category":""},{"name":"맨씽크","tel":"","addr":"경기도 고양시 덕양구 삼송동 352-5번지","category":"주방용구 - 주방용구"}]},{"lat":"37.64452345","long":"126.87645431","items":[{"name":"나눔텍","tel":"","addr":"경기도 고양시 덕양구 삼송동 353-6번지","category":"사무통신 - 컴퓨터"}]},{"lat":"37.650351564","long":"126.88400257","items":[{"name":"나래태권도장","tel":"","addr":"경기도 고양시 덕양구 삼송동 327번지","category":""},{"name":"나래태권도장","tel":"","addr":"경기도 고양시 덕양구 삼송동 327번지","category":"학원 - 예·체능계학원"},{"name":"더블케이짐","tel":"02-381-1379","addr":"경기도 고양시 덕양구 삼송동 327번지","category":""},{"name":"더블케이짐","tel":"02-381-1379","addr":"경기도 고양시 덕양구 삼송동 327번지","category":"레저업소 - 헬스클럽"},{"name":"떡향미","tel":"02-381-7085","addr":"경기도 고양시 덕양구 삼송동 327번지","category":"음료식품 - 제과점"},{"name":"떡향미","tel":"02-381-7085","addr":"경기도 고양시 덕양구 삼송동 327번지","category":""},{"name":"명랑핫도그 (고양삼송점)","tel":"031-111-1111","addr":"경기도 고양시 덕양구 삼송동 327번지","category":""},{"name":"모바일포인트샵","tel":"","addr":"경기도 고양시 덕양구 삼송동 327번지","category":"사무통신 - 통신기기"},{"name":"민서텔레콤","tel":"031-8080-4070","addr":"경기도 고양시 덕양구 삼송동 327번지","category":""},{"name":"바푸리","tel":"02-355-3555","addr":"경기도 고양시 덕양구 삼송동 327번지","category":""},{"name":"바푸리","tel":"02-355-3555","addr":"경기도 고양시 덕양구 삼송동 327번지","category":"일반휴게음식 - 일반한식"},{"name":"벗네일","tel":"","addr":"경기도 고양시 덕양구 삼송동 327번지","category":"보건위생 - 피부미용실"},{"name":"보그헤어","tel":"031-381-0648","addr":"경기도 고양시 덕양구 삼송동 327번지","category":"보건위생 - 미용원"},{"name":"보드람치킨 원흥삼송점","tel":"02-381-3654","addr":"경기도 고양시 덕양구 삼송동 327번지","category":""},{"name":"보드람치킨 원흥삼송점","tel":"02-381-3654","addr":"경기도 고양시 덕양구 삼송동 327번지","category":"일반휴게음식 - 스넥"},{"name":"블럭꿈나무","tel":"02-371-3579","addr":"경기도 고양시 덕양구 삼송동 327번지","category":""},{"name":"블루폰","tel":"02-381-0082","addr":"경기도 고양시 덕양구 삼송동 327번지","category":""},{"name":"블루폰","tel":"02-381-0082","addr":"경기도 고양시 덕양구 삼송동 327번지","category":"사무통신 - 통신기기"},{"name":"삼송늘푸른소아청소년과의원","tel":"02-371-3004","addr":"경기도 고양시 덕양구 삼송동 327번지","category":""},{"name":"삼송늘푸른소아청소년과의원","tel":"02-371-3004","addr":"경기도 고양시 덕양구 삼송동 327번지","category":"의원 - 의원"},{"name":"삼송어울림한의원","tel":"02-381-7582","addr":"경기도 고양시 덕양구 삼송동 327번지","category":""},{"name":"삼송어울림한의원","tel":"02-381-7582","addr":"경기도 고양시 덕양구 삼송동 327번지","category":"의원 - 한의원"},{"name":"수현수학교습소","tel":"02-381-6671","addr":"경기도 고양시 덕양구 삼송동 327번지","category":""},{"name":"스윗펀치","tel":"02-381-2226","addr":"경기도 고양시 덕양구 삼송동 327번지","category":"음료식품 - 기타음료식품"},{"name":"옛날장터치킨","tel":"02-384-9282","addr":"경기도 고양시 덕양구 삼송동 327번지","category":""},{"name":"유민내과의원","tel":"02-353-1191","addr":"경기도 고양시 덕양구 삼송동 327번지","category":"의원 - 의원"},{"name":"유민내과의원","tel":"02-353-1191","addr":"경기도 고양시 덕양구 삼송동 327번지","category":""},{"name":"이삭토스트고양삼송도서관점","tel":"02-381-1511","addr":"경기도 고양시 덕양구 삼송동 327번지","category":"일반휴게음식 - 서양음식"},{"name":"이삭토스트고양삼송도서관점","tel":"02-381-1511","addr":"경기도 고양시 덕양구 삼송동 327번지","category":""},{"name":"정동진세꼬시","tel":"02-381-2008","addr":"경기도 고양시 덕양구 삼송동 327번지","category":""},{"name":"줄리앙와플","tel":"02-381-5894","addr":"경기도 고양시 덕양구 삼송동 327번지","category":""},{"name":"총각네 푸줏간","tel":"02-371-3331","addr":"경기도 고양시 덕양구 삼송동 327번지","category":""},{"name":"톡톡","tel":"02-381-4141","addr":"경기도 고양시 덕양구 삼송동 327번지","category":""},{"name":"투썸플레이스 고양삼송점","tel":"02-371-2332","addr":"경기도 고양시 덕양구 삼송동 327번지","category":"일반휴게음식 - 서양음식"},{"name":"투썸플레이스 고양삼송점","tel":"02-371-2332","addr":"경기도 고양시 덕양구 삼송동 327번지","category":""},{"name":"활기찬약국","tel":"070-4133-4846","addr":"경기도 고양시 덕양구 삼송동 327번지","category":"약국 - 약국"}]},{"lat":"37.652769967","long":"126.88784024","items":[{"name":"냅킨공방","tel":"","addr":"경기도 고양시 덕양구 삼송동 302-4번지","category":""},{"name":"냅킨공방","tel":"","addr":"경기도 고양시 덕양구 삼송동 302-4번지","category":"문화.취미 - 문화취미기타"},{"name":"레오짐","tel":"","addr":"경기도 고양시 덕양구 삼송동 302-4번지","category":"레저업소 - 헬스클럽"},{"name":"브니엘네일","tel":"","addr":"경기도 고양시 덕양구 삼송동 302-4번지","category":"보건위생 - 피부미용실"},{"name":"사랑채","tel":"02-381-8250","addr":"경기도 고양시 덕양구 삼송동 302-4번지","category":""},{"name":"허니펫","tel":"02-6959-8759","addr":"경기도 고양시 덕양구 삼송동 302-4번지","category":""},{"name":"허니펫","tel":"02-6959-8759","addr":"경기도 고양시 덕양구 삼송동 302-4번지","category":""}]},{"lat":"37.653103143","long":"126.89727926","items":[{"name":"네일메이리","tel":"","addr":"경기도 고양시 덕양구 삼송동 289번지","category":"보건위생 - 피부미용실"},{"name":"명성전기조명","tel":"","addr":"경기도 고양시 덕양구 삼송동 289번지","category":"건축자재 - 조명기구"},{"name":"모유수유힐링맘","tel":"02-381-4656","addr":"경기도 고양시 덕양구 삼송동 289번지","category":"보건위생 - 기타대인서비스"},{"name":"삼송힐스부동산컨설팅","tel":"02-381-0022","addr":"경기도 고양시 덕양구 삼송동 289번지","category":"용역 서비스 - 사무서비스"},{"name":"씨유삼송역점","tel":"080-080-3663","addr":"경기도 고양시 덕양구 삼송동 289번지","category":"유통업 영리 - 편 의 점"},{"name":"준바이크","tel":"02-304-2374","addr":"경기도 고양시 덕양구 삼송동 289번지","category":"레져용품 - 스포츠·레져용품"},{"name":"크린토피아 고양삼송역점","tel":"02-371-0242","addr":"경기도 고양시 덕양구 삼송동 289번지","category":"수리서비스 - 세탁소"},{"name":"헤세드정신분석심리상담센터","tel":"","addr":"경기도 고양시 덕양구 삼송동 289번지","category":"보건위생 - 기타대인서비스"}]},{"lat":"37.650914995","long":"126.88889694","items":[{"name":"네일큐브","tel":"031-970-8333","addr":"경기도 고양시 덕양구 삼송동 313-6번지","category":""},{"name":"네일큐브","tel":"031-970-8333","addr":"경기도 고양시 덕양구 삼송동 313-6번지","category":"보건위생 - 피부미용실"},{"name":"소잡는데이(정육점)","tel":"02-381-3880","addr":"경기도 고양시 덕양구 삼송동 313-6번지","category":""},{"name":"써니헤어","tel":"02-381-8304","addr":"경기도 고양시 덕양구 삼송동 313-6번지","category":"보건위생 - 미용원"},{"name":"한가네목장","tel":"031-381-7543","addr":"경기도 고양시 덕양구 삼송동 313-6번지","category":"음료식품 - 정육점"},{"name":"한가네목장","tel":"031-381-7543","addr":"경기도 고양시 덕양구 삼송동 313-6번지","category":""}]},{"lat":"37.643686938","long":"126.87775874","items":[{"name":"넥스가드 삼송원흥점","tel":"02-381-9660","addr":"경기도 고양시 덕양구 삼송동 357-5번지","category":""}]},{"lat":"37.645415882","long":"126.87689469","items":[{"name":"노블레스(noblesse)","tel":"02-371-3875","addr":"경기도 고양시 덕양구 삼송동 347-3번지","category":"가구 - 일반가구"},{"name":"노블레스(noblesse)","tel":"02-371-3875","addr":"경기도 고양시 덕양구 삼송동 347-3번지","category":""},{"name":"바른치킨 원흥삼거리점","tel":"02-371-2444","addr":"경기도 고양시 덕양구 삼송동 347-3번지","category":"일반휴게음식 - 스넥"},{"name":"바른치킨 원흥삼거리점","tel":"02-371-2444","addr":"경기도 고양시 덕양구 삼송동 347-3번지","category":""},{"name":"유림","tel":"02-2265-2261","addr":"경기도 고양시 덕양구 삼송동 347-3번지","category":"유통업 영리 - 기타유통업"},{"name":"유림","tel":"02-2265-2261","addr":"경기도 고양시 덕양구 삼송동 347-3번지","category":""}]},{"lat":"37.652602903","long":"126.89214662","items":[{"name":"노아뷰티","tel":"02-2642-3057","addr":"경기도 고양시 덕양구 삼송동 135-65번지","category":""}]},{"lat":"37.653109666","long":"126.89453691","items":[{"name":"노적봉갈비","tel":"02-387-2323","addr":"경기도 고양시 덕양구 삼송동 26-19번지","category":"일반휴게음식 - 일반한식"},{"name":"노적봉갈비","tel":"02-387-2323","addr":"경기도 고양시 덕양구 삼송동 26-19번지","category":""}]},{"lat":"37.644911279","long":"126.87683889","items":[{"name":"눈물나게먹고싶다","tel":"02-381-2577","addr":"경기도 고양시 덕양구 삼송동 353-2번지","category":""},{"name":"눈물나게먹고싶다","tel":"02-381-2577","addr":"경기도 고양시 덕양구 삼송동 353-2번지","category":""}]},{"lat":"37.654744938","long":"126.88975234","items":[{"name":"닐다","tel":"070-8161-8904","addr":"경기도 고양시 덕양구 삼송동 84-64번지","category":""},{"name":"닐다","tel":"070-8161-8904","addr":"경기도 고양시 덕양구 삼송동 84-64번지","category":"서적문구 - 출판 및 인쇄물"}]},{"lat":"37.644217181","long":"126.87651148","items":[{"name":"다니엘펫","tel":"02-381-1876","addr":"경기도 고양시 덕양구 삼송동 354-7번지","category":""},{"name":"다니엘펫","tel":"02-381-1876","addr":"경기도 고양시 덕양구 삼송동 354-7번지","category":"문화.취미 - 애완동물"},{"name":"주식회사 비투박스","tel":"","addr":"경기도 고양시 덕양구 삼송동 354-7번지","category":""},{"name":"주식회사 비투박스","tel":"","addr":"경기도 고양시 덕양구 삼송동 354-7번지","category":"전기제품 - 기타전기제품"}]},{"lat":"37.648135125","long":"126.88394945","items":[{"name":"다미찬","tel":"031-405-4404","addr":"경기도 고양시 덕양구 삼송동 337-2번지","category":""},{"name":"뚜레쥬르 카페고양삼송점","tel":"02-381-8641","addr":"경기도 고양시 덕양구 삼송동 337-2번지","category":""}]},{"lat":"37.642549695","long":"126.87586847","items":[{"name":"다인헤어","tel":"031-965-4700","addr":"경기도 고양시 덕양구 삼송동 367번지","category":"보건위생 - 미용원"},{"name":"다인헤어","tel":"031-965-4700","addr":"경기도 고양시 덕양구 삼송동 367번지","category":""},{"name":"비타민하우스 (주)서울중부지사","tel":"02-1111-1111","addr":"경기도 고양시 덕양구 삼송동 367번지","category":"건강식품 - 기타건강식품"},{"name":"비타민하우스 (주)서울중부지사","tel":"","addr":"경기도 고양시 덕양구 삼송동 367번지","category":""}]},{"lat":"37.653939695","long":"126.89578223","items":[{"name":"닭발의일생","tel":"070-8957-2208","addr":"경기도 고양시 덕양구 삼송동 23-1번지","category":"일반휴게음식 - 일반한식"},{"name":"닭발의일생","tel":"070-8957-2208","addr":"경기도 고양시 덕양구 삼송동 23-1번지","category":""},{"name":"미스터꼬끼오","tel":"02-381-0109","addr":"경기도 고양시 덕양구 삼송동 23-1번지","category":"일반휴게음식 - 일반한식"},{"name":"미스터꼬끼오","tel":"02-381-0109","addr":"경기도 고양시 덕양구 삼송동 23-1번지","category":""},{"name":"삼송리아저씨","tel":"02-381-3553","addr":"경기도 고양시 덕양구 삼송동 23-1번지","category":""},{"name":"솔이네","tel":"","addr":"경기도 고양시 덕양구 삼송동 23-1번지","category":"일반휴게음식 - 일반한식"},{"name":"숫돌건강원","tel":"02-381-1172","addr":"경기도 고양시 덕양구 삼송동","category":"회원제형태 - 건강식품"},{"name":"숫돌골","tel":"031-968-6664","addr":"경기도 고양시 덕양구 삼송동 23-1번지","category":"일반휴게음식 - 일반한식"},{"name":"숫돌골","tel":"02-381-7165","addr":"경기도 고양시 덕양구 삼송동 23-1번지","category":""},{"name":"숫돌골","tel":"031-968-6664","addr":"경기도 고양시 덕양구 삼송동 23-1번지","category":""},{"name":"연탄부락","tel":"02-381-9243","addr":"경기도 고양시 덕양구 삼송동 23-1번지","category":""},{"name":"연탄부락","tel":"02-381-9243","addr":"경기도 고양시 덕양구 삼송동 23-1번지","category":"일반휴게음식 - 일반한식"},{"name":"을지로골뱅이","tel":"","addr":"경기도 고양시 덕양구 삼송동 23-1번지","category":""}]},{"lat":"37.643829339","long":"126.87611557","items":[{"name":"대명페인트","tel":"02-381-5454","addr":"경기도 고양시 덕양구 삼송동 354-11번지","category":""},{"name":"아이엔씨","tel":"070-7783-7317","addr":"경기도 고양시 덕양구 삼송동 354-11번지","category":"용역 서비스 - 사무서비스"},{"name":"아이엔씨","tel":"070-7783-7317","addr":"경기도 고양시 덕양구 삼송동 354-11번지","category":""}]},{"lat":"37.644110597","long":"126.87795065","items":[{"name":"대박국수","tel":"02-381-3895","addr":"경기도 고양시 덕양구 삼송동 357-17번지","category":""}]},{"lat":"37.652190876","long":"126.89475355","items":[{"name":"대박착한통신","tel":"070-5044-7361","addr":"경기도 고양시 덕양구 삼송동 128-24번지","category":""},{"name":"대박착한통신","tel":"070-5044-7361","addr":"경기도 고양시 덕양구 삼송동 128-24번지","category":"사무통신 - 통신기기"}]},{"lat":"37.654608811","long":"126.88873264","items":[{"name":"대성상사","tel":"031-384-8411","addr":"경기도 고양시 덕양구 삼송동 84번지","category":"직물 - 카페트,커튼,천막,지물"},{"name":"대성상사","tel":"031-384-8411","addr":"경기도 고양시 덕양구 삼송동 84번지","category":""},{"name":"영광조립식판넬","tel":"02-381-8877","addr":"경기도 고양시 덕양구 삼송동 84번지","category":"건축자재 - 기타건축자재"},{"name":"영광조립식판넬","tel":"02-381-8877","addr":"경기도 고양시 덕양구 삼송동 84번지","category":""}]},{"lat":"37.654380736","long":"126.89530565","items":[{"name":"대원갈비","tel":"031-855-4121","addr":"경기도 고양시 덕양구 삼송동 24-18번지","category":""}]},{"lat":"37.653942521","long":"126.88917562","items":[{"name":"대원갈비","tel":"031-381-3677","addr":"경기도 고양시 덕양구 삼송동 78-56번지","category":""}]},{"lat":"37.65221324","long":"126.88977884","items":[{"name":"대원산업","tel":"02-371-1311","addr":"경기도 고양시 덕양구 삼송동 135-37번지","category":""},{"name":"대원앙카산업","tel":"02-371-1311","addr":"경기도 고양시 덕양구 삼송동 135-37번지","category":""},{"name":"대원앙카산업","tel":"02-371-1311","addr":"경기도 고양시 덕양구 삼송동 135-37번지","category":"건축자재 - 목재·석재·철물"}]},{"lat":"37.658661523","long":"126.89661408","items":[{"name":"대정상사","tel":"031-386-6454","addr":"경기도 고양시 덕양구 삼송동 62-93번지","category":""},{"name":"대정상사","tel":"031-386-6454","addr":"경기도 고양시 덕양구 삼송동 62-93번지","category":"주방용구 - 정수기"}]},{"lat":"37.654354714","long":"126.89641624","items":[{"name":"대흥떡고추방앗간","tel":"02-854-0307","addr":"경기도 고양시 덕양구 삼송동 61-2번지","category":"음료식품 - 기타음료식품"},{"name":"삼송","tel":"02-381-0880","addr":"경기도 고양시 덕양구 삼송동 61-2번지","category":""},{"name":"삼송장작구이통닭","tel":"02-351-5555","addr":"경기도 고양시 덕양구 삼송동 61-2번지","category":""},{"name":"삼쏭노래연습장","tel":"02-351-5555","addr":"경기도 고양시 덕양구 삼송동 61-2번지","category":""},{"name":"삼쏭노래연습장","tel":"02-351-5555","addr":"경기도 고양시 덕양구 삼송동 61-2번지","category":"레저업소 - 노 래 방"},{"name":"지손","tel":"02-351-5555","addr":"경기도 고양시 덕양구 삼송동 61-2번지","category":"일반휴게음식 - 서양음식"},{"name":"지손","tel":"02-351-5555","addr":"경기도 고양시 덕양구 삼송동 61-2번지","category":""}]},{"lat":"37.644298353","long":"126.87659066","items":[{"name":"댄싱트리","tel":"02-381-9427","addr":"경기도 고양시 덕양구 삼송동 354-6번지","category":""},{"name":"댄싱트리","tel":"02-381-9427","addr":"경기도 고양시 덕양구 삼송동 354-6번지","category":""},{"name":"트리","tel":"02-381-9427","addr":"경기도 고양시 덕양구 삼송동 354-6번지","category":""},{"name":"트리","tel":"02-381-9427","addr":"경기도 고양시 덕양구 삼송동 354-6번지","category":"음료식품 - 농·축·수산품"}]},{"lat":"37.654020987","long":"126.89600876","items":[{"name":"더 착한오리","tel":"02-381-5293","addr":"경기도 고양시 덕양구 삼송동 60-7번지","category":"일반휴게음식 - 일반한식"},{"name":"리강밀리테리","tel":"02-381-7756","addr":"경기도 고양시 덕양구 삼송동 60-7번지","category":""}]},{"lat":"37.649106618","long":"126.88241817","items":[{"name":"더메이드샵","tel":"070-7354-8855","addr":"경기도 고양시 덕양구 삼송동 331번지 삼송스타클래스","category":"회원제형태 - 기타4"},{"name":"라플로레뜨","tel":"070-8639-0106","addr":"경기도 고양시 덕양구 삼송동 331번지 삼송스타클래스","category":"문화.취미 - 문화취미기타"},{"name":"블라인드 포인","tel":"02-2634-6702","addr":"경기도 고양시 덕양구 삼송동 331번지 삼송스타클래스","category":"직물 - 카페트,커튼,천막,지물"},{"name":"뿌리깊은 수학","tel":"02-381-3897","addr":"경기도 고양시 덕양구 삼송동 331번지 삼송스타클래스","category":"회원제형태 - 학원"},{"name":"뿌리깊은 수학","tel":"02-381-3897","addr":"경기도 고양시 덕양구 삼송동 331번지 삼송스타클래스","category":""},{"name":"삼송꼬마별공동육아어린이집[아이행복]","tel":"02-371-3303","addr":"경기도 고양시 덕양구 삼송동 331번지 삼송스타클래스","category":"학원 - 유아원"},{"name":"스타명품세탁","tel":"02-371-3838","addr":"경기도 고양시 덕양구 삼송동 331번지 삼송스타클래스","category":"수리서비스 - 세탁소"},{"name":"스타명품세탁","tel":"02-371-3838","addr":"경기도 고양시 덕양구 삼송동 331번지 삼송스타클래스","category":""},{"name":"파고다차이랑중국어심송점","tel":"","addr":"경기도 고양시 덕양구 삼송동 331번지 삼송스타클래스","category":"학원 - 기타 교육기관"},{"name":"파고다차이랑중국어심송점","tel":"","addr":"경기도 고양시 덕양구 삼송동 331번지 삼송스타클래스","category":""}]},{"lat":"37.644693793","long":"126.8756722","items":[{"name":"더비머","tel":"","addr":"경기도 고양시 덕양구 삼송동 352-10번지","category":""},{"name":"더비머","tel":"02-1111-1111","addr":"경기도 고양시 덕양구 삼송동 352-10번지","category":"자동차정비 유지 - 자동차부품"},{"name":"더비머","tel":"","addr":"경기도 고양시 덕양구 삼송동 352-10번지","category":""}]},{"lat":"37.655910577","long":"126.89334294","items":[{"name":"더어닝","tel":"031-111-1111","addr":"경기도 고양시 덕양구 삼송동 48-13번지 삼송블루빌1차","category":""},{"name":"더어닝","tel":"031-111-1111","addr":"경기도 고양시 덕양구 삼송동 48-13번지 삼송블루빌1차","category":"직물 - 카페트,커튼,천막,지물"}]},{"lat":"37.653875857","long":"126.88550412","items":[{"name":"더자람","tel":"02-6061-8020","addr":"경기도 고양시 덕양구 삼송동 306번지 삼송마을동원로얄듀크","category":""},{"name":"더자람","tel":"02-6061-8020","addr":"경기도 고양시 덕양구 삼송동 306번지 삼송마을동원로얄듀크","category":"음료식품 - 기타음료식품"},{"name":"해피푸드","tel":"02-381-8883","addr":"경기도 고양시 덕양구 삼송동 306번지 삼송마을동원로얄듀크","category":""}]},{"lat":"37.652551667","long":"126.89519497","items":[{"name":"더치앤빈 (DUTCH&BEAN)","tel":"02-381-5125","addr":"경기도 고양시 덕양구 삼송동 16-46번지","category":""},{"name":"문헤어","tel":"02-1899-2192","addr":"경기도 고양시 덕양구 삼송동 16-46번지","category":""},{"name":"삼송스마트치과의원","tel":"02-371-2879","addr":"경기도 고양시 덕양구 삼송동 16-46번지","category":""},{"name":"삼송스마트한의원","tel":"02-371-1082","addr":"경기도 고양시 덕양구 삼송동 16-46번지","category":""},{"name":"삼송역 3번출구 약국","tel":"02-381-4532","addr":"경기도 고양시 덕양구 삼송동 16-46번지","category":""},{"name":"이준각가정의학과의원","tel":"02-353-8253","addr":"경기도 고양시 덕양구 삼송동 16-46번지","category":""},{"name":"황칠삼계탕&대박숯불갈비","tel":"070-4246-2511","addr":"경기도 고양시 덕양구 삼송동 16-46번지","category":""}]},{"lat":"37.647135748","long":"126.87597397","items":[{"name":"더풋샵 삼송점","tel":"031-381-3900","addr":"경기도 고양시 덕양구 삼송동 345-1번지","category":""},{"name":"라인에스테틱","tel":"02-382-9500","addr":"경기도 고양시 덕양구 삼송동 345-1번지","category":""},{"name":"라인에스테틱","tel":"02-776-9000","addr":"경기도 고양시 덕양구 삼송동 345-1번지","category":""},{"name":"라인에스테틱","tel":"02-776-9000","addr":"경기도 고양시 덕양구 삼송동 345-1번지","category":"회원제형태 - 기타4"},{"name":"보약밥집","tel":"02-381-8255","addr":"경기도 고양시 덕양구 삼송동 345-1번지","category":"일반휴게음식 - 일반한식"},{"name":"보약밥집","tel":"02-381-8255","addr":"경기도 고양시 덕양구 삼송동 345-1번지","category":""},{"name":"세븐일레븐고양삼송점","tel":"","addr":"경기도 고양시 덕양구 삼송동 345-1번지","category":""},{"name":"세븐일레븐고양삼송점","tel":"031-1577-0711","addr":"경기도 고양시 덕양구 삼송동 345-1번지","category":""},{"name":"세븐일레븐고양삼송점","tel":"031-1577-0711","addr":"경기도 고양시 덕양구 삼송동 345-1번지","category":"유통업 영리 - 편 의 점"},{"name":"스타당구장","tel":"02-381-3033","addr":"경기도 고양시 덕양구 삼송동 345-1번지","category":""}]},{"lat":"37.644442241","long":"126.87634114","items":[{"name":"더헤어바이하진","tel":"02-381-4333","addr":"경기도 고양시 덕양구 삼송동 353-7번지","category":""},{"name":"더헤어바이하진","tel":"02-381-4333","addr":"경기도 고양시 덕양구 삼송동 353-7번지","category":"보건위생 - 미용원"}]},{"lat":"37.652439391","long":"126.89073037","items":[{"name":"덕성상사","tel":"02-381-0336","addr":"경기도 고양시 덕양구 삼송동 135-47번지","category":"건축자재 - 기타건축자재"}]},{"lat":"37.652466549","long":"126.89086632","items":[{"name":"덕양구 배터리 가장싼곳","tel":"02-381-1118","addr":"경기도 고양시 덕양구 삼송동 135-50번지","category":"자동차정비 유지 - 자동차부품"},{"name":"덕양구 배터리 가장싼곳","tel":"02-381-1118","addr":"경기도 고양시 덕양구 삼송동 135-50번지","category":""},{"name":"천신","tel":"","addr":"경기도 고양시 덕양구 삼송동 135-50번지","category":"보건위생 - 기타대인서비스"}]},{"lat":"37.644324152","long":"126.87544622","items":[{"name":"덕양모터스","tel":"02-381-6348","addr":"경기도 고양시 덕양구 삼송동 351-3번지","category":"자동차정비 유지 - 자동차정비"},{"name":"덕양모터스","tel":"02-381-6348","addr":"경기도 고양시 덕양구 삼송동 351-3번지","category":""}]},{"lat":"37.655911039","long":"126.89384156","items":[{"name":"덕정사","tel":"","addr":"경기도 고양시 덕양구 삼송동 47-15번지","category":"신변잡화 - 기타잡화"}]},{"lat":"37.653658839","long":"126.89408283","items":[{"name":"데일리분식","tel":"02-381-2008","addr":"경기도 고양시 덕양구 삼송동 33-14번지","category":"일반휴게음식 - 스넥"},{"name":"데일리분식","tel":"02-381-2008","addr":"경기도 고양시 덕양구 삼송동 33-14번지","category":""},{"name":"보람의원","tel":"02-381-3527","addr":"경기도 고양시 덕양구 삼송동 33-14번지","category":""},{"name":"보람의원","tel":"02-381-3527","addr":"경기도 고양시 덕양구 삼송동 33-14번지","category":"의원 - 의원"},{"name":"삼송철물건재","tel":"02-381-9080","addr":"경기도 고양시 덕양구 삼송동 33-14번지","category":"건축자재 - 기타건축자재"},{"name":"삼송철물건재","tel":"02-381-9080","addr":"경기도 고양시 덕양구 삼송동 33-14번지","category":""},{"name":"엔에스(NS.폰24)","tel":"031-521-6233","addr":"경기도 고양시 덕양구 삼송동 33-14번지","category":""}]},{"lat":"37.644855674","long":"126.87539999","items":[{"name":"도그스테이(Dog stay)","tel":"031-0-0000","addr":"경기도 고양시 덕양구 삼송동 350-2번지","category":""},{"name":"도그스테이(Dog stay)","tel":"031-000-0000","addr":"경기도 고양시 덕양구 삼송동 350-2번지","category":"문화.취미 - 애완동물"}]},{"lat":"37.652409767","long":"126.88803343","items":[{"name":"도토리약국","tel":"02-381-8191","addr":"경기도 고양시 덕양구 삼송동 304-1번지","category":"약국 - 약국"},{"name":"도토리약국","tel":"02-381-8191","addr":"경기도 고양시 덕양구 삼송동 304-1번지","category":""},{"name":"드림인삼송의원","tel":"02-393-0102","addr":"경기도 고양시 덕양구 삼송동 304-1번지","category":""},{"name":"드림인삼송의원","tel":"02-393-0102","addr":"경기도 고양시 덕양구 삼송동 304-1번지","category":"의원 - 의원"},{"name":"북경한의원","tel":"02-381-9966","addr":"경기도 고양시 덕양구 삼송동 304-1번지","category":""},{"name":"북경한의원","tel":"02-381-9966","addr":"경기도 고양시 덕양구 삼송동 304-1번지","category":"의원 - 한의원"},{"name":"정이든치과의원","tel":"02-371-2279","addr":"경기도 고양시 덕양구 삼송동 304-1번지","category":""},{"name":"정이든치과의원","tel":"02-371-2279","addr":"경기도 고양시 덕양구 삼송동 304-1번지","category":"의원 - 치과의원"},{"name":"칸타빈","tel":"02-521-1491","addr":"경기도 고양시 덕양구 삼송동 304-1번지","category":""}]},{"lat":"37.650852245","long":"126.88922565","items":[{"name":"독끼 (DOG KKI)","tel":"02-1666-6229","addr":"경기도 고양시 덕양구 삼송동 314-9번지","category":""},{"name":"매운도깨비","tel":"02-381-9797","addr":"경기도 고양시 덕양구 삼송동 314-9번지","category":""}]},{"lat":"37.657359233","long":"126.89131227","items":[{"name":"독립문카페","tel":"031-0-0000","addr":"경기도 고양시 덕양구 삼송동 산 24-1","category":""}]},{"lat":"37.654164731","long":"126.89555527","items":[{"name":"돈가방","tel":"02-381-5661","addr":"경기도 고양시 덕양구 삼송동 24-3번지","category":""},{"name":"돈가방","tel":"02-381-5661","addr":"경기도 고양시 덕양구 삼송동 24-3번지","category":"일반휴게음식 - 서양음식"},{"name":"삼송부대찌개","tel":"","addr":"경기도 고양시 덕양구 삼송동 24-3번지","category":"일반휴게음식 - 일반한식"}]},{"lat":"37.65235798","long":"126.89039054","items":[{"name":"돈오락쪽갈비 (고양점)","tel":"02-381-1033","addr":"경기도 고양시 덕양구 삼송동 135-43번지","category":"일반휴게음식 - 일반한식"},{"name":"돈오락쪽갈비 (고양점)","tel":"02-381-1033","addr":"경기도 고양시 덕양구 삼송동 135-43번지","category":""},{"name":"벨로스페이스","tel":"02-381-3338","addr":"경기도 고양시 덕양구 삼송동 135-43번지","category":""},{"name":"벨로스페이스","tel":"02-381-3338","addr":"경기도 고양시 덕양구 삼송동 135-43번지","category":"레져용품 - 스포츠·레져용품"},{"name":"영동돈까스","tel":"02-381-7756","addr":"경기도 고양시 덕양구 삼송동 135-43번지","category":""},{"name":"우리반찬","tel":"02-381-9085","addr":"경기도 고양시 덕양구 삼송동 135-43번지","category":""},{"name":"우리반찬","tel":"02-381-9085","addr":"경기도 고양시 덕양구 삼송동 135-43번지","category":"음료식품 - 기타음료식품"}]},{"lat":"37.65238515","long":"126.89053781","items":[{"name":"동산기름방앗간","tel":"02-381-9813","addr":"경기도 고양시 덕양구 삼송동 135-46번지","category":"음료식품 - 미곡상"},{"name":"동산기름방앗간","tel":"02-381-9813","addr":"경기도 고양시 덕양구 삼송동 135-46번지","category":""},{"name":"유성공구","tel":"02-381-0978","addr":"경기도 고양시 덕양구 삼송동 135-46번지","category":"기타 - 기계공구"},{"name":"유성공구","tel":"02-381-0978","addr":"경기도 고양시 덕양구 삼송동 135-46번지","category":""}]},{"lat":"37.652774162","long":"126.89222568","items":[{"name":"동산철물","tel":"","addr":"경기도 고양시 덕양구 삼송동 135-67번지","category":""},{"name":"박가네의정부부대찌개","tel":"02-381-9407","addr":"경기도 고양시 덕양구 삼송동 135-67번지","category":""}]},{"lat":"37.652939402","long":"126.88606086","items":[{"name":"동원예가 어린이집[아이행복]","tel":"02-381-2656","addr":"경기도 고양시 덕양구 삼송동 306번지 삼송마을동원로얄듀크","category":"학원 - 유아원"}]},{"lat":"37.651050567","long":"126.88933867","items":[{"name":"디디치킨 삼송점","tel":"02-381-9291","addr":"경기도 고양시 덕양구 삼송동 314-7번지","category":""},{"name":"디디치킨 삼송점","tel":"02-381-9291","addr":"경기도 고양시 덕양구 삼송동 314-7번지","category":"일반휴게음식 - 스넥"}]},{"lat":"37.651992767","long":"126.89486715","items":[{"name":"따삼족발보쌈삼송점","tel":"02-381-5353","addr":"경기도 고양시 덕양구 삼송동 128-23번지","category":""},{"name":"몽실이식당","tel":"031-381-7164","addr":"경기도 고양시 덕양구 삼송동 128-23번지","category":""}]},{"lat":"37.653803785","long":"126.89494386","items":[{"name":"떡순네김밥","tel":"02-381-4158","addr":"경기도 고양시 덕양구 삼송동 24-35번지","category":""},{"name":"박가네국시","tel":"02-381-4585","addr":"경기도 고양시 덕양구 삼송동 24-35번지","category":""},{"name":"업텐브로피자 삼송역점","tel":"02-381-4585","addr":"경기도 고양시 덕양구 삼송동 24-35번지","category":"일반휴게음식 - 서양음식"},{"name":"에필라쥬","tel":"02-371-1101","addr":"경기도 고양시 덕양구 삼송동 24-35번지","category":"보건위생 - 미용원"}]},{"lat":"37.654300054","long":"126.88625138","items":[{"name":"또래오래 목우촌참피자 삼송점","tel":"02-351-9282","addr":"경기도 고양시 덕양구 삼송동 298-4번지","category":""},{"name":"또래오래,목우촌참피자 삼송점","tel":"02-351-9282","addr":"경기도 고양시 덕양구 삼송동 298-4번지","category":""},{"name":"또래오래치킨 삼송점","tel":"02-351-9282","addr":"경기도 고양시 덕양구 삼송동 298-4번지","category":"일반휴게음식 - 스넥"}]},{"lat":"37.648216292","long":"126.88402864","items":[{"name":"뚜레쥬르 카페고양삼송점","tel":"02-381-8641","addr":"경기도 고양시 덕양구 삼송동 337-2번지","category":"음료식품 - 제과점"},{"name":"파파존스 고양삼송점","tel":"02-381-8892","addr":"경기도 고양시 덕양구 삼송동 337-2번지","category":"일반휴게음식 - 서양음식"}]},{"lat":"37.650828325","long":"126.89250053","items":[{"name":"뚝방집","tel":"02-371-0372","addr":"경기도 고양시 덕양구 삼송동 11-7번지","category":""},{"name":"러브앤프리","tel":"070-4115-3787","addr":"경기도 고양시 덕양구 삼송동 11-7번지","category":""},{"name":"러브앤프리","tel":"070-4115-3787","addr":"경기도 고양시 덕양구 삼송동 11-7번지","category":"일반휴게음식 - 일반한식"}]},{"lat":"37.653770339","long":"126.88814466","items":[{"name":"라베르헤어","tel":"02-371-3661","addr":"경기도 고양시 덕양구 삼송동 82번지","category":""},{"name":"라베르헤어","tel":"02-371-3661","addr":"경기도 고양시 덕양구 삼송동 82번지","category":"보건위생 - 미용원"}]},{"lat":"37.650518755","long":"126.88909018","items":[{"name":"라베르헤어","tel":"02-371-3661","addr":"경기도 고양시 덕양구 삼송동 316번지","category":""},{"name":"우리집반찬","tel":"02-371-0365","addr":"경기도 고양시 덕양구 삼송동 316번지","category":""},{"name":"응응스크르 삼송점","tel":"","addr":"경기도 고양시 덕양구 삼송동 316번지","category":"음료식품 - 기타음료식품"}]},{"lat":"37.644469743","long":"126.87678299","items":[{"name":"라이딩컴퍼니","tel":"02-381-2310","addr":"경기도 고양시 덕양구 삼송동 354-4번지","category":"레져용품 - 스포츠·레져용품"},{"name":"라이딩컴퍼니","tel":"02-381-2310","addr":"경기도 고양시 덕양구 삼송동 354-4번지","category":""}]},{"lat":"37.654128926","long":"126.8863083","items":[{"name":"라이트하우스로스터","tel":"","addr":"경기도 고양시 덕양구 삼송동 298-6번지","category":""},{"name":"라이트하우스이탈리안브런치카페","tel":"","addr":"경기도 고양시 덕양구 삼송동 298-6번지","category":""},{"name":"라이트하우스이탈리안브런치카페","tel":"","addr":"경기도 고양시 덕양구 삼송동 298-6번지","category":"일반휴게음식 - 서양음식"}]},{"lat":"37.642414513","long":"126.87583471","items":[{"name":"랩스토리","tel":"02-381-5288","addr":"경기도 고양시 덕양구 삼송동 367-1번지","category":""}]},{"lat":"37.654245288","long":"126.88553754","items":[{"name":"레이노 삼송점","tel":"02-371-2225","addr":"경기도 고양시 덕양구 삼송동 299-5번지","category":"자동차정비 유지 - 자동차부품"},{"name":"레이노 삼송점","tel":"02-371-2225","addr":"경기도 고양시 덕양구 삼송동 299-5번지","category":""}]},{"lat":"37.654524362","long":"126.88531045","items":[{"name":"로움스튜디오","tel":"031-0-0000","addr":"경기도 고양시 덕양구 삼송동 297-2번지","category":""},{"name":"로움스튜디오","tel":"031-000-0000","addr":"경기도 고양시 덕양구 삼송동 297-2번지","category":"일반휴게음식 - 일반한식"}]},{"lat":"37.654605585","long":"126.88544631","items":[{"name":"로움아카데미","tel":"02-381-1551","addr":"경기도 고양시 덕양구 삼송동 297-3번지","category":"학원 - 기능학원"}]},{"lat":"37.644299513","long":"126.87767839","items":[{"name":"루차이","tel":"02-381-8850","addr":"경기도 고양시 덕양구 삼송동 356번지","category":"일반휴게음식 - 중국식"},{"name":"비치비어앤치킨","tel":"","addr":"경기도 고양시 덕양구 삼송동 356번지","category":"일반휴게음식 - 스넥"},{"name":"쌍용자동차고양삼송서비스프라자","tel":"02-381-5581","addr":"경기도 고양시 덕양구 삼송동 356번지","category":"자동차정비 유지 - 자동차정비"},{"name":"쌍용자동차고양삼송서비스프라자","tel":"02-381-5581","addr":"경기도 고양시 덕양구 삼송동 356번지","category":""}]},{"lat":"37.646964393","long":"126.87581563","items":[{"name":"르노삼성자동차삼송대리점","tel":"02-381-3232","addr":"경기도 고양시 덕양구 삼송동 345-2번지","category":"자동차판매 - 국산신차판매"}]},{"lat":"37.644054411","long":"126.87595655","items":[{"name":"리엔드네일","tel":"","addr":"경기도 고양시 덕양구 삼송동 353-11번지","category":"보건위생 - 피부미용실"}]},{"lat":"37.643774891","long":"126.87575308","items":[{"name":"마노아(MANOAH)","tel":"","addr":"경기도 고양시 덕양구 삼송동 358번지","category":""},{"name":"마노아(MANOAH)","tel":"","addr":"경기도 고양시 덕양구 삼송동 358번지","category":"일반휴게음식 - 서양음식"}]},{"lat":"37.648053614","long":"126.88353032","items":[{"name":"마마스핸즈 스튜디오","tel":"070-4610-2119","addr":"경기도 고양시 덕양구 삼송동 337번지","category":""},{"name":"마마스핸즈 스튜디오","tel":"070-4610-2119","addr":"경기도 고양시 덕양구 삼송동 337번지","category":"문화.취미 - 문화취미기타"},{"name":"본영재교육학원","tel":"02-371-1535","addr":"경기도 고양시 덕양구 삼송동 337번지","category":"학원 - 보습학원"},{"name":"본영재교육학원","tel":"02-371-1535","addr":"경기도 고양시 덕양구 삼송동 337번지","category":""},{"name":"삼송석사덕양체육관","tel":"031-381-6056","addr":"경기도 고양시 덕양구 삼송동 337번지","category":"학원 - 예·체능계학원"},{"name":"삼송석사덕양체육관","tel":"031-381-6056","addr":"경기도 고양시 덕양구 삼송동 337번지","category":""},{"name":"씨유삼송상록점","tel":"02-381-0248","addr":"경기도 고양시 덕양구 삼송동 337번지","category":""},{"name":"씨유삼송상록점","tel":"02-381-0248","addr":"경기도 고양시 덕양구 삼송동 337번지","category":"유통업 영리 - 편 의 점"},{"name":"아트랩미술학원","tel":"02-381-6163","addr":"경기도 고양시 덕양구 삼송동 337번지","category":"학원 - 예·체능계학원"},{"name":"아트랩미술학원","tel":"02-381-6163","addr":"경기도 고양시 덕양구 삼송동 337번지","category":""},{"name":"안느","tel":"031-381-1224","addr":"경기도 고양시 덕양구 삼송동 337번지","category":""},{"name":"안느","tel":"031-381-1224","addr":"경기도 고양시 덕양구 삼송동 337번지","category":"보건위생 - 화장품"},{"name":"안느헤어&네일","tel":"02-386-9943","addr":"경기도 고양시 덕양구 삼송동 337번지","category":"보건위생 - 미용원"},{"name":"안느헤어&네일","tel":"02-386-9943","addr":"경기도 고양시 덕양구 삼송동 337번지","category":""},{"name":"유림축산","tel":"02-381-7711","addr":"경기도 고양시 덕양구 삼송동 337번지","category":""},{"name":"윤가네 한우","tel":"02-381-7711","addr":"경기도 고양시 덕양구 삼송동 337번지","category":"음료식품 - 정육점"},{"name":"칸타빌레음악학원","tel":"02-371-2722","addr":"경기도 고양시 덕양구 삼송동 337번지","category":"학원 - 예·체능계학원"},{"name":"칸타빌레음악학원","tel":"02-371-2722","addr":"경기도 고양시 덕양구 삼송동 337번지","category":""}]},{"lat":"37.65282856","long":"126.89258823","items":[{"name":"마마운동화이불빨래방","tel":"02-381-8481","addr":"경기도 고양시 덕양구 삼송동 135-73번지","category":""},{"name":"마마운동화이불빨래방","tel":"02-381-8481","addr":"경기도 고양시 덕양구 삼송동 135-73번지","category":"수리서비스 - 세탁소"},{"name":"아이리텍 고양삼송아이폰수리센터","tel":"070-8810-3100","addr":"경기도 고양시 덕양구 삼송동 135-73번지","category":"수리서비스 - 사무·통신기기수리"},{"name":"자영암","tel":"02-381-8481","addr":"경기도 고양시 덕양구 삼송동 135-73번지","category":"보건위생 - 기타대인서비스"},{"name":"주식회사 상상투어","tel":"02-381-3510","addr":"경기도 고양시 덕양구 삼송동 135-73번지","category":""},{"name":"주식회사 상상투어","tel":"02-381-3510","addr":"경기도 고양시 덕양구 삼송동 135-73번지","category":"여행 - 관광여행"}]},{"lat":"37.644137926","long":"126.87823386","items":[{"name":"마이펫살롱","tel":"02-381-0440","addr":"경기도 고양시 덕양구 삼송동 357-1번지","category":""},{"name":"마이펫살롱","tel":"02-381-0440","addr":"경기도 고양시 덕양구 삼송동 357-1번지","category":"문화.취미 - 애완동물"},{"name":"블룸","tel":"070-7761-7000","addr":"경기도 고양시 덕양구 삼송동 357-1번지","category":"일반휴게음식 - 서양음식"}]},{"lat":"37.651770937","long":"126.8889183","items":[{"name":"마이퓨어제이","tel":"070-4110-0725","addr":"경기도 고양시 덕양구 삼송동 314-1번지","category":"신변잡화 - 액세서리"},{"name":"마이퓨어제이","tel":"070-4110-0725","addr":"경기도 고양시 덕양구 삼송동 314-1번지","category":""},{"name":"스튜디오 조각당","tel":"031-0-0000","addr":"경기도 고양시 덕양구 삼송동 314-1번지","category":""},{"name":"스튜디오 조각당","tel":"031-000-0000","addr":"경기도 고양시 덕양구 삼송동 314-1번지","category":"문화.취미 - 문화취미기타"}]},{"lat":"37.654219651","long":"126.89650709","items":[{"name":"만나유통","tel":"02-381-2287","addr":"경기도 고양시 덕양구 삼송동 61-14번지","category":"음료식품 - 정육점"},{"name":"만나유통","tel":"02-381-2287","addr":"경기도 고양시 덕양구 삼송동 61-14번지","category":""},{"name":"컷트클럽","tel":"02-381-8885","addr":"경기도 고양시 덕양구 삼송동 61-14번지","category":"보건위생 - 미용원"},{"name":"컷트클럽","tel":"02-381-8885","addr":"경기도 고양시 덕양구 삼송동 61-14번지","category":""}]},{"lat":"37.652046949","long":"126.89500306","items":[{"name":"만남의집","tel":"02-381-8426","addr":"경기도 고양시 덕양구 삼송동 128-21번지","category":""}]},{"lat":"37.654136592","long":"126.89434277","items":[{"name":"만리장성","tel":"02-382-6969","addr":"경기도 고양시 덕양구 삼송동 27-28번지","category":"일반휴게음식 - 중국식"},{"name":"만리장성","tel":"02-382-6969","addr":"경기도 고양시 덕양구 삼송동 27-28번지","category":""},{"name":"은머리방","tel":"02-381-1523","addr":"경기도 고양시 덕양구 삼송동 27-28번지","category":""},{"name":"은머리방","tel":"02-381-1523","addr":"경기도 고양시 덕양구 삼송동","category":"보건위생 - 미용원"}]},{"lat":"37.642325049","long":"126.87642404","items":[{"name":"만터부대찌개","tel":"02-381-7745","addr":"경기도 고양시 덕양구 삼송동 368-2번지","category":""},{"name":"만터부대찌개","tel":"02-381-7745","addr":"경기도 고양시 덕양구 삼송동 368-2번지","category":"일반휴게음식 - 일반한식"},{"name":"만터부대찌개","tel":"02-381-7745","addr":"경기도 고양시 덕양구 삼송동 368-2번지","category":""}]},{"lat":"37.6428832","long":"126.87600387","items":[{"name":"맥스 커스텀","tel":"02-381-5690","addr":"경기도 고양시 덕양구 삼송동 361-5번지","category":"자동차정비 유지 - 자동차부품"},{"name":"맥스 커스텀","tel":"02-381-5690","addr":"경기도 고양시 덕양구 삼송동 361-5번지","category":""}]},{"lat":"37.651441892","long":"126.89347415","items":[{"name":"먹브로","tel":"","addr":"경기도 고양시 덕양구 삼송동 128-88번지","category":""},{"name":"먹브로","tel":"","addr":"경기도 고양시 덕양구 삼송동 128-88번지","category":"일반휴게음식 - 일반한식"},{"name":"삼송한식뷔페","tel":"031-371-2664","addr":"경기도 고양시 덕양구 삼송동 128-88번지","category":""}]},{"lat":"37.644551483","long":"126.8773947","items":[{"name":"메카7","tel":"02-381-7272","addr":"경기도 고양시 덕양구 삼송동 355-1번지","category":""},{"name":"메카7","tel":"02-381-7272","addr":"경기도 고양시 덕양구 삼송동 355-1번지","category":"자동차정비 유지 - 자동차정비"}]},{"lat":"37.644379562","long":"126.87670382","items":[{"name":"멜로우네일","tel":"02-371-1265","addr":"경기도 고양시 덕양구 삼송동 354-5번지","category":""},{"name":"블랑드","tel":"02-1234-1234","addr":"경기도 고양시 덕양구 삼송동 354-5번지","category":""},{"name":"블랑드","tel":"02-1234-1234","addr":"경기도 고양시 덕양구 삼송동 354-5번지","category":"의류 - 정장"}]},{"lat":"37.652299324","long":"126.89511601","items":[{"name":"모아식당","tel":"02-381-7266","addr":"경기도 고양시 덕양구 삼송동 128-129번지","category":""},{"name":"모아식당","tel":"02-381-7266","addr":"경기도 고양시 덕양구 삼송동 128-129번지","category":"일반휴게음식 - 일반한식"},{"name":"포차자매","tel":"070-7420-4799","addr":"경기도 고양시 덕양구 삼송동 128-129번지","category":""},{"name":"포차자매","tel":"070-7420-4799","addr":"경기도 고양시 덕양구 삼송동 128-129번지","category":"일반휴게음식 - 일반한식"}]},{"lat":"37.643135921","long":"126.87642267","items":[{"name":"모터랩","tel":"070-8945-3313","addr":"경기도 고양시 덕양구 삼송동 362-3번지","category":"자동차정비 유지 - 카인테리어"},{"name":"모터랩","tel":"070-8945-3313","addr":"경기도 고양시 덕양구 삼송동 362-3번지","category":""}]},{"lat":"37.652602274","long":"126.89147803","items":[{"name":"몽키타바코 삼송점","tel":"02-381-8182","addr":"경기도 고양시 덕양구 삼송동 135-55번지","category":""},{"name":"몽키타바코 삼송점","tel":"02-381-8182","addr":"경기도 고양시 덕양구 삼송동 135-55번지","category":"음료식품 - 기타음료식품"},{"name":"삼송낚시","tel":"031-371-0111","addr":"경기도 고양시 덕양구 삼송동 135-55번지","category":""},{"name":"삼송낚시","tel":"031-371-0111","addr":"경기도 고양시 덕양구 삼송동 135-55번지","category":"레져용품 - 스포츠·레져용품"},{"name":"안성브러쉬","tel":"02-381-7692","addr":"경기도 고양시 덕양구 삼송동 135-55번지","category":"신변잡화 - 기타잡화"},{"name":"안성브러쉬","tel":"02-381-7692","addr":"경기도 고양시 덕양구 삼송동 135-55번지","category":""},{"name":"왕촌솔밭갈비","tel":"031-387-8688","addr":"경기도 고양시 덕양구 삼송동 135-55번지","category":""},{"name":"왕촌솔밭갈비","tel":"031-387-8688","addr":"경기도 고양시 덕양구 삼송동 135-55번지","category":"일반휴게음식 - 일반한식"},{"name":"홍능갈비","tel":"02-381-3023","addr":"경기도 고양시 덕양구 삼송동 135-55번지","category":""},{"name":"홍능갈비","tel":"02-381-3023","addr":"경기도 고양시 덕양구 삼송동 135-55번지","category":"일반휴게음식 - 일반한식"}]},{"lat":"37.65263614","long":"126.88920027","items":[{"name":"뮤직쿠","tel":"070-7807-0707","addr":"경기도 고양시 덕양구 삼송동 78-33번지","category":"레져용품 - 악기점"},{"name":"뮤직쿠","tel":"070-7807-0707","addr":"경기도 고양시 덕양구 삼송동 78-33번지","category":""},{"name":"펫츠마트삼송애견","tel":"02-371-1112","addr":"경기도 고양시 덕양구 삼송동 78-33번지","category":"문화.취미 - 애완동물"},{"name":"펫츠마트삼송애견","tel":"02-371-1112","addr":"경기도 고양시 덕양구 삼송동 78-33번지","category":""},{"name":"힐링코드 심리센터","tel":"031-1833-6209","addr":"경기도 고양시 덕양구 삼송동 78-33번지","category":"보건위생 - 기타대인서비스"},{"name":"힐링코드 심리센터","tel":"031-1833-6209","addr":"경기도 고양시 덕양구 삼송동 78-33번지","category":""}]},{"lat":"37.65288065","long":"126.89050307","items":[{"name":"미가데코","tel":"031-624-7721","addr":"경기도 고양시 덕양구 삼송동 74-1번지","category":""},{"name":"시온순복음교회","tel":"070-4411-0091","addr":"경기도 고양시 덕양구 삼송동 74-1번지","category":""},{"name":"시온순복음교회","tel":"070-4411-0091","addr":"경기도 고양시 덕양구 삼송동 74-1번지","category":"신변잡화 - 기타잡화"},{"name":"피자헛 고양삼송점","tel":"070-7843-1286","addr":"경기도 고양시 덕양구 삼송동 74-1번지","category":"일반휴게음식 - 서양음식"}]},{"lat":"37.650609092","long":"126.88933934","items":[{"name":"미라노 디저트 삼송점","tel":"02-371-2364","addr":"경기도 고양시 덕양구 삼송동 317번지","category":""},{"name":"미라노 디저트 삼송점","tel":"02-371-2364","addr":"경기도 고양시 덕양구 삼송동 317번지","category":"일반휴게음식 - 서양음식"}]},{"lat":"37.64474937","long":"126.87708844","items":[{"name":"미림","tel":"","addr":"경기도 고양시 덕양구 삼송동 354-1번지","category":""},{"name":"미림","tel":"","addr":"경기도 고양시 덕양구 삼송동 354-1번지","category":"일반휴게음식 - 일반한식"}]},{"lat":"37.653967482","long":"126.89662077","items":[{"name":"미림세탁","tel":"031-381-3295","addr":"경기도 고양시 덕양구 삼송동 61-17번지","category":"수리서비스 - 세탁소"},{"name":"미림세탁","tel":"031-381-3295","addr":"경기도 고양시 덕양구 삼송동 61-17번지","category":""},{"name":"삼송마트정육","tel":"02-381-3110","addr":"경기도 고양시 덕양구 삼송동 61-17번지","category":"음료식품 - 정육점"},{"name":"삼송마트정육","tel":"02-381-3110","addr":"경기도 고양시 덕양구 삼송동 61-17번지","category":""}]},{"lat":"37.653830107","long":"126.89417324","items":[{"name":"미소초밥집","tel":"031-866-5533","addr":"경기도 고양시 덕양구 삼송동 33-13번지","category":""},{"name":"한옥집","tel":"02-381-0333","addr":"경기도 고양시 덕양구 삼송동 33-13번지","category":""},{"name":"한옥집","tel":"02-381-0333","addr":"경기도 고양시 덕양구 삼송동 33-13번지","category":""}]},{"lat":"37.654218619","long":"126.88590021","items":[{"name":"미스터쏘닭","tel":"02-371-2117","addr":"경기도 고양시 덕양구 삼송동 299-3번지","category":""},{"name":"썸타는키친","tel":"02-381-9567","addr":"경기도 고양시 덕양구 삼송동 299-3번지","category":""},{"name":"썸타는키친","tel":"02-381-9567","addr":"경기도 고양시 덕양구 삼송동 299-3번지","category":"일반휴게음식 - 일반한식"},{"name":"찬찬찬","tel":"02-371-1313","addr":"경기도 고양시 덕양구 삼송동 299-3번지","category":"음료식품 - 기타음료식품"},{"name":"찬찬찬","tel":"02-371-1313","addr":"경기도 고양시 덕양구 삼송동 299-3번지","category":""},{"name":"형제정육점","tel":"070-7757-0153","addr":"경기도 고양시 덕양구 삼송동 299-3번지","category":""}]},{"lat":"37.653355574","long":"126.88781667","items":[{"name":"미야야","tel":"02-111-1111","addr":"경기도 고양시 덕양구 삼송동 303번지","category":"의류 - 정장"},{"name":"미야야","tel":"","addr":"경기도 고양시 덕양구 삼송동 303번지","category":""},{"name":"배달하는포장마차","tel":"02-371-0070","addr":"경기도 고양시 덕양구 삼송동 303번지","category":"일반휴게음식 - 일반한식"},{"name":"배달하는포장마차","tel":"02-371-0070","addr":"경기도 고양시 덕양구 삼송동 303번지","category":""},{"name":"에이치샵(H#)","tel":"070-4526-2574","addr":"경기도 고양시 덕양구 삼송동 303번지","category":"의류 - 정장"}]},{"lat":"37.651690254","long":"126.88933769","items":[{"name":"밀가","tel":"02-381-6365","addr":"경기도 고양시 덕양구 삼송동 315-1번지","category":"의류 - 정장"},{"name":"밀가","tel":"02-381-6365","addr":"경기도 고양시 덕양구 삼송동 315-1번지","category":""},{"name":"주식회사 인팩","tel":"031-111-1111","addr":"경기도 고양시 덕양구 삼송동 315-1번지","category":"주방용구 - 주방용구"}]},{"lat":"37.644714223","long":"126.87792697","items":[{"name":"바다나무잉글리시어학원","tel":"02-381-0579","addr":"경기도 고양시 덕양구 삼송동 348-1번지","category":"학원 - 외국어학원"},{"name":"에릭칼 아트 잉글리쉬","tel":"02-6956-4579","addr":"경기도 고양시 덕양구 삼송동 348-1번지","category":"서적문구 - 일반서적"}]},{"lat":"37.650131765","long":"126.8895327","items":[{"name":"바이수(bysue)","tel":"031-111-1111","addr":"경기도 고양시 덕양구 삼송동 128-63번지","category":"신변잡화 - 신발"}]},{"lat":"37.656022956","long":"126.89803439","items":[{"name":"바이크헌터","tel":"02-3144-1022","addr":"경기도 고양시 덕양구 삼송동 57-65번지","category":""},{"name":"바이크헌터","tel":"02-3144-1022","addr":"경기도 고양시 덕양구 삼송동 57-65번지","category":"자동차판매 - 이륜차판매"},{"name":"스플랜도르","tel":"02-3144-1022","addr":"경기도 고양시 덕양구 삼송동 57-65번지","category":"자동차판매 - 이륜차판매"},{"name":"전자담배 백화점","tel":"070-4187-0401","addr":"경기도 고양시 덕양구 삼송동 57-65번지","category":"기타 - 기타 전문점"},{"name":"전자담배 백화점","tel":"070-4187-0401","addr":"경기도 고양시 덕양구 삼송동 57-65번지","category":""},{"name":"큐펫(Q-PET)","tel":"02-381-8990","addr":"경기도 고양시 덕양구 삼송동 57-65번지","category":""}]},{"lat":"37.651302707","long":"126.8892023","items":[{"name":"반올림피자샵 삼송점","tel":"02-381-7776","addr":"경기도 고양시 덕양구 삼송동 314-5번지","category":"일반휴게음식 - 서양음식"},{"name":"반올림피자샵 삼송점","tel":"02-381-7776","addr":"경기도 고양시 덕양구 삼송동 314-5번지","category":""}]},{"lat":"37.651798261","long":"126.88922421","items":[{"name":"반찬맘(mom)","tel":"02-381-2588","addr":"경기도 고양시 덕양구 삼송동 315번지","category":""},{"name":"유성국내산한돈전문점","tel":"02-381-8592","addr":"경기도 고양시 덕양구 삼송동 315번지","category":""}]},{"lat":"37.650383687","long":"126.88916971","items":[{"name":"반찬앤","tel":"070-4238-2028","addr":"경기도 고양시 덕양구 삼송동","category":"음료식품 - 기타음료식품"},{"name":"반찬앤","tel":"070-4238-2028","addr":"경기도 고양시 덕양구 삼송동 316-1번지","category":""},{"name":"세탁마루","tel":"02-371-3712","addr":"경기도 고양시 덕양구 삼송동 316-1번지","category":""},{"name":"주식회사 크리닝업 고양삼송지점","tel":"02-371-3712","addr":"경기도 고양시 덕양구 삼송동 316-1번지","category":""},{"name":"주식회사 크리닝업 고양삼송지점","tel":"031-371-3712","addr":"경기도 고양시 덕양구 삼송동 316-1번지","category":"수리서비스 - 세탁소"},{"name":"주식회사 호산","tel":"","addr":"경기도 고양시 덕양구 삼송동 316-1번지","category":""},{"name":"주식회사 호산","tel":"02-1111-1111","addr":"경기도 고양시 덕양구 삼송동 316-1번지","category":"여행 - 관광여행"}]},{"lat":"37.656302528","long":"126.89833998","items":[{"name":"베이커리앤카페엘리제","tel":"031-000-0000","addr":"경기도 고양시 덕양구 삼송동 62-135번지","category":"음료식품 - 제과점"}]},{"lat":"37.652581808","long":"126.88891706","items":[{"name":"베지밀양주대리점","tel":"02-381-8647","addr":"경기도 고양시 덕양구 삼송동 78-31번지","category":"유통업 영리 - 기타유통업"},{"name":"베지밀양주대리점","tel":"02-381-8647","addr":"경기도 고양시 덕양구 삼송동 78-31번지","category":""}]},{"lat":"37.643026964","long":"126.87564105","items":[{"name":"보광족발보쌈","tel":"02-3159-7752","addr":"경기도 고양시 덕양구 삼송동 360-5번지","category":""},{"name":"보광족발보쌈","tel":"02-3159-7752","addr":"경기도 고양시 덕양구 삼송동 360-5번지","category":"일반휴게음식 - 일반한식"}]},{"lat":"37.653496057","long":"126.89342581","items":[{"name":"보나헤어","tel":"02-381-0089","addr":"경기도 고양시 덕양구 삼송동 30-29번지","category":""}]},{"lat":"37.652352435","long":"126.89408473","items":[{"name":"보람상회","tel":"02-381-9485","addr":"경기도 고양시 덕양구 삼송동 128-92번지","category":"음료식품 - 기타음료식품"},{"name":"보람상회","tel":"02-381-9485","addr":"경기도 고양시 덕양구 삼송동 128-92번지","category":""},{"name":"스마일 명품 꽈배기","tel":"031-0-0000","addr":"경기도 고양시 덕양구 삼송동 128-92번지","category":""},{"name":"스마일 명품 꽈배기","tel":"031-000-0000","addr":"경기도 고양시 덕양구 삼송동 128-92번지","category":"일반휴게음식 - 일반한식"},{"name":"충남유통","tel":"031-981-3517","addr":"경기도 고양시 덕양구 삼송동 128-92번지","category":"음료식품 - 정육점"},{"name":"충남유통","tel":"031-981-3517","addr":"경기도 고양시 덕양구 삼송동 128-92번지","category":""},{"name":"충남통닭","tel":"031-381-3517","addr":"경기도 고양시 덕양구 삼송동 128-92번지","category":""}]},{"lat":"37.651464586","long":"126.8888961","items":[{"name":"보람짐","tel":"070-8824-9655","addr":"경기도 고양시 덕양구 삼송동 314-14번지","category":"레저업소 - 헬스클럽"},{"name":"보람짐","tel":"070-8824-9655","addr":"경기도 고양시 덕양구 삼송동 314-14번지","category":""}]},{"lat":"37.652244371","long":"126.89414155","items":[{"name":"봄여름가을겨울","tel":"02-381-7588","addr":"경기도 고양시 덕양구 삼송동 128-94번지","category":""},{"name":"익투스헤어","tel":"02-356-6266","addr":"경기도 고양시 덕양구 삼송동 128-94번지","category":"보건위생 - 미용원"},{"name":"전주한식백반","tel":"02-381-0091","addr":"경기도 고양시 덕양구 삼송동 128-94번지","category":""},{"name":"전주한식백반","tel":"02-381-0091","addr":"경기도 고양시 덕양구 삼송동 128-94번지","category":""}]},{"lat":"37.654605979","long":"126.88584294","items":[{"name":"북유럽감성놀이터 학원","tel":"02-381-8260","addr":"경기도 고양시 덕양구 삼송동 298-1번지","category":"학원 - 예·체능계학원"},{"name":"프렌즈에듀(friendsedu)","tel":"02-381-8260","addr":"경기도 고양시 덕양구 삼송동 298-1번지","category":"학원 - 기타 교육기관"},{"name":"프렌즈에듀(friendsedu)","tel":"02-381-8260","addr":"경기도 고양시 덕양구 삼송동 298-1번지","category":""}]},{"lat":"37.654047005","long":"126.89489817","items":[{"name":"불타는소금구이","tel":"02-381-9019","addr":"경기도 고양시 덕양구 삼송동 24-31번지","category":""},{"name":"불타는소금구이","tel":"02-381-9019","addr":"경기도 고양시 덕양구 삼송동 24-31번지","category":"일반휴게음식 - 일반한식"}]},{"lat":"37.642747994","long":"126.87594745","items":[{"name":"브로큰탬퍼","tel":"070-8845-3250","addr":"경기도 고양시 덕양구 삼송동 361-6번지","category":"일반휴게음식 - 서양음식"},{"name":"브로큰탬퍼","tel":"070-8845-3250","addr":"경기도 고양시 덕양구 삼송동 361-6번지","category":""}]},{"lat":"37.643856963","long":"126.87667072","items":[{"name":"블랙시스 고양점","tel":"","addr":"경기도 고양시 덕양구 삼송동 355-8번지","category":""},{"name":"블랙시스 고양점","tel":"","addr":"경기도 고양시 덕양구 삼송동 355-8번지","category":"자동차정비 유지 - 자동차부품"},{"name":"유오갤러리카페","tel":"070-7365-0492","addr":"경기도 고양시 덕양구 삼송동 355-8번지","category":""},{"name":"유오갤러리카페","tel":"070-7365-0492","addr":"경기도 고양시 덕양구 삼송동 355-8번지","category":"일반휴게음식 - 일반한식"}]},{"lat":"37.652968367","long":"126.88803257","items":[{"name":"블루비즈","tel":"02-6053-0101","addr":"경기도 고양시 덕양구 삼송동 303-8번지","category":"자동차정비 유지 - 세차장"},{"name":"블루비즈","tel":"02-6053-0101","addr":"경기도 고양시 덕양구 삼송동 303-8번지","category":""}]},{"lat":"37.652131674","long":"126.88928036","items":[{"name":"블리스","tel":"070-7539-9386","addr":"경기도 고양시 덕양구 삼송동 135-5번지","category":""},{"name":"블리스","tel":"070-7539-9386","addr":"경기도 고양시 덕양구 삼송동 135-5번지","category":"보건위생 - 화장품"},{"name":"블리스네일","tel":"","addr":"경기도 고양시 덕양구 삼송동 135-5번지","category":""},{"name":"블리스네일","tel":"02-1111-1111","addr":"경기도 고양시 덕양구 삼송동 135-5번지","category":"보건위생 - 피부미용실"},{"name":"티비에이","tel":"070-8028-7829","addr":"경기도 고양시 덕양구 삼송동 135-5번지","category":"수리서비스 - 기타수리서비스"},{"name":"티비에이 (TBA)","tel":"070-8028-7829","addr":"경기도 고양시 덕양구 삼송동 135-5번지","category":""},{"name":"흰돌캐노피 주식회사","tel":"02-385-3540","addr":"경기도 고양시 덕양구 삼송동 135-5번지","category":"건축자재 - 기타건축자재"}]},{"lat":"37.650270111","long":"126.88364009","items":[{"name":"비비큐(BBQ)치킨앤비어","tel":"02-352-9255","addr":"경기도 고양시 덕양구 삼송동 324번지","category":""},{"name":"용인대한결태권도장","tel":"02-358-9911","addr":"경기도 고양시 덕양구 삼송동 324번지","category":"학원 - 예·체능계학원"},{"name":"용인대한결태권도장","tel":"02-358-9911","addr":"경기도 고양시 덕양구 삼송동 324번지","category":""}]},{"lat":"37.653490254","long":"126.88734052","items":[{"name":"빨강머리앤","tel":"02-371-0037","addr":"경기도 고양시 덕양구 삼송동 301-2번지","category":""},{"name":"빨강머리앤","tel":"02-371-0037","addr":"경기도 고양시 덕양구 삼송동 301-2번지","category":"보건위생 - 미용원"}]},{"lat":"37.64218877","long":"126.87537055","items":[{"name":"사실은대단한제작소","tel":"070-4128-3958","addr":"경기도 고양시 덕양구 삼송동 366-2번지","category":"광학제품 - 사진관"},{"name":"사실은대단한제작소","tel":"070-4128-3958","addr":"경기도 고양시 덕양구 삼송동 366-2번지","category":""}]},{"lat":"37.654101363","long":"126.89522673","items":[{"name":"사운드컨텐츠","tel":"02-381-3758","addr":"경기도 고양시 덕양구 삼송동 24-29번지","category":""},{"name":"사운드컨텐츠","tel":"02-381-3758","addr":"경기도 고양시 덕양구 삼송동 24-29번지","category":"레져용품 - 음반/영상물"},{"name":"착한맥주와이","tel":"070-8703-2258","addr":"경기도 고양시 덕양구 삼송동 24-29번지","category":""},{"name":"착한맥주와이","tel":"02-381-2259","addr":"경기도 고양시 덕양구 삼송동 24-29번지","category":"일반휴게음식 - 스넥"}]},{"lat":"37.650017988","long":"126.88378781","items":[{"name":"삼성키즈소아청소년과의원","tel":"031-388-1119","addr":"경기도 고양시 덕양구 삼송동","category":"의원 - 의원"}]},{"lat":"37.652545616","long":"126.88875847","items":[{"name":"삼송TBC","tel":"02-371-0507","addr":"경기도 고양시 덕양구 삼송동 78-30번지","category":""}]},{"lat":"37.65246977","long":"126.8943112","items":[{"name":"삼송공방","tel":"","addr":"경기도 고양시 덕양구 삼송동 128-90번지","category":"문화.취미 - 민예·공예품"},{"name":"우미사","tel":"02-385-1831","addr":"경기도 고양시 덕양구 삼송동 128-90번지","category":""},{"name":"웰빙허브이야기","tel":"02-371-2249","addr":"경기도 고양시 덕양구 삼송동 128-90번지","category":""}]},{"lat":"37.652774289","long":"126.89236167","items":[{"name":"삼송농산","tel":"031-381-7718","addr":"경기도 고양시 덕양구 삼송동","category":"음료식품 - 농·축·수산품"},{"name":"중앙종묘사","tel":"02-381-7932","addr":"경기도 고양시 덕양구 삼송동 135-72번지","category":""},{"name":"중앙종묘사","tel":"02-381-7932","addr":"경기도 고양시 덕양구 삼송동 135-72번지","category":"농업 - 비료,사료,종자"},{"name":"중앙종묘사","tel":"02-381-7932","addr":"경기도 고양시 덕양구 삼송동 135-72번지","category":""}]},{"lat":"37.652493707","long":"126.89100226","items":[{"name":"삼송동물병원","tel":"02-6015-3624","addr":"경기도 고양시 덕양구 삼송동 135-51번지","category":""},{"name":"삼송동물병원","tel":"02-6015-3624","addr":"경기도 고양시 덕양구 삼송동 135-51번지","category":"기타의료기관 - 동물병원"}]},{"lat":"37.654381446","long":"126.89608757","items":[{"name":"삼송동물의료센터","tel":"02-381-2650","addr":"경기도 고양시 덕양구 삼송동 61-9번지","category":""},{"name":"삼송동물의료센터","tel":"02-381-2650","addr":"경기도 고양시 덕양구 삼송동 61-9번지","category":"기타의료기관 - 동물병원"}]},{"lat":"37.651023024","long":"126.88880612","items":[{"name":"삼송두배로","tel":"02-381-4100","addr":"경기도 고양시 덕양구 삼송동 313-5번지","category":"유통업 영리 - 슈퍼마켓"},{"name":"삼송두배로","tel":"02-381-4100","addr":"경기도 고양시 덕양구 삼송동 313-5번지","category":""}]},{"lat":"37.653634331","long":"126.88726097","items":[{"name":"삼송떡집","tel":"02-371-3999","addr":"경기도 고양시 덕양구 삼송동 301-1번지","category":""},{"name":"삼송떡집","tel":"02-371-3999","addr":"경기도 고양시 덕양구 삼송동 301-1번지","category":"음료식품 - 제과점"},{"name":"씨유삼송로얄점","tel":"02-371-0217","addr":"경기도 고양시 덕양구 삼송동 301-1번지","category":""},{"name":"씨유삼송로얄점","tel":"02-371-0217","addr":"경기도 고양시 덕양구 삼송동 301-1번지","category":"유통업 영리 - 편 의 점"},{"name":"우영떡집","tel":"02-371-3999","addr":"경기도 고양시 덕양구 삼송동 301-1번지","category":""}]},{"lat":"37.652413594","long":"126.89203358","items":[{"name":"삼송산새 어린이집[아이행복]","tel":"02-381-6512","addr":"경기도 고양시 덕양구 삼송동 135-63번지","category":"학원 - 유아원"}]},{"lat":"37.64401973","long":"126.87722564","items":[{"name":"삼송살롱","tel":"","addr":"경기도 고양시 덕양구 삼송동 356-11번지","category":"일반휴게음식 - 일반한식"},{"name":"포레스트","tel":"070-8692-7066","addr":"경기도 고양시 덕양구 삼송동 356-11번지","category":""}]},{"lat":"37.654713846","long":"126.8950332","items":[{"name":"삼송식당","tel":"02-381-7423","addr":"경기도 고양시 덕양구 삼송동 35-1번지","category":""},{"name":"삼송식당","tel":"02-6403-8206","addr":"경기도 고양시 덕양구 삼송동 35-1번지","category":""},{"name":"한민경식당","tel":"02-381-6620","addr":"경기도 고양시 덕양구 삼송동 35-1번지","category":""},{"name":"한민경식당","tel":"02-381-6620","addr":"경기도 고양시 덕양구 삼송동 35-1번지","category":"일반휴게음식 - 일반한식"}]},{"lat":"37.655102997","long":"126.89694779","items":[{"name":"삼송어린이집[아이행복]","tel":"02-381-0104","addr":"경기도 고양시 덕양구 삼송동 61-61번지","category":"학원 - 유아원"},{"name":"시립삼송어린이집[아이행복]","tel":"02-381-0104","addr":"경기도 고양시 덕양구 삼송동 61-61번지","category":"학원 - 유아원"}]},{"lat":"37.647801538","long":"126.88372336","items":[{"name":"삼송어반트리독서실","tel":"02-371-3772","addr":"경기도 고양시 덕양구 삼송동 338-1번지","category":""}]},{"lat":"37.64785571","long":"126.88383658","items":[{"name":"삼송어반트리독서실","tel":"02-371-3772","addr":"경기도 고양시 덕양구 삼송동 338-1번지","category":"학원 - 독서실"}]},{"lat":"37.652219143","long":"126.89611333","items":[{"name":"삼송영양사","tel":"02-381-9371","addr":"경기도 고양시 덕양구 삼송동","category":"일반휴게음식 - 일반한식"},{"name":"삼송영양사","tel":"02-381-9371","addr":"경기도 고양시 덕양구 삼송동 16-35번지","category":""}]},{"lat":"37.644218858","long":"126.87808643","items":[{"name":"삼송옛날육개장","tel":"02-381-8001","addr":"경기도 고양시 덕양구 삼송동 357번지","category":"일반휴게음식 - 일반한식"},{"name":"삼송옛날육개장","tel":"02-381-8001","addr":"경기도 고양시 덕양구 삼송동 357번지","category":""},{"name":"선식당삼송점","tel":"02-371-1518","addr":"경기도 고양시 덕양구 삼송동 357번지","category":"일반휴게음식 - 서양음식"},{"name":"짚다","tel":"031-0-0000","addr":"경기도 고양시 덕양구 삼송동 357번지","category":""},{"name":"짚다","tel":"031-000-0000","addr":"경기도 고양시 덕양구 삼송동 357번지","category":"용역 서비스 - 종합용역"}]},{"lat":"37.653886868","long":"126.88753255","items":[{"name":"삼송이화어린이집[아이행복]","tel":"02-371-1236","addr":"경기도 고양시 덕양구 삼송동 91-10번지","category":"학원 - 유아원"}]},{"lat":"37.647828818","long":"126.8839726","items":[{"name":"삼송카센터","tel":"02-6052-5846","addr":"경기도 고양시 덕양구 삼송동 338번지","category":""},{"name":"삼송카센터","tel":"02-6052-5846","addr":"경기도 고양시 덕양구 삼송동 338번지","category":"자동차정비 유지 - 자동차정비"},{"name":"카스페이스 고양삼송","tel":"02-371-1129","addr":"경기도 고양시 덕양구 삼송동 338번지","category":""},{"name":"카스페이스 고양삼송","tel":"02-371-1129","addr":"경기도 고양시 덕양구 삼송동 338번지","category":"자동차정비 유지 - 카인테리어"}]},{"lat":"37.653686025","long":"126.89425277","items":[{"name":"삼송탑치과의원","tel":"031-388-2878","addr":"경기도 고양시 덕양구 삼송동 27-32번지","category":""},{"name":"삼송탑치과의원","tel":"031-388-2878","addr":"경기도 고양시 덕양구 삼송동 27-32번지","category":"의원 - 치과의원"},{"name":"파리바게뜨 삼송역점","tel":"02-381-0005","addr":"경기도 고양시 덕양구 삼송동 27-32번지","category":""},{"name":"파리바게뜨 삼송역점","tel":"02-381-0005","addr":"경기도 고양시 덕양구 삼송동 27-32번지","category":"음료식품 - 제과점"}]},{"lat":"37.653939241","long":"126.89528362","items":[{"name":"삼송페리카나","tel":"02-381-9292","addr":"경기도 고양시 덕양구 삼송동 25-10번지","category":""},{"name":"삼송페리카나","tel":"02-381-9292","addr":"경기도 고양시 덕양구 삼송동 25-10번지","category":"일반휴게음식 - 서양음식"},{"name":"전대표숯불꼼장어","tel":"070-4678-7834","addr":"경기도 고양시 덕양구 삼송동 25-10번지","category":"일반휴게음식 - 주점"},{"name":"전대표숯불꼼장어","tel":"070-4678-7834","addr":"경기도 고양시 덕양구 삼송동 25-10번지","category":""},{"name":"전원주원조손큰할매순대국","tel":"02-381-7780","addr":"경기도 고양시 덕양구 삼송동 25-10번지","category":"일반휴게음식 - 일반한식"},{"name":"전원주원조손큰할매순대국","tel":"02-381-7780","addr":"경기도 고양시 덕양구 삼송동 25-10번지","category":""}]},{"lat":"37.653131781","long":"126.88931284","items":[{"name":"삼송한울어린이집[아이행복]","tel":"02-381-0020","addr":"경기도 고양시 덕양구 삼송동 78-36번지","category":"학원 - 유아원"}]},{"lat":"37.642630391","long":"126.87550576","items":[{"name":"삼원로점 현대자동차","tel":"02-371-0808","addr":"경기도 고양시 덕양구 삼송동 365번지","category":""},{"name":"삼원로점 현대자동차","tel":"02-371-0808","addr":"경기도 고양시 덕양구 삼송동 365번지","category":"자동차정비 유지 - 자동차부품"}]},{"lat":"37.652851539","long":"126.88833872","items":[{"name":"삼익상사","tel":"02-371-0622","addr":"경기도 고양시 덕양구 삼송동 303-6번지","category":""},{"name":"아우토반","tel":"031-919-9585","addr":"경기도 고양시 덕양구 삼송동 303-6번지","category":""},{"name":"아우토반","tel":"031-919-9585","addr":"경기도 고양시 덕양구 삼송동 303-6번지","category":"자동차정비 유지 - 카인테리어"}]},{"lat":"37.652991557","long":"126.89347188","items":[{"name":"삼천리자전거신도대리","tel":"031-381-9623","addr":"경기도 고양시 덕양구 삼송동 30-43번지","category":""}]},{"lat":"37.652359269","long":"126.89175036","items":[{"name":"새벽종노인대학","tel":"070-7604-9516","addr":"경기도 고양시 덕양구 삼송동 135-33번지","category":""}]},{"lat":"37.642882761","long":"126.87559598","items":[{"name":"설이전자","tel":"031-969-0300","addr":"경기도 고양시 덕양구 삼송동 360-6번지","category":""},{"name":"타이어클라스","tel":"02-381-1986","addr":"경기도 고양시 덕양구 삼송동 360-6번지","category":"자동차정비 유지 - 자동차시트·타이어"}]},{"lat":"37.651716693","long":"126.88872574","items":[{"name":"성주힐링하우스","tel":"02-371-1734","addr":"경기도 고양시 덕양구 삼송동 314번지","category":"보건위생 - 피부미용실"},{"name":"성주힐링하우스","tel":"02-371-1734","addr":"경기도 고양시 덕양구 삼송동 314번지","category":""},{"name":"프린","tel":"031-814-6256","addr":"경기도 고양시 덕양구 삼송동 314번지","category":""},{"name":"할매보쌈족발","tel":"02-381-5383","addr":"경기도 고양시 덕양구 삼송동 314번지","category":""},{"name":"할매보쌈족발","tel":"02-381-5383","addr":"경기도 고양시 덕양구 삼송동 314번지","category":""},{"name":"할매보쌈족발","tel":"02-381-5383","addr":"경기도 고양시 덕양구 삼송동 314번지","category":"일반휴게음식 - 일반한식"}]},{"lat":"37.6520735","long":"126.89448176","items":[{"name":"세븐미용실","tel":"02-381-4733","addr":"경기도 고양시 덕양구 삼송동 128-32번지","category":""},{"name":"세븐미용실","tel":"02-381-4733","addr":"경기도 고양시 덕양구 삼송동 128-32번지","category":"보건위생 - 미용원"}]},{"lat":"37.642271173","long":"126.87659409","items":[{"name":"소망농산","tel":"","addr":"경기도 고양시 덕양구 삼송동 368-3번지","category":""}]},{"lat":"37.652240378","long":"126.88989212","items":[{"name":"소문난 곱창","tel":"02-371-1599","addr":"경기도 고양시 덕양구 삼송동 135-38번지","category":"일반휴게음식 - 일반한식"},{"name":"제일열쇠","tel":"","addr":"경기도 고양시 덕양구 삼송동 135-38번지","category":"건축자재 - 목재·석재·철물"},{"name":"제일열쇠","tel":"","addr":"경기도 고양시 덕양구 삼송동 135-38번지","category":""},{"name":"주식회사 마지","tel":"02-371-1617","addr":"경기도 고양시 덕양구 삼송동 135-38번지","category":""},{"name":"주식회사 마지","tel":"02-371-1617","addr":"경기도 고양시 덕양구 삼송동 135-38번지","category":"의류 - 단체복"}]},{"lat":"37.641495354","long":"126.87567765","items":[{"name":"소문난 식당","tel":"02-381-3737","addr":"경기도 고양시 덕양구 삼송동 370-1번지","category":""},{"name":"소문난 식당","tel":"02-381-3737","addr":"경기도 고양시 덕양구 삼송동 370-1번지","category":"일반휴게음식 - 일반한식"},{"name":"소문난식당","tel":"02-381-3737","addr":"경기도 고양시 덕양구 삼송동 370-1번지","category":""}]},{"lat":"37.65164562","long":"126.88976837","items":[{"name":"소원팔찌","tel":"02-0000-0000","addr":"경기도 고양시 덕양구 삼송동 143-6번지 세솔주택","category":"신변잡화 - 액세서리"},{"name":"소원팔찌","tel":"","addr":"경기도 고양시 덕양구 삼송동 143-6번지 세솔주택","category":""}]},{"lat":"37.641549253","long":"126.87553027","items":[{"name":"솔라가드","tel":"031-1600-8373","addr":"경기도 고양시 덕양구 삼송동 370번지","category":""},{"name":"솔라가드","tel":"031-1600-8373","addr":"경기도 고양시 덕양구 삼송동 370번지","category":"자동차정비 유지 - 세차장"}]},{"lat":"37.653938191","long":"126.89413908","items":[{"name":"쇼다이","tel":"02-381-5027","addr":"경기도 고양시 덕양구 삼송동 27-31번지","category":"일반휴게음식 - 일식·회집"},{"name":"쇼다이","tel":"02-381-5027","addr":"경기도 고양시 덕양구 삼송동 27-31번지","category":""}]},{"lat":"37.650248629","long":"126.88926057","items":[{"name":"수다","tel":"02-3281-1300","addr":"경기도 고양시 덕양구 삼송동 316-2번지","category":""},{"name":"아리아헤어","tel":"031-371-0412","addr":"경기도 고양시 덕양구 삼송동 316-2번지","category":""},{"name":"아리아헤어","tel":"02-371-0412","addr":"경기도 고양시 덕양구 삼송동 316-2번지","category":""},{"name":"어성당 고양삼송점","tel":"02-371-0552","addr":"경기도 고양시 덕양구 삼송동 316-2번지","category":""}]},{"lat":"37.654273032","long":"126.89575909","items":[{"name":"수빈헤어샵","tel":"02-381-2532","addr":"경기도 고양시 덕양구 삼송동 59-1번지","category":"보건위생 - 미용원"},{"name":"수빈헤어샵","tel":"02-381-2532","addr":"경기도 고양시 덕양구 삼송동 59-1번지","category":""}]},{"lat":"37.654165265","long":"126.89614454","items":[{"name":"수상한삼겹살","tel":"02-381-4245","addr":"경기도 고양시 덕양구 삼송동 61-11번지","category":""},{"name":"수상한삼겹살","tel":"02-381-4245","addr":"경기도 고양시 덕양구 삼송동 61-11번지","category":"일반휴게음식 - 일반한식"},{"name":"오대포생고기구이촌","tel":"02-381-4245","addr":"경기도 고양시 덕양구 삼송동 61-11번지","category":""},{"name":"촌돼지화로구이","tel":"02-381-4245","addr":"경기도 고양시 덕양구 삼송동 61-11번지","category":"일반휴게음식 - 일반한식"}]},{"lat":"37.65260898","long":"126.88906433","items":[{"name":"수학마루학원","tel":"02-382-5377","addr":"경기도 고양시 덕양구 삼송동 78-32번지","category":""},{"name":"수학마루학원","tel":"02-382-5377","addr":"경기도 고양시 덕양구 삼송동 78-32번지","category":"학원 - 보습학원"},{"name":"썸","tel":"031-1600-5845","addr":"경기도 고양시 덕양구 삼송동 78-32번지","category":""},{"name":"와스팀손세차","tel":"031-111-1111","addr":"경기도 고양시 덕양구 삼송동 78-32번지","category":"자동차정비 유지 - 세차장"}]},{"lat":"37.651829539","long":"126.89372288","items":[{"name":"숫돌골","tel":"02-371-3008","addr":"경기도 고양시 덕양구 삼송동 128-112번지","category":""}]},{"lat":"37.652330821","long":"126.8902546","items":[{"name":"쉐프의고깃간","tel":"02-371-0655","addr":"경기도 고양시 덕양구 삼송동 135-42번지","category":"일반휴게음식 - 일반한식"},{"name":"쉐프의고깃간","tel":"02-371-0655","addr":"경기도 고양시 덕양구 삼송동 135-42번지","category":""},{"name":"엘퍼스시스템","tel":"031-2264-8547","addr":"경기도 고양시 덕양구 삼송동 135-42번지","category":""},{"name":"용씨네누룽지통닭구이","tel":"02-381-2235","addr":"경기도 고양시 덕양구 삼송동 135-42번지","category":"일반휴게음식 - 일반한식"},{"name":"용씨네누룽지통닭구이","tel":"02-381-2235","addr":"경기도 고양시 덕양구 삼송동 135-42번지","category":""},{"name":"한민경면옥","tel":"031-381-6620","addr":"경기도 고양시 덕양구 삼송동 135-42번지","category":""}]},{"lat":"37.655634446","long":"126.89681104","items":[{"name":"쉴만한 물가","tel":"02-381-0691","addr":"경기도 고양시 덕양구 삼송동 57-5번지","category":""},{"name":"쉴만한 물가","tel":"02-381-0691","addr":"경기도 고양시 덕양구 삼송동 57-5번지","category":"일반휴게음식 - 서양음식"}]},{"lat":"37.65416483","long":"126.88617226","items":[{"name":"스위티수","tel":"02-381-8633","addr":"경기도 고양시 덕양구 삼송동 298-5번지","category":""},{"name":"스위티수","tel":"02-381-8633","addr":"경기도 고양시 덕양구 삼송동 298-5번지","category":"음료식품 - 제과점"},{"name":"안데르센스튜디오","tel":"02-371-3981","addr":"경기도 고양시 덕양구 삼송동 298-5번지","category":""},{"name":"헤어륀","tel":"02-381-4885","addr":"경기도 고양시 덕양구 삼송동 298-5번지","category":""},{"name":"헤어륀","tel":"02-381-4885","addr":"경기도 고양시 덕양구 삼송동 298-5번지","category":"보건위생 - 미용원"},{"name":"헤어륀","tel":"02-381-4885","addr":"경기도 고양시 덕양구 삼송동 298-5번지","category":""}]},{"lat":"37.64821887","long":"126.87780779","items":[{"name":"스포츠수산","tel":"02-304-4967","addr":"경기도 고양시 덕양구 삼송동 220-8","category":""},{"name":"스포츠수산","tel":"02-304-4967","addr":"경기도 고양시 덕양구 삼송동","category":"음료식품 - 농·축·수산품"}]},{"lat":"37.654163392","long":"126.89409342","items":[{"name":"시골순대국","tel":"02-371-2347","addr":"경기도 고양시 덕양구 삼송동 27-29번지","category":"일반휴게음식 - 일반한식"},{"name":"시골순대국","tel":"02-371-2347","addr":"경기도 고양시 덕양구 삼송동 27-29번지","category":""},{"name":"카페스윗루머","tel":"02-381-1054","addr":"경기도 고양시 덕양구 삼송동 27-29번지","category":""},{"name":"카페스윗루머","tel":"02-381-1054","addr":"경기도 고양시 덕양구 삼송동 27-29번지","category":"일반휴게음식 - 서양음식"}]},{"lat":"37.654273678","long":"126.89647302","items":[{"name":"시골장터뼈다귀감자탕","tel":"02-381-0002","addr":"경기도 고양시 덕양구 삼송동 61-13번지","category":""},{"name":"엄마손","tel":"02-381-1263","addr":"경기도 고양시 덕양구 삼송동 61-13번지","category":""},{"name":"엄마손찌개나라","tel":"031-381-1263","addr":"경기도 고양시 덕양구 삼송동 61-13번지","category":"일반휴게음식 - 일반한식"},{"name":"엄마손찌개나라","tel":"031-381-1263","addr":"경기도 고양시 덕양구 삼송동 61-13번지","category":""}]},{"lat":"37.652719848","long":"126.8919538","items":[{"name":"시골포장마차","tel":"02-381-0999","addr":"경기도 고양시 덕양구 삼송동 135-61번지","category":""},{"name":"시골포차카페","tel":"02-381-0999","addr":"경기도 고양시 덕양구 삼송동 135-61번지","category":""},{"name":"시골포차카페","tel":"02-381-0999","addr":"경기도 고양시 덕양구 삼송동 135-61번지","category":"일반휴게음식 - 일반한식"},{"name":"헤어락","tel":"02-371-1006","addr":"경기도 고양시 덕양구 삼송동 135-61번지","category":""},{"name":"헤어락","tel":"02-371-1006","addr":"경기도 고양시 덕양구 삼송동 135-61번지","category":"보건위생 - 미용원"}]},{"lat":"37.643911771","long":"126.87737312","items":[{"name":"시크릿스타일(secret style)","tel":"","addr":"경기도 고양시 덕양구 삼송동 356-2번지","category":"의류 - 기타의류"},{"name":"시크릿스타일(secret style)","tel":"","addr":"경기도 고양시 덕양구 삼송동 356-2번지","category":""}]},{"lat":"37.65279482","long":"126.88563047","items":[{"name":"신도과학상사","tel":"02-381-4805","addr":"경기도 고양시 덕양구 삼송동 306번지 삼송마을동원로얄듀크","category":"서적문구 - 과학기자재"},{"name":"신도과학상사","tel":"02-381-4805","addr":"경기도 고양시 덕양구 삼송동 306번지 삼송마을동원로얄듀크","category":""},{"name":"오케이유통","tel":"02-304-2651","addr":"경기도 고양시 덕양구 삼송동 306번지 삼송마을동원로얄듀크","category":""},{"name":"으뜸콘트롤","tel":"070-8254-2283","addr":"경기도 고양시 덕양구 삼송동 306번지 삼송마을동원로얄듀크","category":""},{"name":"으뜸콘트롤","tel":"070-8254-2283","addr":"경기도 고양시 덕양구 삼송동 306번지 삼송마을동원로얄듀크","category":"전기제품 - 기타전기제품"}]},{"lat":"37.655191234","long":"126.89489652","items":[{"name":"신도장여관","tel":"031-381-2532","addr":"경기도 고양시 덕양구 삼송동 52-8번지","category":"숙박업 - 여관/기타숙박업"},{"name":"신도장여관","tel":"031-381-2532","addr":"경기도 고양시 덕양구 삼송동 52-8번지","category":""}]},{"lat":"37.643019534","long":"126.87711402","items":[{"name":"신디스","tel":"","addr":"경기도 고양시 덕양구 삼송동 363-1번지","category":"일반휴게음식 - 서양음식"},{"name":"신디스(Cindy's)","tel":"02-381-3405","addr":"경기도 고양시 덕양구 삼송동 363-1번지","category":""}]},{"lat":"37.645550821","long":"126.87670184","items":[{"name":"신성골재","tel":"02-381-4105","addr":"경기도 고양시 덕양구 삼송동","category":"건축자재 - 기타건축자재"},{"name":"신성골재","tel":"02-381-4105","addr":"경기도 고양시 덕양구 삼송동 347-2","category":""}]},{"lat":"37.653966425","long":"126.89545356","items":[{"name":"신촌설렁탕","tel":"","addr":"경기도 고양시 덕양구 삼송동 24-6번지","category":""},{"name":"신촌설렁탕","tel":"02-381-9289","addr":"경기도 고양시 덕양구 삼송동 24-6번지","category":""},{"name":"신촌설렁탕","tel":"02-000-0000","addr":"경기도 고양시 덕양구 삼송동 24-6번지","category":"일반휴게음식 - 일반한식"},{"name":"혜성의원","tel":"02-381-9025","addr":"경기도 고양시 덕양구 삼송동 24-6번지","category":""}]},{"lat":"37.652937246","long":"126.89319999","items":[{"name":"싱거미싱 고양총판점","tel":"02-371-3304","addr":"경기도 고양시 덕양구 삼송동 30-39번지","category":""},{"name":"예담찻집","tel":"02-381-7757","addr":"경기도 고양시 덕양구 삼송동 30-39번지","category":"일반휴게음식 - 서양음식"},{"name":"예담찻집","tel":"02-381-7757","addr":"경기도 고양시 덕양구 삼송동 30-39번지","category":""}]},{"lat":"37.644244804","long":"126.87706663","items":[{"name":"싸군배터리","tel":"","addr":"경기도 고양시 덕양구 삼송동 355-4번지","category":"자동차정비 유지 - 자동차부품"}]},{"lat":"37.65288285","long":"126.89283745","items":[{"name":"씨유고양삼송로점","tel":"02-371-0616","addr":"경기도 고양시 덕양구 삼송동 30-35번지","category":"유통업 영리 - 편 의 점"},{"name":"씨유고양삼송로점","tel":"080-80-3663","addr":"경기도 고양시 덕양구 삼송동 30-35번지","category":""},{"name":"헬펜바이오","tel":"02-389-8814","addr":"경기도 고양시 덕양구 삼송동 30-35번지","category":"보건위생 - 의료용품"},{"name":"헬펜바이오","tel":"02-389-8814","addr":"경기도 고양시 덕양구 삼송동 30-35번지","category":""}]},{"lat":"37.643775755","long":"126.87655755","items":[{"name":"씨유삼송달걀부리마을점","tel":"02-1577-8007","addr":"경기도 고양시 덕양구 삼송동 355-9번지","category":"유통업 영리 - 편 의 점"},{"name":"힐링마트","tel":"02-381-7300","addr":"경기도 고양시 덕양구 삼송동 355-9번지","category":"유통업 영리 - 슈퍼마켓"},{"name":"힐링마트","tel":"02-381-7300","addr":"경기도 고양시 덕양구 삼송동 355-9번지","category":""},{"name":"힐링마트","tel":"02-381-7300","addr":"경기도 고양시 덕양구 삼송동 355-9번지","category":""}]},{"lat":"37.643522778","long":"126.87590081","items":[{"name":"씨유삼송중앙점","tel":"02-381-6602","addr":"경기도 고양시 덕양구 삼송동 360-1번지","category":""},{"name":"씨유삼송중앙점","tel":"02-381-6602","addr":"경기도 고양시 덕양구 삼송동 360-1번지","category":"유통업 영리 - 편 의 점"},{"name":"아이지에이삼원로점","tel":"031-768-0708","addr":"경기도 고양시 덕양구 삼송동 360-1번지","category":"유통업 영리 - 편 의 점"},{"name":"아이지에이삼원로점","tel":"031-768-0708","addr":"경기도 고양시 덕양구 삼송동 360-1번지","category":""}]},{"lat":"37.65293843","long":"126.8944805","items":[{"name":"씽씽","tel":"02-371-1085","addr":"경기도 고양시 덕양구 삼송동 26-5번지","category":"레저업소 - 노 래 방"},{"name":"씽씽","tel":"02-371-1085","addr":"경기도 고양시 덕양구 삼송동 26-5번지","category":""}]},{"lat":"37.654075138","long":"126.89611067","items":[{"name":"아드망 (A demain)","tel":"031-000-0000","addr":"경기도 고양시 덕양구 삼송동 60-1번지","category":"문화.취미 - 문화취미기타"},{"name":"아드망 (A demain)","tel":"031-0-0000","addr":"경기도 고양시 덕양구 삼송동 60-1번지","category":""}]},{"lat":"37.644020032","long":"126.8775089","items":[{"name":"아우토 플러스(Auto Plus)","tel":"02-381-9005","addr":"경기도 고양시 덕양구 삼송동 356-1번지","category":""},{"name":"아우토 플러스(Auto Plus)","tel":"02-381-9005","addr":"경기도 고양시 덕양구 삼송동 356-1번지","category":"자동차정비 유지 - 자동차부품"}]},{"lat":"37.650078368","long":"126.89022401","items":[{"name":"아테네 스포츠","tel":"02-382-4447","addr":"경기도 고양시 덕양구 삼송동 128-50번지","category":"회원제형태 - 학원"},{"name":"아테네 스포츠","tel":"02-382-4447","addr":"경기도 고양시 덕양구 삼송동 128-50번지","category":""}]},{"lat":"37.653604352","long":"126.89361829","items":[{"name":"알파 삼송점","tel":"02-381-0191","addr":"경기도 고양시 덕양구 삼송동 28-1번지","category":""},{"name":"알파 삼송점","tel":"02-381-0191","addr":"경기도 고양시 덕양구 삼송동 28-1번지","category":"서적문구 - 문구용품"}]},{"lat":"37.650826895","long":"126.8909821","items":[{"name":"약천(    )","tel":"02-355-2243","addr":"경기도 고양시 덕양구 삼송동 128-156번지","category":"주방용구 - 주방용식기"}]},{"lat":"37.643243746","long":"126.87615055","items":[{"name":"어울림","tel":"02-1544-6293","addr":"경기도 고양시 덕양구 삼송동 361-2번지","category":""},{"name":"어울림","tel":"02-1544-6293","addr":"경기도 고양시 덕양구 삼송동 361-2번지","category":"일반휴게음식 - 일반한식"}]},{"lat":"37.65041486","long":"126.8842291","items":[{"name":"에스 요가 번지플라잉엔 필라테스","tel":"02-371-2855","addr":"경기도 고양시 덕양구 삼송동 327-1번지","category":"레저업소 - 헬스클럽"},{"name":"커브스 신삼송클럽","tel":"02-381-9050","addr":"경기도 고양시 덕양구 삼송동 327-1번지","category":""}]},{"lat":"37.643659608","long":"126.87747552","items":[{"name":"엔틱플레이스","tel":"02-381-9880","addr":"경기도 고양시 덕양구 삼송동 357-13번지","category":""},{"name":"엔틱플레이스","tel":"02-381-9880","addr":"경기도 고양시 덕양구 삼송동 357-13번지","category":"가구 - 일반가구"}]},{"lat":"37.654075639","long":"126.89666594","items":[{"name":"영광종묘사","tel":"02-381-9440","addr":"경기도 고양시 덕양구 삼송동 61-16번지","category":""},{"name":"영광종묘사","tel":"02-381-9440","addr":"경기도 고양시 덕양구 삼송동 61-16번지","category":"농업 - 비료,사료,종자"}]},{"lat":"37.654634045","long":"126.89644984","items":[{"name":"영원파출소","tel":"02-381-7881","addr":"경기도 고양시 덕양구 삼송동 61-59번지","category":"용역 서비스 - 종합용역"},{"name":"영원파출소","tel":"02-381-7881","addr":"경기도 고양시 덕양구 삼송동 61-59번지","category":""}]},{"lat":"37.653302911","long":"126.88925592","items":[{"name":"영재 어린이집[아이행복]","tel":"02-381-6772","addr":"경기도 고양시 덕양구 삼송동 78-35번지","category":"학원 - 유아원"}]},{"lat":"37.654578087","long":"126.89436479","items":[{"name":"예담","tel":"031-967-4531","addr":"경기도 고양시 덕양구 삼송동 27-12번지","category":""},{"name":"예담","tel":"031-967-4531","addr":"경기도 고양시 덕양구 삼송동 27-12번지","category":"건축자재 - 인테리어전문"}]},{"lat":"37.654156634","long":"126.89656384","items":[{"name":"예담들깨삼계탕","tel":"02-371-2500","addr":"경기도 고양시 덕양구 삼송동 61-15번지","category":""},{"name":"예담들깨삼계탕","tel":"02-371-2500","addr":"경기도 고양시 덕양구 삼송동 61-15번지","category":"일반휴게음식 - 일반한식"}]},{"lat":"37.652717684","long":"126.88967609","items":[{"name":"예쁜손 네일","tel":"02-355-3200","addr":"경기도 고양시 덕양구 삼송동 77-14번지","category":""}]},{"lat":"37.645163138","long":"126.87645322","items":[{"name":"예석당","tel":"02-381-7227","addr":"경기도 고양시 덕양구 삼송동 352-2번지","category":""},{"name":"예석당","tel":"02-381-7227","addr":"경기도 고양시 덕양구 삼송동 352-2번지","category":"문화.취미 - 민예·공예품"}]},{"lat":"37.644964681","long":"126.87622694","items":[{"name":"예찬소갈비찜","tel":"031-381-6550","addr":"경기도 고양시 덕양구 삼송동 352-4번지","category":"일반휴게음식 - 일반한식"},{"name":"예찬소갈비찜","tel":"031-381-6550","addr":"경기도 고양시 덕양구 삼송동 352-4번지","category":""}]},{"lat":"37.652074382","long":"126.89544496","items":[{"name":"옛고을한식뷔페","tel":"02-381-8911","addr":"경기도 고양시 덕양구 삼송동 128-2번지","category":""}]},{"lat":"37.655382073","long":"126.89669808","items":[{"name":"오가네","tel":"02-381-2518","addr":"경기도 고양시 덕양구 삼송동 57-10번지","category":""},{"name":"오가네","tel":"02-381-2518","addr":"경기도 고양시 덕양구 삼송동 57-10번지","category":""},{"name":"오가네","tel":"02-381-2518","addr":"경기도 고양시 덕양구 삼송동 57-10번지","category":""}]},{"lat":"37.643351947","long":"126.87622968","items":[{"name":"오대장떡볶이","tel":"02-381-4111","addr":"경기도 고양시 덕양구 삼송동 361-1번지","category":"일반휴게음식 - 일반한식"},{"name":"오대장떡볶이","tel":"02-381-4111","addr":"경기도 고양시 덕양구 삼송동 361-1번지","category":""},{"name":"위풍당당막창대장본점","tel":"02-381-1131","addr":"경기도 고양시 덕양구 삼송동 361-1번지","category":""}]},{"lat":"37.654659846","long":"126.88565021","items":[{"name":"오로지","tel":"","addr":"경기도 고양시 덕양구 삼송동 298번지","category":"의류 - 정장"}]},{"lat":"37.65391188","long":"126.89492103","items":[{"name":"오징어나라삼송역","tel":"02-381-5565","addr":"경기도 고양시 덕양구 삼송동 24-32번지","category":""},{"name":"오징어나라삼송역","tel":"02-381-5565","addr":"경기도 고양시 덕양구 삼송동 24-32번지","category":"일반휴게음식 - 일식·회집"},{"name":"오징어나라삼송역점","tel":"02-381-5565","addr":"경기도 고양시 덕양구 삼송동 24-32번지","category":"일반휴게음식 - 일반한식"},{"name":"오징어나라삼송역점","tel":"02-381-5565","addr":"경기도 고양시 덕양구 삼송동 24-32번지","category":""}]},{"lat":"37.65282429","long":"126.88811212","items":[{"name":"오토프라자","tel":"02-381-0021","addr":"경기도 고양시 덕양구 삼송동 303-7번지","category":"자동차정비 유지 - 자동차정비"},{"name":"오토프라자","tel":"02-381-0021","addr":"경기도 고양시 덕양구 삼송동 303-7번지","category":""}]},{"lat":"37.651996157","long":"126.88889529","items":[{"name":"오휘 컨설턴트","tel":"02-381-5244","addr":"경기도 고양시 덕양구 삼송동 312-2번지","category":""},{"name":"오휘 컨설턴트","tel":"02-381-5244","addr":"경기도 고양시 덕양구 삼송동 312-2번지","category":"보건위생 - 화장품"},{"name":"오휘삼송지사","tel":"02-381-5244","addr":"경기도 고양시 덕양구 삼송동 312-2번지","category":""},{"name":"오휘삼송지사","tel":"02-381-5244","addr":"경기도 고양시 덕양구 삼송동 312-2번지","category":"보건위생 - 화장품"},{"name":"오휘컨설턴트","tel":"02-381-5244","addr":"경기도 고양시 덕양구 삼송동 312-2번지","category":""},{"name":"카페베네 삼송역점","tel":"02-371-0977","addr":"경기도 고양시 덕양구 삼송동 312-2번지","category":"일반휴게음식 - 서양음식"},{"name":"카페베네 삼송역점","tel":"02-371-0977","addr":"경기도 고양시 덕양구 삼송동 312-2번지","category":""}]},{"lat":"37.656213628","long":"126.89969999","items":[{"name":"온터","tel":"02-2265-0835","addr":"경기도 고양시 덕양구 삼송동 62-14번지","category":""}]},{"lat":"37.651189547","long":"126.8933952","items":[{"name":"올망졸망","tel":"02-356-5134","addr":"경기도 고양시 덕양구 삼송동 11-13번지","category":""}]},{"lat":"37.644018749","long":"126.87630786","items":[{"name":"옴","tel":"031-960-7719","addr":"경기도 고양시 덕양구 삼송동 354-9번지","category":""},{"name":"옴","tel":"031-960-7719","addr":"경기도 고양시 덕양구 삼송동 354-9번지","category":"의류 - 정장"},{"name":"포코포코 삼송점","tel":"02-386-5300","addr":"경기도 고양시 덕양구 삼송동 354-9번지","category":""},{"name":"포코포코 삼송점","tel":"02-386-5300","addr":"경기도 고양시 덕양구 삼송동 354-9번지","category":"일반휴게음식 - 스넥"}]},{"lat":"37.650493794","long":"126.89125455","items":[{"name":"와이씨피플러스(YCP+)","tel":"02-2271-0082","addr":"경기도 고양시 덕양구 삼송동 147-1번지","category":""},{"name":"와이씨피플러스(YCP+)","tel":"02-2271-0082","addr":"경기도 고양시 덕양구 삼송동 147-1번지","category":"신변잡화 - 기타잡화"}]},{"lat":"37.651275164","long":"126.88866976","items":[{"name":"우동출","tel":"","addr":"경기도 고양시 덕양구 삼송동 313-3번지","category":"자동차정비 유지 - 세차장"},{"name":"초록마을 고양삼송점","tel":"02-352-6661","addr":"경기도 고양시 덕양구 삼송동 313-3번지","category":""},{"name":"초록마을 고양삼송점","tel":"02-352-6661","addr":"경기도 고양시 덕양구 삼송동 313-3번지","category":"유통업 영리 - 슈퍼마켓"}]},{"lat":"37.654462127","long":"126.88614913","items":[{"name":"우리동네미술관 미술학원","tel":"02-371-2339","addr":"경기도 고양시 덕양구 삼송동 298-3번지","category":""}]},{"lat":"37.654552126","long":"126.89553205","items":[{"name":"우리식당","tel":"02-381-9285","addr":"경기도 고양시 덕양구 삼송동 57-63번지","category":""}]},{"lat":"37.652656589","long":"126.89174992","items":[{"name":"우성경정비센타","tel":"02-381-4777","addr":"경기도 고양시 덕양구 삼송동 135-60번지","category":""},{"name":"우성경정비센타","tel":"02-381-4777","addr":"경기도 고양시 덕양구 삼송동 135-60번지","category":"자동차정비 유지 - 자동차정비"}]},{"lat":"37.644443246","long":"126.87728158","items":[{"name":"워시박스 삼송점","tel":"02-381-8282","addr":"경기도 고양시 덕양구 삼송동 355-2번지","category":"자동차정비 유지 - 세차장"},{"name":"워시박스 삼송점","tel":"02-381-8282","addr":"경기도 고양시 덕양구 삼송동 355-2번지","category":""}]},{"lat":"37.650996345","long":"126.88916878","items":[{"name":"원어민중국어과외","tel":"","addr":"경기도 고양시 덕양구 삼송동 314-10번지","category":"학원 - 기타 교육기관"},{"name":"원어민중국어과외","tel":"","addr":"경기도 고양시 덕양구 삼송동 314-10번지","category":""}]},{"lat":"37.651990032","long":"126.89192089","items":[{"name":"원유통","tel":"02-111-1111","addr":"경기도 고양시 덕양구 삼송동 143-51번지","category":"신변잡화 - 신발"},{"name":"원유통","tel":"","addr":"경기도 고양시 덕양구 삼송동 143-51번지","category":""}]},{"lat":"37.655803048","long":"126.89397771","items":[{"name":"원인슈퍼","tel":"02-381-8875","addr":"경기도 고양시 덕양구 삼송동 46-2번지","category":"유통업 영리 - 슈퍼마켓"},{"name":"원인슈퍼","tel":"02-381-8875","addr":"경기도 고양시 덕양구 삼송동 46-2번지","category":""},{"name":"원인슈퍼","tel":"02-381-8875","addr":"경기도 고양시 덕양구 삼송동 46-2번지","category":""}]},{"lat":"37.644046373","long":"126.87686302","items":[{"name":"유로코피자고양삼송점","tel":"","addr":"경기도 고양시 덕양구 삼송동 355-6번지","category":"일반휴게음식 - 서양음식"}]},{"lat":"37.651852265","long":"126.88916747","items":[{"name":"유성국내산한돈전문점","tel":"02-381-8592","addr":"경기도 고양시 덕양구 삼송동 315번지","category":"일반휴게음식 - 일반한식"}]},{"lat":"37.65194223","long":"126.88903135","items":[{"name":"윤지","tel":"02-381-4542","addr":"경기도 고양시 덕양구 삼송동 130-5지층23호","category":""}]},{"lat":"37.65349592","long":"126.89327849","items":[{"name":"의정부부대찌게","tel":"02-371-1520","addr":"경기도 고양시 덕양구 삼송동 30-13번지","category":"일반휴게음식 - 일반한식"},{"name":"의정부부대찌게","tel":"02-371-1520","addr":"경기도 고양시 덕양구 삼송동 30-13번지","category":""},{"name":"진명전기","tel":"02-381-8951","addr":"경기도 고양시 덕양구 삼송동 30-13번지","category":""},{"name":"진명전기","tel":"02-381-8951","addr":"경기도 고양시 덕양구 삼송동 30-13번지","category":"전기제품 - 기타전기제품"}]},{"lat":"37.644858173","long":"126.87773411","items":[{"name":"이디야 삼송중앙점","tel":"070-4408-7788","addr":"경기도 고양시 덕양구 삼송동 348번지","category":""},{"name":"이디야 삼송중앙점","tel":"070-4408-7788","addr":"경기도 고양시 덕양구 삼송동 348번지","category":"일반휴게음식 - 서양음식"},{"name":"이디야 삼송중앙점","tel":"070-4408-7788","addr":"경기도 고양시 덕양구 삼송동 348번지","category":""},{"name":"캣츠아동행동연구소","tel":"02-414-9006","addr":"경기도 고양시 덕양구 삼송동 348번지","category":"보건위생 - 기타대인서비스"},{"name":"캣츠아동행동연구소","tel":"02-414-9006","addr":"경기도 고양시 덕양구 삼송동 348번지","category":""},{"name":"훔친뒷고기","tel":"02-381-5882","addr":"경기도 고양시 덕양구 삼송동 348번지","category":"일반휴게음식 - 일반한식"},{"name":"훔친뒷고기","tel":"02-381-5882","addr":"경기도 고양시 덕양구 삼송동 348번지","category":""}]},{"lat":"37.642297338","long":"126.87578959","items":[{"name":"이마트24 고양원흥점","tel":"","addr":"경기도 고양시 덕양구 삼송동 367-2번지","category":"유통업 영리 - 편 의 점"},{"name":"이마트24 고양원흥점","tel":"","addr":"경기도 고양시 덕양구 삼송동 367-2번지","category":""}]},{"lat":"37.653389324","long":"126.88549356","items":[{"name":"이솝어린이집[아이행복]","tel":"02-6405-1441","addr":"경기도 고양시 덕양구 삼송동 306번지 삼송마을동원로얄듀크","category":"학원 - 유아원"}]},{"lat":"37.653795745","long":"126.89600908","items":[{"name":"잉꼬","tel":"031-1111-1111","addr":"경기도 고양시 덕양구 삼송동 23-3번지","category":""},{"name":"잉꼬","tel":"031-1111-1111","addr":"경기도 고양시 덕양구 삼송동 23-3번지","category":"일반휴게음식 - 일반한식"}]},{"lat":"37.652938959","long":"126.89505843","items":[{"name":"자연과미래","tel":"02-381-2409","addr":"경기도 고양시 덕양구 삼송동","category":"문화.취미 - 화원"},{"name":"플라워 비본(Flower Bebone)","tel":"02-381-8833","addr":"경기도 고양시 덕양구 삼송동","category":"문화.취미 - 화원"},{"name":"플라워 비본(Flower Bebone)","tel":"02-381-8833","addr":"경기도 고양시 덕양구 삼송동 20-10번지","category":""}]},{"lat":"37.652964402","long":"126.89333593","items":[{"name":"작가들의 공방","tel":"","addr":"경기도 고양시 덕양구 삼송동 30-42번지","category":"문화.취미 - 문화취미기타"},{"name":"키다리튀김앤범벅","tel":"02-371-3233","addr":"경기도 고양시 덕양구 삼송동 30-42번지","category":""},{"name":"키다리튀김앤범벅","tel":"02-371-3233","addr":"경기도 고양시 덕양구 삼송동 30-42번지","category":"일반휴게음식 - 스넥"}]},{"lat":"37.650051101","long":"126.88997476","items":[{"name":"장수건강식품","tel":"02-381-9592","addr":"경기도 고양시 덕양구 삼송동 128-52번지","category":""}]},{"lat":"37.654634168","long":"126.89658582","items":[{"name":"장충동왕족발","tel":"02-381-7774","addr":"경기도 고양시 덕양구 삼송동 61-40번지","category":"일반휴게음식 - 일반한식"},{"name":"장충동왕족발","tel":"02-381-7774","addr":"경기도 고양시 덕양구 삼송동 61-40번지","category":""}]},{"lat":"37.644830578","long":"126.87720161","items":[{"name":"전주콩나루콩나물국밥 삼송점","tel":"02-381-2346","addr":"경기도 고양시 덕양구 삼송동 354번지","category":""},{"name":"전주콩나루콩나물국밥삼송점","tel":"02-381-2346","addr":"경기도 고양시 덕양구 삼송동 354번지","category":""},{"name":"전주콩나루콩나물국밥삼송점","tel":"02-381-2346","addr":"경기도 고양시 덕양구 삼송동 354번지","category":"일반휴게음식 - 일반한식"}]},{"lat":"37.651324513","long":"126.89320236","items":[{"name":"정성앤터프라이즈","tel":"02-353-0079","addr":"경기도 고양시 덕양구 삼송동 128-74번지","category":""},{"name":"정성앤터프라이즈","tel":"02-353-0079","addr":"경기도 고양시 덕양구 삼송동 128-74번지","category":"직물 - 카페트,커튼,천막,지물"}]},{"lat":"37.65376849","long":"126.89575982","items":[{"name":"제일식당","tel":"02-381-2966","addr":"경기도 고양시 덕양구 삼송동 21-5번지","category":"일반휴게음식 - 일반한식"},{"name":"제일식당","tel":"02-381-2966","addr":"경기도 고양시 덕양구 삼송동 21-5번지","category":""}]},{"lat":"37.653553454","long":"126.8874764","items":[{"name":"조이베이커리카페","tel":"","addr":"경기도 고양시 덕양구 삼송동 301-3번지","category":"일반휴게음식 - 서양음식"},{"name":"조이베이커리카페","tel":"","addr":"경기도 고양시 덕양구 삼송동 301-3번지","category":""}]},{"lat":"37.651685593","long":"126.89394973","items":[{"name":"족발대학","tel":"","addr":"경기도 고양시 덕양구 삼송동 128-46번지","category":"일반휴게음식 - 일반한식"}]},{"lat":"37.654579141","long":"126.88603563","items":[{"name":"주식회사 내꿈","tel":"031-0000-0000","addr":"경기도 고양시 덕양구 삼송동 298-2번지","category":"자동차정비 유지 - 자동차부품"}]},{"lat":"37.645298937","long":"126.87706485","items":[{"name":"주식회사 리바트가구","tel":"02-381-8772","addr":"경기도 고양시 덕양구 삼송동 347-4번지","category":"가구 - 일반가구"},{"name":"주식회사 리바트가구","tel":"02-381-8772","addr":"경기도 고양시 덕양구 삼송동 347-4번지","category":""},{"name":"주식회사리바트키친","tel":"02-381-3036","addr":"경기도 고양시 덕양구 삼송동 347-4번지","category":""},{"name":"주식회사리바트키친","tel":"02-381-3036","addr":"경기도 고양시 덕양구 삼송동 347-4번지","category":"가구 - 일반가구"}]},{"lat":"37.657796992","long":"126.89705729","items":[{"name":"주식회사 세계전원","tel":"02-372-4015","addr":"경기도 고양시 덕양구 삼송동 62-50번지","category":"기타 - 기계공구"},{"name":"주식회사 세계전원","tel":"02-372-4015","addr":"경기도 고양시 덕양구 삼송동 62-50번지","category":""}]},{"lat":"37.645109431","long":"126.8767819","items":[{"name":"주식회사 에프엘컴퍼니","tel":"070-7798-2303","addr":"경기도 고양시 덕양구 삼송동 353번지","category":""},{"name":"카페심바스튜디오","tel":"070-7718-2303","addr":"경기도 고양시 덕양구 삼송동 353번지","category":"일반휴게음식 - 서양음식"}]},{"lat":"37.644351755","long":"126.87597871","items":[{"name":"주식회사 큐콘 (QCON)","tel":"02-381-5911","addr":"경기도 고양시 덕양구 삼송동 353-13번지","category":"전기제품 - 가전제품"},{"name":"주식회사 큐콘 (QCON)","tel":"02-381-5911","addr":"경기도 고양시 덕양구 삼송동 353-13번지","category":""}]},{"lat":"37.651248485","long":"126.88903241","items":[{"name":"주식회사 티바이","tel":"070-7758-0102","addr":"경기도 고양시 덕양구 삼송동 314-12번지","category":"보건위생 - 의료용품"}]},{"lat":"37.643470441","long":"126.87750983","items":[{"name":"주식회사델타네트웍스","tel":"02-574-2468","addr":"경기도 고양시 덕양구 삼송동 357-7번지","category":"신변잡화 - 기타잡화"},{"name":"주식회사델타네트웍스","tel":"02-574-2468","addr":"경기도 고양시 덕양구 삼송동 357-7번지","category":""}]},{"lat":"37.644353028","long":"126.87716843","items":[{"name":"지나네#","tel":"02-352-9399","addr":"경기도 고양시 덕양구 삼송동 355-3번지","category":"음료식품 - 기타음료식품"},{"name":"지나네#","tel":"02-352-9399","addr":"경기도 고양시 덕양구 삼송동 355-3번지","category":""},{"name":"크린스피드","tel":"02-352-9399","addr":"경기도 고양시 덕양구 삼송동 355-3번지","category":""},{"name":"크린스피드","tel":"02-352-9399","addr":"경기도 고양시 덕양구 삼송동 355-3번지","category":"수리서비스 - 세탁소"}]},{"lat":"37.645081929","long":"126.87634005","items":[{"name":"지에이아이엔","tel":"070-4300-9709","addr":"경기도 고양시 덕양구 삼송동 352-3번지","category":"전기제품 - 가전제품"}]},{"lat":"37.653741307","long":"126.89558987","items":[{"name":"진로마트(삼송점)","tel":"02-381-0034","addr":"경기도 고양시 덕양구 삼송동 21-3번지","category":""},{"name":"진로마트(삼송점)","tel":"02-381-0034","addr":"경기도 고양시 덕양구 삼송동 21-3번지","category":"유통업 영리 - 슈퍼마켓"},{"name":"카니마운틴","tel":"02-371-1511","addr":"경기도 고양시 덕양구 삼송동 21-3번지","category":""},{"name":"카니마운틴","tel":"02-371-1511","addr":"경기도 고양시 덕양구 삼송동 21-3번지","category":"레져용품 - 스포츠·레져용품"}]},{"lat":"37.654938192","long":"126.8940583","items":[{"name":"짐에스엘(유아체육연구소)","tel":"02-1111-1111","addr":"경기도 고양시 덕양구 삼송동 42-17번지","category":"학원 - 기타 교육기관"},{"name":"짐에스엘(유아체육연구소)","tel":"","addr":"경기도 고양시 덕양구 삼송동 42-17번지","category":""}]},{"lat":"37.644911012","long":"126.87658962","items":[{"name":"착한농장","tel":"02-371-2032","addr":"경기도 고양시 덕양구 삼송동 353-19번지","category":""},{"name":"착한농장","tel":"02-371-2032","addr":"경기도 고양시 덕양구 삼송동 353-19번지","category":"음료식품 - 농·축·수산품"}]},{"lat":"37.643937577","long":"126.87622869","items":[{"name":"참참치킨","tel":"031-381-8860","addr":"경기도 고양시 덕양구 삼송동 354-10번지","category":""},{"name":"참참치킨","tel":"031-381-8860","addr":"경기도 고양시 덕양구 삼송동 354-10번지","category":"일반휴게음식 - 스넥"}]},{"lat":"37.653795612","long":"126.89586177","items":[{"name":"천수한의원","tel":"031-381-1075","addr":"경기도 고양시 덕양구 삼송동 23-4번지","category":""},{"name":"천수한의원","tel":"031-381-1075","addr":"경기도 고양시 덕양구 삼송동 23-4번지","category":"의원 - 한의원"}]},{"lat":"37.646969093","long":"126.88025739","items":[{"name":"천지인씨.지.아이","tel":"02-381-2311","addr":"경기도 고양시 덕양구 삼송동","category":"음료식품 - 농·축·수산품"},{"name":"천지인씨.지.아이","tel":"02-381-2311","addr":"경기도 고양시 덕양구 삼송동 235","category":""}]},{"lat":"37.64363098","long":"126.87597994","items":[{"name":"청담헤어","tel":"02-381-1023","addr":"경기도 고양시 덕양구 삼송동 360번지","category":"보건위생 - 미용원"},{"name":"청담헤어","tel":"02-381-1023","addr":"경기도 고양시 덕양구 삼송동 360번지","category":""},{"name":"청담헤어샵","tel":"02-381-1023","addr":"경기도 고양시 덕양구 삼송동 360번지","category":""}]},{"lat":"37.655022235","long":"126.89731053","items":[{"name":"청야","tel":"02-371-2269","addr":"경기도 고양시 덕양구 삼송동 61-60번지","category":""}]},{"lat":"37.653913219","long":"126.88684125","items":[{"name":"카고스트","tel":"02-381-7643","addr":"경기도 고양시 덕양구 삼송동 300-2번지","category":"자동차정비 유지 - 카인테리어"},{"name":"카고스트","tel":"02-381-7643","addr":"경기도 고양시 덕양구 삼송동 300-2번지","category":""},{"name":"카고스트","tel":"02-381-7643","addr":"경기도 고양시 덕양구 삼송동 300-2번지","category":""}]},{"lat":"37.650690441","long":"126.88961118","items":[{"name":"카스테라","tel":"02-371-0622","addr":"경기도 고양시 덕양구 삼송동 317-2번지","category":""},{"name":"카스테라","tel":"02-371-0622","addr":"경기도 고양시 덕양구 삼송동 317-2번지","category":"자동차정비 유지 - 자동차부품"},{"name":"호마디","tel":"02-834-1505","addr":"경기도 고양시 덕양구 삼송동 317-2번지","category":"서적문구 - 출판 및 인쇄물"},{"name":"호마디","tel":"02-834-1505","addr":"경기도 고양시 덕양구 삼송동 317-2번지","category":""}]},{"lat":"37.642631354","long":"126.87640086","items":[{"name":"카페1900","tel":"070-8801-6210","addr":"경기도 고양시 덕양구 삼송동 364-6번지","category":""},{"name":"카페1900","tel":"070-8801-6210","addr":"경기도 고양시 덕양구 삼송동 364-6번지","category":"일반휴게음식 - 서양음식"}]},{"lat":"37.652855694","long":"126.8927015","items":[{"name":"카페이공일구","tel":"02-000-0000","addr":"경기도 고양시 덕양구 삼송동 135-78번지","category":"일반휴게음식 - 서양음식"},{"name":"태흥기업","tel":"02-371-2333","addr":"경기도 고양시 덕양구 삼송동 135-78번지","category":""},{"name":"태흥기업","tel":"02-371-2333","addr":"경기도 고양시 덕양구 삼송동 135-78번지","category":"건축자재 - 페인트"}]},{"lat":"37.653634874","long":"126.88781624","items":[{"name":"카페제이","tel":"","addr":"경기도 고양시 덕양구 삼송동 301-5번지","category":""},{"name":"카페제이(cafe J)","tel":"","addr":"경기도 고양시 덕양구 삼송동 301-5번지","category":""}]},{"lat":"37.653913444","long":"126.89664351","items":[{"name":"카페칸타빌레","tel":"02-381-5723","addr":"경기도 고양시 덕양구 삼송동","category":"일반휴게음식 - 서양음식"},{"name":"카페칸타빌레","tel":"02-381-5723","addr":"경기도 고양시 덕양구 삼송동 61-19 외1필지 1층","category":""}]},{"lat":"37.651108175","long":"126.89308936","items":[{"name":"커피로즈","tel":"031-1600-5845","addr":"경기도 고양시 덕양구 삼송동 11-11번지","category":""},{"name":"커피로즈","tel":"031-1600-5845","addr":"경기도 고양시 덕양구 삼송동 11-11번지","category":"일반휴게음식 - 서양음식"}]},{"lat":"37.649852628","long":"126.8897031","items":[{"name":"커피삼송동","tel":"031-111-1111","addr":"경기도 고양시 덕양구 삼송동 128-66번지","category":"일반휴게음식 - 서양음식"},{"name":"커피삼송동","tel":"031-111-1111","addr":"경기도 고양시 덕양구 삼송동 128-66번지","category":""}]},{"lat":"37.64288428","long":"126.87701227","items":[{"name":"커피이야기","tel":"02-381-2403","addr":"경기도 고양시 덕양구 삼송동 363-2번지","category":"일반휴게음식 - 서양음식"},{"name":"허센트보타닉카페","tel":"02-381-2403","addr":"경기도 고양시 덕양구 삼송동 363-2번지","category":""}]},{"lat":"37.653705359","long":"126.88619565","items":[{"name":"쿰바야어린이집[아이행복]","tel":"","addr":"경기도 고양시 덕양구 삼송동 306번지 삼송마을동원로얄듀크","category":"학원 - 유아원"}]},{"lat":"37.651554332","long":"126.88853335","items":[{"name":"크린토피아 삼송점","tel":"02-381-8233","addr":"경기도 고양시 덕양구 삼송동 313-1번지","category":"수리서비스 - 세탁소"},{"name":"크린토피아 삼송점","tel":"02-381-8233","addr":"경기도 고양시 덕양구 삼송동 313-1번지","category":""},{"name":"크린토피아 코인워시","tel":"02-381-8233","addr":"경기도 고양시 덕양구 삼송동 313-1번지","category":""}]},{"lat":"37.651940122","long":"126.88686698","items":[{"name":"키즈빌리지어린이집[아이행복]","tel":"02-6339-7998","addr":"경기도 고양시 덕양구 삼송동","category":"학원 - 유아원"}]},{"lat":"37.654462133","long":"126.8956455","items":[{"name":"탄다 디비라","tel":"070-3398-2847","addr":"경기도 고양시 덕양구 삼송동 58-2번지 한빛주택","category":""},{"name":"탄다 디비라","tel":"070-3398-2847","addr":"경기도 고양시 덕양구 삼송동 58-2번지 한빛주택","category":"일반휴게음식 - 일반한식"}]},{"lat":"37.652326094","long":"126.89483268","items":[{"name":"태능참숯불갈비","tel":"02-371-2288","addr":"경기도 고양시 덕양구 삼송동 128-20번지","category":"일반휴게음식 - 일반한식"},{"name":"태능참숯불갈비","tel":"02-371-2288","addr":"경기도 고양시 덕양구 삼송동 128-20번지","category":""}]},{"lat":"37.643550695","long":"126.87672789","items":[{"name":"태후사랑","tel":"02-381-6125","addr":"경기도 고양시 덕양구 삼송동 356-7번지","category":""},{"name":"태후사랑","tel":"02-381-6125","addr":"경기도 고양시 덕양구 삼송동 356-7번지","category":"보건위생 - 미용원"},{"name":"홈앤컴(Home&Com)","tel":"070-4444-8273","addr":"경기도 고양시 덕양구 삼송동 356-7번지","category":""},{"name":"홈앤컴(Home&Com)","tel":"070-4444-8273","addr":"경기도 고양시 덕양구 삼송동 356-7번지","category":"사무통신 - 컴퓨터"}]},{"lat":"37.654245479","long":"126.88573018","items":[{"name":"통일카서비스","tel":"031-2652-0808","addr":"경기도 고양시 덕양구 삼송동 299-4번지","category":""}]},{"lat":"37.642053979","long":"126.87569936","items":[{"name":"피앤에스 (P&S)","tel":"02-2265-5126","addr":"경기도 고양시 덕양구 삼송동 367-4번지","category":"서적문구 - 출판 및 인쇄물"}]},{"lat":"37.654101766","long":"126.89566868","items":[{"name":"피자메이트","tel":"02-371-2004","addr":"경기도 고양시 덕양구 삼송동 24-17번지","category":""},{"name":"피자메이트","tel":"02-371-2004","addr":"경기도 고양시 덕양구 삼송동 24-17번지","category":"일반휴게음식 - 서양음식"}]},{"lat":"37.657631656","long":"126.89358973","items":[{"name":"필승감자","tel":"","addr":"경기도 고양시 덕양구 삼송동 65-1번지","category":""},{"name":"필승감자","tel":"02-0000-0000","addr":"경기도 고양시 덕양구 삼송동 65-1번지","category":"일반휴게음식 - 일반한식"}]},{"lat":"37.653103457","long":"126.88797571","items":[{"name":"하림각","tel":"02-371-3000","addr":"경기도 고양시 덕양구 삼송동 303-9번지","category":"일반휴게음식 - 중국식"},{"name":"하림각","tel":"02-371-3000","addr":"경기도 고양시 덕양구 삼송동 303-9번지","category":""}]},{"lat":"37.655102548","long":"126.89644917","items":[{"name":"한국공구철물건재","tel":"02-371-0989","addr":"경기도 고양시 덕양구 삼송동 57-13번지","category":""}]},{"lat":"37.645271375","long":"126.87656635","items":[{"name":"한수포차","tel":"","addr":"경기도 고양시 덕양구 삼송동 352-1번지","category":""}]},{"lat":"37.651545837","long":"126.88906595","items":[{"name":"한양대하율태권도","tel":"02-381-8074","addr":"경기도 고양시 덕양구 삼송동 314-3번지","category":""},{"name":"한양대하율태권도","tel":"02-381-8074","addr":"경기도 고양시 덕양구 삼송동","category":"학원 - 예·체능계학원"}]},{"lat":"37.644135583","long":"126.87603573","items":[{"name":"해가창","tel":"070-4837-0360","addr":"경기도 고양시 덕양구 삼송동 353-10번지","category":"직물 - 카페트,커튼,천막,지물"},{"name":"해가창","tel":"070-4837-0360","addr":"경기도 고양시 덕양구 삼송동 353-10번지","category":""}]},{"lat":"37.651857549","long":"126.89478803","items":[{"name":"해나래어린이집[아이행복]","tel":"031-881-0618","addr":"경기도 고양시 덕양구 삼송동 128-29번지","category":"학원 - 유아원"}]},{"lat":"37.650546688","long":"126.89003066","items":[{"name":"행복한식부페 삼송점","tel":"02-386-3355","addr":"경기도 고양시 덕양구 삼송동 318-4번지","category":""},{"name":"행복한식부페 삼송점","tel":"02-386-3355","addr":"경기도 고양시 덕양구 삼송동 318-4번지","category":"일반휴게음식 - 일반한식"}]},{"lat":"37.644108943","long":"126.87639836","items":[{"name":"헬로베트남쌀국수 (삼송점)","tel":"02-381-3868","addr":"경기도 고양시 덕양구 삼송동 354-8번지","category":""},{"name":"헬로베트남쌀국수 (삼송점)","tel":"02-381-3868","addr":"경기도 고양시 덕양구 삼송동 354-8번지","category":"일반휴게음식 - 서양음식"}]},{"lat":"37.652880206","long":"126.89003846","items":[{"name":"현대수산","tel":"02-834-1557","addr":"경기도 고양시 덕양구 삼송동 77-8번지","category":"음료식품 - 농·축·수산품"},{"name":"현대수산","tel":"02-834-1557","addr":"경기도 고양시 덕양구 삼송동 77-8번지","category":""}]},{"lat":"37.652520876","long":"126.89114953","items":[{"name":"현대자동차(삼송점)","tel":"02-381-8066","addr":"경기도 고양시 덕양구 삼송동 135-54번지","category":"자동차정비 유지 - 자동차정비"},{"name":"현대자동차(삼송점)","tel":"02-381-8066","addr":"경기도 고양시 덕양구 삼송동 135-54번지","category":""}]},{"lat":"37.643469158","long":"126.8763088","items":[{"name":"호강네일살롱","tel":"","addr":"경기도 고양시 덕양구 삼송동 361번지","category":"보건위생 - 피부미용실"}]},{"lat":"37.652744811","long":"126.88977803","items":[{"name":"호남식당","tel":"02-371-1388","addr":"경기도 고양시 덕양구 삼송동 77-11번지","category":""},{"name":"호남식당","tel":"02-371-1388","addr":"경기도 고양시 덕양구 삼송동 77-11번지","category":""},{"name":"호남식당","tel":"02-371-1388","addr":"경기도 고양시 덕양구 삼송동 77-11번지","category":"일반휴게음식 - 일반한식"}]},{"lat":"37.645664591","long":"126.89125045","items":[{"name":"호반송담성균관어린이집[아이행복]","tel":"02-353-1233","addr":"경기도 고양시 덕양구 삼송동","category":"학원 - 유아원"}]},{"lat":"37.651356525","long":"126.88895293","items":[{"name":"호식이 두마리 치킨 삼송지구점","tel":"02-381-9255","addr":"경기도 고양시 덕양구 삼송동 314-13번지","category":""},{"name":"호식이 두마리 치킨 삼송지구점","tel":"02-381-9255","addr":"경기도 고양시 덕양구 삼송동 314-13번지","category":"일반휴게음식 - 스넥"}]},{"lat":"37.643298217","long":"126.8765357","items":[{"name":"홍루이젠 삼송","tel":"02-381-3359","addr":"경기도 고양시 덕양구 삼송동 362번지","category":"일반휴게음식 - 서양음식"},{"name":"홍루이젠 삼송","tel":"02-381-3359","addr":"경기도 고양시 덕양구 삼송동 362번지","category":""},{"name":"홍루이젠삼송","tel":"02-381-3359","addr":"경기도 고양시 덕양구 삼송동 362번지","category":""}]},{"lat":"37.654244677","long":"126.89430862","items":[{"name":"홍천 닭갈비","tel":"02-381-6614","addr":"경기도 고양시 덕양구 삼송동 27-19번지","category":""},{"name":"홍천 닭갈비","tel":"02-381-6614","addr":"경기도 고양시 덕양구 삼송동 27-19번지","category":"일반휴게음식 - 일반한식"}]},{"lat":"37.648107901","long":"126.88375686","items":[{"name":"회싸게파는집","tel":"02-381-0885","addr":"경기도 고양시 덕양구 삼송동 337-1번지","category":""}]},{"lat":"37.652109278","long":"126.89419841","items":[{"name":"효성원","tel":"02-381-7973","addr":"경기도 고양시 덕양구 삼송동 128-34번지","category":""},{"name":"효성원","tel":"02-381-7973","addr":"경기도 고양시 덕양구 삼송동 128-34번지","category":"일반휴게음식 - 중국식"}]},{"lat":"37.64519099","long":"126.87722367","items":[{"name":"휴(  )","tel":"02-381-1877","addr":"경기도 고양시 덕양구 삼송동 347-5번지","category":"보건위생 - 기타대인서비스"},{"name":"휴(休)","tel":"02-381-1877","addr":"경기도 고양시 덕양구 삼송동 347-5번지","category":""}]},{"lat":"37.644657363","long":"126.87530968","items":[{"name":"힘찬 아웃도어","tel":"02-2635-0999","addr":"경기도 고양시 덕양구 삼송동 351-1번지","category":""},{"name":"힘찬 아웃도어","tel":"02-2635-0999","addr":"경기도 고양시 덕양구 삼송동 351-1번지","category":"레져용품 - 스포츠·레져용품"}]}]