[{"lat":"37.82506282","long":"127.18071746","items":[{"name":"(주)세종에이아이씨","tel":"031-542-7366","addr":"경기도 포천시 가산면 가산리 68-3번지 1층","category":"건축자재 - 인테리어전문"}]},{"lat":"37.834255","long":"127.1790015","items":[{"name":"3&3 무역","tel":"031-543-4268","addr":"경기도 포천시 가산면 가산리 169-41번지 다동","category":"기타 - 기계공구"}]},{"lat":"37.824981941","long":"127.18058097","items":[{"name":"건강식당","tel":"031-543-4777","addr":"경기도 포천시 가산면 가산리 69-1번지","category":"일반휴게음식 - 일반한식"}]},{"lat":"37.826288131","long":"127.18069769","items":[{"name":"고향식당","tel":"031-543-3222","addr":"경기도 포천시 가산면 가산리 100-8번지","category":"일반휴게음식 - 일반한식"}]},{"lat":"37.83345116","long":"127.17425132","items":[{"name":"광성케미칼","tel":"031-541-5280","addr":"경기도 포천시 가산면 가산리 243-1번지 가동","category":"신변잡화 - 기타잡화"}]},{"lat":"37.827398794","long":"127.17903064","items":[{"name":"광일식품","tel":"031-541-6614","addr":"경기도 포천시 가산면 가산리 121-14번지","category":"음료식품 - 기타음료식품"}]},{"lat":"37.827426653","long":"127.17847414","items":[{"name":"그리다","tel":"","addr":"경기도 포천시 가산면 가산리 121-2번지","category":"용역 서비스 - 종합용역"},{"name":"원영데코","tel":"","addr":"경기도 포천시 가산면 가산리 121-2번지 마동","category":"직물 - 카페트,커튼,천막,지물"}]},{"lat":"37.827585949","long":"127.16800189","items":[{"name":"나라금속","tel":"031-543-6456","addr":"경기도 포천시 가산면 가산리 377-6 8/2","category":"건축자재 - 기타건축자재"}]},{"lat":"37.833479389","long":"127.16708355","items":[{"name":"다보스플러스","tel":"031-544-3428","addr":"경기도 포천시 가산면 가산리 481-10번지","category":"가구 - 일반가구"}]},{"lat":"37.829088325","long":"127.1695614","items":[{"name":"다우","tel":"031-541-4741","addr":"경기도 포천시 가산면 가산리 412-1번지","category":"주방용구 - 주방용구"}]},{"lat":"37.823286733","long":"127.18153097","items":[{"name":"대명건재","tel":"031-544-9997","addr":"경기도 포천시 가산면 가산리 70-10번지 가동 1,2호","category":"건축자재 - 기타건축자재"},{"name":"우리안전","tel":"031-544-9997","addr":"경기도 포천시 가산면 가산리 70-10번지 가동","category":"기타 - 기계공구"}]},{"lat":"37.834334261","long":"127.18021717","items":[{"name":"돼지식당","tel":"031-542-8162","addr":"경기도 포천시 가산면 가산리 169-16번지","category":"일반휴게음식 - 일반한식"}]},{"lat":"37.835948184","long":"127.17939176","items":[{"name":"두리팩","tel":"031-543-9951","addr":"경기도 포천시 가산면 가산리 186-3번지","category":"유통업 영리 - 기타유통업"}]},{"lat":"37.835006958","long":"127.16994959","items":[{"name":"러브론물산","tel":"031-543-9866","addr":"경기도 포천시 가산면 가산리 475-1번지","category":"직물 - 침구·수예점"}]},{"lat":"37.82578135","long":"127.1761645","items":[{"name":"리.버드와이져","tel":"031-531-1323","addr":"경기도 포천시 가산면 가산리 327-4번지","category":"일반휴게음식 - 주점"},{"name":"수인식당","tel":"031-535-0825","addr":"경기도 포천시 가산면 가산리 327-4번지","category":"일반휴게음식 - 일반한식"}]},{"lat":"37.827448343","long":"127.16975081","items":[{"name":"마을수퍼","tel":"","addr":"경기도 포천시 가산면 가산리 387-5번지","category":"소매업 - 잡화"},{"name":"마을수퍼","tel":"031-543-4861","addr":"경기도 포천시 가산면 가산리 387-5번지","category":"유통업 영리 - 슈퍼마켓"}]},{"lat":"37.834002818","long":"127.16644857","items":[{"name":"매일슈퍼","tel":"031-542-4884","addr":"경기도 포천시 가산면 가산리 486-7번지","category":"유통업 영리 - 슈퍼마켓"}]},{"lat":"37.832117355","long":"127.18060944","items":[{"name":"몽드드뚜뚜","tel":"02-1111-1111","addr":"경기도 포천시 가산면 가산리 161-3번지","category":"일반휴게음식 - 서양음식"}]},{"lat":"37.833389802","long":"127.16671985","items":[{"name":"무지개식당","tel":"031-535-0825","addr":"경기도 포천시 가산면 가산리 459-4번지","category":"일반휴게음식 - 일반한식"},{"name":"삼원스쿠버","tel":"031-543-0723","addr":"경기도 포천시 가산면 가산리 459-4번지","category":"레져용품 - 스포츠·레져용품"},{"name":"세븐일레븐포천가산공단점","tel":"031-1577-0711","addr":"경기도 포천시 가산면 가산리 459-4번지","category":"유통업 영리 - 편 의 점"}]},{"lat":"37.834698909","long":"127.17116438","items":[{"name":"반월종합산소","tel":"","addr":"경기도 포천시 가산면 가산리 473번지","category":"연료판매점 - 기타연료"}]},{"lat":"37.835645364","long":"127.17083709","items":[{"name":"블라썸 프로페셔널","tel":"031-542-0126","addr":"경기도 포천시 가산면 가산리 474-1번지","category":"보건위생 - 화장품"},{"name":"블라썸디자인","tel":"070-7218-3344","addr":"경기도 포천시 가산면 가산리 474-1번지","category":"가구 - 일반가구"},{"name":"태영가구","tel":"031-542-8775","addr":"경기도 포천시 가산면 가산리 474-1번지","category":"가구 - 일반가구"}]},{"lat":"37.826504545","long":"127.1744965","items":[{"name":"세석평전","tel":"031-8080-3888","addr":"경기도 포천시 가산면 가산리 310-9번지","category":"사무통신 - 사무용 OA기기"}]},{"lat":"37.83222884","long":"127.17836057","items":[{"name":"시대기획","tel":"031-542-8655","addr":"경기도 포천시 가산면 가산리 167-39번지","category":"기타 - 기계공구"}]},{"lat":"37.834584819","long":"127.1690285","items":[{"name":"시우 인테리어","tel":"031-544-6161","addr":"경기도 포천시 가산면 가산리 466-1번지","category":"가구 - 일반가구"}]},{"lat":"37.827059438","long":"127.17080627","items":[{"name":"아이존","tel":"02-424-8670","addr":"경기도 포천시 가산면 가산리 404-3번지","category":"레저업소 - 기타레져업소"},{"name":"아이존","tel":"","addr":"경기도 포천시 가산면 가산리 404-3번지","category":"레저업소 - 기타레져업소"}]},{"lat":"37.828839888","long":"127.16683473","items":[{"name":"엘림","tel":"031-543-9434","addr":"경기도 포천시 가산면 가산리 379-1","category":"직물 - 카페트,커튼,천막,지물"}]},{"lat":"37.826724548","long":"127.17188457","items":[{"name":"연호전자","tel":"031-542-9256","addr":"경기도 포천시 가산면 가산리 296","category":"전기제품 - 기타전기제품"}]},{"lat":"37.831981666","long":"127.18097261","items":[{"name":"영광밥상","tel":"031-543-4449","addr":"경기도 포천시 가산면 가산리 162-1번지","category":"일반휴게음식 - 일반한식"}]},{"lat":"37.825176699","long":"127.17685594","items":[{"name":"영일케미칼","tel":"031-543-5571","addr":"경기도 포천시 가산면 가산리 329-4번지","category":"서적문구 - 과학기자재"}]},{"lat":"37.832869334","long":"127.17780547","items":[{"name":"예꼬황토어린이집[아이행복]","tel":"031-544-9814","addr":"경기도 포천시 가산면 가산리 167-21번지","category":"학원 - 유아원"}]},{"lat":"37.832670215","long":"127.17841841","items":[{"name":"오리 아띠 푸드","tel":"031-541-5259","addr":"경기도 포천시 가산면 가산리 167-32번지","category":"음료식품 - 정육점"}]},{"lat":"37.829170196","long":"127.169005","items":[{"name":"우리 한식 뷔페","tel":"031-541-7982","addr":"경기도 포천시 가산면 가산리 384-4번지","category":"일반휴게음식 - 일반한식"}]},{"lat":"37.831033741","long":"127.16999742","items":[{"name":"우리김치/농업회사법인 솜씨가 주식회사","tel":"02-2662-1430","addr":"경기도 포천시 가산면 가산리 427-6번지","category":"음료식품 - 기타음료식품"}]},{"lat":"37.825030015","long":"127.17241454","items":[{"name":"우림가구","tel":"070-8878-8948","addr":"경기도 포천시 가산면 가산리 334-5번지","category":"가구 - 일반가구"}]},{"lat":"37.828422224","long":"127.16913963","items":[{"name":"원호산업모젤리가구","tel":"031-542-8270","addr":"경기도 포천시 가산면 가산리 385-5번지","category":"가구 - 일반가구"}]},{"lat":"37.834284182","long":"127.16494972","items":[{"name":"유성에너지","tel":"031-235-1234","addr":"경기도 포천시 가산면 가산리 494-3번지 1층","category":"연료판매점 - 유류판매"}]},{"lat":"37.834365345","long":"127.1648931","items":[{"name":"유일에너지","tel":"031-573-1251","addr":"경기도 포천시 가산면 가산리 494-1번지","category":"연료판매점 - 유류판매"}]},{"lat":"37.826759602","long":"127.16619406","items":[{"name":"일경농원","tel":"","addr":"경기도 포천시 가산면 가산리 715번지","category":"음료식품 - 농·축·수산품"},{"name":"일경농원","tel":"070-4107-6760","addr":"경기도 포천시 가산면 가산리 715번지","category":"회원제형태 - 기타1"}]},{"lat":"37.834946094","long":"127.18075254","items":[{"name":"일광섬유","tel":"031-543-4013","addr":"경기도 포천시 가산면 가산리 176번지","category":"직물 - 기타직물"}]},{"lat":"37.829953033","long":"127.16969965","items":[{"name":"주식회사 경한","tel":"031-542-9700","addr":"경기도 포천시 가산면 가산리 416-5번지","category":"용역 서비스 - 기타용역서비스"}]},{"lat":"37.827283331","long":"127.17791723","items":[{"name":"주식회사 한성식품","tel":"031-544-0560","addr":"경기도 포천시 가산면 가산리 121-1번지","category":"음료식품 - 기타음료식품"}]},{"lat":"37.82767369","long":"127.1696718","items":[{"name":"청솔한식뷔페","tel":"031-543-1119","addr":"경기도 포천시 가산면 가산리 386-7번지","category":"일반휴게음식 - 일반한식"}]},{"lat":"37.833759218","long":"127.16669794","items":[{"name":"타이깐엥슈퍼","tel":"070-8808-8131","addr":"경기도 포천시 가산면 가산리 481-2번지","category":"유통업 영리 - 슈퍼마켓"}]},{"lat":"37.827008556","long":"127.18091523","items":[{"name":"탑앤노나","tel":"02-734-8240","addr":"경기도 포천시 가산면 가산리 98-5번지","category":"서적문구 - 완구점"}]},{"lat":"37.835029695","long":"127.17294861","items":[{"name":"태원상사","tel":"031-541-6201","addr":"경기도 포천시 가산면 가산리 215-2번지","category":"신변잡화 - 기타잡화"}]},{"lat":"37.826782943","long":"127.18116457","items":[{"name":"현우정밀","tel":"031-543-3759","addr":"경기도 포천시 가산면 가산리 95-9번지 외4필지","category":"기타 - 기계공구"}]},{"lat":"37.833009078","long":"127.18074789","items":[{"name":"황금밥상","tel":"031-542-2007","addr":"경기도 포천시 가산면 가산리 167-22번지","category":"일반휴게음식 - 일반한식"}]}]