[{"lat":"37.432518151","long":"126.9012281","items":[{"name":"두산위브어린이집[아이행복]","tel":"031-472-7205","addr":"경기도 안양시 만안구 연현로","category":"학원 - 유아원"},{"name":"지원이네 행복한 밥상","tel":"031-474-4242","addr":"경기도 안양시 만안구 연현로","category":"일반휴게음식 - 일반한식"},{"name":"행복마트","tel":"031-473-9945","addr":"경기도 안양시 만안구 연현로","category":"유통업 영리 - 슈퍼마켓"}]},{"lat":"37.433572904","long":"126.9019046","items":[{"name":"레드헤어","tel":"031-474-4141","addr":"경기도 안양시 만안구 연현로","category":"보건위생 - 미용원"}]},{"lat":"37.430437696","long":"126.90223646","items":[{"name":"마포숯불갈비","tel":"031-473-5111","addr":"경기도 안양시 만안구 연현로","category":"일반휴게음식 - 일반한식"},{"name":"용인대신성태권도","tel":"031-474-0690","addr":"경기도 안양시 만안구 연현로","category":"학원 - 예·체능계학원"}]},{"lat":"37.426536748","long":"126.90270489","items":[{"name":"미소뜰어린이집[아이행복]","tel":"031-472-6791","addr":"경기도 안양시 만안구 연현로","category":"학원 - 유아원"}]},{"lat":"37.432690154","long":"126.90217695","items":[{"name":"신데렐라","tel":"031-472-9565","addr":"경기도 안양시 만안구 연현로","category":"보건위생 - 화장품"}]},{"lat":"37.43193248","long":"126.90120629","items":[{"name":"하은별어린이집[아이행복]","tel":"031-474-3456","addr":"경기도 안양시 만안구 연현로","category":"학원 - 유아원"}]}]