[{"lat":"37.012052419","long":"127.1119508","items":[{"name":"(주)음식점닥터 육팩트","tel":"031-1588-4683","addr":"경기도 평택시 죽백동 486-13번지","category":"일반휴게음식 - 일반한식"},{"name":"(주)인터펫코리아 평택소사벌점","tel":"031-0000-0000","addr":"경기도 평택시 죽백동 486-13번지 D동","category":"문화.취미 - 애완동물"},{"name":"강릉해변막국수 평택점","tel":"031-654-4229","addr":"경기도 평택시 죽백동 486-13번지 C동","category":"일반휴게음식 - 일반한식"},{"name":"고릴라캠핑평택점","tel":"","addr":"경기도 평택시 죽백동 486-13번지","category":"레져용품 - 스포츠·레져용품"}]},{"lat":"37.013218629","long":"127.117447","items":[{"name":"AP미용학원","tel":"031-1111-1111","addr":"경기도 평택시 죽백동 383-2번지 2층","category":"학원 - 기능학원"}]},{"lat":"37.010160992","long":"127.11106047","items":[{"name":"GS25소사벌유보라점","tel":"031-691-7061","addr":"경기도 평택시 죽백동 720번지 평택소사벌반도유보라아이비파크2단지 203호204호","category":"소매업 - 편의점"},{"name":"기탄사고력교실 소사반도유보라교실","tel":"","addr":"경기도 평택시 죽백동 720번지 평택소사벌반도유보라아이비파크 201동 6층 4호","category":"학원 - 기타 교육기관"},{"name":"낙원이네과일","tel":"031-652-0904","addr":"경기도 평택시 죽백동 720번지 반도유보라 상가내 106호","category":"소매업 - 과일"},{"name":"낙원이네과일","tel":"","addr":"경기도 평택시 죽백동 720번지 평택소사벌반도유보라아이비파크 상가 221동 106호","category":"음료식품 - 농·축·수산품"},{"name":"로니","tel":"","addr":"경기도 평택시 죽백동 720번지 평택소사벌반도유보라아이비파크 206동 17층 4호","category":"의류 - 정장"},{"name":"비전공조","tel":"","addr":"경기도 평택시 죽백동 720번지 평택소사벌반도유보라아이비파크 203동 2204호","category":"용역 서비스 - 기타용역서비스"},{"name":"뽀기네 수산","tel":"","addr":"경기도 평택시 죽백동 720번지 평택소사벌반도유보라아이비파크 205동 1503호","category":"음료식품 - 농·축·수산품"},{"name":"소사벌다빈이네한식뷔페","tel":"031-654-5405","addr":"경기도 평택시 죽백동 720번지 평택소사벌반도유보라아이비파크 222동 106호,107호","category":"일반휴게음식 - 일반한식"},{"name":"솔숲어린이집[아이행복]","tel":"031-7388-7584","addr":"경기도 평택시 죽백동 720번지 평택소사벌반도유보라아이비파크 관리동","category":"학원 - 유아원"},{"name":"스텔라 미용실","tel":"031-652-1478","addr":"경기도 평택시 죽백동 720번지 평택소사벌반도유보라아이비파크2단지 222동 102호","category":"보건위생 - 미용원"},{"name":"스텔라미용실","tel":"031-692-3999","addr":"경기도 평택시 죽백동 720번지 반도유보라아이비파크 222동 102호","category":"서비스업 - 미용"},{"name":"아이린어린이집[아이행복]","tel":"031-656-6444","addr":"경기도 평택시 죽백동 720번지 평택소사벌반도유보라아이비파크 203동 104호","category":"학원 - 유아원"},{"name":"제이에스캠퍼스","tel":"031-000-0000","addr":"경기도 평택시 죽백동 720번지 평택소사벌반도유보라아이비파크 208동 1401호","category":"서적문구 - 출판 및 인쇄물"},{"name":"충만치킨카페죽백점","tel":"031-657-3389","addr":"경기도 평택시 죽백동 720번지 평택소사벌반도유보라아이비파크 222동 109-110호","category":"일반휴게음식 - 스넥"},{"name":"카르타교육","tel":"031-647-6006","addr":"경기도 평택시 죽백동 720번지 평택소사벌반도유보라아이비파크 208동 1층 101호","category":"서적문구 - 기타서적문구"},{"name":"크린토피아","tel":"031-654-3400","addr":"경기도 평택시 죽백동 720번지 반도유보라아이비파크 221동 102호","category":"서비스업 - 세탁"},{"name":"피톤치드이야기","tel":"","addr":"경기도 평택시 죽백동 720번지 평택소사벌반도유보라아이비파크 207동 801호","category":"용역 서비스 - 종합용역"},{"name":"행복가득한 어린이집[아이행복]","tel":"031-656-8286","addr":"경기도 평택시 죽백동 720번지 반도유보라아이비파크 206동 101호","category":"학원 - 유아원"}]},{"lat":"37.008492074","long":"127.11317039","items":[{"name":"U보라헤어","tel":"031-657-4756","addr":"경기도 평택시 죽백동 722번지 평택소사벌반도유보라아이비파크 121동 106호","category":"보건위생 - 미용원"},{"name":"니보라헤어","tel":"031-692-2554","addr":"경기도 평택시 죽백동 722번지 평택소사벌반도유보라아이비파크1단지","category":"서비스업 - 미용"},{"name":"드림스터디","tel":"031-818-0591","addr":"경기도 평택시 죽백동 722번지 평택소사벌반도유보라아이비파크 104동 503호","category":"학원 - 기타 교육기관"},{"name":"미스터브리즈소사벌점","tel":"070-8785-7132","addr":"경기도 평택시 죽백동 722번지 평택소사벌반도유보라아이비파크1단지 121동 102호","category":"일반휴게음식 - 서양음식"},{"name":"박군치킨죽백동반도유보라점","tel":"031-657-7782","addr":"경기도 평택시 죽백동 722번지 평택소사벌반도유보라아이비파크1단지 122동 205호","category":"일반휴게음식 - 스넥"},{"name":"반도가람어린이집[아이행복]","tel":"031-618-7982","addr":"경기도 평택시 죽백동 722번지 평택소사벌반도유보라아이비파크","category":"학원 - 유아원"},{"name":"반도할인마트","tel":"031-652-4363","addr":"경기도 평택시 죽백동 722번지 평택소사벌반도유포라아이비파크 122동 1층 201호","category":"유통업 영리 - 슈퍼마켓"},{"name":"뷰티호텔","tel":"","addr":"경기도 평택시 죽백동 722번지 평택소사벌반도유보라아이비파크 121동 101호","category":"보건위생 - 화장품"},{"name":"비전공부방","tel":"070-8966-6992","addr":"경기도 평택시 죽백동 722번지 평택소사벌반도유보라아이비파크 103동 301호","category":"학원 - 기타 교육기관"},{"name":"사랑가득찬 소사벌반도유보라점","tel":"","addr":"경기도 평택시 죽백동 722번지 반도유보라 상가","category":"제조업 - 반찬"},{"name":"사랑가득찬소사벌반도유보라점","tel":"031-652-3302","addr":"경기도 평택시 죽백동 722번지 평택소사벌반도유보라아이비파크 121동 103호","category":"음료식품 - 기타음료식품"},{"name":"옻안타는 천연염색 소사벌점","tel":"031-000-0000","addr":"경기도 평택시 죽백동 722번지 평택소사벌반도유보라아이비파크 122동 204호","category":"보건위생 - 미용원"},{"name":"유보라키즈 어린이집[아이행복]","tel":"031-656-9994","addr":"경기도 평택시 죽백동 722번지 평택소사벌반도유보라아이비파크 104동 104호","category":"학원 - 유아원"},{"name":"윤선생우리집앞영어교실아이비파크캠퍼스","tel":"070-8823-0219","addr":"경기도 평택시 죽백동 722번지 평택소사벌반도유보라아이비파크 105동 202호","category":"학원 - 외국어학원"},{"name":"피샵 (p#)","tel":"070-4686-9412","addr":"경기도 평택시 죽백동 722번지 평택소사벌반도유보라아이비파크 122동 206호","category":"보건위생 - 미용원"},{"name":"하찌","tel":"","addr":"경기도 평택시 죽백동 722번지 평택소사벌반도유보라아이비파크 106동 702호","category":"의류 - 정장"},{"name":"환희공부방","tel":"02-1111-1111","addr":"경기도 평택시 죽백동 722번지 평택소사벌반도유보라아이비파크 103동 302호","category":"학원 - 기타 교육기관"}]},{"lat":"37.008577887","long":"127.13502372","items":[{"name":"㈜영진ENG","tel":"070-4230-9299","addr":"경기도 평택시 죽백동 138번지 2층","category":"서비스업 - 설계"}]},{"lat":"37.014127712","long":"127.13569627","items":[{"name":"가나안인쇄기획","tel":"070-7757-2488","addr":"경기도 평택시 죽백동 42-2번지","category":"제조업 - 인쇄"},{"name":"가나안인쇄기획","tel":"031-656-1278","addr":"경기도 평택시 죽백동 42-2번지","category":"서적문구 - 출판 및 인쇄물"}]},{"lat":"37.005101942","long":"127.11542374","items":[{"name":"가내숲미술창작소","tel":"031-000-0000","addr":"경기도 평택시 죽백동 753-1번지 103호","category":"학원 - 예·체능계학원"},{"name":"가내음악학원","tel":"031-652-8083","addr":"경기도 평택시 죽백동 753-1번지 2층","category":"학원 - 예·체능계학원"},{"name":"경희대 가내태권도장","tel":"031-651-7703","addr":"경기도 평택시 죽백동 753-1번지 4층","category":"학원 - 예·체능계학원"},{"name":"뮤엠영어가내초점학원","tel":"031-691-1587","addr":"경기도 평택시 죽백동 753-1번지 301호","category":"학원 - 외국어학원"},{"name":"셀파우등생학원","tel":"031-000-0000","addr":"경기도 평택시 죽백동 753-1번지 3층 302호","category":"학원 - 보습학원"}]},{"lat":"37.006490593","long":"127.11435844","items":[{"name":"가내초등학교","tel":"031-686-1602","addr":"경기도 평택시 죽백동 738번지 가내초등학교","category":"학원 - 초중고교육기관"},{"name":"가내초등학교 병설유치원[아이행복]","tel":"031-686-1603","addr":"경기도 평택시 죽백동 738번지 가내초등학교","category":"학원 - 유치원"},{"name":"가내초등학교_수업료","tel":"031-686-1602","addr":"경기도 평택시 죽백동 738번지 가내초등학교","category":"학원 - 초중고교육기관"}]},{"lat":"37.00319199","long":"127.12425147","items":[{"name":"가전119","tel":"031-309-5222","addr":"경기도 평택시 죽백동 816번지 평택소사벌우미린레이크파크 204동 1602호","category":"전기제품 - 가전제품"},{"name":"린 세탁소","tel":"031-657-3969","addr":"경기도 평택시 죽백동 816번지 우미린레이크파크 상가 2층","category":"서비스업 - 세탁"},{"name":"린세탁소","tel":"031-618-5771","addr":"경기도 평택시 죽백동 816번지 평택소사벌우미린레이크파크 상가동 204호","category":"수리서비스 - 세탁소"},{"name":"마녀홀릭","tel":"031-654-1047","addr":"경기도 평택시 죽백동 816번지 평택소사벌우미린레이크파크 203호","category":"보건위생 - 미용원"},{"name":"보아스반찬","tel":"031-654-3088","addr":"경기도 평택시 죽백동 816번지 평택소사벌우미린레이크파크 상가 106호","category":"음료식품 - 기타음료식품"},{"name":"부어치킨 소사벌점","tel":"070-7529-8843","addr":"경기도 평택시 죽백동 816번지 평택소사벌우미린레이크파크 상가동 107호","category":"일반휴게음식 - 스넥"},{"name":"시립우미린레이크어린이집[아이행복]","tel":"031-652-1031","addr":"경기도 평택시 죽백동 816번지 평택소사벌우미린레이크파크","category":"학원 - 유아원"},{"name":"아트피크닉미술아뜰리에미술교습소","tel":"031-611-2442","addr":"경기도 평택시 죽백동 816번지 평택소사벌우미린레이크파크 상가동 201호","category":"학원 - 예·체능계학원"},{"name":"용인대청호태권도장","tel":"031-653-1210","addr":"경기도 평택시 죽백동 816번지 평택소사벌우미린레이크파크 상가동 205호","category":"학원 - 예·체능계학원"},{"name":"키움해법교실","tel":"","addr":"경기도 평택시 죽백동 816번지 평택소사벌우미린레이크파크 204동 302호","category":"학원 - 기타 교육기관"},{"name":"프로 다 소르테","tel":"","addr":"경기도 평택시 죽백동 816번지 평택소사벌우미린레이크파크 202동 2304호","category":"문화.취미 - 화원"},{"name":"헨델음악학원","tel":"031-656-0059","addr":"경기도 평택시 죽백동 816번지 평택소사벌우미린레이크파크 상가동 202호","category":"학원 - 예·체능계학원"}]},{"lat":"37.011656084","long":"127.11180417","items":[{"name":"가정식백반 진미식당","tel":"031-0000-0000","addr":"경기도 평택시 죽백동 486-21번지 1층","category":"일반휴게음식 - 일반한식"}]},{"lat":"37.014994956","long":"127.13369768","items":[{"name":"감우당","tel":"031-663-0447","addr":"경기도 평택시 죽백동 89-3번지 1층","category":"일반휴게음식 - 서양음식"},{"name":"감우당","tel":"031-656-9333","addr":"경기도 평택시 죽백동 89-3번지","category":"음식점 - 한식"},{"name":"감우당/농업회사법인 주식회사영흥원","tel":"031-663-0447","addr":"경기도 평택시 죽백동 89-3번지","category":"일반휴게음식 - 일반한식"},{"name":"농업회사법인 주식회사 영흥원","tel":"042-822-1190","addr":"경기도 평택시 죽백동 89-3번지","category":"보건위생 - 의료용품"}]},{"lat":"37.006158873","long":"127.11256032","items":[{"name":"개인과외","tel":"","addr":"경기도 평택시 죽백동 737번지 평택소사벌호반베르디움 1101동 501호","category":"학원 - 기타 교육기관"},{"name":"김정희개인과외","tel":"","addr":"경기도 평택시 죽백동 737번지 평택소사벌호반베르디움 1108동 102호","category":"학원 - 기타 교육기관"},{"name":"센수학","tel":"","addr":"경기도 평택시 죽백동 737번지 평택소사벌호반베르디움 1107동 303호","category":"학원 - 기타 교육기관"},{"name":"신동진 개인과외","tel":"031-691-7571","addr":"경기도 평택시 죽백동 737번지 평택소사벌호반베르디움 1108동 704호","category":"학원 - 기타 교육기관"},{"name":"은빛필라테스","tel":"031-000-0000","addr":"경기도 평택시 죽백동 737번지 평택소사벌호반베르디움 1103동 302호","category":"레저업소 - 헬스클럽"},{"name":"크린에이드 평택소사벌점","tel":"031-8029-6644","addr":"경기도 평택시 죽백동 737번지 평택소사벌호반베르디움 106호","category":"수리서비스 - 세탁소"},{"name":"한솔플러스 수학교실","tel":"","addr":"경기도 평택시 죽백동 737번지 평택소사벌호반베르디움 1108동 103호","category":"학원 - 기타 교육기관"},{"name":"호반공인중개사사무소","tel":"","addr":"경기도 평택시 죽백동 737번지 호반베르디움 상가 105호","category":"서비스업 - 부동산"},{"name":"호반베르디움어린이집[아이행복]","tel":"031-654-7479","addr":"경기도 평택시 죽백동 737번지 평택소사벌호반베르디움 관리동","category":"학원 - 유아원"},{"name":"호반으뜸공인중개사","tel":"031-654-1740","addr":"경기도 평택시 죽백동 737번지 호반베르디움단지 102호(같은주소 사업자2개)","category":"서비스업 - 부동산"},{"name":"호반으뜸부동산","tel":"031-657-1119","addr":"경기도 평택시 죽백동 737번지 상가동 102호(같은주소 사업자2개)","category":"서비스업 - 부동산"}]},{"lat":"37.00372","long":"127.11885958","items":[{"name":"거상한식부페","tel":"031-656-5005","addr":"경기도 평택시 죽백동 771번지 세비온 108호","category":"일반휴게음식 - 일반한식"},{"name":"배다리골","tel":"031-657-9788","addr":"경기도 평택시 죽백동 771번지 제103,104호(죽백둥)","category":"일반휴게음식 - 일반한식"},{"name":"세무사 형병원","tel":"031-647-9670","addr":"경기도 평택시 죽백동 771번지 세비온 202호","category":"용역 서비스 - 법률회계서비스(개인)"},{"name":"엔젤리너스(세비온) 평택세무서점","tel":"","addr":"경기도 평택시 죽백동 771번지","category":"음식점 - 카페"}]},{"lat":"37.003412244","long":"127.12906033","items":[{"name":"거성전기조명","tel":"031-656-6707","addr":"경기도 평택시 죽백동 646-1번지","category":"소매업 - 전기조명"}]},{"lat":"37.012163578","long":"127.13552432","items":[{"name":"고덕지게차","tel":"031-668-7599","addr":"경기도 평택시 죽백동 129-2번지","category":"기타 - 기계공구"},{"name":"미래펌프카","tel":"","addr":"경기도 평택시 죽백동 129-2번지","category":"기타 - 기계공구"},{"name":"백현건기","tel":"031-673-1655","addr":"경기도 평택시 죽백동 129-2번지","category":"기타 - 기계공구"},{"name":"백현건기","tel":"031-667-5782","addr":"경기도 평택시 죽백동 129-2번지","category":"기타 - 기계공구"},{"name":"백현건기","tel":"031-682-5782","addr":"경기도 평택시 죽백동 129-2번지","category":"기타 - 기계공구"},{"name":"성해토건중기","tel":"031-683-1270","addr":"경기도 평택시 죽백동 129-2번지","category":"기타 - 기계공구"},{"name":"원곡지게차","tel":"","addr":"경기도 평택시 죽백동 129-2번지","category":"기타 - 기계공구"},{"name":"제일지게차","tel":"031-666-2381","addr":"경기도 평택시 죽백동 129-2번지","category":"기타 - 기계공구"},{"name":"지평건설중기","tel":"031-684-5400","addr":"경기도 평택시 죽백동 129-2번지","category":"기타 - 기계공구"},{"name":"태건산업중기","tel":"031-683-6500","addr":"경기도 평택시 죽백동 129-2번지","category":"기타 - 기계공구"}]},{"lat":"37.016212613","long":"127.11488953","items":[{"name":"고등어 명품이되다","tel":"031-654-2377","addr":"경기도 평택시 죽백동 464-11번지 1층","category":"음식점 - 한식"}]},{"lat":"37.00919179","long":"127.12553064","items":[{"name":"공방 햇빛여울","tel":"","addr":"경기도 평택시 죽백동 324-8번지","category":"문화.취미 - 문화취미기타"},{"name":"햇빛여울(공방)","tel":"","addr":"경기도 평택시 죽백동 324-8번지","category":"소매업 - 공방"}]},{"lat":"37.006775191","long":"127.13552619","items":[{"name":"공임나라 평택점","tel":"031-658-7026","addr":"경기도 평택시 죽백동 136-56번지","category":"자동차정비 유지 - 자동차정비"}]},{"lat":"37.003801633","long":"127.11830919","items":[{"name":"광장세무회계사무소","tel":"031-468-3040","addr":"경기도 평택시 죽백동 770-1번지 세전프라자 2층 208호","category":"용역 서비스 - 법률회계서비스(개인)"},{"name":"광장세무회계사무소","tel":"031-651-3040","addr":"경기도 평택시 죽백동 770-1번지 세전프라자 208호","category":"용역 서비스 - 법률회계서비스(개인)"},{"name":"나비드하우스","tel":"031-658-6300","addr":"경기도 평택시 죽백동 770-1번지 5층 4호","category":"일반휴게음식 - 일반한식"},{"name":"세진 세무회계 사무소","tel":"031-647-6778","addr":"경기도 평택시 죽백동 770-1번지 108호","category":"용역 서비스 - 법률회계서비스(개인)"},{"name":"임진국세무회계사무소","tel":"031-618-2445","addr":"경기도 평택시 죽백동 770-1번지 세전빌딩 102호","category":"용역 서비스 - 법률회계서비스(개인)"},{"name":"하나세무회계","tel":"031-653-8834","addr":"경기도 평택시 죽백동 770-1번지 105호","category":"용역 서비스 - 법률회계서비스(개인)"},{"name":"한결 세무회계사무소","tel":"031-654-7482","addr":"경기도 평택시 죽백동 770-1번지 세전프라자 1층 105호","category":"용역 서비스 - 법률회계서비스(개인)"}]},{"lat":"37.012856098","long":"127.11005303","items":[{"name":"나라소리국악기제작소","tel":"031-665-1560","addr":"경기도 평택시 죽백동 518-26번지","category":"레져용품 - 악기점"},{"name":"나라소리국악기제작소","tel":"031-691-2733","addr":"경기도 평택시 죽백동 518-26번지","category":"소매업 - 악기"}]},{"lat":"37.011685232","long":"127.13622012","items":[{"name":"낙지마당(평택직영점)","tel":"031-658-5255","addr":"경기도 평택시 죽백동 130번지 1층","category":"일반휴게음식 - 일반한식"}]},{"lat":"37.01174654","long":"127.11142227","items":[{"name":"남원골추어탕","tel":"031-655-0234","addr":"경기도 평택시 죽백동 486-15번지","category":"일반휴게음식 - 일반한식"},{"name":"아빠가만든가구","tel":"031-654-6123","addr":"경기도 평택시 죽백동 486-15번지","category":"가구 - 일반가구"},{"name":"평택원두","tel":"031-618-4986","addr":"경기도 평택시 죽백동 486-15번지 1동","category":"음료식품 - 기타음료식품"},{"name":"평택커피","tel":"031-618-4986","addr":"경기도 평택시 죽백동 486-15번지 1동","category":"일반휴게음식 - 서양음식"}]},{"lat":"37.005273198","long":"127.11536782","items":[{"name":"네일더이쁨","tel":"","addr":"경기도 평택시 죽백동 753번지 101호","category":"보건위생 - 피부미용실"},{"name":"백호태권도장","tel":"031-618-7144","addr":"경기도 평택시 죽백동 753번지 401호,402호","category":"학원 - 예·체능계학원"},{"name":"삼성영어PEI학원","tel":"031-655-8830","addr":"경기도 평택시 죽백동 753번지 202호","category":"학원 - 보습학원"},{"name":"슈슈아트미술학원","tel":"031-000-0000","addr":"경기도 평택시 죽백동 753번지 302호 전부","category":"학원 - 예·체능계학원"},{"name":"이화뮤즈 음악학원","tel":"031-652-2522","addr":"경기도 평택시 죽백동 753번지 3층 301호","category":"학원 - 예·체능계학원"},{"name":"최고봉영수학원","tel":"031-654-2272","addr":"경기도 평택시 죽백동 753번지 드림빌딩 201호","category":"학원 - 보습학원"}]},{"lat":"37.003914614","long":"127.13113961","items":[{"name":"넥센타이어(주)타이어테크평택죽백점","tel":"031-000-0000","addr":"경기도 평택시 죽백동 654-6번지 외1필지","category":"자동차정비 유지 - 자동차시트·타이어"}]},{"lat":"37.008413809","long":"127.1100805","items":[{"name":"놀기대장.집아트","tel":"031-618-8088","addr":"경기도 평택시 죽백동 721번지 소사벌중흥S-클래스에코시티 103동 105호","category":"용역 서비스 - 종합용역"},{"name":"다은축산","tel":"031-223-5214","addr":"경기도 평택시 죽백동 721번지 소사벌중흥S-클래스에코시티 상가동 112호","category":"음료식품 - 정육점"},{"name":"도담치킨 소사벌점","tel":"031-647-6068","addr":"경기도 평택시 죽백동 721번지 소사벌중흥S-클래스에코시티 상가동 104호","category":"일반휴게음식 - 스넥"},{"name":"드림 어린이집[아이행복]","tel":"031-653-5331","addr":"경기도 평택시 죽백동 721번지 중흥S-클래스에코시티 102동 105호","category":"학원 - 유아원"},{"name":"또봄헤어","tel":"031-651-4455","addr":"경기도 평택시 죽백동 721번지 소사벌중흥S-클래스에코시티 상가동 103호","category":"보건위생 - 미용원"},{"name":"마뜨앤오","tel":"","addr":"경기도 평택시 죽백동 721번지 소사벌중흥S-클래스에코시티 105동 2205호","category":"신변잡화 - 기타잡화"},{"name":"버무리 떡볶이 소사벌중흥점","tel":"070-7423-6603","addr":"경기도 평택시 죽백동 721번지 소사벌중흥S-클래스에코시티 109호","category":"일반휴게음식 - 스넥"},{"name":"비상잉글리쉬아이중흥S클래스점","tel":"070-2653-7799","addr":"경기도 평택시 죽백동 721번지 소사벌중흥S-클래스에코시티 101동 105호","category":"학원 - 기타 교육기관"},{"name":"세라비","tel":"031-618-1150","addr":"경기도 평택시 죽백동 721번지 소사벌중흥S-클래스에코시티 상가동 107호","category":"보건위생 - 미용원"},{"name":"씨유평택중흥점","tel":"080-080-3663","addr":"경기도 평택시 죽백동 721번지 평택소사벌중흥S-클래스 상가동 102호","category":"유통업 영리 - 편 의 점"},{"name":"에코아이어린이집[아이행복]","tel":"031-691-7474","addr":"경기도 평택시 죽백동 721번지 소사벌중흥S-클래스에코시티","category":"학원 - 유아원"},{"name":"중흥 Math-cIass","tel":"031-651-1933","addr":"경기도 평택시 죽백동 721번지 평택소사벌중흥에스-클래스에코시티 105동 203호","category":"학원 - 기타 교육기관"},{"name":"중흥친절한공인중개사사무소","tel":"031-654-3433","addr":"경기도 평택시 죽백동 721번지 소사벌중흥S-클래스에코시티 상가 111호","category":"서비스업 - 부동산"},{"name":"파리바게트 평택소사벌중흥점","tel":"","addr":"경기도 평택시 죽백동 721번지 소사벌중흥S-클래스에코시티 상가동 113호","category":"음료식품 - 제과점"}]},{"lat":"37.008217735","long":"127.13477592","items":[{"name":"농업회사법인㈜참미소","tel":"031-654-6769","addr":"경기도 평택시 죽백동 140-8번지","category":"도소매업 - 식품"}]},{"lat":"37.012134838","long":"127.11050146","items":[{"name":"다만나","tel":"031-653-0117","addr":"경기도 평택시 죽백동 518-9번지","category":"일반휴게음식 - 일반한식"}]},{"lat":"37.010351497","long":"127.10964502","items":[{"name":"다빈이네한식뷔페","tel":"031-656-5405","addr":"경기도 평택시 죽백동 700-1 (죽백5로 23) 1층","category":"일반휴게음식 - 일반한식"}]},{"lat":"37.012990063","long":"127.11136786","items":[{"name":"대진철물건재상사","tel":"031-652-0934","addr":"경기도 평택시 죽백동 486-22번지","category":"건축자재 - 목재·석재·철물"},{"name":"반앤파파","tel":"031-691-5859","addr":"경기도 평택시 죽백동 486-22번지 1층","category":"음료식품 - 정육점"},{"name":"반앤파파","tel":"031-691-5859","addr":"경기도 평택시 죽백동 486-22번지 외1필지","category":"일반휴게음식 - 일반한식"}]},{"lat":"37.00135356","long":"127.12449571","items":[{"name":"더샵 행복한 어린이집[아이행복]","tel":"031-8094-1977","addr":"경기도 평택시 죽백동 817번지 소사벌더샵마스터뷰 1층 관리동","category":"학원 - 유아원"},{"name":"더샵세탁소","tel":"031-655-6395","addr":"경기도 평택시 죽백동 817번지 소사벌더샵마스터뷰 상가동 106호","category":"수리서비스 - 세탁소"},{"name":"동네미장원","tel":"","addr":"경기도 평택시 죽백동 817번지 소사벌더샵마스터뷰 1동 202호","category":"보건위생 - 미용원"},{"name":"미술개인과외교습","tel":"02-1111-1111","addr":"경기도 평택시 죽백동 817번지 소사벌더샵마스터뷰 106동 702호","category":"학원 - 기타 교육기관"},{"name":"이유수학학원","tel":"031-656-9981","addr":"경기도 평택시 죽백동 817번지 소사벌더샵마스터뷰 203호,204호","category":"학원 - 보습학원"}]},{"lat":"37.012800136","long":"127.13835694","items":[{"name":"동남도기통상","tel":"031-692-7711","addr":"경기도 평택시 죽백동 35번지 1호","category":"건축자재 - 건축용 요업제품"}]},{"lat":"37.004047726","long":"127.11538849","items":[{"name":"동네바보라운지","tel":"031-651-0227","addr":"경기도 평택시 죽백동 757-1번지","category":"음식점 - 커피"}]},{"lat":"37.003439836","long":"127.12853234","items":[{"name":"동명주방산업","tel":"031-656-5246","addr":"경기도 평택시 죽백동 626-1번지","category":"주방용구 - 주방용식기"}]},{"lat":"37.010604994","long":"127.11800487","items":[{"name":"럭키미트유통","tel":"070-8267-1845","addr":"경기도 평택시 죽백동 399-2번지","category":"음료식품 - 정육점"},{"name":"오성종합건축","tel":"031-653-9159","addr":"경기도 평택시 죽백동 399-2번지 1층 103호","category":"용역 서비스 - 기타용역서비스"},{"name":"위너미트유통","tel":"031-691-8233","addr":"경기도 평택시 죽백동 399-2번지 104호","category":"음료식품 - 정육점"}]},{"lat":"37.011520355","long":"127.11242195","items":[{"name":"롯데칠성음료(주)평택대리점","tel":"031-652-4900","addr":"경기도 평택시 죽백동 486-24번지 1층","category":"음료식품 - 기타음료식품"}]},{"lat":"37.007632105","long":"127.13471873","items":[{"name":"마마트평택점","tel":"031-653-6999","addr":"경기도 평택시 죽백동 140-10번지","category":"유통업 영리 - 편 의 점"},{"name":"마마트평택점","tel":"","addr":"경기도 평택시 죽백동 140-10번지","category":"일반휴게음식 - 서양음식"},{"name":"한진건설(주)","tel":"031-653-6999","addr":"경기도 평택시 죽백동 140-10번지","category":"건축자재 - 유리"}]},{"lat":"37.01237739","long":"127.11131081","items":[{"name":"명품가구갤러리","tel":"031-655-3234","addr":"경기도 평택시 죽백동 486-4번지 명품가구갤러리","category":"가구 - 일반가구"}]},{"lat":"37.003854201","long":"127.11983722","items":[{"name":"모모아동발달센터","tel":"","addr":"경기도 평택시 죽백동 772번지 배다리프라자 4층 403호","category":"학원 - 기타 교육기관"},{"name":"장항선의봉수갈비","tel":"031-657-0788","addr":"경기도 평택시 죽백동 772번지 102동 106호","category":"일반휴게음식 - 일반한식"},{"name":"펀앤조이","tel":"031-656-4103","addr":"경기도 평택시 죽백동 772번지 배다리프라자","category":"일반휴게음식 - 서양음식"}]},{"lat":"37.003912672","long":"127.11527594","items":[{"name":"무지(MOOZEE)","tel":"031-658-3010","addr":"경기도 평택시 죽백동 757-2번지 1층","category":"직물 - 카페트,커튼,천막,지물"},{"name":"이정태세무회계사무소","tel":"031-8054-8282","addr":"경기도 평택시 죽백동 757-2번지 3층","category":"용역 서비스 - 법률회계서비스(개인)"},{"name":"챔프짐","tel":"031-653-1279","addr":"경기도 평택시 죽백동 757-2번지 2층","category":"학원 - 예·체능계학원"}]},{"lat":"37.003995381","long":"127.13144309","items":[{"name":"문곰탕","tel":"031-652-3149","addr":"경기도 평택시 죽백동 654-13번지","category":"일반휴게음식 - 일반한식"},{"name":"히희히","tel":"","addr":"경기도 평택시 죽백동 654-13번지 2동","category":"일반휴게음식 - 서양음식"}]},{"lat":"37.011158961","long":"127.12274728","items":[{"name":"미가풍경","tel":"031-655-1004","addr":"경기도 평택시 죽백동 338-8번지","category":"제조업 - 두부"},{"name":"바른먹거리 협동조합 도시농부들","tel":"031-652-4959","addr":"경기도 평택시 죽백동 338-8번지","category":"음료식품 - 기타음료식품"}]},{"lat":"37.016518688","long":"127.11519337","items":[{"name":"민물장어","tel":"031-691-2932","addr":"경기도 평택시 죽백동 451-1번지","category":"음식점 - 한식"},{"name":"스테미나하우스","tel":"031-657-8895","addr":"경기도 평택시 죽백동 451-1번지","category":"일반휴게음식 - 일반한식"}]},{"lat":"37.013327551","long":"127.13408809","items":[{"name":"방아다리","tel":"031-653-0333","addr":"경기도 평택시 죽백동 112-8번지","category":"음식점 - 한식"},{"name":"방아다리옻닭","tel":"031-656-9333","addr":"경기도 평택시 죽백동 112-8번지","category":"일반휴게음식 - 일반한식"}]},{"lat":"37.01352014","long":"127.11305406","items":[{"name":"버거킹평택죽백DT점","tel":"070-7462-6814","addr":"경기도 평택시 죽백동 482-3번지 1층","category":"일반휴게음식 - 서양음식"}]},{"lat":"37.01171759","long":"127.1135009","items":[{"name":"부뚜막씽크","tel":"031-692-3236","addr":"경기도 평택시 죽백동 408-4번지 외1필지","category":"주방용구 - 주방용구"},{"name":"주식회사덕보철물건재","tel":"031-376-2014","addr":"경기도 평택시 죽백동 408-4번지","category":"건축자재 - 기타건축자재"},{"name":"한울유통","tel":"031-692-7227","addr":"경기도 평택시 죽백동 408-4번지","category":"음료식품 - 기타음료식품"}]},{"lat":"37.011018246","long":"127.11927516","items":[{"name":"부모산쪽갈비","tel":"","addr":"경기도 평택시 죽백동 344-4번지","category":"음식점 - 한식"},{"name":"부모산쪽갈비","tel":"031-655-6553","addr":"경기도 평택시 죽백동 344-4번지","category":"일반휴게음식 - 일반한식"}]},{"lat":"37.007632839","long":"127.13405584","items":[{"name":"비전엠플","tel":"031-000-0000","addr":"경기도 평택시 죽백동 140-7번지 지하1층","category":"용역 서비스 - 기타용역서비스"}]},{"lat":"37.013746609","long":"127.11175097","items":[{"name":"빵과당신","tel":"031-655-0853","addr":"경기도 평택시 죽백동 478-14번지","category":"음식점 - 베이커리, 카페"}]},{"lat":"37.011212888","long":"127.11361252","items":[{"name":"서식당","tel":"031-656-7634","addr":"경기도 평택시 죽백동 408-7번지","category":"음식점 - 한식"},{"name":"서식당","tel":"070-8171-6645","addr":"경기도 평택시 죽백동 408-7번지 1동 1층","category":"일반휴게음식 - 일반한식"},{"name":"서진안전기술","tel":"070-8171-6645","addr":"경기도 평택시 죽백동 408-7번지","category":"서비스업 - 기술엔지니어링"}]},{"lat":"37.004498131","long":"127.11552397","items":[{"name":"세븐일레븐세무서점","tel":"031-1577-0711","addr":"경기도 평택시 죽백동 754-2번지 정현빌딩 103호","category":"유통업 영리 - 편 의 점"},{"name":"찻집","tel":"070-4064-9434","addr":"경기도 평택시 죽백동 754-2번지 정현빌딩","category":"일반휴게음식 - 서양음식"},{"name":"평안세무회계합동사무소","tel":"031-658-1152","addr":"경기도 평택시 죽백동 754-2번지 정현빌딩 2층 201호","category":"용역 서비스 - 법률회계서비스(개인)"}]},{"lat":"37.011549946","long":"127.10961299","items":[{"name":"스피드메이트평택비전점","tel":"031-692-3612","addr":"경기도 평택시 죽백동 521번지","category":"자동차정비 유지 - 자동차정비"},{"name":"홍기와 쭈꾸미 평택점","tel":"031-652-9001","addr":"경기도 평택시 죽백동 521번지","category":"일반휴게음식 - 일반한식"}]},{"lat":"37.005102963","long":"127.12355794","items":[{"name":"시립배다리마을5단지어린이집[아이행복]","tel":"031-658-9055","addr":"경기도 평택시 죽백동 815번지 평택LH행복주택","category":"학원 - 유아원"},{"name":"씨유소사벌행복점","tel":"02-1577-8007","addr":"경기도 평택시 죽백동 815번지 배다리마을5단지 상가동 1층 104호","category":"유통업 영리 - 편 의 점"}]},{"lat":"37.013385956","long":"127.11199765","items":[{"name":"아트런","tel":"031-656-7737","addr":"경기도 평택시 죽백동 485-4번지","category":"자동차정비 유지 - 자동차부품"}]},{"lat":"37.011574709","long":"127.11210742","items":[{"name":"알라딘","tel":"","addr":"경기도 평택시 죽백동 486-10번지 나동","category":"직물 - 침구·수예점"},{"name":"알프스냉동공조","tel":"031-655-1342","addr":"경기도 평택시 죽백동 486-10","category":"전기제품 - 냉열기기"}]},{"lat":"37.011936807","long":"127.11027646","items":[{"name":"에스제이솔루션","tel":"031-657-2175","addr":"경기도 평택시 죽백동 522-1번지","category":"사무통신 - 컴퓨터"}]},{"lat":"37.014021656","long":"127.13383085","items":[{"name":"연예인헤어샵","tel":"031-654-0888","addr":"경기도 평택시 죽백동 118-8번지 나동","category":"보건위생 - 미용원"},{"name":"연예인헤어샾","tel":"02-6916-1500","addr":"경기도 평택시 죽백동 118-8번지","category":"서비스업 - 미용"},{"name":"한식뷔페장금이","tel":"031-618-2581","addr":"경기도 평택시 죽백동 118-8번지 가동","category":"일반휴게음식 - 일반한식"}]},{"lat":"37.008467071","long":"127.1374167","items":[{"name":"연잎장어","tel":"031-654-0197","addr":"경기도 평택시 죽백동 136-6번지 1층","category":"일반휴게음식 - 일반한식"}]},{"lat":"37.012494907","long":"127.11089523","items":[{"name":"연탄삼굽지","tel":"031-657-5656","addr":"경기도 평택시 죽백동 518-5번지","category":"음식점 - 한식"},{"name":"연탄삼굽지","tel":"031-658-3320","addr":"경기도 평택시 죽백동 518-5번지","category":"일반휴게음식 - 일반한식"}]},{"lat":"37.014517552","long":"127.13355079","items":[{"name":"영인산업","tel":"031-656-8153","addr":"경기도 평택시 죽백동 117번지","category":"기타 - 기타 전문점"},{"name":"이마트24 평택죽백점","tel":"031-655-0234","addr":"경기도 평택시 죽백동 117번지","category":"소매업 - 편의점"},{"name":"이마트24 평택죽백점","tel":"","addr":"경기도 평택시 죽백동 117번지","category":"유통업 영리 - 편 의 점"},{"name":"이마트24 평택죽백점","tel":"031-000-0000","addr":"경기도 평택시 죽백동 117번지","category":"유통업 영리 - 편 의 점"}]},{"lat":"37.016328138","long":"127.11658644","items":[{"name":"우봉산업","tel":"031-656-1047","addr":"경기도 평택시 죽백동 426-2","category":"기타 - 기계공구"},{"name":"타이어79 죽백점","tel":"031-656-1047","addr":"경기도 평택시 죽백동 426-2번지","category":"자동차정비 유지 - 자동차시트·타이어"}]},{"lat":"37.015051146","long":"127.11392148","items":[{"name":"이노무역","tel":"070-5044-2905","addr":"경기도 평택시 죽백동 478-34번지","category":"건축자재 - 인테리어전문"},{"name":"필그림퍼니처갤러리","tel":"031-692-8788","addr":"경기도 평택시 죽백동 478-34번지","category":"도소매업 - 가구, 잡화"},{"name":"필그림퍼니처갤러리","tel":"031-654-1329","addr":"경기도 평택시 죽백동 478-34번지","category":"가구 - 일반가구"}]},{"lat":"37.003746681","long":"127.11921913","items":[{"name":"이레세무회계사무소","tel":"031-657-3517","addr":"경기도 평택시 죽백동 771-1번지 세무타워 4층 404호","category":"용역 서비스 - 법률회계서비스(개인)"},{"name":"자기주도연구소","tel":"070-0000-0000","addr":"경기도 평택시 죽백동 771-1번지 평택T세무타워 204호","category":"보건위생 - 기타대인서비스"},{"name":"전정수 세무회계사무소","tel":"031-653-1200","addr":"경기도 평택시 죽백동 771-1번지 세무타워 304호","category":"용역 서비스 - 법률회계서비스(개인)"},{"name":"주식회사 아스티즈","tel":"031-651-0801","addr":"경기도 평택시 죽백동 771-1번지 평택세무타워 501호","category":"자동차정비 유지 - 자동차부품"},{"name":"택스힐 세무회계","tel":"070-4415-1510","addr":"경기도 평택시 죽백동 771-1번지 3층 303호","category":"용역 서비스 - 법률회계서비스(개인)"},{"name":"햇살심리상담치유센터","tel":"031-656-3563","addr":"경기도 평택시 죽백동 771-1번지 T세무타워 204호","category":"보건위생 - 기타대인서비스"}]},{"lat":"37.011882492","long":"127.13708564","items":[{"name":"이마트24 평택호반점","tel":"031-000-0000","addr":"경기도 평택시 죽백동 30번지 죽백동 3005 호반베르디움 상가내 103호,104호","category":"유통업 영리 - 편 의 점"},{"name":"주식회사 뉴부자투어","tel":"031-652-5115","addr":"경기도 평택시 죽백동 30번지","category":"여행 - 관광여행"},{"name":"하이스트아이앤에이","tel":"031-691-1316","addr":"경기도 평택시 죽백동 30번지","category":"건축자재 - 인테리어전문"}]},{"lat":"37.013689238","long":"127.13294261","items":[{"name":"인수농원","tel":"","addr":"경기도 평택시 죽백동 107-1번지","category":"소매업 - 농산물"},{"name":"인수농원","tel":"031-655-1267","addr":"경기도 평택시 죽백동 107-1번지","category":"학원 - 기타 교육기관"}]},{"lat":"37.013131412","long":"127.11441308","items":[{"name":"정원갈비(평택점)","tel":"031-651-1740","addr":"경기도 평택시 죽백동 409-10번지 1층","category":"일반휴게음식 - 일반한식"}]},{"lat":"37.01146479","long":"127.12327586","items":[{"name":"제일VM유통","tel":"031-657-4031","addr":"경기도 평택시 죽백동 314번지","category":"신변잡화 - 기타잡화"}]},{"lat":"37.013434231","long":"127.13539169","items":[{"name":"죽백면옥","tel":"031-653-9955","addr":"경기도 평택시 죽백동 124-1번지","category":"음식점 - 한식"},{"name":"죽백면옥","tel":"031-658-1732","addr":"경기도 평택시 죽백동 124-1번지 1층","category":"일반휴게음식 - 일반한식"}]},{"lat":"37.011407323","long":"127.11761282","items":[{"name":"죽백서원","tel":"031-654-2852","addr":"경기도 평택시 죽백동 395-1번지","category":"서적문구 - 출판 및 인쇄물"}]},{"lat":"37.013939053","long":"127.13519031","items":[{"name":"죽백장수돌판오리구이","tel":"031-651-5295","addr":"경기도 평택시 죽백동 124번지 외3필지제 2동","category":"일반휴게음식 - 일반한식"}]},{"lat":"37.013413679","long":"127.13763891","items":[{"name":"죽백초등학교","tel":"031-651-5803","addr":"경기도 평택시 죽백동 36-2번지 죽백초등학교","category":"학원 - 초중고교육기관"},{"name":"죽백초등학교병설유치원[아이행복]","tel":"031-656-9638","addr":"경기도 평택시 죽백동 36-2번지 죽백초등학교","category":"학원 - 유치원"}]},{"lat":"37.004191843","long":"127.11544487","items":[{"name":"집에가기전","tel":"031-652-6634","addr":"경기도 평택시 죽백동 757번지 101호","category":"일반휴게음식 - 일반한식"}]},{"lat":"37.011632713","long":"127.134838","items":[{"name":"청와삼대평택죽백점","tel":"031-657-2959","addr":"경기도 평택시 죽백동 144-18번지 1층","category":"일반휴게음식 - 일반한식"}]},{"lat":"37.011351938","long":"127.11897229","items":[{"name":"충남청과","tel":"031-684-1330","addr":"경기도 평택시 죽백동 361-3번지","category":"음료식품 - 농·축·수산품"}]},{"lat":"37.014051278","long":"127.11358293","items":[{"name":"카닥터(Car Doctor)","tel":"031-653-5335","addr":"경기도 평택시 죽백동 479-17번지","category":"자동차정비 유지 - 자동차부품"},{"name":"커스텀앰","tel":"031-653-5335","addr":"경기도 평택시 죽백동 479-17번지","category":"자동차정비 유지 - 자동차부품"},{"name":"타이어스토어","tel":"","addr":"경기도 평택시 죽백동 479-17번지","category":"자동차정비 유지 - 자동차시트·타이어"}]},{"lat":"37.006268184","long":"127.1207285","items":[{"name":"쿨웨이평택점","tel":"","addr":"경기도 평택시 죽백동 786-3번지 301호","category":"용역 서비스 - 종합용역"}]},{"lat":"37.013885477","long":"127.134752","items":[{"name":"타이어넷","tel":"","addr":"경기도 평택시 죽백동 122번지","category":"자동차정비 유지 - 자동차시트·타이어"}]},{"lat":"37.013023695","long":"127.11397471","items":[{"name":"평택공조","tel":"031-656-3366","addr":"경기도 평택시 죽백동 410-3번지 102호","category":"전기제품 - 냉열기기"}]},{"lat":"37.017740746","long":"127.11872356","items":[{"name":"평택농협 미곡처리장","tel":"031-657-0289","addr":"경기도 평택시 죽백동 438-1번지","category":"도매업 - 농산물"}]},{"lat":"37.004157391","long":"127.13161189","items":[{"name":"평택셀세모","tel":"031-691-3020","addr":"경기도 평택시 죽백동 654-9번지 외3필지","category":"자동차정비 유지 - 자동차부품"}]},{"lat":"37.000962371","long":"127.11922613","items":[{"name":"평택시도서관","tel":"031-8024-5491","addr":"경기도 평택시 죽백동 800번지","category":"자동차정비 유지 - 주차장"}]},{"lat":"37.010829374","long":"127.11891532","items":[{"name":"평택장수촌","tel":"031-654-4544","addr":"경기도 평택시 죽백동 359-1번지 1층","category":"일반휴게음식 - 일반한식"}]},{"lat":"37.005881192","long":"127.12025602","items":[{"name":"평택하람어린이집[아이행복]","tel":"031-618-1717","addr":"경기도 평택시 죽백동 778번지","category":"학원 - 유아원"}]},{"lat":"37.004885644","long":"127.11546837","items":[{"name":"한국체대 현 태권도장","tel":"","addr":"경기도 평택시 죽백동 754번지 4층 401,402호","category":"학원 - 예·체능계학원"}]},{"lat":"37.011493575","long":"127.12153432","items":[{"name":"한성테크원","tel":"031-691-2312","addr":"경기도 평택시 죽백동 342-10번지","category":"기타 - 기계공구"}]},{"lat":"37.011719298","long":"127.1298044","items":[{"name":"해성유통","tel":"031-652-3189","addr":"경기도 평택시 죽백동 171-1번지","category":"음료식품 - 기타음료식품"}]}]