[{"lat":"37.392715317","long":"126.84001921","items":[{"name":"㈜다수리","tel":"070-7805-8877","addr":"경기도 시흥시 금이동 422-9번지","category":"개인서비스업 - 기계, 건축설비"}]},{"lat":"37.399690935","long":"126.83487678","items":[{"name":"㈜성조물류장비","tel":"031-318-2101~2","addr":"경기도 시흥시 금이동 307-3번지","category":"제조업 - 건설기계정비업"}]},{"lat":"37.398881167","long":"126.83568043","items":[{"name":"가마솥한식부페","tel":"","addr":"경기도 시흥시 금이동 326-1번지","category":"음식점업 - 한식"}]},{"lat":"37.400079964","long":"126.82973725","items":[{"name":"가을동화","tel":"031-313-0752","addr":"경기도 시흥시 금이동 193-3번지","category":"음식점업 - 카페"}]},{"lat":"37.391578926","long":"126.83920861","items":[{"name":"그린마트","tel":"031-317-8984","addr":"경기도 시흥시 금이동 478-18번지","category":"소매업 - 슈퍼마켓"}]},{"lat":"37.399412217","long":"126.83529526","items":[{"name":"아람엔에스케이산업㈜","tel":"031-316-1012","addr":"경기도 시흥시 금이동 303-1번지","category":"제조업 - 플라스틱창호"}]},{"lat":"37.40496852","long":"126.84631761","items":[{"name":"장어의 품격","tel":"031-311-0630","addr":"경기도 시흥시 금이동 56-1번지","category":"음식점업 - 음식점"}]},{"lat":"37.398797845","long":"126.82791064","items":[{"name":"청기와가든","tel":"031-311-3572","addr":"경기도 시흥시 금이동 638-1번지","category":"음식점업 - 한식"}]},{"lat":"37.398385663","long":"126.83571541","items":[{"name":"행복한밥집","tel":"031-311-2388","addr":"경기도 시흥시 금이동 330-1번지 지층 B102","category":"음식점업 - 한식"}]}]