[{"lat":"37.659863327","long":"127.3715099","items":[{"name":"GS25화도구암리점","tel":"02-2006-2118","addr":"경기도 남양주시 화도읍 구암리 35-13번지 외 1필지","category":"유통업 영리 - 편 의 점"},{"name":"엔에스알(NSR)남양주점","tel":"031-511-1004","addr":"경기도 남양주시 화도읍 구암리 35-13번지","category":"레져용품 - 스포츠·레져용품"}]},{"lat":"37.680084183","long":"127.37334434","items":[{"name":"가든무풍지대","tel":"031-591-9989","addr":"경기도 남양주시 화도읍 구암리 214-2","category":"일반휴게음식 - 일반한식"},{"name":"토마토마트2호점","tel":"031-592-9980","addr":"경기도 남양주시 화도읍 구암리 214-2번지","category":"유통업 영리 - 슈퍼마켓"},{"name":"토마토마트2호점","tel":"031-591-9989","addr":"경기도 남양주시 화도읍 구암리 214-2번지","category":"문화.취미 - 화원"}]},{"lat":"37.663085599","long":"127.36379643","items":[{"name":"공사식당","tel":"031-511-4569","addr":"경기도 남양주시 화도읍 구암리 464-6번지 1층","category":"일반휴게음식 - 서양음식"}]},{"lat":"37.670308476","long":"127.37343176","items":[{"name":"구암막국수","tel":"031-594-3398","addr":"경기도 남양주시 화도읍 구암리 188-9번지","category":"일반휴게음식 - 일반한식"}]},{"lat":"37.668672128","long":"127.37234687","items":[{"name":"구암양봉원","tel":"031-592-5403","addr":"경기도 남양주시 화도읍 구암리 144번지","category":"건강식품 - 기타건강식품"}]},{"lat":"37.670254348","long":"127.37345416","items":[{"name":"구암올갱이","tel":"031-592-5403","addr":"경기도 남양주시 화도읍 구암리 155-3번지","category":"일반휴게음식 - 일반한식"}]},{"lat":"37.663697343","long":"127.36409407","items":[{"name":"구암토종","tel":"031-592-8365","addr":"경기도 남양주시 화도읍 구암리 394-3번지","category":"일반휴게음식 - 일반한식"}]},{"lat":"37.666087703","long":"127.36317627","items":[{"name":"구암포도농원","tel":"","addr":"경기도 남양주시 화도읍 구암리 481-3번지","category":"음료식품 - 농·축·수산품"}]},{"lat":"37.663111014","long":"127.3613712","items":[{"name":"구피앤터치","tel":"031-511-5116","addr":"경기도 남양주시 화도읍 구암리 467-3번지","category":"문화.취미 - 수족관"}]},{"lat":"37.670280415","long":"127.37376032","items":[{"name":"국시가","tel":"031-593-6570","addr":"경기도 남양주시 화도읍 구암리 156-2번지 1층","category":"일반휴게음식 - 일반한식"}]},{"lat":"37.678693603","long":"127.36270444","items":[{"name":"국제광림비젼랜드","tel":"031-592-1163","addr":"경기도 남양주시 화도읍 구암리 297-3번지 외5필지","category":"학원 - 기타 교육기관"}]},{"lat":"37.68128123","long":"127.37373572","items":[{"name":"금강가든","tel":"031-591-2895","addr":"경기도 남양주시 화도읍 구암리 217-1번지","category":"일반휴게음식 - 일반한식"}]},{"lat":"37.661086037","long":"127.36945332","items":[{"name":"길라가든","tel":"031-591-9999","addr":"경기도 남양주시 화도읍 구암리 61-6번지 1층","category":"일반휴게음식 - 일반한식"},{"name":"유니온스크린골프","tel":"031-511-9902","addr":"경기도 남양주시 화도읍 구암리 61-6","category":"회원제형태 - 레져업소"},{"name":"유니온호텔","tel":"031-592-2233","addr":"경기도 남양주시 화도읍 구암리 61-6번지","category":"숙박업 - 2급 호텔"}]},{"lat":"37.681334574","long":"127.37396271","items":[{"name":"나무사랑캠프가든","tel":"031-591-2895","addr":"경기도 남양주시 화도읍 구암리 217-7번지","category":"일반휴게음식 - 일반한식"}]},{"lat":"37.678943721","long":"127.36634445","items":[{"name":"나하나(NAHANA)","tel":"031-000-0000","addr":"경기도 남양주시 화도읍 구암리 300-15번지","category":"직물 - 기타직물"}]},{"lat":"37.681530778","long":"127.37173045","items":[{"name":"대성종합건축","tel":"031-592-5970","addr":"경기도 남양주시 화도읍 구암리 249-6번지","category":"용역 서비스 - 기타용역서비스"}]},{"lat":"37.658500695","long":"127.3722058","items":[{"name":"대청마루","tel":"","addr":"경기도 남양주시 화도읍 구암리 37-4번지 2층","category":"일반휴게음식 - 일반한식"}]},{"lat":"37.673135167","long":"127.36254158","items":[{"name":"더시크릿수상종합레저","tel":"031-559-1145","addr":"경기도 남양주시 화도읍 구암리 515번지 더시크릿수상레저스키장","category":"레저업소 - 기타레져업소"}]},{"lat":"37.680800798","long":"127.37179485","items":[{"name":"뜨락펜션","tel":"031-511-9195","addr":"경기도 남양주시 화도읍 구암리 224-1번지 1층","category":"숙박업 - 여관/기타숙박업"}]},{"lat":"37.663668335","long":"127.36473994","items":[{"name":"레인보우모텔","tel":"031-592-0131","addr":"경기도 남양주시 화도읍 구암리 392-5번지","category":"숙박업 - 여관/기타숙박업"},{"name":"레인보우호텔","tel":"031-592-0131","addr":"경기도 남양주시 화도읍 구암리 392-5번지","category":"숙박업 - 여관/기타숙박업"}]},{"lat":"37.657895319","long":"127.3727581","items":[{"name":"마당골","tel":"031-591-1621","addr":"경기도 남양주시 화도읍 구암리 39-1번지","category":"일반휴게음식 - 일반한식"},{"name":"오동나무집","tel":"031-511-0320","addr":"경기도 남양주시 화도읍 구암리 39-1번지","category":"일반휴게음식 - 일반한식"},{"name":"오동나무집","tel":"","addr":"경기도 남양주시 화도읍 구암리 39-1번지","category":"일반휴게음식 - 일반한식"}]},{"lat":"37.680524435","long":"127.37373196","items":[{"name":"마로니에슈퍼","tel":"031-591-7237","addr":"경기도 남양주시 화도읍 구암리 216","category":"음료식품 - 기타음료식품"},{"name":"화랑캠프매점","tel":"031-592-1871","addr":"경기도 남양주시 화도읍 구암리 216번지","category":"유통업 비영리 - 구내매점(국가기관"}]},{"lat":"37.669776739","long":"127.37348579","items":[{"name":"마음정원","tel":"031-577-2327","addr":"경기도 남양주시 화도읍 구암리 153-1번지 1층","category":"일반휴게음식 - 서양음식"}]},{"lat":"37.658248323","long":"127.37223854","items":[{"name":"무봉리토종순대국금남점","tel":"031-595-9633","addr":"경기도 남양주시 화도읍 구암리 38-8번지","category":"일반휴게음식 - 일반한식"}]},{"lat":"37.683579501","long":"127.3705956","items":[{"name":"베라스","tel":"031-594-7784","addr":"경기도 남양주시 화도읍 구암리 263-1","category":"유통업 영리 - 슈퍼마켓"}]},{"lat":"37.660109342","long":"127.37062715","items":[{"name":"새터3급공업사","tel":"031-591-6577","addr":"경기도 남양주시 화도읍 구암리 71-5번지","category":"자동차정비 유지 - 자동차부품"},{"name":"어부의집","tel":"031-591-0288","addr":"경기도 남양주시 화도읍 구암리 71-5번지","category":"일반휴게음식 - 일반한식"}]},{"lat":"37.661830792","long":"127.37043164","items":[{"name":"샛터자전거샵","tel":"031-592-0901","addr":"경기도 남양주시 화도읍 구암리 69-10번지","category":"레져용품 - 스포츠·레져용품"},{"name":"이가네","tel":"031-594-5283","addr":"경기도 남양주시 화도읍 구암리 69-10번지","category":"일반휴게음식 - 일반한식"}]},{"lat":"37.670191887","long":"127.37326116","items":[{"name":"선엽스님의 자연을 마시는 힐링차","tel":"031-000-0000","addr":"경기도 남양주시 화도읍 구암리 188-13번지","category":"음료식품 - 기타음료식품"}]},{"lat":"37.663199592","long":"127.3618703","items":[{"name":"성환TECH","tel":"031-567-1775","addr":"경기도 남양주시 화도읍 구암리 461-1번지","category":"건축자재 - 기타건축자재"}]},{"lat":"37.659283989","long":"127.37237967","items":[{"name":"시골청국장집","tel":"031-591-3894","addr":"경기도 남양주시 화도읍 구암리 35-7","category":"일반휴게음식 - 일반한식"}]},{"lat":"37.662583284","long":"127.36306867","items":[{"name":"신화","tel":"031-511-0155","addr":"경기도 남양주시 화도읍 구암리 458-1번지","category":"레져용품 - 스포츠·레져용품"},{"name":"청평보트","tel":"031-511-0156","addr":"경기도 남양주시 화도읍 구암리 458-1번지","category":"레져용품 - 스포츠·레져용품"}]},{"lat":"37.67305223","long":"127.37476025","items":[{"name":"썸","tel":"031-592-2341","addr":"경기도 남양주시 화도읍 구암리 6-16번지","category":"숙박업 - 여관/기타숙박업"},{"name":"흐르는강물처럼","tel":"031-592-2341","addr":"경기도 남양주시 화도읍 구암리 6-16,6-38","category":"숙박업 - 여관/기타숙박업"}]},{"lat":"37.673448735","long":"127.36312118","items":[{"name":"아이작뉴튼","tel":"031-511-4007","addr":"경기도 남양주시 화도읍 구암리 521","category":"서적문구 - 기타서적문구"}]},{"lat":"37.683778593","long":"127.37031317","items":[{"name":"아인티오2펜션","tel":"031-594-7784","addr":"경기도 남양주시 화도읍 구암리 276-1 외2필지","category":"숙박업 - 여관/기타숙박업"}]},{"lat":"37.683723582","long":"127.37061899","items":[{"name":"아인티오펜션","tel":"031-594-7784","addr":"경기도 남양주시 화도읍 구암리 277, 263-1","category":"숙박업 - 여관/기타숙박업"},{"name":"주식회사 아인티오펜션","tel":"031-594-7784","addr":"경기도 남양주시 화도읍 구암리 277번지","category":"숙박업 - 여관/기타숙박업"}]},{"lat":"37.659561294","long":"127.37301569","items":[{"name":"양지뜰","tel":"031-592-5421","addr":"경기도 남양주시 화도읍 구암리 32번지","category":"일반휴게음식 - 일반한식"}]},{"lat":"37.660498939","long":"127.36992642","items":[{"name":"언니'S J&H","tel":"031-511-5283","addr":"경기도 남양주시 화도읍 구암리 63-4번지 1층","category":"일반휴게음식 - 일반한식"}]},{"lat":"37.664526807","long":"127.36390541","items":[{"name":"오! 헬로 (O! hello)","tel":"","addr":"경기도 남양주시 화도읍 구암리 395-11번지 1층","category":"일반휴게음식 - 서양음식"}]},{"lat":"37.658117496","long":"127.37373381","items":[{"name":"오동나무 수상레져","tel":"031-595-7642","addr":"경기도 남양주시 화도읍 구암리 21-1번지","category":"레저업소 - 기타레져업소"}]},{"lat":"37.660416442","long":"127.37037934","items":[{"name":"옥천가든","tel":"","addr":"경기도 남양주시 화도읍 구암리 71-4번지","category":"일반휴게음식 - 일반한식"}]},{"lat":"37.668526872","long":"127.3669057","items":[{"name":"정진크레이티브","tel":"031-511-2550","addr":"경기도 남양주시 화도읍 구암리 381-8","category":"가구 - 기타가구"}]},{"lat":"37.663167551","long":"127.36351349","items":[{"name":"제일전기조명","tel":"031-553-4766","addr":"경기도 남양주시 화도읍 구암리 464-5","category":"건축자재 - 조명기구"}]},{"lat":"37.662614724","long":"127.37040151","items":[{"name":"주식회사 마코이십오","tel":"02-1644-4138","addr":"경기도 남양주시 화도읍 구암리 67-6번지","category":"용역 서비스 - 종합용역"}]},{"lat":"37.681111744","long":"127.36448456","items":[{"name":"주식회사 아이앤퍼블릭","tel":"02-6952-3352","addr":"경기도 남양주시 화도읍 구암리 305번지 2층","category":"용역 서비스 - 사무서비스"},{"name":"주식회사 피엠파크","tel":"070-8984-3613","addr":"경기도 남양주시 화도읍 구암리 305번지 1층","category":"문화.취미 - 애완동물"}]},{"lat":"37.673804801","long":"127.37610155","items":[{"name":"주식회사 자유레저","tel":"031-592-8900","addr":"경기도 남양주시 화도읍 구암리 6-5","category":"레저업소 - 기타레져업소"}]},{"lat":"37.673310248","long":"127.37579303","items":[{"name":"카페휴","tel":"031-559-7488","addr":"경기도 남양주시 화도읍 구암리 6-8번지","category":"일반휴게음식 - 서양음식"}]},{"lat":"37.664165057","long":"127.36139894","items":[{"name":"클럽아카","tel":"031-577-0904","addr":"경기도 남양주시 화도읍 구암리 473-7","category":"일반휴게음식 - 서양음식"}]},{"lat":"37.661973088","long":"127.36520771","items":[{"name":"키친에이드","tel":"031-1644-7480","addr":"경기도 남양주시 화도읍 구암리 429-1번지","category":"전기제품 - 가전제품"}]},{"lat":"37.657780254","long":"127.37210023","items":[{"name":"토방사랑","tel":"031-592-1145","addr":"경기도 남양주시 화도읍 구암리 39-8번지","category":"일반휴게음식 - 일반한식"}]},{"lat":"37.663490021","long":"127.36412706","items":[{"name":"포포주 구리 남양주","tel":"","addr":"경기도 남양주시 화도읍 구암리 413번지 대원쉐르빌 나동 401호","category":"학원 - 기타 교육기관"}]},{"lat":"37.67158297","long":"127.37497962","items":[{"name":"화도왕오리","tel":"","addr":"경기도 남양주시 화도읍 구암리 11-4번지","category":"일반휴게음식 - 일반한식"}]},{"lat":"37.663839094","long":"127.36193005","items":[{"name":"휠사이드","tel":"031-591-4020","addr":"경기도 남양주시 화도읍 구암리 470번지","category":"숙박업 - 여관/기타숙박업"}]}]