[{"lat":"37.420063327","long":"127.73148452","items":[{"name":"B&H Trade","tel":"031-774-2596","addr":"경기도 양평군 양동면 쌍학리 702번지","category":"음료식품 - 기타음료식품"}]},{"lat":"37.418931276","long":"127.75400977","items":[{"name":"CAPO대리점","tel":"031-773-1155","addr":"경기도 양평군 양동면 쌍학리 184-6번지 1/1","category":"레져용품 - 스포츠·레져용품"},{"name":"황진이","tel":"031-774-9801","addr":"경기도 양평군 양동면 쌍학리 184-6번지","category":"일반휴게음식 - 주점"}]},{"lat":"37.415591271","long":"127.75359236","items":[{"name":"고센건강원","tel":"031-773-1624","addr":"경기도 양평군 양동면 쌍학리 155-9번지 1층","category":"건강식품 - 기타건강식품"},{"name":"양동당구장","tel":"031-772-9946","addr":"경기도 양평군 양동면 쌍학리 155-9번지 2층","category":"레저업소 - 당 구 장"}]},{"lat":"37.418014372","long":"127.75509635","items":[{"name":"공주식당","tel":"031-773-1458","addr":"경기도 양평군 양동면 쌍학리 184-28","category":"일반휴게음식 - 일반한식"}]},{"lat":"37.42295123","long":"127.75234409","items":[{"name":"구제하우스","tel":"031-775-3296","addr":"경기도 양평군 양동면 쌍학리 247-12번지","category":"의류 - 정장"},{"name":"주식회사 댓와인","tel":"031-792-7390","addr":"경기도 양평군 양동면 쌍학리 247-12번지 1층 2호","category":"음료식품 - 주류 판매점"},{"name":"행복슈퍼","tel":"031-774-9901","addr":"경기도 양평군 양동면 쌍학리 247-12번지 1층 5호","category":"유통업 영리 - 슈퍼마켓"}]},{"lat":"37.419868815","long":"127.75392876","items":[{"name":"금성커피숍","tel":"055-832-5346","addr":"경기도 양평군 양동면 쌍학리 179-8번지","category":"일반휴게음식 - 서양음식"},{"name":"씨유양평양동점","tel":"031-773-8438","addr":"경기도 양평군 양동면 쌍학리 179-8번지","category":"유통업 영리 - 편 의 점"}]},{"lat":"37.419484572","long":"127.75342788","items":[{"name":"김성환베이커리","tel":"031-773-8322","addr":"경기도 양평군 양동면 쌍학리 178-7번지 1층","category":"음료식품 - 제과점"}]},{"lat":"37.420203737","long":"127.75368359","items":[{"name":"단골한식당","tel":"031-773-1053","addr":"경기도 양평군 양동면 쌍학리 179-4번지 1층 단골한식당","category":"일반휴게음식 - 일반한식"}]},{"lat":"37.412759126","long":"127.75407239","items":[{"name":"도도까페 (DoDo Cafe)","tel":"","addr":"경기도 양평군 양동면 쌍학리 96-10번지","category":"일반휴게음식 - 서양음식"}]},{"lat":"37.416154479","long":"127.75428703","items":[{"name":"동양농기계양평대리점","tel":"031-771-8685","addr":"경기도 양평군 양동면 쌍학리 164-4번지","category":"기타 - 기계공구"}]},{"lat":"37.419734178","long":"127.75384834","items":[{"name":"드림카페","tel":"031-774-8466","addr":"경기도 양평군 양동면 쌍학리 179-19번지","category":"일반휴게음식 - 서양음식"},{"name":"양성양꼬치","tel":"031-774-7898","addr":"경기도 양평군 양동면 쌍학리 179-19번지","category":"일반휴게음식 - 일반한식"}]},{"lat":"37.420785708","long":"127.75284215","items":[{"name":"또와종묘사","tel":"031-773-2111","addr":"경기도 양평군 양동면 쌍학리 236-7번지","category":"농업 - 비료,사료,종자"}]},{"lat":"37.421895998","long":"127.75251432","items":[{"name":"리더스간현 주식회사","tel":"","addr":"경기도 양평군 양동면 쌍학리 237-7번지","category":"음료식품 - 농·축·수산품"}]},{"lat":"37.419451373","long":"127.75439904","items":[{"name":"마당골","tel":"031-774-4802","addr":"경기도 양평군 양동면 쌍학리 180-16번지","category":"일반휴게음식 - 일반한식"}]},{"lat":"37.420285035","long":"127.75365051","items":[{"name":"맛나식당","tel":"031-773-1213","addr":"경기도 양평군 양동면 쌍학리 179-1번지 1층","category":"일반휴게음식 - 일반한식"}]},{"lat":"37.416648727","long":"127.753072","items":[{"name":"맛있다 쭈꾸미","tel":"031-772-1154","addr":"경기도 양평군 양동면 쌍학리 171-2번지","category":"일반휴게음식 - 일반한식"}]},{"lat":"37.418285226","long":"127.75500869","items":[{"name":"미영헤어샵","tel":"031-771-1397","addr":"경기도 양평군 양동면 쌍학리 184-7번지","category":"보건위생 - 미용원"},{"name":"행복한식당","tel":"031-771-1882","addr":"경기도 양평군 양동면 쌍학리 184-7번지 1층","category":"일반휴게음식 - 일반한식"}]},{"lat":"37.416481612","long":"127.75384976","items":[{"name":"민지감자탕","tel":"031-771-1397","addr":"경기도 양평군 양동면 쌍학리 156-1번지","category":"일반휴게음식 - 일반한식"}]},{"lat":"37.419759124","long":"127.75417619","items":[{"name":"변경희리본헤어","tel":"031-773-4480","addr":"경기도 양평군 양동면 쌍학리 180-5번지","category":"보건위생 - 미용원"},{"name":"오작교족발","tel":"031-773-3750","addr":"경기도 양평군 양동면 쌍학리 180-5번지","category":"일반휴게음식 - 일반한식"},{"name":"장미노래연습장","tel":"031-773-1043","addr":"경기도 양평군 양동면 쌍학리 180-5번지","category":"레저업소 - 노 래 방"}]},{"lat":"37.419593544","long":"127.75329341","items":[{"name":"별다방","tel":"031-771-1001","addr":"경기도 양평군 양동면 쌍학리 178-15번지 1층","category":"일반휴게음식 - 일반한식"}]},{"lat":"37.410174347","long":"127.75106469","items":[{"name":"보성건재","tel":"031-773-1456","addr":"경기도 양평군 양동면 쌍학리 329-1번지","category":"건축자재 - 기타건축자재"}]},{"lat":"37.413402588","long":"127.75348015","items":[{"name":"산삼촌관광농원","tel":"031-000-0000","addr":"경기도 양평군 양동면 쌍학리 145-5번지","category":"건강식품 - 인삼제품"}]},{"lat":"37.417594984","long":"127.75587159","items":[{"name":"스타노래연습장","tel":"031-771-0161","addr":"경기도 양평군 양동면 쌍학리 198-3번지","category":"레저업소 - 노 래 방"},{"name":"씨네버스","tel":"031-773-5805","addr":"경기도 양평군 양동면 쌍학리 198-3번지 201호","category":"일반휴게음식 - 일반한식"},{"name":"현경노래연습장","tel":"031-771-9964","addr":"경기도 양평군 양동면 쌍학리 198-3","category":"레저업소 - 노 래 방"}]},{"lat":"37.420095267","long":"127.75373898","items":[{"name":"시골만두집","tel":"031-775-1838","addr":"경기도 양평군 양동면 쌍학리 179-5번지","category":"일반휴게음식 - 일반한식"},{"name":"정숙자헤어콜렉션","tel":"031-775-0763","addr":"경기도 양평군 양동면 쌍학리 179-5번지","category":"보건위생 - 미용원"}]},{"lat":"37.419203707","long":"127.7536736","items":[{"name":"쌍학반점","tel":"031-775-3624","addr":"경기도 양평군 양동면 쌍학리 178-9번지","category":"일반휴게음식 - 일반한식"}]},{"lat":"37.419760154","long":"127.7525947","items":[{"name":"애경헤어숍","tel":"031-772-1038","addr":"경기도 양평군 양동면 쌍학리 176번지","category":"보건위생 - 미용원"},{"name":"양동건재","tel":"031-774-2344","addr":"경기도 양평군 양동면 쌍학리 176","category":"건축자재 - 기타건축자재"}]},{"lat":"37.421732471","long":"127.75556281","items":[{"name":"양동고등학교","tel":"031-703-1032","addr":"경기도 양평군 양동면 쌍학리 218-1번지","category":"학원 - 초중고교육기관"}]},{"lat":"37.417207945","long":"127.75581123","items":[{"name":"양동농업협동조합","tel":"031-773-1394","addr":"경기도 양평군 양동면 쌍학리 185-9번지","category":"유통업 비영리 - 농,축협 직영매장"},{"name":"양동농협하나로마트","tel":"031-773-1395","addr":"경기도 양평군 양동면 쌍학리 185-9번지 양동농협","category":"유통업 비영리 - 농,축협 직영매장"}]},{"lat":"37.417871302","long":"127.75492547","items":[{"name":"양동농업협동조합경제부","tel":"031-773-1395","addr":"경기도 양평군 양동면 쌍학리 184-10번지","category":"농업 - 기타농업관련"}]},{"lat":"37.419373663","long":"127.75386734","items":[{"name":"양동농원","tel":"031-774-2556","addr":"경기도 양평군 양동면 쌍학리 180-21번지","category":"농업 - 비료,사료,종자"}]},{"lat":"37.404792571","long":"127.74723891","items":[{"name":"양동농협주유소","tel":"031-772-9111","addr":"경기도 양평군 양동면 쌍학리 425-1번지","category":"연료판매점 - 주유소"}]},{"lat":"37.41933985","long":"127.75351681","items":[{"name":"양동방아간","tel":"031-773-1054","addr":"경기도 양평군 양동면 쌍학리 178-8번지","category":"음료식품 - 제과점"}]},{"lat":"37.412761422","long":"127.75371096","items":[{"name":"양동샷시유리","tel":"031-771-5333","addr":"경기도 양평군 양동면 쌍학리 95-1번지","category":"건축자재 - 보일러·펌프·샷시"}]},{"lat":"37.419481057","long":"127.75398137","items":[{"name":"양동수제돈까스","tel":"031-775-3301","addr":"경기도 양평군 양동면 쌍학리 180-13번지 1층 양동수제돈까스","category":"일반휴게음식 - 일반한식"}]},{"lat":"37.419903775","long":"127.75409856","items":[{"name":"양동순대","tel":"000-000-0000","addr":"경기도 양평군 양동면 쌍학리 180-4번지","category":"일반휴게음식 - 일반한식"}]},{"lat":"37.417397573","long":"127.75856938","items":[{"name":"양동어린이집[아이행복]","tel":"031-773-1521","addr":"경기도 양평군 양동면 쌍학리 18-1번지","category":"학원 - 유아원"}]},{"lat":"37.420042861","long":"127.75347864","items":[{"name":"양동열린약국","tel":"031-771-8736","addr":"경기도 양평군 양동면 쌍학리 227-10","category":"약국 - 약국"}]},{"lat":"37.420259944","long":"127.75334525","items":[{"name":"양동의원","tel":"031-774-2646","addr":"경기도 양평군 양동면 쌍학리 227-8번지","category":"의원 - 의원"}]},{"lat":"37.417704534","long":"127.75564676","items":[{"name":"양동종합지물","tel":"031-771-1555","addr":"경기도 양평군 양동면 쌍학리 198-5번지","category":"직물 - 카페트,커튼,천막,지물"},{"name":"휴대폰할인매장","tel":"031-774-6799","addr":"경기도 양평군 양동면 쌍학리 198-5번지 1층","category":"사무통신 - 통신기기"}]},{"lat":"37.417896748","long":"127.75517424","items":[{"name":"양동주유소","tel":"031-773-1146","addr":"경기도 양평군 양동면 쌍학리 184-29번지","category":"연료판매점 - SK주유소"}]},{"lat":"37.411929052","long":"127.75425612","items":[{"name":"양동천우","tel":"031-771-5229","addr":"경기도 양평군 양동면 쌍학리 97번지","category":"건축자재 - 목재·석재·철물"}]},{"lat":"37.416175632","long":"127.75803749","items":[{"name":"양동카센타","tel":"031-771-8075","addr":"경기도 양평군 양동면 쌍학리 25-3번지","category":"자동차정비 유지 - 자동차정비"}]},{"lat":"37.416763183","long":"127.7577384","items":[{"name":"양동큰대문집","tel":"031-773-1208","addr":"경기도 양평군 양동면 쌍학리 20-11번지","category":"일반휴게음식 - 일반한식"}]},{"lat":"37.421119409","long":"127.75278899","items":[{"name":"양동한의원","tel":"031-775-7758","addr":"경기도 양평군 양동면 쌍학리 236-12번지 2층","category":"의원 - 한의원"}]},{"lat":"37.418174598","long":"127.75540295","items":[{"name":"역전방앗간","tel":"031-773-1123","addr":"경기도 양평군 양동면 쌍학리 184번지","category":"음료식품 - 기타음료식품"}]},{"lat":"37.418820508","long":"127.75442663","items":[{"name":"영신포차","tel":"031-773-1832","addr":"경기도 양평군 양동면 쌍학리 751-2번지 1층","category":"일반휴게음식 - 일반한식"}]},{"lat":"37.413650974","long":"127.75409259","items":[{"name":"예건","tel":"031-774-0423","addr":"경기도 양평군 양동면 쌍학리 144-3번지","category":"건축자재 - 인테리어전문"},{"name":"하림한식뷔페냉면","tel":"031-774-6878","addr":"경기도 양평군 양동면 쌍학리 144-3번지 1층","category":"일반휴게음식 - 일반한식"}]},{"lat":"37.418400405","long":"127.75531484","items":[{"name":"올바른푸드","tel":"01-2102-5839","addr":"경기도 양평군 양동면 쌍학리 205-7번지 1층","category":"건강식품 - 기타건강식품"}]},{"lat":"37.419646954","long":"127.75339562","items":[{"name":"왕대박집","tel":"070-9765-4852","addr":"경기도 양평군 양동면 쌍학리 178-4번지","category":"일반휴게음식 - 일반한식"}]},{"lat":"37.411952522","long":"127.75339791","items":[{"name":"원영자동차공업사","tel":"031-771-9277","addr":"경기도 양평군 양동면 쌍학리 95-12","category":"수리서비스 - 기타수리서비스"}]},{"lat":"37.420619813","long":"127.75342792","items":[{"name":"자매소주방","tel":"031-771-9402","addr":"경기도 양평군 양동면 쌍학리 225-10번지 1층","category":"일반휴게음식 - 일반한식"},{"name":"페리카나","tel":"031-771-9945","addr":"경기도 양평군 양동면 쌍학리 225-10번지","category":"일반휴게음식 - 스넥"}]},{"lat":"37.418095278","long":"127.75370772","items":[{"name":"장수식당","tel":"031-773-1042","addr":"경기도 양평군 양동면 쌍학리 184-74번지","category":"일반휴게음식 - 일반한식"}]},{"lat":"37.420284174","long":"127.75378606","items":[{"name":"제일할인마트","tel":"031-773-1026","addr":"경기도 양평군 양동면 쌍학리 213-4","category":"유통업 영리 - 슈퍼마켓"}]},{"lat":"37.403764601","long":"127.74162688","items":[{"name":"주식회사 더시크릿(양평지점)","tel":"031-774-3030","addr":"경기도 양평군 양동면 쌍학리 435-5번지 2층","category":"음료식품 - 기타음료식품"}]},{"lat":"37.419486006","long":"127.75320197","items":[{"name":"주식회사댓와인","tel":"031-792-7390","addr":"경기도 양평군 양동면 쌍학리 176-3번지","category":"음료식품 - 주류 판매점"}]},{"lat":"37.418396139","long":"127.75456924","items":[{"name":"카페엠","tel":"031-772-2944","addr":"경기도 양평군 양동면 쌍학리 184-30번지","category":"일반휴게음식 - 서양음식"}]},{"lat":"37.416903859","long":"127.75545801","items":[{"name":"투다리양동점","tel":"033-771-7810","addr":"경기도 양평군 양동면 쌍학리 185-11번지","category":"일반휴게음식 - 주점"}]},{"lat":"37.420123227","long":"127.75359241","items":[{"name":"한영할인마트","tel":"031-773-1068","addr":"경기도 양평군 양동면 쌍학리 227-5번지 1층","category":"유통업 영리 - 슈퍼마켓"}]},{"lat":"37.416813981","long":"127.75542322","items":[{"name":"홍가네","tel":"031-774-5927","addr":"경기도 양평군 양동면 쌍학리 185-22번지","category":"일반휴게음식 - 일반한식"}]}]