[{"lat":"37.116820758","long":"127.43732614","items":[{"name":"NＢ　ＦＥＥＤ","tel":"031-677-6482","addr":"경기도 안성시 일죽면 고은리 1175-2","category":"농업 - 비료,사료,종자"}]},{"lat":"37.115290213","long":"127.43944388","items":[{"name":"가스뱅크주식회사","tel":"031-673-9953","addr":"경기도 안성시 일죽면 고은리 605-7번지","category":"연료판매점 - LPG 취급점"}]},{"lat":"37.107956727","long":"127.43916553","items":[{"name":"명성산업","tel":"031-674-1178","addr":"경기도 안성시 일죽면 고은리 806-5번지","category":"건축자재 - 인테리어전문"}]},{"lat":"37.111457441","long":"127.43046633","items":[{"name":"미관","tel":"031-671-8553","addr":"경기도 안성시 일죽면 고은리 1040-4번지","category":"일반휴게음식 - 일반한식"}]},{"lat":"37.116514285","long":"127.43735814","items":[{"name":"서림카","tel":"031-673-8758","addr":"경기도 안성시 일죽면 고은리 620번지","category":"자동차정비 유지 - 자동차시트·타이어"}]},{"lat":"37.134679783","long":"127.44696045","items":[{"name":"순스 스테이블 (Soon' stable)","tel":"031-243-7767","addr":"경기도 안성시 일죽면 고은리 47-5번지 하노버승마장","category":"용역 서비스 - 종합용역"},{"name":"주식회사 쇼타임","tel":"031-243-7767","addr":"경기도 안성시 일죽면 고은리 47-5번지 1층","category":"레져용품 - 스포츠·레져용품"}]},{"lat":"37.119934096","long":"127.43849162","items":[{"name":"승마훈련원금안회","tel":"031-322-7088","addr":"경기도 안성시 일죽면 고은리 1173-7,8,9,10","category":"레저업소 - 기타레져업소"}]},{"lat":"37.10859463","long":"127.44694312","items":[{"name":"찬푸드","tel":"","addr":"경기도 안성시 일죽면 고은리 856번지","category":"일반휴게음식 - 위탁급식업"}]},{"lat":"37.123342892","long":"127.44016526","items":[{"name":"천하제일축우대리점","tel":"031-322-2324","addr":"경기도 안성시 일죽면 고은리 456-4 5/2","category":"문화.취미 - 애완동물"}]},{"lat":"37.137265242","long":"127.4446909","items":[{"name":"하노버승마장/목장","tel":"031-672-4746","addr":"경기도 안성시 일죽면 고은리 53-20, 53-21, 47-5","category":"레저업소 - 기타레져업소"}]},{"lat":"37.11642832","long":"127.43868531","items":[{"name":"하늘에너지","tel":"031-672-1916","addr":"경기도 안성시 일죽면 고은리 614-2","category":"연료판매점 - LPG 취급점"}]},{"lat":"37.108515281","long":"127.43919124","items":[{"name":"훈공방","tel":"031-672-4691","addr":"경기도 안성시 일죽면 고은리 786번지","category":"레져용품 - 스포츠·레져용품"}]}]