[{"lat":"37.01771192","long":"127.03467128","items":[{"name":"GS25고덕태평점","tel":"","addr":"경기도 평택시 고덕면 궁리 72-1번지 A동","category":"유통업 영리 - 편 의 점"},{"name":"비비큐태평점","tel":"031-668-1166","addr":"경기도 평택시 고덕면 궁리 72-1번지 외1필지","category":"일반휴게음식 - 스넥"},{"name":"포항이모네","tel":"031-662-8892","addr":"경기도 평택시 고덕면 궁리 72-1번지 A동","category":"일반휴게음식 - 일반한식"}]},{"lat":"37.016486732","long":"127.0336707","items":[{"name":"GnB영어학원","tel":"031-665-5982","addr":"경기도 평택시 고덕면 궁리 75번지 태평 상가 404호","category":"학원 - 보습학원"},{"name":"GnB영어학원","tel":"031-611-3069","addr":"경기도 평택시 고덕면 궁리 75번지 태평 상가 404호","category":"서비스업 - 교육"},{"name":"가자선물","tel":"031-667-5211","addr":"경기도 평택시 고덕면 궁리 75번지 태평아파트 상가동 309호","category":"회원제형태 - 기타4"},{"name":"가자선물코너","tel":"031-667-5211","addr":"경기도 평택시 고덕면 궁리 75번지 태평 상가 210호","category":"보건위생 - 화장품"},{"name":"과일나라","tel":"031-611-3966","addr":"경기도 평택시 고덕면 궁리 75번지 태평아파트 202호","category":"도소매업 - 과일"},{"name":"그림뜰미술학원","tel":"","addr":"경기도 평택시 고덕면 궁리 75번지 태평아파트 407호","category":"서비스업 - 교육"},{"name":"김밥천국","tel":"031-664-6903","addr":"경기도 평택시 고덕면 궁리 75번지 태평아파트 113호","category":"음식점 - 분식"},{"name":"꼬지꼬지","tel":"031-000-0000","addr":"경기도 평택시 고덕면 궁리 75번지 태평 상가 219호","category":"일반휴게음식 - 주점"},{"name":"대륙세탁소","tel":"031-662-8089","addr":"경기도 평택시 고덕면 궁리 75번지 태평 상가 319호","category":"수리서비스 - 세탁소"},{"name":"도니와포차","tel":"031-667-0116","addr":"경기도 평택시 고덕면 궁리 75번지 태평아파트 103호","category":"음식점 - 한식"},{"name":"뚜레쥬르 평택고덕","tel":"031-667-0921","addr":"경기도 평택시 고덕면 궁리 75번지 태평 상가 112호","category":"음료식품 - 제과점"},{"name":"만나 분식","tel":"","addr":"경기도 평택시 고덕면 궁리 75번지 태평아파트 117호","category":"음식점 - 분식"},{"name":"먹골촌순대국밥","tel":"031-667-9220","addr":"경기도 평택시 고덕면 궁리 75번지 태평 상가 1층 121호","category":"일반휴게음식 - 일반한식"},{"name":"서울음악학원","tel":"031-663-1748","addr":"경기도 평택시 고덕면 궁리 75번지 태평 상가 406호","category":"학원 - 예·체능계학원"},{"name":"야외 스케치 미술학원","tel":"","addr":"경기도 평택시 고덕면 궁리 75번지 태평아파트 502호","category":"서비스업 - 교육"},{"name":"엔터스카이 학원","tel":"031-665-2290","addr":"경기도 평택시 고덕면 궁리 75번지 태평아파트 507호","category":"서비스업 - 교육"},{"name":"이쁘니 옷장","tel":"","addr":"경기도 평택시 고덕면 궁리 75번지 태평아파트 118호","category":"소매업 - 의류"},{"name":"이훈헤어칼라","tel":"031-667-3076","addr":"경기도 평택시 고덕면 궁리 75번지 태평아파트 124호","category":"서비스업 - 이미용"},{"name":"컴이랑","tel":"031-658-9934","addr":"경기도 평택시 고덕면 궁리 75번지 태평 상가 126호","category":"사무통신 - 컴퓨터"},{"name":"태평마트","tel":"031-611-1101","addr":"경기도 평택시 고덕면 궁리 75번지 태평아파트","category":"소매업 - 식품, 잡화"},{"name":"태평문구완구","tel":"","addr":"경기도 평택시 고덕면 궁리 75번지 태평아파트 114호","category":"소매업 - 문구,완구"},{"name":"태평성심의원","tel":"031-668-0249","addr":"경기도 평택시 고덕면 궁리 75번지 태평아파트 215호","category":"서비스업 - 병원"},{"name":"태평세탁소","tel":"031-668-4889","addr":"경기도 평택시 고덕면 궁리 75번지 태평아파트 122호","category":"서비스업 - 세탁"},{"name":"태평수닭갈비&부대찌개","tel":"070-4151-2290","addr":"경기도 평택시 고덕면 궁리 75번지 태평아파트 1층 127호","category":"일반휴게음식 - 일반한식"},{"name":"태평수닭갈비&부대찌개","tel":"031-611-3383","addr":"경기도 평택시 고덕면 궁리 75번지 태평아파트 127호","category":"음식점 - 한식"},{"name":"태평약국","tel":"031-664-2779","addr":"경기도 평택시 고덕면 궁리 75번지 태평아파트 218호","category":"소매업 - 약국"},{"name":"태평정육점","tel":"031-662-5557","addr":"경기도 평택시 고덕면 궁리 75번지 태평상가지하공판장","category":"음료식품 - 정육점"},{"name":"태평정육점","tel":"031-655-6212","addr":"경기도 평택시 고덕면 궁리 75번지 태평아파트","category":"소매업 - 정육"},{"name":"태후사랑","tel":"031-611-5915","addr":"경기도 평택시 고덕면 궁리 75번지 태평 상가 3층 322호","category":"보건위생 - 화장품"},{"name":"투투미용실","tel":"","addr":"경기도 평택시 고덕면 궁리 75번지 태평아파트","category":"서비스업 - 이미용"},{"name":"평송 돌삼겹","tel":"031-662-5557","addr":"경기도 평택시 고덕면 궁리 75번지 태평아파트 211호","category":"음식점 - 한식"},{"name":"평송정육점","tel":"","addr":"경기도 평택시 고덕면 궁리 75번지 태평아파트 201호","category":"소매업 - 정육"},{"name":"평송정육점","tel":"031-668-0249","addr":"경기도 평택시 고덕면 궁리 75번지 태평 상가 201호","category":"음료식품 - 정육점"},{"name":"한끼니","tel":"031-662-3656","addr":"경기도 평택시 고덕면 궁리 75번지 태평 상가 105호","category":"일반휴게음식 - 일반한식"},{"name":"효덕신화태권도장","tel":"031-667-4006","addr":"경기도 평택시 고덕면 궁리 75번지 태평 상가 4층 403호","category":"학원 - 예·체능계학원"},{"name":"효덕신화태권도장","tel":"031-665-5982","addr":"경기도 평택시 고덕면 궁리 75번지 태평 상가 403호","category":"서비스업 - 교육"},{"name":"훼미리푸드","tel":"031-611-2239","addr":"경기도 평택시 고덕면 궁리 75번지 태평상가 222호","category":"일반휴게음식 - 일반한식"},{"name":"훼미리푸드","tel":"031-611-1101","addr":"경기도 평택시 고덕면 궁리 75번지 태평 상가 222호","category":"음식점 - 한식"}]},{"lat":"37.01810019","long":"127.03148014","items":[{"name":"K노래연습장","tel":"031-668-8940","addr":"경기도 평택시 고덕면 궁리 200-1번지 가동 2층","category":"레저업소 - 노 래 방"},{"name":"궁리맥주","tel":"","addr":"경기도 평택시 고덕면 궁리 200-1번지 나동 1층","category":"일반휴게음식 - 일반한식"},{"name":"궁리토종닭백숙","tel":"031-662-3877","addr":"경기도 평택시 고덕면 궁리 200-1번지 가동 1층","category":"일반휴게음식 - 일반한식"},{"name":"궁리토종닭백숙","tel":"031-664-0012","addr":"경기도 평택시 고덕면 궁리 200-1번지 가동 1층","category":"음식점 - 한식"},{"name":"한상","tel":"031-611-0071","addr":"경기도 평택시 고덕면 궁리 200-1번지","category":"음식점 - 중식"}]},{"lat":"37.011632786","long":"127.01964617","items":[{"name":"㈜소풍","tel":"031-658-5007","addr":"경기도 평택시 고덕면 궁리 424-39번지","category":"도소매업 - 자동판매기"},{"name":"주식회사소풍","tel":"031-111-1111","addr":"경기도 평택시 고덕면 궁리 424-39번지 1층","category":"음료식품 - 기타음료식품"}]},{"lat":"37.016018652","long":"127.03178275","items":[{"name":"고궁당구클럽","tel":"070-4246-5959","addr":"경기도 평택시 고덕면 궁리 82-1번지 천강빌딩 3층 301호","category":"레저업소 - 당 구 장"},{"name":"동행노래연습장","tel":"031-664-9808","addr":"경기도 평택시 고덕면 궁리 82-1번지","category":"레저업소 - 노 래 방"},{"name":"배다리감자탕 (고덕분점)","tel":"031-667-1008","addr":"경기도 평택시 고덕면 궁리 82-1번지 106호","category":"일반휴게음식 - 일반한식"},{"name":"배다리감자탕(고덕분점)","tel":"031-665-5569","addr":"경기도 평택시 고덕면 궁리 82-1번지 106호","category":"음식점 - 한식"},{"name":"수요가","tel":"031-664-9972","addr":"경기도 평택시 고덕면 궁리 82-1번지 천강빌딩 3층,5,6호","category":"레저업소 - 헬스클럽"},{"name":"정가네 축산","tel":"070-4064-1226","addr":"경기도 평택시 고덕면 궁리 82-1번지 104호","category":"음료식품 - 정육점"},{"name":"정가네축산","tel":"031-652-7077","addr":"경기도 평택시 고덕면 궁리 82-1번지 104호","category":"소매업 - 정육"},{"name":"커피상점","tel":"031-653-8940","addr":"경기도 평택시 고덕면 궁리 82-1번지 1동 102호","category":"일반휴게음식 - 서양음식"}]},{"lat":"37.016045749","long":"127.03151308","items":[{"name":"광어9900","tel":"031-611-1249","addr":"경기도 평택시 고덕면 궁리 84-12번지","category":"음식점 - 횟집"},{"name":"광어9900","tel":"031-611-1722","addr":"경기도 평택시 고덕면 궁리 84-12번지","category":"일반휴게음식 - 일식·회집"}]},{"lat":"37.017850051","long":"127.02034423","items":[{"name":"궁안교쉼터매점","tel":"031-664-5867","addr":"경기도 평택시 고덕면 궁리 396","category":"음료식품 - 기타음료식품"}]},{"lat":"37.018541918","long":"127.03061505","items":[{"name":"김고집 정육점","tel":"031-611-3232","addr":"경기도 평택시 고덕면 궁리 189-24번지","category":"음료식품 - 정육점"}]},{"lat":"37.019740105","long":"127.03159313","items":[{"name":"농가숯불갈비","tel":"031-611-0071","addr":"경기도 평택시 고덕면 궁리 213-2번지 1층","category":"일반휴게음식 - 일반한식"},{"name":"농가숯불갈비","tel":"031-662-3350","addr":"경기도 평택시 고덕면 궁리 213-2번지","category":"음식점 - 한식"}]},{"lat":"37.015660515","long":"127.01995044","items":[{"name":"뉴메틱","tel":"031-656-1625","addr":"경기도 평택시 고덕면 궁리 403-8번지","category":"주방용구 - 주방용구"}]},{"lat":"37.016965242","long":"127.02978295","items":[{"name":"다복추어탕","tel":"031-663-5453","addr":"경기도 평택시 고덕면 궁리 95-1번지","category":"음식점 - 한식"},{"name":"다복추어탕","tel":"031-668-1472","addr":"경기도 평택시 고덕면 궁리 95-1번지 1층","category":"일반휴게음식 - 일반한식"}]},{"lat":"37.019577972","long":"127.03134585","items":[{"name":"만남","tel":"031-662-3350","addr":"경기도 평택시 고덕면 궁리 213-5번지","category":"일반휴게음식 - 주점"},{"name":"만남 호프","tel":"031-663-1985","addr":"경기도 평택시 고덕면 궁리 213-5번지","category":"음식점 - 호프"},{"name":"영화공인중개사사무소","tel":"031-664-4966","addr":"경기도 평택시 고덕면 궁리 213-5번지","category":"음료식품 - 기타음료식품"},{"name":"정석통바베큐족구이 고덕본점","tel":"031-684-1597","addr":"경기도 평택시 고덕면 궁리 213-5번지","category":"음식점 - 한식"},{"name":"정석통바베큐족구이고덕본점","tel":"031-663-1230","addr":"경기도 평택시 고덕면 궁리 213-5번지 가동","category":"일반휴게음식 - 일반한식"}]},{"lat":"37.018244516","long":"127.03082845","items":[{"name":"모든누수탐지하수구","tel":"031-665-1935","addr":"경기도 평택시 고덕면 궁리 193-8번지 도시연립 A동 301호","category":"용역 서비스 - 기타용역서비스"}]},{"lat":"37.013209571","long":"127.0202308","items":[{"name":"바람새마을","tel":"031-664-3636","addr":"경기도 평택시 고덕면 궁리 505-2번지","category":"소매업 - 곡물, 채소"},{"name":"바람새마을","tel":"031-663-5453","addr":"경기도 평택시 고덕면 궁리 505-2번지 1동 1층","category":"일반휴게음식 - 일반한식"}]},{"lat":"37.021244515","long":"127.03308827","items":[{"name":"백합헤어샵","tel":"031-611-3069","addr":"경기도 평택시 고덕면 궁리 520번지 영화블렌하임 상가동 140호","category":"보건위생 - 미용원"}]},{"lat":"37.01804649","long":"127.02992942","items":[{"name":"백합헤어샵","tel":"031-611-9222","addr":"경기도 평택시 고덕면 궁리 177-12번지 1층","category":"서비스업 - 이미용"}]},{"lat":"37.017822838","long":"127.02153534","items":[{"name":"봉이김선달","tel":"031-668-8425","addr":"경기도 평택시 고덕면 궁리 392번지","category":"일반휴게음식 - 일반한식"}]},{"lat":"37.017767273","long":"127.02942366","items":[{"name":"샤샤살롱","tel":"","addr":"경기도 평택시 고덕면 궁리 175-5번지 102호","category":"문화.취미 - 애완동물"}]},{"lat":"37.017930855","long":"127.02223205","items":[{"name":"소흔의꽃사랑이야기","tel":"031-651-3872","addr":"경기도 평택시 고덕면 궁리 355-1","category":"문화.취미 - 화원"}]},{"lat":"37.016217176","long":"127.03056926","items":[{"name":"수미정","tel":"031-668-5301","addr":"경기도 평택시 고덕면 궁리 101-1번지","category":"일반휴게음식 - 중국식"}]},{"lat":"37.016126971","long":"127.03098499","items":[{"name":"양미란가든앤플라워","tel":"031-611-1475","addr":"경기도 평택시 고덕면 궁리 85-8","category":"문화.취미 - 화원"},{"name":"양미란가든앤플라워","tel":"","addr":"경기도 평택시 고덕면 궁리 85-8번지","category":"소매업 - 꽃집"},{"name":"짬뽕나무","tel":"031-611-1722","addr":"경기도 평택시 고덕면 궁리 85-8번지","category":"음식점 - 중식"},{"name":"짬뽕나무(태평각)","tel":"031-663-8480","addr":"경기도 평택시 고덕면 궁리 85-8번지","category":"일반휴게음식 - 중국식"}]},{"lat":"37.016876832","long":"127.02079348","items":[{"name":"에어포스","tel":"031-353-8704","addr":"경기도 평택시 고덕면 궁리 403-13번지","category":"전기제품 - 가전제품"}]},{"lat":"37.021855637","long":"127.03884214","items":[{"name":"오로지백반","tel":"","addr":"경기도 평택시 고덕면 궁리 34-4번지","category":"일반휴게음식 - 일반한식"}]},{"lat":"37.017911363","long":"127.02978329","items":[{"name":"우리집 인테리어","tel":"031-664-1043","addr":"경기도 평택시 고덕면 궁리 177-13번지 102호","category":"직물 - 카페트,커튼,천막,지물"}]},{"lat":"37.015379676","long":"127.02836659","items":[{"name":"윤 씽크가구","tel":"031-658-5819","addr":"경기도 평택시 고덕면 궁리 517-11번지","category":"주방용구 - 주방용구"}]},{"lat":"37.017687912","long":"127.01998461","items":[{"name":"이마트24 평택궁리점","tel":"","addr":"경기도 평택시 고덕면 궁리 398-1번지","category":"유통업 영리 - 편 의 점"},{"name":"이마트24 평택궁리점","tel":"031-000-0000","addr":"경기도 평택시 고덕면 궁리 398-1번지","category":"유통업 영리 - 편 의 점"}]},{"lat":"37.016216734","long":"127.03240084","items":[{"name":"정겨운연탄구이","tel":"031-611-1249","addr":"경기도 평택시 고덕면 궁리 78-1번지 C동","category":"일반휴게음식 - 일반한식"},{"name":"정겨운연탄구이","tel":"031-611-2632","addr":"경기도 평택시 고덕면 궁리 78-1번지 C동","category":"음식점 - 일반"}]},{"lat":"37.014687338","long":"127.02011877","items":[{"name":"주식회사 헤알","tel":"","addr":"경기도 평택시 고덕면 궁리 408-11번지","category":"문화.취미 - 문화취미기타"}]},{"lat":"37.017407832","long":"127.02456919","items":[{"name":"파랑새음악학원","tel":"031-668-8851","addr":"경기도 평택시 고덕면 궁리 360-2번지","category":"학원 - 예·체능계학원"}]},{"lat":"37.016687638","long":"127.02059117","items":[{"name":"편백사랑","tel":"031-668-2565","addr":"경기도 평택시 고덕면 궁리 496번지","category":"도소매업 - 잡화"},{"name":"현대울타리휀스","tel":"070-8966-8479","addr":"경기도 평택시 고덕면 궁리 496번지","category":"건축자재 - 기타건축자재"}]},{"lat":"37.017522696","long":"127.0346712","items":[{"name":"함지박","tel":"031-664-4828","addr":"경기도 평택시 고덕면 궁리 72-5번지","category":"일반휴게음식 - 일반한식"},{"name":"황금옻닭","tel":"031-692-7441","addr":"경기도 평택시 고덕면 궁리 72-5번지 1층 2호","category":"일반휴게음식 - 일반한식"}]},{"lat":"37.016018798","long":"127.03117597","items":[{"name":"행운슈퍼","tel":"031-668-0092","addr":"경기도 평택시 고덕면 궁리 84-4번지","category":"소매업 - 슈퍼"},{"name":"행운슈퍼","tel":"031-668-8532","addr":"경기도 평택시 고덕면 궁리 84-4번지 1층","category":"유통업 영리 - 슈퍼마켓"}]}]