[{"lat":"37.856191292","long":"126.86631013","items":[{"name":"(주)모든매트","tel":"031-959-8235","addr":"경기도 파주시 법원읍 가야리 84번지","category":"신변잡화 - 기타잡화"}]},{"lat":"37.846053368","long":"126.85683068","items":[{"name":"(주)에버그린윈도우","tel":"031-958-9183","addr":"경기도 파주시 법원읍 가야리 265-8번지","category":"건축자재 - 기타건축자재"}]},{"lat":"37.860353518","long":"126.8586661","items":[{"name":"ECO한빛어린이집[아이행복]","tel":"031-9594-0245","addr":"경기도 파주시 법원읍 가야리 135-17번지","category":"학원 - 유아원"}]},{"lat":"37.851522799","long":"126.85742209","items":[{"name":"SC에너지","tel":"031-111-1111","addr":"경기도 파주시 법원읍 가야리 331-10번지","category":"연료판매점 - 유류판매"}]},{"lat":"37.851548856","long":"126.85663804","items":[{"name":"가야랜드","tel":"031-959-9100","addr":"경기도 파주시 법원읍 가야리 330-14번지","category":"보건위생 - 사우나"},{"name":"정식당","tel":"031-959-9100","addr":"경기도 파주시 법원읍 가야리 330-14번지","category":"음료식품 - 기타음료식품"}]},{"lat":"37.848388184","long":"126.85795089","items":[{"name":"가야성","tel":"031-958-7942","addr":"경기도 파주시 법원읍 가야리 315-9번지","category":"일반휴게음식 - 일반한식"},{"name":"가야성","tel":"031-958-7942","addr":"경기도 파주시 법원읍 가야리 315-9","category":"일반휴게음식 - 일반한식"}]},{"lat":"37.85035554","long":"126.86833199","items":[{"name":"가야식자재마트","tel":"031-959-9774","addr":"경기도 파주시 법원읍 가야리 54-62번지","category":"유통업 영리 - 슈퍼마켓"},{"name":"한우물 식자재 마트","tel":"031-958-8700","addr":"경기도 파주시 법원읍 가야리 54-62번지","category":"음료식품 - 정육점"}]},{"lat":"37.850056656","long":"126.85936788","items":[{"name":"갈비명가","tel":"031-958-8388","addr":"경기도 파주시 법원읍 가야리 183-1번지","category":"일반휴게음식 - 일반한식"}]},{"lat":"37.849469098","long":"126.85777835","items":[{"name":"그린월드공업사","tel":"031-958-9951","addr":"경기도 파주시 법원읍 가야리 325-6","category":"자동차정비 유지 - 자동차정비"}]},{"lat":"37.850302596","long":"126.86930922","items":[{"name":"남원추어탕","tel":"031-958-8856","addr":"경기도 파주시 법원읍 가야리 54-75","category":"일반휴게음식 - 일반한식"}]},{"lat":"37.85007669","long":"126.86871881","items":[{"name":"네네치킨","tel":"031-959-1017","addr":"경기도 파주시 법원읍 가야리 37-7번지","category":"일반휴게음식 - 스넥"}]},{"lat":"37.852135702","long":"126.85763677","items":[{"name":"대박동태전문점","tel":"031-959-8210","addr":"경기도 파주시 법원읍 가야리 333-1","category":"일반휴게음식 - 일반한식"}]},{"lat":"37.851105214","long":"126.87000087","items":[{"name":"댕기머리청과","tel":"070-4216-3258","addr":"경기도 파주시 법원읍 가야리 31-10번지","category":"음료식품 - 농·축·수산품"}]},{"lat":"37.850857643","long":"126.85867324","items":[{"name":"돌쇠","tel":"031-958-6692","addr":"경기도 파주시 법원읍 가야리 327-7번지","category":"일반휴게음식 - 일반한식"},{"name":"세븐일레븐파주가야점","tel":"031-1577-0711","addr":"경기도 파주시 법원읍 가야리 327-7번지","category":"유통업 영리 - 편 의 점"},{"name":"우리식당","tel":"031-959-0739","addr":"경기도 파주시 법원읍 가야리 327-7번지","category":"일반휴게음식 - 일반한식"}]},{"lat":"37.849778208","long":"126.8600615","items":[{"name":"동네전","tel":"031-861-0021","addr":"경기도 파주시 법원읍 가야리 182-6번지","category":"일반휴게음식 - 일반한식"},{"name":"명동왕족발","tel":"031-959-5277","addr":"경기도 파주시 법원읍 가야리 182-6번지","category":"일반휴게음식 - 일반한식"},{"name":"천연비누 공방 미나누기","tel":"031-958-2305","addr":"경기도 파주시 법원읍 가야리 182-6번지","category":"문화.취미 - 문화취미기타"}]},{"lat":"37.850417524","long":"126.86738882","items":[{"name":"동치미국수","tel":"031-959-7933","addr":"경기도 파주시 법원읍 가야리 54-8번지","category":"일반휴게음식 - 일반한식"}]},{"lat":"37.849804468","long":"126.86702636","items":[{"name":"드림모터스","tel":"031-959-9923","addr":"경기도 파주시 법원읍 가야리 376-5","category":"자동차정비 유지 - 자동차정비"}]},{"lat":"37.856466438","long":"126.87057076","items":[{"name":"명성어패럴","tel":"031-954-3327","addr":"경기도 파주시 법원읍 가야리 23번지 안산빌라","category":"의류 - 정장"}]},{"lat":"37.851024603","long":"126.87042142","items":[{"name":"믿음인테리어","tel":"031-958-2007","addr":"경기도 파주시 법원읍 가야리 35-1번지","category":"건축자재 - 인테리어전문"},{"name":"장군멍군","tel":"031-958-2623","addr":"경기도 파주시 법원읍 가야리 35-1번지","category":"일반휴게음식 - 일반한식"},{"name":"천현수도보일러","tel":"031-959-1212","addr":"경기도 파주시 법원읍 가야리 35-1번지","category":"건축자재 - 목재·석재·철물"}]},{"lat":"37.850166538","long":"126.86850276","items":[{"name":"법원자동차정비공업사","tel":"031-958-9140","addr":"경기도 파주시 법원읍 가야리 42-35번지","category":"자동차정비 유지 - 자동차정비"}]},{"lat":"37.855277406","long":"126.87075469","items":[{"name":"사임당","tel":"031-958-3300","addr":"경기도 파주시 법원읍 가야리 23-1번지","category":"일반휴게음식 - 일반한식"}]},{"lat":"37.848971726","long":"126.85627955","items":[{"name":"서울우유천현대리점","tel":"031-958-2290","addr":"경기도 파주시 법원읍 가야리 319","category":"음료식품 - 기타음료식품"}]},{"lat":"37.857133183","long":"126.85544525","items":[{"name":"세직골농원","tel":"031-958-8420","addr":"경기도 파주시 법원읍 가야리 356-2번지","category":"일반휴게음식 - 일반한식"}]},{"lat":"37.850192864","long":"126.86788916","items":[{"name":"씨유파주동원점","tel":"031-958-1386","addr":"경기도 파주시 법원읍 가야리 42-32","category":"유통업 영리 - 편 의 점"}]},{"lat":"37.860687586","long":"126.85925636","items":[{"name":"오하라커피","tel":"031-958-0053","addr":"경기도 파주시 법원읍 가야리 137-1","category":"음료식품 - 기타음료식품"}]},{"lat":"37.849800742","long":"126.86383364","items":[{"name":"원진광고","tel":"031-958-6123","addr":"경기도 파주시 법원읍 가야리 200-20번지","category":"건축자재 - 인테리어전문"}]},{"lat":"37.849858943","long":"126.86738984","items":[{"name":"즐거운음악학원","tel":"070-8829-5720","addr":"경기도 파주시 법원읍 가야리 376-7번지","category":"학원 - 예·체능계학원"}]},{"lat":"37.849910722","long":"126.86542412","items":[{"name":"최행숙전통주가","tel":"031-958-1297","addr":"경기도 파주시 법원읍 가야리 44-6번지","category":"음료식품 - 주류 판매점"}]},{"lat":"37.84972278","long":"126.86650386","items":[{"name":"프리티헤어","tel":"031-868-9871","addr":"경기도 파주시 법원읍 가야리 376-2번지","category":"보건위생 - 미용원"}]},{"lat":"37.85130476","long":"126.87119355","items":[{"name":"하늘어린이집[아이행복]","tel":"031-959-1310","addr":"경기도 파주시 법원읍 가야리 33-1번지","category":"학원 - 유아원"}]},{"lat":"37.850973802","long":"126.85788902","items":[{"name":"하오치짬뽕","tel":"","addr":"경기도 파주시 법원읍 가야리 328-3번지","category":"일반휴게음식 - 중국식"}]},{"lat":"37.849772691","long":"126.86297018","items":[{"name":"한일석재","tel":"031-959-6677","addr":"경기도 파주시 법원읍 가야리 200-8번지","category":"건축자재 - 목재·석재·철물"}]},{"lat":"37.852340939","long":"126.8712826","items":[{"name":"한하루코리아","tel":"070-7761-4666","addr":"경기도 파주시 법원읍 가야리 30-2","category":"회원제형태 - 기타4"}]},{"lat":"37.849743912","long":"126.86921934","items":[{"name":"협성모타","tel":"031-959-2711","addr":"경기도 파주시 법원읍 가야리 38-3","category":"기타 - 기계공구"}]},{"lat":"37.854890093","long":"126.87083492","items":[{"name":"황금예식장","tel":"031-958-3300","addr":"경기도 파주시 법원읍 가야리 24-1번지","category":"용역 서비스 - 혼례서비스"}]},{"lat":"37.84913839","long":"126.86756159","items":[{"name":"휴스테이","tel":"02-1111-1111","addr":"경기도 파주시 법원읍 가야리 378-5번지","category":"숙박업 - 여관/기타숙박업"}]}]