[{"lat":"37.298878883","long":"127.50870383","items":[{"name":"(주)시몬엔지니어링","tel":"031-634-3758","addr":"경기도 이천시 부발읍 신원리 354-5번지 3층","category":"용역 서비스 - 기타용역서비스"}]},{"lat":"37.289164943","long":"127.49828646","items":[{"name":"BM모터스","tel":"031-635-8809","addr":"경기도 이천시 부발읍 신원리 643-17번지","category":"자동차판매 - 중고자동차판매"}]},{"lat":"37.29290864","long":"127.5245089","items":[{"name":"가건우드","tel":"031-637-5157","addr":"경기도 이천시 부발읍 신원리 6-6번지","category":"건축자재 - 기타건축자재"}]},{"lat":"37.292079444","long":"127.51215433","items":[{"name":"경기산업안전","tel":"031-635-3116","addr":"경기도 이천시 부발읍 신원리 543번지","category":"기타 - 기계공구"},{"name":"보쌈의진수","tel":"031-632-1995","addr":"경기도 이천시 부발읍 신원리 543번지 A동 1호","category":"일반휴게음식 - 일반한식"},{"name":"소나무집","tel":"031-638-6574","addr":"경기도 이천시 부발읍 신원리 543번지 2층","category":"일반휴게음식 - 일반한식"},{"name":"신원뷔페기사식당","tel":"031-638-6574","addr":"경기도 이천시 부발읍 신원리 543번지 외2필지","category":"일반휴게음식 - 일반한식"},{"name":"하얼빈","tel":"031-635-6617","addr":"경기도 이천시 부발읍 신원리 543번지","category":"일반휴게음식 - 중국식"}]},{"lat":"37.291077404","long":"127.49773513","items":[{"name":"구룡자동차매매상사","tel":"031-631-5551","addr":"경기도 이천시 부발읍 신원리 626-14번지","category":"자동차판매 - 중고자동차판매"},{"name":"월드모터스","tel":"031-638-5588","addr":"경기도 이천시 부발읍 신원리 626-14번지","category":"자동차판매 - 중고자동차판매"}]},{"lat":"37.293078221","long":"127.50615008","items":[{"name":"근남슈퍼정육점","tel":"031-636-4414","addr":"경기도 이천시 부발읍 신원리 561-48","category":"유통업 영리 - 슈퍼마켓"}]},{"lat":"37.293303613","long":"127.50611775","items":[{"name":"금빛","tel":"","addr":"경기도 이천시 부발읍 신원리 561-43번지","category":"의류 - 기타의류"}]},{"lat":"37.292601338","long":"127.51231573","items":[{"name":"능서포장","tel":"031-632-0120","addr":"경기도 이천시 부발읍 신원리 517-2번지","category":"농업 - 농기계"}]},{"lat":"37.290856409","long":"127.50739834","items":[{"name":"대웅약국","tel":"031-636-1148","addr":"경기도 이천시 부발읍 신원리 558-1","category":"약국 - 약국"}]},{"lat":"37.289243009","long":"127.4990087","items":[{"name":"동양자동차운전전문학원","tel":"031-632-1223","addr":"경기도 이천시 부발읍 신원리 643-1번지 (동양자동차운전전문학원)","category":"학원 - 기능학원"}]},{"lat":"37.291662367","long":"127.5127605","items":[{"name":"동일벤딩","tel":"031-635-9293","addr":"경기도 이천시 부발읍 신원리 547-2번지","category":"기타 - 기계공구"}]},{"lat":"37.296302607","long":"127.51275798","items":[{"name":"동일벤딩","tel":"031-635-9293","addr":"경기도 이천시 부발읍 신원리 429-4번지","category":"건축자재 - 기타건축자재"}]},{"lat":"37.290882717","long":"127.50756767","items":[{"name":"복돼지마트","tel":"","addr":"경기도 이천시 부발읍 신원리 558-15번지 101호","category":"유통업 영리 - 슈퍼마켓"}]},{"lat":"37.290662081","long":"127.50648358","items":[{"name":"부부식당","tel":"031-636-1114","addr":"경기도 이천시 부발읍 신원리 558-6번지","category":"일반휴게음식 - 일반한식"}]},{"lat":"37.291826851","long":"127.50590492","items":[{"name":"뷰티헤어살롱","tel":"031-636-0221","addr":"경기도 이천시 부발읍 신원리 561-20번지","category":"보건위생 - 미용원"},{"name":"최진실헤어샵","tel":"031-635-1304","addr":"경기도 이천시 부발읍 신원리 561-20","category":"보건위생 - 미용원"}]},{"lat":"37.292215724","long":"127.5243124","items":[{"name":"소풍","tel":"031-633-1641","addr":"경기도 이천시 부발읍 신원리 6-11번지","category":"일반휴게음식 - 일반한식"}]},{"lat":"37.291052126","long":"127.50798607","items":[{"name":"신원정주공업사","tel":"031-636-7316","addr":"경기도 이천시 부발읍 신원리 557-1","category":"자동차정비 유지 - 자동차정비"}]},{"lat":"37.290884015","long":"127.50726319","items":[{"name":"신원철물","tel":"031-635-1978","addr":"경기도 이천시 부발읍 신원리 559-17번지","category":"건축자재 - 목재·석재·철물"},{"name":"행복","tel":"031-635-5506","addr":"경기도 이천시 부발읍 신원리 559-17번지","category":"일반휴게음식 - 일반한식"}]},{"lat":"37.291703628","long":"127.50733633","items":[{"name":"신원축산","tel":"031-635-6001","addr":"경기도 이천시 부발읍 신원리 559-1번지 신지아파트 101동 9호","category":"음료식품 - 정육점"}]},{"lat":"37.292324675","long":"127.51379122","items":[{"name":"씨유이천대로점","tel":"031-635-1452","addr":"경기도 이천시 부발읍 신원리 119-9번지","category":"유통업 영리 - 편 의 점"}]},{"lat":"37.292104678","long":"127.51257176","items":[{"name":"양심종합카센타","tel":"031-636-8097","addr":"경기도 이천시 부발읍 신원리 541-1번지 외 1","category":"자동차정비 유지 - 자동차정비"}]},{"lat":"37.295719779","long":"127.50365267","items":[{"name":"우리별키즈어린이집[아이행복]","tel":"031-636-7933","addr":"경기도 이천시 부발읍 신원리 580-25번지","category":"학원 - 유아원"}]},{"lat":"37.291659011","long":"127.50723454","items":[{"name":"윤헤어샵","tel":"031-635-9717","addr":"경기도 이천시 부발읍 신원리 559-1번지 (신지상가)5","category":"보건위생 - 미용원"}]},{"lat":"37.292492434","long":"127.50618001","items":[{"name":"이든솔루션(idensolution)","tel":"070-8845-4278","addr":"경기도 이천시 부발읍 신원리 561-60","category":"사무통신 - 컴퓨터"}]},{"lat":"37.292492459","long":"127.51873192","items":[{"name":"정가네김밥","tel":"031-634-3002","addr":"경기도 이천시 부발읍 신원리 76-8번지","category":"일반휴게음식 - 스넥"}]},{"lat":"37.293355855","long":"127.5001522","items":[{"name":"좋은날","tel":"031-634-0108","addr":"경기도 이천시 부발읍 신원리 621번지 2호","category":"음료식품 - 기타음료식품"}]},{"lat":"37.29230337","long":"127.50614492","items":[{"name":"치킨매니아 부발점","tel":"031-633-3666","addr":"경기도 이천시 부발읍 신원리 561-18번지 산하빌라","category":"일반휴게음식 - 스넥"}]},{"lat":"37.291636163","long":"127.5125686","items":[{"name":"카페리올","tel":"031-631-6801","addr":"경기도 이천시 부발읍 신원리 547-3번지","category":"일반휴게음식 - 서양음식"}]},{"lat":"37.292323603","long":"127.51403932","items":[{"name":"평촌해장국","tel":"031-636-5067","addr":"경기도 이천시 부발읍 신원리 119-10번지","category":"일반휴게음식 - 일반한식"}]},{"lat":"37.291215507","long":"127.50770522","items":[{"name":"하람사철탕","tel":"031-635-3947","addr":"경기도 이천시 부발읍 신원리 559-3번지 1층","category":"일반휴게음식 - 일반한식"}]},{"lat":"37.288019285","long":"127.50075986","items":[{"name":"히스핸드","tel":"031-638-6861","addr":"경기도 이천시 부발읍 신원리 644-1번지","category":"기타 - 기타 전문점"}]}]