[{"lat":"37.020992779","long":"127.05690026","items":[{"name":"\"태백닭갈비앤닭발  횡성한우국밥\"","tel":"031-692-2737","addr":"경기도 평택시 지제동 896-2번지","category":"음식점 - 한식"},{"name":"삼복순대국.보쌈","tel":"031-655-0709","addr":"경기도 평택시 지제동 896-2번지 103, 104호","category":"일반휴게음식 - 일반한식"},{"name":"어느 배관사의 밥스토리","tel":"031-652-7877","addr":"경기도 평택시 지제동 896-2번지 109호","category":"일반휴게음식 - 일반한식"},{"name":"오렌지슈퍼","tel":"031-666-9999","addr":"경기도 평택시 지제동 896-2번지 102호","category":"유통업 영리 - 슈퍼마켓"},{"name":"자매네면사랑","tel":"031-000-0000","addr":"경기도 평택시 지제동 896-2번지 108호","category":"일반휴게음식 - 일반한식"},{"name":"천하제일 돈찌","tel":"","addr":"경기도 평택시 지제동 896-2번지 105호","category":"일반휴게음식 - 일반한식"},{"name":"커피베리","tel":"031-111-1111","addr":"경기도 평택시 지제동 896-2번지 1층 107호","category":"일반휴게음식 - 서양음식"}]},{"lat":"37.013659444","long":"127.07170456","items":[{"name":"(자)합동자동차매매상사","tel":"031-656-8881","addr":"경기도 평택시 지제동 565-2번지","category":"자동차판매 - 중고자동차판매"}]},{"lat":"37.012154564","long":"127.07187174","items":[{"name":"(주)가구싸닷컴","tel":"031-654-4004","addr":"경기도 평택시 지제동 567-2번지","category":"가구 - 일반가구"},{"name":"평택가구공단","tel":"031-656-4922","addr":"경기도 평택시 지제동 567-2번지","category":"소매업 - 가구"}]},{"lat":"37.021099839","long":"127.07575674","items":[{"name":"(주)네오에프앤시평택/샤브뎅평택점","tel":"031-657-0745","addr":"경기도 평택시 지제동 50번지 이마트 1층 내","category":"음료식품 - 기타음료식품"},{"name":"뉴아이마트안경","tel":"031-654-1313","addr":"경기도 평택시 지제동 50번지","category":"보건위생 - 안경"},{"name":"두끼 이마트평택점","tel":"031-651-2771","addr":"경기도 평택시 지제동 50번지 2층","category":"일반휴게음식 - 스넥"},{"name":"마트종로약국","tel":"031-651-9631","addr":"경기도 평택시 지제동 50번지 이마트 1층","category":"약국 - 약국"},{"name":"베스킨라빈스평택이마트점","tel":"031-654-3132","addr":"경기도 평택시 지제동 50번지 이마트","category":"음료식품 - 제과점"},{"name":"스피드메이트이마트평택점","tel":"031-618-2366","addr":"경기도 평택시 지제동 50번지","category":"자동차정비 유지 - 자동차정비"},{"name":"양키캔들 이마트평택점","tel":"031-653-5572","addr":"경기도 평택시 지제동 50번지 이마트평택점 1층 매장","category":"신변잡화 - 기타잡화"},{"name":"탭플레이 이마트평택점","tel":"031-371-1234","addr":"경기도 평택시 지제동 50번지 이마트점 내","category":"일반휴게음식 - 서양음식"},{"name":"파파이스평택이마트점","tel":"031-653-8814","addr":"경기도 평택시 지제동 50번지 1층","category":"일반휴게음식 - 서양음식"},{"name":"펫사랑동물병원","tel":"031-653-0275","addr":"경기도 평택시 지제동 50번지","category":"기타의료기관 - 동물병원"}]},{"lat":"37.016209594","long":"127.07148212","items":[{"name":"(주)중앙컴정보통신","tel":"031-658-1221","addr":"경기도 평택시 지제동 562-1번지","category":"사무통신 - 통신기기"},{"name":"가미인코","tel":"031-666-2595","addr":"경기도 평택시 지제동 562-1번지","category":"음료식품 - 기타음료식품"},{"name":"쌤소나이트평택점","tel":"031-657-2456","addr":"경기도 평택시 지제동 562-1번지","category":"레져용품 - 스포츠·레져용품"}]},{"lat":"37.021849308","long":"127.05575463","items":[{"name":"79네수육국밥과철판지제점","tel":"031-655-7998","addr":"경기도 평택시 지제동 905-2번지 1층","category":"일반휴게음식 - 일반한식"}]},{"lat":"37.012938545","long":"127.07178256","items":[{"name":"EED카케어","tel":"","addr":"경기도 평택시 지제동 565-4번지","category":"자동차정비 유지 - 세차장"}]},{"lat":"37.015939261","long":"127.07150435","items":[{"name":"ELLA DIAMOND","tel":"031-657-6507","addr":"경기도 평택시 지제동 562-3번지 1층","category":"신변잡화 - 귀금속"},{"name":"세사리빙","tel":"031-653-8032","addr":"경기도 평택시 지제동 562-3번지","category":"직물 - 혼수전문점"}]},{"lat":"37.014488556","long":"127.07148057","items":[{"name":"K2카","tel":"","addr":"경기도 평택시 지제동 564-5번지","category":"서비스업 - 자동차정비"},{"name":"동원카독크","tel":"031-655-7573","addr":"경기도 평택시 지제동 564-5번지","category":"자동차정비 유지 - 자동차정비"},{"name":"동원카독크","tel":"031-651-9145","addr":"경기도 평택시 지제동 564-5번지","category":"서비스업 - 자동차수리"}]},{"lat":"37.019769065","long":"127.07103583","items":[{"name":"간판114","tel":"031-655-7573","addr":"경기도 평택시 지제동 557-2번지","category":"제조업 - 광고물"}]},{"lat":"37.022209121","long":"127.05711463","items":[{"name":"개성식당","tel":"031-618-8540","addr":"경기도 평택시 지제동 산40-4번지 1층","category":"일반휴게음식 - 일반한식"}]},{"lat":"37.019574955","long":"127.06342807","items":[{"name":"거성중기상사","tel":"031-656-0507","addr":"경기도 평택시 지제동 841-1번지","category":"자동차정비 유지 - 중장비수리"},{"name":"평택중기공업(주)","tel":"031-656-8915","addr":"경기도 평택시 지제동 841-1번지","category":"자동차정비 유지 - 중장비수리"},{"name":"평택중기공업사","tel":"031-658-8915","addr":"경기도 평택시 지제동 841-1번지","category":"기타 - 기계공구"}]},{"lat":"37.016633147","long":"127.07139261","items":[{"name":"건강침대할인매장","tel":"031-658-3658","addr":"경기도 평택시 지제동 562번지 2층","category":"가구 - 일반가구"},{"name":"원골프","tel":"031-652-1256","addr":"경기도 평택시 지제동 562번지","category":"소매업 - 골프용품"},{"name":"원골프","tel":"031-657-5005","addr":"경기도 평택시 지제동 562번지","category":"레져용품 - 골프용품 전문점"}]},{"lat":"37.019299491","long":"127.07278841","items":[{"name":"경기종합피아노","tel":"031-658-5445","addr":"경기도 평택시 지제동 613-1(1층)","category":"레져용품 - 피아노대리점"},{"name":"평택유리","tel":"031-652-6006","addr":"경기도 평택시 지제동 613-1","category":"건축자재 - 유리"}]},{"lat":"37.011600945","long":"127.06256781","items":[{"name":"고매철물건재공구","tel":"031-655-9796","addr":"경기도 평택시 지제동 692-1번지","category":"건축자재 - 목재·석재·철물"}]},{"lat":"37.021215821","long":"127.06158643","items":[{"name":"구판장","tel":"031-656-1165","addr":"경기도 평택시 지제동 400-2번지","category":"소매업 - 식품, 잡화"},{"name":"구판장","tel":"031-654-7607","addr":"경기도 평택시 지제동 400-2","category":"음료식품 - 기타음료식품"}]},{"lat":"37.019210359","long":"127.07111399","items":[{"name":"국도주유소","tel":"031-652-7714","addr":"경기도 평택시 지제동 559번지","category":"소매업 - 주유소"},{"name":"호담","tel":"031-653-8111","addr":"경기도 평택시 지제동 559번지","category":"소매업 - 호두과자"},{"name":"호담(호도과자이야기)","tel":"031-692-7776","addr":"경기도 평택시 지제동 559번지","category":"음료식품 - 제과점"}]},{"lat":"37.023958146","long":"127.05498068","items":[{"name":"그날","tel":"031-8043-0529","addr":"경기도 평택시 지제동 302-6번지","category":"일반휴게음식 - 서양음식"},{"name":"오뚜기한식뷔페","tel":"","addr":"경기도 평택시 지제동 302-6번지 103,104,105,106호","category":"일반휴게음식 - 일반한식"},{"name":"오렌지 편의점","tel":"031-8024-0523","addr":"경기도 평택시 지제동 302-6번지 101호","category":"유통업 영리 - 편 의 점"}]},{"lat":"37.020466769","long":"127.06390074","items":[{"name":"그린 안전용품","tel":"031-657-0910","addr":"경기도 평택시 지제동 426-3번지","category":"소매업 - 안전용품"},{"name":"그린안전용품","tel":"031-652-1256","addr":"경기도 평택시 지제동 426-3번지 101호","category":"기타 - 기계공구"}]},{"lat":"37.014821886","long":"127.07159324","items":[{"name":"글로리썬업 김옥수가구갤러리","tel":"031-691-4415","addr":"경기도 평택시 지제동 564-2번지","category":"가구 - 일반가구"}]},{"lat":"37.021992701","long":"127.05747408","items":[{"name":"김밥매니아(평택지제점)","tel":"031-691-6136","addr":"경기도 평택시 지제동 902-1번지 A동 101호","category":"일반휴게음식 - 일반한식"},{"name":"김밥매니아(평택지제점)","tel":"031-653-1520","addr":"경기도 평택시 지제동 902-1번지 A동 101호","category":"음식점 - 한식"},{"name":"씨유평택지제교차로점","tel":"031-618-2623","addr":"경기도 평택시 지제동 902-1번지 A동 104호","category":"유통업 영리 - 편 의 점"},{"name":"전라도한식뷔페","tel":"031-651-6664","addr":"경기도 평택시 지제동 902-1번지","category":"일반휴게음식 - 일반한식"},{"name":"청춘뷔페함바식당/주식회사 청춘뷔페","tel":"031-653-7891","addr":"경기도 평택시 지제동 902-1번지 C동 201호","category":"일반휴게음식 - 일반한식"}]},{"lat":"37.02154209","long":"127.05764232","items":[{"name":"김밥천국 지제점","tel":"031-653-2030","addr":"경기도 평택시 지제동 890번지 1층","category":"일반휴게음식 - 일반한식"},{"name":"플리즈 (투)","tel":"031-655-9119","addr":"경기도 평택시 지제동 890번지 1층 101호","category":"일반휴게음식 - 서양음식"}]},{"lat":"37.023381131","long":"127.05573322","items":[{"name":"꺼먼돼지","tel":"031-657-1998","addr":"경기도 평택시 지제동 302-12번지 2층","category":"일반휴게음식 - 일반한식"},{"name":"삼시세끼","tel":"031-658-0082","addr":"경기도 평택시 지제동 302-12번지 1층","category":"일반휴게음식 - 일반한식"}]},{"lat":"37.01991219","long":"127.07283392","items":[{"name":"나온포도원","tel":"031-656-8608","addr":"경기도 평택시 지제동 612번지","category":"음료식품 - 농·축·수산품"}]},{"lat":"37.022458566","long":"127.06303704","items":[{"name":"농정원","tel":"031-611-9396","addr":"경기도 평택시 지제동 382-1번지","category":"음료식품 - 기타음료식품"}]},{"lat":"37.020966037","long":"127.0562597","items":[{"name":"누나네","tel":"070-4649-1101","addr":"경기도 평택시 지제동 899번지 1동","category":"일반휴게음식 - 일반한식"}]},{"lat":"37.018907057","long":"127.06556259","items":[{"name":"다다익선","tel":"031-651-1234","addr":"경기도 평택시 지제동 526-3번지","category":"직물 - 침구·수예점"}]},{"lat":"37.021431476","long":"127.06278901","items":[{"name":"다우 종합상사","tel":"031-691-9279","addr":"경기도 평택시 지제동 391-5번지","category":"소매업 - 공구 및 철물"}]},{"lat":"37.015713994","long":"127.07150415","items":[{"name":"다우닝가구 평택점","tel":"031-651-5325","addr":"경기도 평택시 지제동 562-2번지","category":"소매업 - 가구"}]},{"lat":"37.024020412","long":"127.05679002","items":[{"name":"대박삼계탕&닭계장","tel":"031-656-0327","addr":"경기도 평택시 지제동 302-17번지 나동","category":"일반휴게음식 - 일반한식"}]},{"lat":"37.012406883","long":"127.07183826","items":[{"name":"대성광고기획","tel":"031-654-6400","addr":"경기도 평택시 지제동 567-1번지","category":"용역 서비스 - 종합용역"},{"name":"대성광고기획","tel":"031-655-7708","addr":"경기도 평택시 지제동 567-1번지","category":"서비스업 - 광고"},{"name":"창(평택점)","tel":"031-655-3935","addr":"경기도 평택시 지제동 567-1번지 A동","category":"직물 - 카페트,커튼,천막,지물"}]},{"lat":"37.017299949","long":"127.07137073","items":[{"name":"대성상사","tel":"031-655-1663","addr":"경기도 평택시 지제동 560-1번지","category":"자동차정비 유지 - 자동차부품"},{"name":"맥가이버흠집제거","tel":"031-221-8881","addr":"경기도 평택시 지제동 560-1번지","category":"자동차정비 유지 - 가타자동차서비스"}]},{"lat":"37.018687076","long":"127.0722597","items":[{"name":"대신정기화물택배 평택고덕영업소","tel":"031-618-0641","addr":"경기도 평택시 지제동 615번지","category":"용역 서비스 - 보관및 창고업"},{"name":"박지현한복","tel":"031-655-0431","addr":"경기도 평택시 지제동 615 1층","category":"직물 - 침구·수예점"},{"name":"황실","tel":"070-8966-9662","addr":"경기도 평택시 지제동 615번지 2층","category":"회원제형태 - 기타4"}]},{"lat":"37.023625929","long":"127.0705111","items":[{"name":"대양냉동","tel":"070-8183-8288","addr":"경기도 평택시 지제동 553-1번지","category":"용역 서비스 - 기타용역서비스"}]},{"lat":"37.020406292","long":"127.05861915","items":[{"name":"대찬짬뽕","tel":"031-653-0709","addr":"경기도 평택시 지제동 923-3번지 1층","category":"일반휴게음식 - 중국식"}]},{"lat":"37.021244723","long":"127.05767582","items":[{"name":"더참맛수육국밥지제점","tel":"","addr":"경기도 평택시 지제동 891-1번지 B동 102호","category":"음식점 - 한식"},{"name":"더참맛수육국밥지제점","tel":"031-653-1520","addr":"경기도 평택시 지제동 891-1번지 B동 102호","category":"일반휴게음식 - 일반한식"},{"name":"에이치앤케이 주식회사","tel":"031-652-7993","addr":"경기도 평택시 지제동 891-1번지 2동 101-2호","category":"전기제품 - 기타전기제품"},{"name":"위드미 평택고덕삼성점","tel":"02-6916-1500","addr":"경기도 평택시 지제동 891-1번지","category":"유통업 영리 - 편 의 점"},{"name":"진수성찬한식기사부페","tel":"031-655-9533","addr":"경기도 평택시 지제동 891-1번지 2동 2층","category":"일반휴게음식 - 일반한식"}]},{"lat":"37.0193268","long":"127.07231647","items":[{"name":"동일시스템가구","tel":"031-658-9487","addr":"경기도 평택시 지제동 613 D동","category":"가구 - 일반가구"},{"name":"사운드 밸리","tel":"031-656-9600","addr":"경기도 평택시 지제동 613번지","category":"도소매업 - 카오디오"},{"name":"사운드밸리","tel":"031-651-9145","addr":"경기도 평택시 지제동 613","category":"자동차정비 유지 - 자동차부품"},{"name":"서울광택","tel":"031-653-8388","addr":"경기도 평택시 지제동 613 D동","category":"자동차정비 유지 - 카인테리어"},{"name":"주식회사월드조인","tel":"031-692-1842","addr":"경기도 평택시 지제동 613번지 4동 1층","category":"레져용품 - 골프용품 전문점"}]},{"lat":"37.019793173","long":"127.05945026","items":[{"name":"동주산업","tel":"031-656-2401","addr":"경기도 평택시 지제동 876-8번지","category":"서비스업 - 산업용바퀴"}]},{"lat":"37.019322072","long":"127.06456282","items":[{"name":"두선코리아","tel":"070-4755-4788","addr":"경기도 평택시 지제동 522-3번지 대건CNC(주) C동","category":"의류 - 정장"}]},{"lat":"37.021828267","long":"127.06214878","items":[{"name":"두성유통","tel":"063-651-1757","addr":"경기도 평택시 지제동 393-1번지 105호","category":"음료식품 - 농·축·수산품"}]},{"lat":"37.02160614","long":"127.05548476","items":[{"name":"레포펄드승마장","tel":"031-647-3111","addr":"경기도 평택시 지제동 906-2번지","category":"레저업소 - 기타레져업소"},{"name":"주식회사레포필드","tel":"031-647-3111","addr":"경기도 평택시 지제동 906-2번지","category":"신변잡화 - 기타잡화"}]},{"lat":"37.012713278","long":"127.07178236","items":[{"name":"루바나 평택점","tel":"031-656-9962","addr":"경기도 평택시 지제동 567번지","category":"의류 - 정장"},{"name":"조선옷방","tel":"031-656-0321","addr":"경기도 평택시 지제동 567번지 3층","category":"의류 - 맞춤복점"},{"name":"태양상사","tel":"031-655-4399","addr":"경기도 평택시 지제동 567번지","category":"건축자재 - 기타건축자재"},{"name":"허니문여행사","tel":"","addr":"경기도 평택시 지제동 567번지 4층","category":"여행 - 관광여행"}]},{"lat":"37.023687347","long":"127.05605933","items":[{"name":"민우세무법인 평택지사","tel":"031-656-0031","addr":"경기도 평택시 지제동 302-33번지 B동 3층","category":"용역 서비스 - 법률회계서비스(법인)"}]},{"lat":"37.022597864","long":"127.05422683","items":[{"name":"보름식당","tel":"031-653-3445","addr":"경기도 평택시 지제동 905-11번지","category":"일반휴게음식 - 일반한식"},{"name":"이마트위드미 평택고덕점","tel":"02-111-1111","addr":"경기도 평택시 지제동 905-11번지 1층 106호","category":"유통업 영리 - 편 의 점"},{"name":"한상","tel":"031-683-8360","addr":"경기도 평택시 지제동 905-11번지 지하 B06,B07,B08호","category":"일반휴게음식 - 일반한식"}]},{"lat":"37.015407612","long":"127.07153758","items":[{"name":"보스톤갤러리","tel":"031-654-8809","addr":"경기도 평택시 지제동 564번지","category":"소매업 - 가구"},{"name":"보스톤갤러리(레이디평택점)","tel":"031-655-2581","addr":"경기도 평택시 지제동 564번지","category":"가구 - 일반가구"}]},{"lat":"37.014213297","long":"127.06403058","items":[{"name":"부원서림","tel":"031-657-1830","addr":"경기도 평택시 지제동 746-1번지 가","category":"서적문구 - 일반서적"}]},{"lat":"37.019827425","long":"127.06309115","items":[{"name":"사운드홀릭","tel":"031-682-0883","addr":"경기도 평택시 지제동 844번지 A","category":"자동차정비 유지 - 자동차부품"}]},{"lat":"37.024155725","long":"127.05645298","items":[{"name":"삼성식당","tel":"031-656-6662","addr":"경기도 평택시 지제동 302-31번지","category":"음식점 - 한식"}]},{"lat":"37.0239031","long":"127.05717202","items":[{"name":"삼성종합공구","tel":"031-657-8909","addr":"경기도 평택시 지제동 302-19번지","category":"기타 - 기계공구"}]},{"lat":"37.021272186","long":"127.05673189","items":[{"name":"삼성중앙약국","tel":"031-692-6288","addr":"경기도 평택시 지제동 902-3번지","category":"약국 - 약국"}]},{"lat":"37.021714073","long":"127.0559231","items":[{"name":"상우네밥집","tel":"031-658-8938","addr":"경기도 평택시 지제동 906번지 1층","category":"일반휴게음식 - 일반한식"}]},{"lat":"37.02224269","long":"127.06228395","items":[{"name":"서울농수산","tel":"031-655-4142","addr":"경기도 평택시 지제동 380-2번지","category":"음료식품 - 농·축·수산품"}]},{"lat":"37.020659477","long":"127.05669775","items":[{"name":"서현케터링","tel":"","addr":"경기도 평택시 지제동 897번지","category":"일반휴게음식 - 일반한식"}]},{"lat":"37.021657806","long":"127.06064282","items":[{"name":"선이네함바식당","tel":"031-657-5005","addr":"경기도 평택시 지제동 372-1번지","category":"음식점 - 한식"},{"name":"선이네함바식당","tel":"031-656-1165","addr":"경기도 평택시 지제동 372-1번지 A동","category":"일반휴게음식 - 일반한식"}]},{"lat":"37.020187054","long":"127.06464218","items":[{"name":"세명식당","tel":"031-654-5666","addr":"경기도 평택시 지제동 521-3번지","category":"일반휴게음식 - 일반한식"},{"name":"진너트","tel":"","addr":"경기도 평택시 지제동 521-3번지 1층","category":"음료식품 - 기타음료식품"},{"name":"코윌그린텍","tel":"031-658-8321","addr":"경기도 평택시 지제동 521-3번지","category":"전기제품 - 기타전기제품"},{"name":"풍산설비","tel":"031-656-6534","addr":"경기도 평택시 지제동 521-3","category":"용역 서비스 - 기타용역서비스"}]},{"lat":"37.020489066","long":"127.05492213","items":[{"name":"세자매뷔페","tel":"031-666-9999","addr":"경기도 평택시 지제동 908번지 1층","category":"일반휴게음식 - 일반한식"}]},{"lat":"37.013295272","long":"127.06192866","items":[{"name":"세종냉열","tel":"031-667-1202","addr":"경기도 평택시 지제동 724-13번지 A","category":"전기제품 - 냉열기기"}]},{"lat":"37.02154281","long":"127.05605783","items":[{"name":"소돈명가","tel":"031-656-8938","addr":"경기도 평택시 지제동 906-9번지 1층","category":"일반휴게음식 - 일반한식"}]},{"lat":"37.0178226","long":"127.07131502","items":[{"name":"시몬스침대","tel":"031-657-8859","addr":"경기도 평택시 지제동 560번지","category":"가구 - 일반가구"}]},{"lat":"37.022270515","long":"127.06067699","items":[{"name":"신세계유리","tel":"031-618-6263","addr":"경기도 평택시 지제동 369-2번지","category":"건축자재 - 유리"}]},{"lat":"37.023966678","long":"127.05605952","items":[{"name":"신세계편의점","tel":"031-000-0000","addr":"경기도 평택시 지제동 302-32번지 D동 B01층","category":"유통업 영리 - 슈퍼마켓"},{"name":"신세계한식뷔페","tel":"031-657-7517","addr":"경기도 평택시 지제동 302-32번지 C동 지하1층","category":"일반휴게음식 - 일반한식"}]},{"lat":"37.020075447","long":"127.07100239","items":[{"name":"심한복맞춤전문점","tel":"031-657-8400","addr":"경기도 평택시 지제동 557-1번지 2호","category":"의류 - 맞춤복점"}]},{"lat":"37.022098671","long":"127.06198042","items":[{"name":"씨유점","tel":"031-651-0310","addr":"경기도 평택시 지제동 378-3번지","category":"음료식품 - 기타음료식품"}]},{"lat":"37.020656211","long":"127.06347388","items":[{"name":"씨유평택지제로점","tel":"031-658-0421","addr":"경기도 평택시 지제동 840-3번지","category":"유통업 영리 - 편 의 점"},{"name":"주식회사 세일종합공구","tel":"031-653-0901","addr":"경기도 평택시 지제동 840-3번지 1층","category":"기타 - 기계공구"}]},{"lat":"37.023714228","long":"127.05639648","items":[{"name":"알리바바 평택지점","tel":"031-653-2952","addr":"경기도 평택시 지제동 302-16번지 A동 1층","category":"일반휴게음식 - 일반한식"}]},{"lat":"37.022099838","long":"127.05958682","items":[{"name":"에이치에스 이엔지(HS ENG)","tel":"031-691-5288","addr":"경기도 평택시 지제동 371-1번지 3동","category":"건축자재 - 기타건축자재"},{"name":"에이치에스(HS)배관용접학원","tel":"031-691-5288","addr":"경기도 평택시 지제동 371-1번지 3동","category":"학원 - 기능학원"}]},{"lat":"37.019966544","long":"127.07233953","items":[{"name":"영신농원","tel":"031-655-9717","addr":"경기도 평택시 지제동 612-1번지","category":"문화.취미 - 화원"},{"name":"영신화원","tel":"031-655-9717","addr":"경기도 평택시 지제동 612-1번지","category":"문화.취미 - 화원"}]},{"lat":"37.021908578","long":"127.06369962","items":[{"name":"예솔교육","tel":"031-691-7955","addr":"경기도 평택시 지제동 389-1번지 주건축물","category":"서적문구 - 일반서적"}]},{"lat":"37.013466435","long":"127.06200745","items":[{"name":"예스전산","tel":"031-611-7278","addr":"경기도 평택시 지제동 724-1번지","category":"사무통신 - 기타 사무용품"}]},{"lat":"37.023550484","long":"127.05973399","items":[{"name":"원재한식부페","tel":"031-657-9682","addr":"경기도 평택시 지제동 367-8번지 가동 1층","category":"일반휴게음식 - 일반한식"},{"name":"주식회사 태성물산","tel":"02-718-2023","addr":"경기도 평택시 지제동 367-8번지 2층","category":"보건위생 - 화장품"}]},{"lat":"37.02012739","long":"127.05769749","items":[{"name":"원주추어탕","tel":"031-618-3508","addr":"경기도 평택시 지제동 922-2번지 1층","category":"일반휴게음식 - 일반한식"},{"name":"원주추어탕","tel":"031-656-6150","addr":"경기도 평택시 지제동 922-2번지 1층","category":"음식점 - 한식"},{"name":"이비가짬뽕 평택지제역점","tel":"031-618-0321","addr":"경기도 평택시 지제동 922-2번지 1층","category":"일반휴게음식 - 중국식"},{"name":"커피플리즈","tel":"061-279-9902","addr":"경기도 평택시 지제동 922-2번지 1층","category":"일반휴게음식 - 서양음식"},{"name":"커피플리즈","tel":"","addr":"경기도 평택시 지제동 922-2번지 1층","category":"음식점 - 카페"}]},{"lat":"37.023766366","long":"127.06050956","items":[{"name":"웰빙한식부페소반","tel":"031-657-1213","addr":"경기도 평택시 지제동 367-7번지 2동 1층","category":"일반휴게음식 - 일반한식"}]},{"lat":"37.024156012","long":"127.05581242","items":[{"name":"위드미평택고덕산단점","tel":"02-6916-1500","addr":"경기도 평택시 지제동 302-9번지","category":"유통업 영리 - 편 의 점"}]},{"lat":"37.023523318","long":"127.06001491","items":[{"name":"이셰프 한식뷔페","tel":"031-618-2666","addr":"경기도 평택시 지제동 367-8번지 다동 1층","category":"일반휴게음식 - 일반한식"},{"name":"휴게소커피숍","tel":"031-111-1111","addr":"경기도 평택시 지제동 367-8번지 다동 1층","category":"일반휴게음식 - 서양음식"}]},{"lat":"37.023795771","long":"127.05539637","items":[{"name":"정다운식당","tel":"061-658-6280","addr":"경기도 평택시 지제동 302-5번지 1층 101호","category":"일반휴게음식 - 일반한식"},{"name":"정다운식당","tel":"031-654-2949","addr":"경기도 평택시 지제동 302-5번지 1층","category":"음식점 - 한식"},{"name":"주식회사 선일유통","tel":"031-651-1150","addr":"경기도 평택시 지제동 302-5번지 A동 103호","category":"기타 - 기계공구"},{"name":"주식회사 양지로드","tel":"031-651-1150","addr":"경기도 평택시 지제동 302-5번지 B동 3호","category":"자동차정비 유지 - 주차장"}]},{"lat":"37.024155233","long":"127.05753182","items":[{"name":"주식회사 삼성모터스","tel":"031-684-0095","addr":"경기도 평택시 지제동 302-20번지","category":"자동차판매 - 중고자동차판매"}]},{"lat":"37.021182258","long":"127.05633852","items":[{"name":"주식회사 쎈툴코리아","tel":"02-1653-0949","addr":"경기도 평택시 지제동 900번지","category":"기타 - 기계공구"}]},{"lat":"37.020574408","long":"127.06484477","items":[{"name":"주식회사 준티엔에스","tel":"070-5099-1800","addr":"경기도 평택시 지제동 435-1번지","category":"기타 - 기계공구"}]},{"lat":"37.020520919","long":"127.06373223","items":[{"name":"줄눈 이야기","tel":"031-663-0447","addr":"경기도 평택시 지제동 426-2번지","category":"건축자재 - 인테리어전문"}]},{"lat":"37.019244652","long":"127.07409187","items":[{"name":"지제동이브자리","tel":"031-618-9360","addr":"경기도 평택시 지제동 613-3번지","category":"직물 - 침구·수예점"}]},{"lat":"37.021133942","long":"127.06314837","items":[{"name":"지제매점","tel":"031-691-9279","addr":"경기도 평택시 지제동 391-1번지","category":"유통업 영리 - 슈퍼마켓"},{"name":"지제한식부페","tel":"031-658-0031","addr":"경기도 평택시 지제동 391-1번지","category":"음식점 - 한식"},{"name":"지제한식뷔페정육식당","tel":"031-691-9279","addr":"경기도 평택시 지제동 391-1번지","category":"일반휴게음식 - 일반한식"}]},{"lat":"37.018272572","long":"127.0722818","items":[{"name":"지제모터스","tel":"031-655-3581","addr":"경기도 평택시 지제동 615-6번지","category":"자동차정비 유지 - 자동차정비"}]},{"lat":"37.020766823","long":"127.05839467","items":[{"name":"지제원주민개발컨설팅","tel":"","addr":"경기도 평택시 지제동 893-2번지 2동 102호","category":"서비스업 - 개발컨설팅"}]},{"lat":"37.017606331","long":"127.0713373","items":[{"name":"천년돌침대","tel":"031-651-8363","addr":"경기도 평택시 지제동 560-2번지","category":"가구 - 일반가구"}]},{"lat":"37.014105736","long":"127.06291809","items":[{"name":"타일코리아","tel":"031-656-5135","addr":"경기도 평택시 지제동 733-2번지","category":"건축자재 - 건축용 요업제품"}]},{"lat":"37.020682769","long":"127.06439536","items":[{"name":"평택고덕신도시탑공인중개사사무소","tel":"031-654-5114","addr":"경기도 평택시 지제동 434-1번지 1층","category":"용역 서비스 - 부동산 중개·임대"}]},{"lat":"37.014461316","long":"127.07184012","items":[{"name":"평택굿오일주유소","tel":"031-654-3737","addr":"경기도 평택시 지제동 564-3번지","category":"소매업 - 주유소"}]},{"lat":"37.015432519","long":"127.05836832","items":[{"name":"평택농장","tel":"031-819-3744","addr":"경기도 평택시 지제동 947번지","category":"음료식품 - 농·축·수산품"}]},{"lat":"37.017407338","long":"127.0726406","items":[{"name":"평택센타","tel":"031-652-7460","addr":"경기도 평택시 지제동 633-4번지","category":"자동차정비 유지 - 자동차부품"}]},{"lat":"37.018800334","long":"127.06284313","items":[{"name":"평택엄청난공인중개사사무소","tel":"031-657-2911","addr":"경기도 평택시 지제동 843-4번지","category":"서비스업 - 부동산"}]},{"lat":"37.014128162","long":"127.07142407","items":[{"name":"평택이레타일","tel":"031-684-9930","addr":"경기도 평택시 지제동 565-6번지","category":"건축자재 - 건축용 요업제품"}]},{"lat":"37.012350118","long":"127.05995037","items":[{"name":"평택지엔아이","tel":"031-651-5622","addr":"경기도 평택시 지제동 711-3번지","category":"직물 - 카페트,커튼,천막,지물"}]},{"lat":"37.020236559","long":"127.05539392","items":[{"name":"평택한우마을1","tel":"031-655-5392","addr":"경기도 평택시 지제동 913번지","category":"일반휴게음식 - 일반한식"}]},{"lat":"37.021270403","long":"127.06053015","items":[{"name":"한길","tel":"031-652-8519","addr":"경기도 평택시 지제동 403-5번지","category":"직물 - 침구·수예점"}]},{"lat":"37.024772064","long":"127.06730929","items":[{"name":"함흥냉면","tel":"031-692-2611","addr":"경기도 평택시 지제동 253번지 1층","category":"일반휴게음식 - 일반한식"}]},{"lat":"37.016737902","long":"127.06080765","items":[{"name":"행운정","tel":"031-655-1137","addr":"경기도 평택시 지제동 783번지","category":"일반휴게음식 - 일반한식"}]},{"lat":"37.016461912","long":"127.07144864","items":[{"name":"현대가구산업","tel":"031-653-4448","addr":"경기도 평택시 지제동 562-6번지","category":"가구 - 철제가구"},{"name":"현대가구산업","tel":"031-658-6885","addr":"경기도 평택시 지제동 562-6번지","category":"도소매업 - 사무용가구"}]},{"lat":"37.020295352","long":"127.06431639","items":[{"name":"현서유카랜드","tel":"031-652-3237","addr":"경기도 평택시 지제동 838-2번지","category":"자동차정비 유지 - 자동차정비"}]},{"lat":"37.013160528","long":"127.06108584","items":[{"name":"흥부농산","tel":"031-655-6444","addr":"경기도 평택시 지제동 723-7번지","category":"음료식품 - 미곡상"}]}]