[{"lat":"37.121755708","long":"127.06209155","items":[{"name":"건축서비스전문업체","tel":"031-378-0636","addr":"경기도 평택시 진위면 야막리 381-1번지","category":"건축자재 - 보일러·펌프·샷시"}]},{"lat":"37.122198449","long":"127.05958262","items":[{"name":"늘찬고춧가루","tel":"070-8242-7198","addr":"경기도 평택시 진위면 야막리 341-3번지","category":"음료식품 - 기타음료식품"}]},{"lat":"37.126561094","long":"127.05622122","items":[{"name":"도형도원농원","tel":"070-1111-1111","addr":"경기도 평택시 진위면 야막리 252-1번지","category":"음료식품 - 농·축·수산품"}]},{"lat":"37.120891763","long":"127.05991921","items":[{"name":"디자인몰","tel":"070-7520-2076","addr":"경기도 평택시 진위면 야막리 368-2번지","category":"용역 서비스 - 사무서비스"}]},{"lat":"37.131003157","long":"127.05647192","items":[{"name":"샘물유통사업맥","tel":"031-373-6108","addr":"경기도 평택시 진위면 야막리 181-1번지","category":"음료식품 - 기타음료식품"}]},{"lat":"37.128781855","long":"127.06605819","items":[{"name":"성지유통","tel":"031-378-3927","addr":"경기도 평택시 진위면 야막리 19-16번지 1층","category":"음료식품 - 기타음료식품"},{"name":"오산종합음료","tel":"031-373-8065","addr":"경기도 평택시 진위면 야막리 19-16번지","category":"음료식품 - 기타음료식품"}]},{"lat":"37.122674684","long":"127.06228355","items":[{"name":"신안전기","tel":"031-668-6608","addr":"경기도 평택시 진위면 야막리 56-20번지","category":"전기제품 - 기타전기제품"}]},{"lat":"37.122919117","long":"127.05994323","items":[{"name":"씨에스테크","tel":"031-356-4428","addr":"경기도 평택시 진위면 야막리 65-5번지","category":"사무통신 - 사무용 OA기기"}]},{"lat":"37.120530419","long":"127.06180929","items":[{"name":"열린체험농원","tel":"031-665-7771","addr":"경기도 평택시 진위면 야막리 384-12번지","category":"소매업 - 농산물"},{"name":"열린체험농원","tel":"031-666-9271","addr":"경기도 평택시 진위면 야막리 384-12번지","category":"학원 - 기타 교육기관"}]},{"lat":"37.131201348","long":"127.05656209","items":[{"name":"우신골프연습장","tel":"031-668-7373","addr":"경기도 평택시 진위면 야막리 183번지","category":"레저업소 - 골프연습장"},{"name":"주식회사 지스타넷","tel":"031-668-7373","addr":"경기도 평택시 진위면 야막리 183번지","category":"사무통신 - 통신기기"},{"name":"지스타골프존","tel":"031-668-7374","addr":"경기도 평택시 진위면 야막리 183번지","category":"레져용품 - 골프용품 전문점"}]},{"lat":"37.120863768","long":"127.06188831","items":[{"name":"유한드림 주식회사","tel":"070-1111-1111","addr":"경기도 평택시 진위면 야막리 374번지","category":"신변잡화 - 기타잡화"}]},{"lat":"37.122395052","long":"127.06289096","items":[{"name":"창대유통","tel":"031-668-2212","addr":"경기도 평택시 진위면 야막리 338-1번지","category":"유통업 영리 - 기타유통업"}]},{"lat":"37.121534315","long":"127.05375345","items":[{"name":"청학농장","tel":"","addr":"경기도 평택시 진위면 야막리 354-1번지","category":"학원 - 기타 교육기관"}]},{"lat":"37.131814138","long":"127.05639371","items":[{"name":"킹스크린","tel":"031-666-0733","addr":"경기도 평택시 진위면 야막리 158-4번지 장명빌딩 108동 104호","category":"회원제형태 - 레져업소"}]},{"lat":"37.126255606","long":"127.05425174","items":[{"name":"킹콩이농장","tel":"","addr":"경기도 평택시 진위면 야막리 255-1번지","category":"소매업 - 농산물판매, 체험농장"},{"name":"킹콩이농장","tel":"","addr":"경기도 평택시 진위면 야막리 255-1번지","category":"음료식품 - 농·축·수산품"}]},{"lat":"37.12378686","long":"127.05394625","items":[{"name":"토탈화원","tel":"","addr":"경기도 평택시 진위면 야막리 310-2번지","category":"소매업 - 화원"}]},{"lat":"37.119260226","long":"127.06122321","items":[{"name":"평화농원","tel":"031-667-4902","addr":"경기도 평택시 진위면 야막리 443","category":"소매업 - 화원"}]},{"lat":"37.123286949","long":"127.06317298","items":[{"name":"효성중전기산업사","tel":"031-668-1390","addr":"경기도 평택시 진위면 야막리 334-1","category":"기타 - 기계공구"}]}]