[{"lat":"37.884830912","long":"127.35037117","items":[{"name":"(재)예수의꽃동네유지재단노체리안드리자애","tel":"031-589-0301","addr":"경기도 가평군 조종면 운악리 540-2","category":"병원 - 병원"},{"name":"가평꽃동네구내매점","tel":"031-589-0100","addr":"경기도 가평군 조종면 운악리 540-2","category":"음료식품 - 기타음료식품"},{"name":"새벽숲농장","tel":"","addr":"경기도 가평군 조종면 운악리 540-2번지","category":"음료식품 - 농·축·수산품"}]},{"lat":"37.880227587","long":"127.34406379","items":[{"name":"(주)다함레저","tel":"031-585-7900","addr":"경기도 가평군 조종면 운악리 산162-8번지","category":"레저업소 - 골프경기장"}]},{"lat":"37.861004593","long":"127.35531612","items":[{"name":"가평곡물","tel":"031-585-0131","addr":"경기도 가평군 조종면 운악리 352번지","category":"음료식품 - 미곡상"}]},{"lat":"37.86525112","long":"127.34817681","items":[{"name":"가평심마니 임산물공판장","tel":"031-585-5835","addr":"경기도 가평군 조종면 운악리 455-2번지 1층","category":"음료식품 - 농·축·수산품"},{"name":"심향","tel":"031-585-1180","addr":"경기도 가평군 조종면 운악리 455-2","category":"레져용품 - 스포츠·레져용품"},{"name":"운악식당","tel":"031-585-3922","addr":"경기도 가평군 조종면 운악리 455-2","category":"일반휴게음식 - 일반한식"}]},{"lat":"37.873751872","long":"127.35861604","items":[{"name":"가평운악산잣농산","tel":"031-584-4084","addr":"경기도 가평군 조종면 운악리 256번지","category":"음료식품 - 농·축·수산품"},{"name":"가평운악산잣협동조합","tel":"070-4194-4084","addr":"경기도 가평군 조종면 운악리 256번지","category":"음료식품 - 농·축·수산품"}]},{"lat":"37.865257927","long":"127.34892689","items":[{"name":"고바우손두부집","tel":"031-584-3996","addr":"경기도 가평군 조종면 운악리 487-2번지","category":"일반휴게음식 - 일반한식"}]},{"lat":"37.867867477","long":"127.35304176","items":[{"name":"고향식당","tel":"","addr":"경기도 가평군 조종면 운악리 465-1번지","category":"일반휴게음식 - 일반한식"}]},{"lat":"37.890144441","long":"127.35103275","items":[{"name":"골드리버캐슬","tel":"031-584-4225","addr":"경기도 가평군 조종면 운악리 542-4번지 1층","category":"일반휴게음식 - 일반한식"}]},{"lat":"37.868142944","long":"127.35129289","items":[{"name":"그린잔디유원지","tel":"031-585-3862","addr":"경기도 가평군 조종면 운악리 472-1","category":"레저업소 - 기타레져업소"}]},{"lat":"37.865253383","long":"127.34740405","items":[{"name":"금강막국수","tel":"031-585-2235","addr":"경기도 가평군 조종면 운악리 455-12번지","category":"일반휴게음식 - 일반한식"}]},{"lat":"37.872033923","long":"127.35467536","items":[{"name":"금오알앤디","tel":"031-585-8121","addr":"경기도 가평군 조종면 운악리 278-3번지","category":"건축자재 - 부동산 분양"}]},{"lat":"37.865086418","long":"127.34903973","items":[{"name":"농업회사법인주식회사산바라기마을","tel":"031-584-9282","addr":"경기도 가평군 조종면 운악리 458","category":"레저업소 - 기타레져업소"},{"name":"현등식당","tel":"031-585-0191","addr":"경기도 가평군 조종면 운악리 458번지 459","category":"일반휴게음식 - 일반한식"}]},{"lat":"37.870562268","long":"127.33079018","items":[{"name":"대한불교조계종현등사","tel":"031-858-0707","addr":"경기도 가평군 조종면 운악리 산163","category":"기타 - 비영리/대상"}]},{"lat":"37.866314312","long":"127.35120473","items":[{"name":"등불","tel":"031-585-4600","addr":"경기도 가평군 조종면 운악리 462-15번지","category":"숙박업 - 여관/기타숙박업"}]},{"lat":"37.86400146","long":"127.34418217","items":[{"name":"라비에펜션","tel":"031-584-0704","addr":"경기도 가평군 조종면 운악리 426-18","category":"숙박업 - 여관/기타숙박업"}]},{"lat":"37.864008788","long":"127.34476177","items":[{"name":"러브엔스토리","tel":"031-585-4590","addr":"경기도 가평군 조종면 운악리 426-19","category":"숙박업 - 여관/기타숙박업"}]},{"lat":"37.864007896","long":"127.3450686","items":[{"name":"로즈웨이","tel":"070-4150-5894","addr":"경기도 가평군 조종면 운악리 426-20번지","category":"숙박업 - 여관/기타숙박업"}]},{"lat":"37.863033947","long":"127.3664284","items":[{"name":"르보아펜션","tel":"031-585-0987","addr":"경기도 가평군 조종면 운악리 83-8번지","category":"숙박업 - 여관/기타숙박업"}]},{"lat":"37.872392129","long":"127.36431494","items":[{"name":"리앤리어드바이저스(주)지점","tel":"031-580-9013","addr":"경기도 가평군 조종면 운악리 산90번지","category":"레저업소 - 골프경기장"}]},{"lat":"37.859668554","long":"127.34398037","items":[{"name":"마이츄풀빌라","tel":"","addr":"경기도 가평군 조종면 운악리 418-83번지","category":"숙박업 - 여관/기타숙박업"}]},{"lat":"37.87711233","long":"127.35862083","items":[{"name":"맑은물유원지","tel":"031-585-3970","addr":"경기도 가평군 조종면 운악리 174-5","category":"일반휴게음식 - 일반한식"}]},{"lat":"37.861504975","long":"127.350648","items":[{"name":"맛나농원","tel":"031-584-3839","addr":"경기도 가평군 조종면 운악리 442번지 맛나농원","category":"회원제형태 - 기타1"}]},{"lat":"37.859425988","long":"127.35295637","items":[{"name":"먹골농원","tel":"031-585-3087","addr":"경기도 가평군 조종면 운악리 330-1","category":"음료식품 - 농·축·수산품"}]},{"lat":"37.865641978","long":"127.35006512","items":[{"name":"명성식당","tel":"031-585-1226","addr":"경기도 가평군 조종면 운악리 462-23","category":"일반휴게음식 - 일반한식"}]},{"lat":"37.865006237","long":"127.34873252","items":[{"name":"묵집","tel":"031-585-1219","addr":"경기도 가평군 조종면 운악리 456","category":"음료식품 - 기타음료식품"},{"name":"샬롬의식당","tel":"031-585-7817","addr":"경기도 가평군 조종면 운악리 456","category":"일반휴게음식 - 일반한식"},{"name":"원조할머니손두부","tel":"031-585-1219","addr":"경기도 가평군 조종면 운악리 456번지","category":"일반휴게음식 - 일반한식"}]},{"lat":"37.86475478","long":"127.3484586","items":[{"name":"민정 만남의식당","tel":"031-585-3314","addr":"경기도 가평군 조종면 운악리 656-10번지","category":"일반휴게음식 - 일반한식"}]},{"lat":"37.88322863","long":"127.36192397","items":[{"name":"산여울","tel":"031-585-7009","addr":"경기도 가평군 조종면 운악리 220-2번지","category":"음료식품 - 기타음료식품"}]},{"lat":"37.866113802","long":"127.34893089","items":[{"name":"산이좋은사람들","tel":"031-585-8645","addr":"경기도 가평군 조종면 운악리 486-5번지","category":"일반휴게음식 - 서양음식"},{"name":"썸머힐운악","tel":"031-584-2797","addr":"경기도 가평군 조종면 운악리 486-5","category":"숙박업 - 여관/기타숙박업"}]},{"lat":"37.860452273","long":"127.35017714","items":[{"name":"성복농원","tel":"000-000-0000","addr":"경기도 가평군 조종면 운악리 408-1","category":"음료식품 - 농·축·수산품"}]},{"lat":"37.86455561","long":"127.34878723","items":[{"name":"세븐일레븐가평운악점","tel":"031-1577-0711","addr":"경기도 가평군 조종면 운악리 449번지","category":"유통업 영리 - 편 의 점"},{"name":"원흥상회","tel":"031-585-1328","addr":"경기도 가평군 조종면 운악리 449","category":"음료식품 - 기타음료식품"},{"name":"원흥식당","tel":"031-585-1328","addr":"경기도 가평군 조종면 운악리 449번지","category":"일반휴게음식 - 일반한식"}]},{"lat":"37.873334125","long":"127.35672735","items":[{"name":"세븐일레븐조종운악리점","tel":"031-1577-0711","addr":"경기도 가평군 조종면 운악리 279-21번지","category":"유통업 영리 - 편 의 점"}]},{"lat":"37.866889993","long":"127.35151428","items":[{"name":"스마일가든","tel":"031-585-1315","addr":"경기도 가평군 조종면 운악리 465-6","category":"일반휴게음식 - 일반한식"}]},{"lat":"37.864697668","long":"127.34642413","items":[{"name":"스카이","tel":"031-584-5425","addr":"경기도 가평군 조종면 운악리 425-1번지","category":"음료식품 - 기타음료식품"},{"name":"스카이펜션","tel":"031-584-5425","addr":"경기도 가평군 조종면 운악리 425-1번지","category":"숙박업 - 여관/기타숙박업"}]},{"lat":"37.864669579","long":"127.34678766","items":[{"name":"아름","tel":"031-585-9787","addr":"경기도 가평군 조종면 운악리 425-3번지 아름펜션","category":"일반휴게음식 - 일반한식"},{"name":"아름펜션 아름가든","tel":"","addr":"경기도 가평군 조종면 운악리 425-3번지","category":"숙박업 - 여관/기타숙박업"}]},{"lat":"37.864977914","long":"127.34609587","items":[{"name":"아테네커피","tel":"031-0000-0000","addr":"경기도 가평군 조종면 운악리 425-15번지 1층","category":"일반휴게음식 - 서양음식"}]},{"lat":"37.864229487","long":"127.34631968","items":[{"name":"아틀라스펜션","tel":"070-4407-3009","addr":"경기도 가평군 조종면 운악리 425번지","category":"숙박업 - 여관/기타숙박업"}]},{"lat":"37.859306571","long":"127.34453551","items":[{"name":"에코빌리지","tel":"","addr":"경기도 가평군 조종면 운악리 418-66번지","category":"숙박업 - 여관/기타숙박업"}]},{"lat":"37.864000603","long":"127.34447763","items":[{"name":"엘리사아펜션","tel":"031-585-4117","addr":"경기도 가평군 조종면 운악리 426-15","category":"숙박업 - 여관/기타숙박업"}]},{"lat":"37.861227678","long":"127.35603309","items":[{"name":"연진농원","tel":"","addr":"경기도 가평군 조종면 운악리 354번지","category":"음료식품 - 농·축·수산품"}]},{"lat":"37.865999883","long":"127.34783937","items":[{"name":"예해든펜션","tel":"031-584-9404","addr":"경기도 가평군 조종면 운악리 483-1","category":"숙박업 - 여관/기타숙박업"}]},{"lat":"37.869585357","long":"127.35098146","items":[{"name":"예해든펜션그랜드룸","tel":"031-585-5156","addr":"경기도 가평군 조종면 운악리 495번지","category":"숙박업 - 여관/기타숙박업"}]},{"lat":"37.866451807","long":"127.34734144","items":[{"name":"운악산힐링캠프","tel":"031-585-3130","addr":"경기도 가평군 조종면 운악리 489-11번지 2,3,4동","category":"숙박업 - 여관/기타숙박업"}]},{"lat":"37.865195597","long":"127.34867658","items":[{"name":"유경냉면","tel":"031-585-2435","addr":"경기도 가평군 조종면 운악리 455-10번지","category":"일반휴게음식 - 일반한식"},{"name":"유경냉면","tel":"031-585-2435","addr":"경기도 가평군 조종면 운악리 455-10번지 외1필지","category":"일반휴게음식 - 일반한식"}]},{"lat":"37.864784106","long":"127.3476746","items":[{"name":"은목약초","tel":"","addr":"경기도 가평군 조종면 운악리 425-7번지","category":"약국 - 한약방"},{"name":"황토가든","tel":"031-585-3837","addr":"경기도 가평군 조종면 운악리 425-7번지","category":"일반휴게음식 - 일반한식"}]},{"lat":"37.888969782","long":"127.35219812","items":[{"name":"음식공간","tel":"031-584-0715","addr":"경기도 가평군 조종면 운악리 542-1번지","category":"일반휴게음식 - 일반한식"}]},{"lat":"37.859338123","long":"127.35220597","items":[{"name":"자연관광가든 유원지","tel":"031-585-5334","addr":"경기도 가평군 조종면 운악리 403번지","category":"일반휴게음식 - 일반한식"}]},{"lat":"37.882363126","long":"127.36212437","items":[{"name":"주식회사 청소년지지교육청목","tel":"","addr":"경기도 가평군 조종면 운악리 214-6번지 운악초등학교","category":"학원 - 기타 교육기관"}]},{"lat":"37.874671813","long":"127.35529029","items":[{"name":"진동가든","tel":"02-1577-0000","addr":"경기도 가평군 조종면 운악리 272번지 1층","category":"일반휴게음식 - 일반한식"}]},{"lat":"37.861531056","long":"127.35701182","items":[{"name":"태리힐펜션","tel":"031-585-5507","addr":"경기도 가평군 조종면 운악리 355-1번지","category":"숙박업 - 여관/기타숙박업"}]},{"lat":"37.859029919","long":"127.34362516","items":[{"name":"태상","tel":"031-585-7792","addr":"경기도 가평군 조종면 운악리 418-82번지 1동 201호","category":"건축자재 - 인테리어전문"}]},{"lat":"37.857783981","long":"127.36853889","items":[{"name":"한화호텔앤드리조트(주)현등연구소점(단체","tel":"031-589-2937","addr":"경기도 가평군 조종면 운악리 64외33필지","category":"일반휴게음식 - 위탁급식업"}]},{"lat":"37.895749517","long":"127.35059302","items":[{"name":"햇살농원","tel":"031-585-0000","addr":"경기도 가평군 조종면 운악리 549-1번지","category":"레저업소 - 기타레져업소"}]},{"lat":"37.860529977","long":"127.34517752","items":[{"name":"화인스톤레인보우빌리지","tel":"070-5014-4897","addr":"경기도 가평군 조종면 운악리 418-57번지 외 23필지","category":"숙박업 - 여관/기타숙박업"}]}]