[{"lat":"37.821840969","long":"127.35528883","items":[{"name":"(주)우리에너지","tel":"031-585-0178","addr":"경기도 가평군 조종면 신하리 470-2번지","category":"연료판매점 - LPG 취급점"},{"name":"[지로]우리에너지","tel":"031-585-0178","addr":"경기도 가평군 조종면 신하리 470-2","category":"유통업 영리 - 인터넷 Mall"},{"name":"우리에너지","tel":"031-584-2822","addr":"경기도 가평군 조종면 신하리 470-2번지","category":"연료판매점 - LPG 취급점"}]},{"lat":"37.827866907","long":"127.35573775","items":[{"name":"계곡뜰펜션","tel":"031-585-0457","addr":"경기도 가평군 조종면 신하리 426-5번지","category":"숙박업 - 여관/기타숙박업"},{"name":"계곡뜰펜션","tel":"031-585-0457","addr":"경기도 가평군 조종면 신하리 426-5","category":"숙박업 - 여관/기타숙박업"}]},{"lat":"37.832176059","long":"127.35784837","items":[{"name":"그린필드","tel":"031-584-9872","addr":"경기도 가평군 조종면 신하리 396-6번지","category":"숙박업 - 여관/기타숙박업"}]},{"lat":"37.827509892","long":"127.36059751","items":[{"name":"금순네농원","tel":"031-585-0640","addr":"경기도 가평군 조종면 신하리 231번지 금순네농원","category":"회원제형태 - 기타1"}]},{"lat":"37.834005835","long":"127.36053799","items":[{"name":"다두농원","tel":"031-584-5865","addr":"경기도 가평군 조종면 신하리 344-1번지","category":"음료식품 - 농·축·수산품"}]},{"lat":"37.833729887","long":"127.36239962","items":[{"name":"동막골농원","tel":"031-584-6497","addr":"경기도 가평군 조종면 신하리 355번지 동막골농원","category":"음료식품 - 농·축·수산품"}]},{"lat":"37.837256444","long":"127.36112169","items":[{"name":"디파우제","tel":"031-585-8181","addr":"경기도 가평군 조종면 신하리 373-11번지","category":"숙박업 - 여관/기타숙박업"}]},{"lat":"37.82834205","long":"127.35951109","items":[{"name":"반석 절임배추","tel":"","addr":"경기도 가평군 조종면 신하리 226번지","category":"음료식품 - 기타음료식품"}]},{"lat":"37.825565996","long":"127.35989527","items":[{"name":"은혜농원","tel":"031-585-0618","addr":"경기도 가평군 조종면 신하리 216번지","category":"음료식품 - 농·축·수산품"}]},{"lat":"37.837981726","long":"127.36259065","items":[{"name":"키바 에어컨","tel":"070-4768-4120","addr":"경기도 가평군 조종면 신하리 375번지","category":"용역 서비스 - 기타용역서비스"}]},{"lat":"37.821535232","long":"127.3550943","items":[{"name":"투미쓰(To.miss)","tel":"031-584-7690","addr":"경기도 가평군 조종면 신하리 471-3","category":"음료식품 - 기타음료식품"}]}]