[{"lat":"37.234077134","long":"127.21420869","items":[{"name":"#옥이네#냉삼","tel":"031-322-8980","addr":"경기도 용인시 처인구 마평동 629-1번지 1층 일부","category":"일반휴게음식 - 일반한식"},{"name":"맛나면되지","tel":"031-339-5110","addr":"경기도 용인시 처인구 마평동 629-1번지 1층 일부","category":"일반휴게음식 - 일반한식"}]},{"lat":"37.232993546","long":"127.22048237","items":[{"name":"(사) 한국아마추어무선연맹","tel":"031-575-9580","addr":"경기도 용인시 처인구 마평동 535-3번지 1층","category":"용역 서비스 - 종합용역"},{"name":"신용카공업사","tel":"031-321-4431","addr":"경기도 용인시 처인구 마평동 535-3번지","category":"자동차정비 유지 - 자동차정비"}]},{"lat":"37.236606648","long":"127.21046307","items":[{"name":"(주)건화종합중기","tel":"031-321-0619","addr":"경기도 용인시 처인구 마평동 721-7번지 외2필지 302호","category":"기타 - 기계공구"},{"name":"소리돈문","tel":"031-333-4026","addr":"경기도 용인시 처인구 마평동 721-7번지 외2필지","category":"일반휴게음식 - 일반한식"},{"name":"수 인테리어","tel":"031-337-2569","addr":"경기도 용인시 처인구 마평동 721-7번지 청백빌딩 204호","category":"건축자재 - 인테리어전문"},{"name":"신박사양념숯불소갈비살","tel":"031-332-2292","addr":"경기도 용인시 처인구 마평동 721-7번지 1층","category":"일반휴게음식 - 일반한식"},{"name":"원광중기","tel":"031-336-7469","addr":"경기도 용인시 처인구 마평동 721-7번지 청백빌딩 302호","category":"기타 - 기계공구"},{"name":"제일중기","tel":"031-335-5600","addr":"경기도 용인시 처인구 마평동 721-7번지 3층 302호","category":"기타 - 기계공구"},{"name":"진우중기","tel":"031-339-1883","addr":"경기도 용인시 처인구 마평동 721-7번지 3층","category":"용역 서비스 - 기타용역서비스"},{"name":"혁신광고사","tel":"031-335-3320","addr":"경기도 용인시 처인구 마평동 721-7번지 101호","category":"용역 서비스 - 종합용역"}]},{"lat":"37.233496479","long":"127.21137859","items":[{"name":"(주)금마렌터카 용인점","tel":"031-335-2888","addr":"경기도 용인시 처인구 마평동 911번지","category":"여행 - 렌터카"}]},{"lat":"37.232272522","long":"127.23018263","items":[{"name":"(주)대일상사","tel":"031-321-8141","addr":"경기도 용인시 처인구 마평동 254-6번지","category":"건축자재 - 보일러·펌프·샷시"},{"name":"KS배터리","tel":"031-335-3006","addr":"경기도 용인시 처인구 마평동 254-6번지 2층 1,2,3호","category":"자동차정비 유지 - 자동차부품"},{"name":"그린환경개발","tel":"031-336-2595","addr":"경기도 용인시 처인구 마평동 254-6번지 세방빌딩 1층","category":"용역 서비스 - 종합용역"},{"name":"세정건축환경","tel":"070-7018-5392","addr":"경기도 용인시 처인구 마평동 254-6번지 세방빌딩 3층 304호","category":"용역 서비스 - 종합용역"},{"name":"월로펌프서비스","tel":"031-321-0293","addr":"경기도 용인시 처인구 마평동 254-6번지","category":"건축자재 - 보일러·펌프·샷시"},{"name":"으뜸종합설비","tel":"031-336-7891","addr":"경기도 용인시 처인구 마평동 254-6번지 세방빌딩","category":"용역 서비스 - 기타용역서비스"},{"name":"청담클린개발","tel":"031-323-7200","addr":"경기도 용인시 처인구 마평동 254-6번지 세방빌딩 3층 3호","category":"용역 서비스 - 종합용역"}]},{"lat":"37.22791083","long":"127.2160169","items":[{"name":"(주)바이앤","tel":"070-4888-5600","addr":"경기도 용인시 처인구 마평동 571-2번지 용인송담대학교 10동 704호","category":"기타 - 기계공구"},{"name":"(주)스핀지","tel":"","addr":"경기도 용인시 처인구 마평동 571-2번지 용인송담대학교 창의관 308호","category":"용역 서비스 - 소프트웨어"},{"name":"(주)지비엔텍","tel":"070-4007-7932","addr":"경기도 용인시 처인구 마평동 571-2번지 용인송담대학교 창업보육센터창의관 707호","category":"기타 - 기계공구"},{"name":"디자인영","tel":"031-336-8080","addr":"경기도 용인시 처인구 마평동 571-2번지 용인송담대학교산학협력단창업보육센터 2층 201호","category":"용역 서비스 - 사무서비스"},{"name":"에스에프디 (SFD)","tel":"031-333-5527","addr":"경기도 용인시 처인구 마평동 571-2번지 용인송담대학교 창의관 104호","category":"주방용구 - 주방용구"},{"name":"주식회사 민즈엠앤씨오","tel":"031-306-1357","addr":"경기도 용인시 처인구 마평동 571-2번지 용인송담대학교 B102호","category":"보건위생 - 의료용품"},{"name":"지비엔텍","tel":"070-4007-7932","addr":"경기도 용인시 처인구 마평동 571-2번지 용인송담대학교창업보육센터 202호","category":"기타 - 기계공구"},{"name":"지우테크","tel":"031-322-2934","addr":"경기도 용인시 처인구 마평동 571-2번지 용인송담대학교 창업보육센터","category":"건축자재 - 조명기구"},{"name":"팜누리","tel":"031-339-2008","addr":"경기도 용인시 처인구 마평동 571-2번지 용인송담대학교 창의관 301호","category":"농업 - 기타농업관련"},{"name":"플러스디자인","tel":"031-337-4567","addr":"경기도 용인시 처인구 마평동 571-2번지 용인송담대학교","category":"용역 서비스 - 사무서비스"}]},{"lat":"37.23638062","long":"127.21090195","items":[{"name":"(주)신우랑주택건설","tel":"031-338-7990","addr":"경기도 용인시 처인구 마평동 732번지","category":"용역 서비스 - 기타용역서비스"},{"name":"(주)중앙렌트카","tel":"031-321-2722","addr":"경기도 용인시 처인구 마평동 732 우량빌딩 301-1호","category":"여행 - 렌터카"},{"name":"더원","tel":"070-8272-6507","addr":"경기도 용인시 처인구 마평동 732번지 우량빌딩 301호","category":"용역 서비스 - 종합용역"},{"name":"등불노래연습장","tel":"031-337-0331","addr":"경기도 용인시 처인구 마평동 732번지 우량빌딩 지하1층","category":"레저업소 - 노 래 방"},{"name":"박가네해물아구찜","tel":"031-321-5360","addr":"경기도 용인시 처인구 마평동 732번지 1층","category":"일반휴게음식 - 일반한식"},{"name":"비상아이비츠학원","tel":"031-337-3521","addr":"경기도 용인시 처인구 마평동 732번지 우량빌딩 2층","category":"학원 - 보습학원"},{"name":"아람데코","tel":"031-339-4017","addr":"경기도 용인시 처인구 마평동 732번지 우량빌딩 305호","category":"건축자재 - 인테리어전문"},{"name":"착한세인트학생복 용인처인점","tel":"","addr":"경기도 용인시 처인구 마평동 732번지 우량빌딩 3층 303호","category":"의류 - 단체복"}]},{"lat":"37.23271555","long":"127.21976038","items":[{"name":"(주)유일한기획","tel":"031-321-8211","addr":"경기도 용인시 처인구 마평동 534-5번지","category":"서적문구 - 출판 및 인쇄물"},{"name":"동아모터","tel":"031-336-2513","addr":"경기도 용인시 처인구 마평동 534-5번지 나동","category":"수리서비스 - 기타수리서비스"},{"name":"삼일카센타","tel":"031-335-4411","addr":"경기도 용인시 처인구 마평동 534-5번지","category":"자동차정비 유지 - 자동차정비"},{"name":"팜크로스 (Farm Cross)","tel":"031-335-0711","addr":"경기도 용인시 처인구 마평동 534-5번지","category":"음료식품 - 기타음료식품"}]},{"lat":"37.237165107","long":"127.21056602","items":[{"name":"(주)커뮤니케이션하심","tel":"031-321-3062","addr":"경기도 용인시 처인구 마평동 717-3번지 4층","category":"사무통신 - 통신기기"},{"name":"드림24동물병원","tel":"031-335-7582","addr":"경기도 용인시 처인구 마평동 717-3번지 1층","category":"기타의료기관 - 동물병원"}]},{"lat":"37.237383865","long":"127.21424046","items":[{"name":"100년사골짬뽕","tel":"031-321-1119","addr":"경기도 용인시 처인구 마평동 695-7번지","category":"일반휴게음식 - 중국식"},{"name":"레져팩토리","tel":"070-8624-6100","addr":"경기도 용인시 처인구 마평동 695-7번지 2층","category":"레져용품 - 스포츠·레져용품"}]},{"lat":"37.23408443","long":"127.22013617","items":[{"name":"100반&국수","tel":"","addr":"경기도 용인시 처인구 마평동 522-6번지 A동 1층","category":"일반휴게음식 - 일반한식"}]},{"lat":"37.232023874","long":"127.21359445","items":[{"name":"EH&티켓","tel":"031-253-1357","addr":"경기도 용인시 처인구 마평동 606-5번지","category":"유통업 영리 - 기타유통업"},{"name":"대성유통","tel":"031-635-9520","addr":"경기도 용인시 처인구 마평동 606-5번지","category":"회원제형태 - 기타3"},{"name":"부동산월드공인중개사사무소","tel":"031-334-5715","addr":"경기도 용인시 처인구 마평동 606-5번지 1층","category":"용역 서비스 - 부동산 중개·임대"},{"name":"왁싱유","tel":"031-336-0909","addr":"경기도 용인시 처인구 마평동 606-5번지","category":"보건위생 - 피부미용실"},{"name":"임영탁세무회계사무소","tel":"031-323-1791","addr":"경기도 용인시 처인구 마평동 606-5번지 2층","category":"용역 서비스 - 법률회계서비스(개인)"},{"name":"하랑헤어","tel":"031-337-1351","addr":"경기도 용인시 처인구 마평동 606-5번지 1층","category":"보건위생 - 미용원"}]},{"lat":"37.234166351","long":"127.21470477","items":[{"name":"GS25동부동점","tel":"02-2006-2118","addr":"경기도 용인시 처인구 마평동 634-2번지","category":"유통업 영리 - 편 의 점"},{"name":"용인건기(선배골재중기)","tel":"031-332-5806","addr":"경기도 용인시 처인구 마평동 634-2번지","category":"건축자재 - 기타건축자재"},{"name":"주식회사용인건기","tel":"031-332-4752","addr":"경기도 용인시 처인구 마평동 634-2번지","category":"건축자재 - 기타건축자재"}]},{"lat":"37.229300252","long":"127.23881644","items":[{"name":"GS25용인신평점","tel":"02-2006-2118","addr":"경기도 용인시 처인구 마평동 217번지","category":"유통업 영리 - 편 의 점"}]},{"lat":"37.233411217","long":"127.21373354","items":[{"name":"KCV진성정보","tel":"031-1588-9823","addr":"경기도 용인시 처인구 마평동 618-7번지 송광빌딩 3층 301호","category":"사무통신 - 통신기기"},{"name":"미셀지역아동센터","tel":"031-335-7479","addr":"경기도 용인시 처인구 마평동 618-7번지 송광빌딩 201호","category":"기타 - 비영리/대상"},{"name":"세무사정용진사무소","tel":"031-336-6193","addr":"경기도 용인시 처인구 마평동 618-7번지 송광빌딩 2층","category":"용역 서비스 - 법률회계서비스(개인)"},{"name":"직거래수산","tel":"031-334-6767","addr":"경기도 용인시 처인구 마평동 618-7번지 1층","category":"일반휴게음식 - 일반한식"},{"name":"호담호두과자","tel":"031-338-9588","addr":"경기도 용인시 처인구 마평동 618-7번지 송광빌딩 1층","category":"일반휴게음식 - 일반한식"}]},{"lat":"37.23480404","long":"127.21584473","items":[{"name":"MEAT MART","tel":"","addr":"경기도 용인시 처인구 마평동 643번지 106호","category":"음료식품 - 정육점"},{"name":"경희대석사화랑태권도","tel":"031-322-7079","addr":"경기도 용인시 처인구 마평동 643번지 외2필지 203호","category":"학원 - 예·체능계학원"},{"name":"미트마트(MEAT MART)","tel":"031-333-9821","addr":"경기도 용인시 처인구 마평동 643번지 106호","category":"음료식품 - 정육점"},{"name":"배꼽시계","tel":"070-5104-7829","addr":"경기도 용인시 처인구 마평동 643번지 109호","category":"일반휴게음식 - 서양음식"},{"name":"본가장충왕족발","tel":"031-321-7613","addr":"경기도 용인시 처인구 마평동 643번지 108호","category":"일반휴게음식 - 일반한식"},{"name":"소망약국","tel":"031-338-0734","addr":"경기도 용인시 처인구 마평동 643번지 104호","category":"약국 - 약국"},{"name":"제이 인 뷰티(J in beauty)","tel":"031-000-0000","addr":"경기도 용인시 처인구 마평동 643번지 109호","category":"보건위생 - 피부미용실"},{"name":"첫눈에반하게","tel":"031-321-9863","addr":"경기도 용인시 처인구 마평동 643번지 103호","category":"보건위생 - 미용원"},{"name":"햇살치과의원","tel":"031-321-2879","addr":"경기도 용인시 처인구 마평동 643번지 201호","category":"의원 - 치과의원"}]},{"lat":"37.234662802","long":"127.21421032","items":[{"name":"MP3노래연습장","tel":"031-336-2358","addr":"경기도 용인시 처인구 마평동 649-4번지","category":"레저업소 - 노 래 방"},{"name":"육감만족(용인마평점)","tel":"031-333-9210","addr":"경기도 용인시 처인구 마평동 649-4번지 한림빌딩 1층","category":"일반휴게음식 - 일반한식"}]},{"lat":"37.232773607","long":"127.21253728","items":[{"name":"SBS스크린골프연습장","tel":"031-321-8666","addr":"경기도 용인시 처인구 마평동 602-41번지 2층","category":"레저업소 - 스크린골프"},{"name":"그늘집","tel":"031-321-8666","addr":"경기도 용인시 처인구 마평동 602-41번지 2층","category":"일반휴게음식 - 일반한식"}]},{"lat":"37.232942421","long":"127.21387873","items":[{"name":"SH조명전기","tel":"031-332-3257","addr":"경기도 용인시 처인구 마평동 618-30번지","category":"건축자재 - 목재·석재·철물"},{"name":"삼경","tel":"031-321-5718","addr":"경기도 용인시 처인구 마평동 618-30번지 1층","category":"건축자재 - 인테리어전문"},{"name":"삼경건축","tel":"031-321-5718","addr":"경기도 용인시 처인구 마평동 618-30번지 3층","category":"건축자재 - 인테리어전문"}]},{"lat":"37.234332784","long":"127.21231621","items":[{"name":"The coffee man","tel":"031-323-6016","addr":"경기도 용인시 처인구 마평동 626-21번지 주안빌리지","category":"음료식품 - 기타음료식품"}]},{"lat":"37.233852821","long":"127.21367842","items":[{"name":"The맛쪽갈비(마평점)","tel":"031-321-9287","addr":"경기도 용인시 처인구 마평동 616-1번지","category":"일반휴게음식 - 일반한식"},{"name":"고나영헤어갤러리","tel":"031-337-0907","addr":"경기도 용인시 처인구 마평동 616-1번지 1층","category":"보건위생 - 미용원"},{"name":"원타임마평점","tel":"031-323-1839","addr":"경기도 용인시 처인구 마평동 616-1번지","category":"유통업 영리 - 편 의 점"}]},{"lat":"37.23627407","long":"127.21509382","items":[{"name":"The좋은날","tel":"02-000-0000","addr":"경기도 용인시 처인구 마평동 676번지 성보빌딩","category":"일반휴게음식 - 서양음식"},{"name":"UC에듀어학원","tel":"031-323-2904","addr":"경기도 용인시 처인구 마평동 676번지 성보빌딩 3층","category":"학원 - 외국어학원"},{"name":"맵플러스수학교습소","tel":"031-336-7393","addr":"경기도 용인시 처인구 마평동 676번지 103호","category":"회원제형태 - 학원"},{"name":"버블슈즈","tel":"031-334-7022","addr":"경기도 용인시 처인구 마평동 676번지 성보빌딩 1층 102호","category":"수리서비스 - 세탁소"},{"name":"유씨(UC)에듀어학원","tel":"031-323-2904","addr":"경기도 용인시 처인구 마평동 676번지 성보빌딩 3층","category":"학원 - 보습학원"},{"name":"준카오디오","tel":"031-338-9966","addr":"경기도 용인시 처인구 마평동 676번지","category":"자동차정비 유지 - 카인테리어"},{"name":"콩헤어(hair)","tel":"","addr":"경기도 용인시 처인구 마평동 676번지 성보빌딩","category":"보건위생 - 미용원"}]},{"lat":"37.234465861","long":"127.21348856","items":[{"name":"WE MUSIC","tel":"031-321-8958","addr":"경기도 용인시 처인구 마평동 627-4번지 3층","category":"문화.취미 - 티켓"},{"name":"퀸스헤어","tel":"031-323-0615","addr":"경기도 용인시 처인구 마평동 627-4번지 2층","category":"보건위생 - 미용원"}]},{"lat":"37.236240845","long":"127.21351603","items":[{"name":"e해법수학/용인용마점이해법수학교습소","tel":"031-336-4308","addr":"경기도 용인시 처인구 마평동 671-11번지","category":"회원제형태 - 학원"},{"name":"제일미술음악학원","tel":"031-335-7445","addr":"경기도 용인시 처인구 마평동 671-11번지","category":"학원 - 예·체능계학원"},{"name":"착한마트","tel":"031-336-3553","addr":"경기도 용인시 처인구 마평동 671-11번지","category":"유통업 영리 - 슈퍼마켓"}]},{"lat":"37.236466002","long":"127.21357301","items":[{"name":"가마치통닭마평점","tel":"031-334-8292","addr":"경기도 용인시 처인구 마평동 671-9번지","category":"일반휴게음식 - 스넥"},{"name":"딩글(Dingle)","tel":"031-8097-2984","addr":"경기도 용인시 처인구 마평동 671-9번지 1층","category":"일반휴게음식 - 서양음식"},{"name":"맥주 아이스크림 더하기 마평동점","tel":"070-997-9970","addr":"경기도 용인시 처인구 마평동 671-9번지 1층","category":"유통업 영리 - 슈퍼마켓"},{"name":"주식회사 디에스솔루션즈","tel":"031-000-0000","addr":"경기도 용인시 처인구 마평동 671-9번지 2층","category":"용역 서비스 - 기타용역서비스"},{"name":"프랜드","tel":"031-321-9647","addr":"경기도 용인시 처인구 마평동 671-9번지","category":"일반휴게음식 - 주점"}]},{"lat":"37.229023754","long":"127.24190306","items":[{"name":"가야난원","tel":"031-321-8766","addr":"경기도 용인시 처인구 마평동 124-2번지","category":"문화.취미 - 화원"},{"name":"대박화원","tel":"031-334-6608","addr":"경기도 용인시 처인구 마평동 124-2번지 춘하추동꽃직매장 3호","category":"문화.취미 - 화원"},{"name":"들꽃다육식물","tel":"031-332-6576","addr":"경기도 용인시 처인구 마평동 124-2번지","category":"문화.취미 - 화원"},{"name":"산에들에","tel":"031-332-3939","addr":"경기도 용인시 처인구 마평동 124-2번지","category":"문화.취미 - 화원"},{"name":"샤론의 향기","tel":"031-334-2590","addr":"경기도 용인시 처인구 마평동 124-2","category":"문화.취미 - 화원"},{"name":"수다육식물","tel":"031-321-3051","addr":"경기도 용인시 처인구 마평동 124-2번지","category":"문화.취미 - 화원"},{"name":"예원","tel":"031-336-7448","addr":"경기도 용인시 처인구 마평동 124-2번지","category":"문화.취미 - 화원"},{"name":"제이팟다육","tel":"031-632-3111","addr":"경기도 용인시 처인구 마평동 124-2번지","category":"문화.취미 - 화원"},{"name":"춘하추동꽃농원","tel":"031-323-4354","addr":"경기도 용인시 처인구 마평동 124-2번지","category":"문화.취미 - 화원"},{"name":"트리안화원","tel":"031-333-7272","addr":"경기도 용인시 처인구 마평동 124-2번지 춘하추동꽃직매장 6호","category":"문화.취미 - 화원"},{"name":"행복한꽃집","tel":"031-334-3705","addr":"경기도 용인시 처인구 마평동 124-2번지 춘하추동꽃직매장 9호","category":"문화.취미 - 화원"}]},{"lat":"37.226611609","long":"127.24059964","items":[{"name":"감인의료재단 백세요양병원","tel":"031-332-5200","addr":"경기도 용인시 처인구 마평동 128번지","category":"병원 - 병원"},{"name":"용인목토요양병원","tel":"031-332-5752","addr":"경기도 용인시 처인구 마평동 128번지 지하 1~지상4층","category":"병원 - 병원"}]},{"lat":"37.232915541","long":"127.22368248","items":[{"name":"강대감","tel":"031-338-1587","addr":"경기도 용인시 처인구 마평동 510-8번지 양평해장국 (1층)","category":"일반휴게음식 - 일반한식"},{"name":"양평해장국","tel":"031-336-9092","addr":"경기도 용인시 처인구 마평동 510-8번지","category":"일반휴게음식 - 일반한식"}]},{"lat":"37.23907866","long":"127.21376059","items":[{"name":"강원도래요","tel":"031-337-0170","addr":"경기도 용인시 처인구 마평동 758-28번지 용인먹거리촌 9호","category":"일반휴게음식 - 스넥"},{"name":"세느강","tel":"031-335-0722","addr":"경기도 용인시 처인구 마평동 758-28번지 용인먹거리촌 6호","category":"일반휴게음식 - 일반한식"},{"name":"아리랑","tel":"031-322-4393","addr":"경기도 용인시 처인구 마평동 758-28번지 10호","category":"일반휴게음식 - 스넥"},{"name":"왕언니","tel":"031-321-7388","addr":"경기도 용인시 처인구 마평동 758-28,용인먹거리촌5","category":"일반휴게음식 - 일반한식"},{"name":"이모짱","tel":"031-335-1533","addr":"경기도 용인시 처인구 마평동 758-28 용인먹거리촌 8","category":"일반휴게음식 - 일반한식"},{"name":"일조","tel":"031-322-0083","addr":"경기도 용인시 처인구 마평동 758-28 용인먹거리촌 12","category":"일반휴게음식 - 일반한식"}]},{"lat":"37.236218929","long":"127.21061977","items":[{"name":"강원설비","tel":"031-335-1525","addr":"경기도 용인시 처인구 마평동 732-5번지","category":"용역 서비스 - 기타용역서비스"},{"name":"날마다맛있는집","tel":"031-332-9800","addr":"경기도 용인시 처인구 마평동 732-5번지","category":"일반휴게음식 - 일반한식"}]},{"lat":"37.233937145","long":"127.23137086","items":[{"name":"개버랜드","tel":"","addr":"경기도 용인시 처인구 마평동 457-1번지 1층","category":"일반휴게음식 - 일반한식"}]},{"lat":"37.23335611","long":"127.21431936","items":[{"name":"거성종합물산","tel":"031-321-6609","addr":"경기도 용인시 처인구 마평동 618-15번지 1층왼쪽","category":"기타 - 기계공구"},{"name":"싱크퓨어","tel":"","addr":"경기도 용인시 처인구 마평동 618-15번지","category":"주방용구 - 주방용구"},{"name":"예디기획","tel":"031-336-3880","addr":"경기도 용인시 처인구 마평동 618-15번지 2층","category":"용역 서비스 - 사무서비스"},{"name":"예스광고기획","tel":"031-335-8906","addr":"경기도 용인시 처인구 마평동 618-15번지 1층 서측호 예스광고기획","category":"건축자재 - 인테리어전문"},{"name":"월드기획","tel":"031-322-3434","addr":"경기도 용인시 처인구 마평동 618-15번지 2층","category":"용역 서비스 - 사무서비스"}]},{"lat":"37.232916422","long":"127.22320919","items":[{"name":"건우기업","tel":"031-321-2900","addr":"경기도 용인시 처인구 마평동 511-3번지","category":"건축자재 - 보일러·펌프·샷시"},{"name":"동양강철용인대리점","tel":"031-336-5949","addr":"경기도 용인시 처인구 마평동 511-3번지","category":"건축자재 - 보일러·펌프·샷시"},{"name":"명품손짜장","tel":"031-339-5666","addr":"경기도 용인시 처인구 마평동 511-3번지 동양빌딩","category":"일반휴게음식 - 중국식"}]},{"lat":"37.233550007","long":"127.21673144","items":[{"name":"경기 냉난방기 종합설비","tel":"031-337-1475","addr":"경기도 용인시 처인구 마평동 637-2번지","category":"전기제품 - 냉열기기"}]},{"lat":"37.237319544","long":"127.21493898","items":[{"name":"경기막걸리용인총판","tel":"031-332-9939","addr":"경기도 용인시 처인구 마평동 681번지 나동 1층","category":"음료식품 - 주류 판매점"}]},{"lat":"37.234272591","long":"127.21068205","items":[{"name":"경기얼음마트","tel":"031-336-2618","addr":"경기도 용인시 처인구 마평동 894번지","category":"유통업 영리 - 슈퍼마켓"},{"name":"봉화한약우가든","tel":"031-321-7896","addr":"경기도 용인시 처인구 마평동 894번지 외2필지 2층","category":"일반휴게음식 - 일반한식"},{"name":"산오징어바다","tel":"031-334-5285","addr":"경기도 용인시 처인구 마평동 894번지 외2필지","category":"일반휴게음식 - 일반한식"},{"name":"소마볏짚삼겹살","tel":"031-321-9285","addr":"경기도 용인시 처인구 마평동 894번지","category":"일반휴게음식 - 일반한식"},{"name":"참품한우","tel":"031-321-7896","addr":"경기도 용인시 처인구 마평동 894번지","category":"음료식품 - 정육점"}]},{"lat":"37.23832942","long":"127.21453611","items":[{"name":"경원에너지","tel":"031-321-9204","addr":"경기도 용인시 처인구 마평동 701-1번지 동명빌딩 105호","category":"전기제품 - 기타전기제품"},{"name":"먹보네식당","tel":"031-333-4707","addr":"경기도 용인시 처인구 마평동 701-1번지 1층","category":"일반휴게음식 - 일반한식"},{"name":"축구매니아","tel":"031-338-9911","addr":"경기도 용인시 처인구 마평동 701-1번지 동명빌딩 104호","category":"레져용품 - 스포츠·레져용품"},{"name":"터줏대감","tel":"031-335-0088","addr":"경기도 용인시 처인구 마평동 701-1번지","category":"일반휴게음식 - 주점"},{"name":"토스톡","tel":"031-335-9204","addr":"경기도 용인시 처인구 마평동 701-1번지 동명빌딩 105호","category":"일반휴게음식 - 일반한식"}]},{"lat":"37.232941182","long":"127.22442629","items":[{"name":"경인광고기획","tel":"031-321-5977","addr":"경기도 용인시 처인구 마평동 493-3번지 한영빌딩 1층 왼쪽편상가","category":"용역 서비스 - 종합용역"},{"name":"라이크카케어 (LIKE CAR CARE)","tel":"031-338-1101","addr":"경기도 용인시 처인구 마평동 493-3번지 한영빌딩 1층","category":"자동차정비 유지 - 세차장"}]},{"lat":"37.231914747","long":"127.21415758","items":[{"name":"경인냉동","tel":"031-339-5855","addr":"경기도 용인시 처인구 마평동 605-1","category":"회원제형태 - 기타4"},{"name":"라이프컴퓨터세탁","tel":"031-336-1690","addr":"경기도 용인시 처인구 마평동 605-1번지 라이프아파트","category":"수리서비스 - 세탁소"}]},{"lat":"37.230022085","long":"127.21443401","items":[{"name":"계경목장","tel":"031-334-2035","addr":"경기도 용인시 처인구 마평동 582-3","category":"일반휴게음식 - 일반한식"},{"name":"대박통신","tel":"031-338-6590","addr":"경기도 용인시 처인구 마평동 582-3번지","category":"사무통신 - 통신기기"},{"name":"신포차","tel":"","addr":"경기도 용인시 처인구 마평동 582-3번지","category":"일반휴게음식 - 일반한식"},{"name":"어거스트더치 (August Dutch)","tel":"070-4007-5739","addr":"경기도 용인시 처인구 마평동 582-3번지 1층","category":"일반휴게음식 - 서양음식"},{"name":"한큐당구장","tel":"031-322-4407","addr":"경기도 용인시 처인구 마평동 582-3번지","category":"레저업소 - 당 구 장"},{"name":"해랑","tel":"031-336-5857","addr":"경기도 용인시 처인구 마평동 582-3번지","category":"일반휴게음식 - 일반한식"},{"name":"힘찬공인중개사사무소","tel":"031-321-5422","addr":"경기도 용인시 처인구 마평동 582-3","category":"용역 서비스 - 부동산 중개·임대"}]},{"lat":"37.226720111","long":"127.2167685","items":[{"name":"고기사랑","tel":"031-321-1551","addr":"경기도 용인시 처인구 마평동 546-2번지 1층","category":"일반휴게음식 - 일반한식"},{"name":"고기사랑","tel":"031-321-1551","addr":"경기도 용인시 처인구 마평동 546-2번지 1층","category":"음료식품 - 정육점"},{"name":"주식회사 영광골재","tel":"031-338-8289","addr":"경기도 용인시 처인구 마평동 546-2번지","category":"건축자재 - 기타건축자재"}]},{"lat":"37.221966018","long":"127.24321031","items":[{"name":"고려칼라프린팅","tel":"031-339-9396","addr":"경기도 용인시 처인구 마평동 155번지","category":"서적문구 - 출판 및 인쇄물"}]},{"lat":"37.236858699","long":"127.21059899","items":[{"name":"고바우양분식","tel":"031-336-0071","addr":"경기도 용인시 처인구 마평동 720-4번지","category":"일반휴게음식 - 일반한식"},{"name":"몸(MOM)","tel":"031-328-1742","addr":"경기도 용인시 처인구 마평동 720-4번지 102호","category":"보건위생 - 화장품"},{"name":"스마트에너지","tel":"","addr":"경기도 용인시 처인구 마평동 720-4번지 3층 303호","category":"기타 - 기계공구"}]},{"lat":"37.229386189","long":"127.24534101","items":[{"name":"고향맛집","tel":"031-334-0678","addr":"경기도 용인시 처인구 마평동 39-3번지","category":"일반휴게음식 - 일반한식"},{"name":"신평마트","tel":"031-321-0930","addr":"경기도 용인시 처인구 마평동 39-3번지","category":"유통업 영리 - 슈퍼마켓"},{"name":"신평순대국","tel":"02-336-7326","addr":"경기도 용인시 처인구 마평동 39-3번지 가동외1필지","category":"일반휴게음식 - 일반한식"}]},{"lat":"37.233408267","long":"127.22034834","items":[{"name":"골프카페","tel":"031-335-0753","addr":"경기도 용인시 처인구 마평동 519-1번지","category":"레저업소 - 골프연습장"},{"name":"디알(DR)골프","tel":"031-322-8725","addr":"경기도 용인시 처인구 마평동 519-1번지","category":"레져용품 - 골프용품 전문점"},{"name":"병진상사","tel":"031-336-4733","addr":"경기도 용인시 처인구 마평동 519-1번지","category":"자동차정비 유지 - 자동차부품"},{"name":"에이치엔","tel":"031-323-3411","addr":"경기도 용인시 처인구 마평동 519-1번지","category":"전기제품 - 냉열기기"},{"name":"용인지프하우스","tel":"031-335-6854","addr":"경기도 용인시 처인구 마평동 519-1번지","category":"자동차정비 유지 - 자동차정비"}]},{"lat":"37.233356412","long":"127.21415033","items":[{"name":"공구프라자","tel":"031-339-0989","addr":"경기도 용인시 처인구 마평동 618-16번지","category":"기타 - 기계공구"}]},{"lat":"37.234102674","long":"127.21504266","items":[{"name":"과일나라","tel":"031-336-8868","addr":"경기도 용인시 처인구 마평동 634-1번지","category":"음료식품 - 농·축·수산품"},{"name":"토탈블랙박스","tel":"031-336-8460","addr":"경기도 용인시 처인구 마평동 634-1번지","category":"의류 - 정장"}]},{"lat":"37.234547694","long":"127.21307183","items":[{"name":"광어 두마리","tel":"031-321-0370","addr":"경기도 용인시 처인구 마평동 627-3","category":"음료식품 - 농·축·수산품"},{"name":"본죽(용인마평점)","tel":"031-338-6288","addr":"경기도 용인시 처인구 마평동 627-3","category":"일반휴게음식 - 일반한식"}]},{"lat":"37.23521623","long":"127.21207074","items":[{"name":"교촌치킨(용인2호점)","tel":"031-335-5478","addr":"경기도 용인시 처인구 마평동 657-14번지","category":"일반휴게음식 - 스넥"},{"name":"마평뒷고기","tel":"031-322-1288","addr":"경기도 용인시 처인구 마평동 657-14번지 1층","category":"일반휴게음식 - 일반한식"},{"name":"블루스카이남성헤어컷전문점","tel":"031-338-2106","addr":"경기도 용인시 처인구 마평동 657-14","category":"보건위생 - 미용원"},{"name":"스마일당구","tel":"070-8964-7703","addr":"경기도 용인시 처인구 마평동 657-14번지","category":"레저업소 - 당 구 장"},{"name":"이벤트 노래연습장","tel":"031-338-7044","addr":"경기도 용인시 처인구 마평동 657-14번지 B1층","category":"레저업소 - 노 래 방"}]},{"lat":"37.232106926","long":"127.21249036","items":[{"name":"구공탄곱창","tel":"070-4300-9010","addr":"경기도 용인시 처인구 마평동 879번지 1층","category":"일반휴게음식 - 일반한식"},{"name":"구공탄곱창","tel":"070-4300-9010","addr":"경기도 용인시 처인구 마평동 879번지","category":"일반휴게음식 - 일반한식"},{"name":"설악산건강원","tel":"031-336-0072","addr":"경기도 용인시 처인구 마평동 879번지","category":"건강식품 - 기타건강식품"},{"name":"한국미싱","tel":"031-339-5244","addr":"경기도 용인시 처인구 마평동 879번지 4호","category":"전기제품 - 기타전기제품"}]},{"lat":"37.236074271","long":"127.21090111","items":[{"name":"구피노래연습장","tel":"031-335-2653","addr":"경기도 용인시 처인구 마평동 732-2번지 진흥빌딩 지하1층","category":"레저업소 - 노 래 방"},{"name":"삽교천어부바다횟집","tel":"031-332-7474","addr":"경기도 용인시 처인구 마평동 732-2번지 진흥빌라7차 주상복합 101호","category":"일반휴게음식 - 일반한식"},{"name":"용인아센휘트니스클럽","tel":"031-335-9199","addr":"경기도 용인시 처인구 마평동 732-2번지 진흥빌라7차 201호","category":"회원제형태 - 레져업소"},{"name":"유경숙샵","tel":"031-339-3949","addr":"경기도 용인시 처인구 마평동 732-2번지 진흥빌라7차(주상복합)102-1,102-2호","category":"보건위생 - 미용원"},{"name":"제뉴인","tel":"0707-592-1690","addr":"경기도 용인시 처인구 마평동 732-2번지 진흥빌라 403호","category":"신변잡화 - 기타잡화"},{"name":"황금식당","tel":"031-337-0408","addr":"경기도 용인시 처인구 마평동 732-2번지","category":"일반휴게음식 - 일반한식"}]},{"lat":"37.233469745","long":"127.21120948","items":[{"name":"굿모닝동물병원","tel":"031-339-5575","addr":"경기도 용인시 처인구 마평동 907번지","category":"기타의료기관 - 동물병원"}]},{"lat":"37.233358936","long":"127.21273047","items":[{"name":"굿잡코리아(good-job-korea)","tel":"070-7198-1930","addr":"경기도 용인시 처인구 마평동 620-1번지 3층","category":"신변잡화 - 기타잡화"},{"name":"그린철물","tel":"031-335-7151","addr":"경기도 용인시 처인구 마평동 620-1번지","category":"기타 - 기계공구"}]},{"lat":"37.236384969","long":"127.21353897","items":[{"name":"궁중떡방","tel":"031-335-1595","addr":"경기도 용인시 처인구 마평동 671-19번지","category":"음료식품 - 제과점"},{"name":"신일미용실","tel":"031-335-8722","addr":"경기도 용인시 처인구 마평동 671-19번지","category":"보건위생 - 미용원"},{"name":"힐스템","tel":"031-322-2334","addr":"경기도 용인시 처인구 마평동 671-19번지","category":"보건위생 - 피부미용실"}]},{"lat":"37.23538042","long":"127.21093301","items":[{"name":"귀빈보석","tel":"031-321-4181","addr":"경기도 용인시 처인구 마평동 728-5번지","category":"신변잡화 - 시계"},{"name":"두리아숯불바베큐","tel":"031-338-1055","addr":"경기도 용인시 처인구 마평동 728-5번지 1층","category":"일반휴게음식 - 주점"},{"name":"미스터야주(Mr.야주)","tel":"031-336-5686","addr":"경기도 용인시 처인구 마평동 728-5번지 1층","category":"일반휴게음식 - 일반한식"},{"name":"삼흥볼트","tel":"031-335-2556","addr":"경기도 용인시 처인구 마평동 728-5번지","category":"건축자재 - 목재·석재·철물"},{"name":"태창상사","tel":"031-339-2727","addr":"경기도 용인시 처인구 마평동 728-5번지","category":"음료식품 - 기타음료식품"}]},{"lat":"37.234213498","long":"127.21853635","items":[{"name":"그비가인","tel":"","addr":"경기도 용인시 처인구 마평동 957번지 푸른마을용인자이 상가동 102호","category":"음료식품 - 기타음료식품"},{"name":"드망(DEMAIN)","tel":"070-7469-5050","addr":"경기도 용인시 처인구 마평동 957번지 푸른마을용인자이 상가동 103호","category":"의류 - 정장"},{"name":"맑은스킨. 바디","tel":"","addr":"경기도 용인시 처인구 마평동 957번지 푸른마을용인자이 상가동 2층 202호","category":"보건위생 - 피부미용실"},{"name":"소풍더하기","tel":"031-334-9032","addr":"경기도 용인시 처인구 마평동 957번지 푸른마을용인자이 상가동 1층 102호","category":"일반휴게음식 - 스넥"},{"name":"자이세탁소","tel":"031-335-3582","addr":"경기도 용인시 처인구 마평동 957번지 푸른마을용인자이 상가 201호","category":"수리서비스 - 세탁소"},{"name":"자이즐거운음악교습소","tel":"031-321-8641","addr":"경기도 용인시 처인구 마평동 957번지 푸른마을용인자이 상가동 203호","category":"학원 - 예·체능계학원"},{"name":"히요코","tel":"","addr":"경기도 용인시 처인구 마평동 957번지 푸른마을용인자이 상가동 103호","category":"의류 - 아동의류"}]},{"lat":"37.235578943","long":"127.21076452","items":[{"name":"글라스박스안경","tel":"031-322-7117","addr":"경기도 용인시 처인구 마평동 728-1","category":"보건위생 - 안경"},{"name":"밀보리식당","tel":"031-338-4510","addr":"경기도 용인시 처인구 마평동 728-1","category":"일반휴게음식 - 일반한식"},{"name":"용인종합계기","tel":"031-335-4482","addr":"경기도 용인시 처인구 마평동 728-1","category":"기타 - 기계공구"},{"name":"현대공구","tel":"031-335-0693","addr":"경기도 용인시 처인구 마평동 728-1","category":"기타 - 기계공구"}]},{"lat":"37.234936592","long":"127.21728754","items":[{"name":"금강인테리어","tel":"031-322-4177","addr":"경기도 용인시 처인구 마평동 929번지","category":"건축자재 - 인테리어전문"}]},{"lat":"37.234965848","long":"127.21098821","items":[{"name":"금메달미용실","tel":"031-335-1705","addr":"경기도 용인시 처인구 마평동 736번지","category":"보건위생 - 미용원"},{"name":"맘모스","tel":"031-339-4953","addr":"경기도 용인시 처인구 마평동 736번지","category":"보건위생 - 미용재료"},{"name":"뽀빠이노래연습장","tel":"031-338-8415","addr":"경기도 용인시 처인구 마평동 736번지 2층","category":"레저업소 - 노 래 방"},{"name":"삼성종합인테리어","tel":"031-323-4774","addr":"경기도 용인시 처인구 마평동 736번지 1층 3호","category":"건축자재 - 인테리어전문"}]},{"lat":"37.226500629","long":"127.21354528","items":[{"name":"금호자동차공업사","tel":"031-335-8008","addr":"경기도 용인시 처인구 마평동 555-2번지","category":"자동차정비 유지 - 자동차정비"}]},{"lat":"37.234438489","long":"127.21368005","items":[{"name":"김가네칼국수","tel":"031-338-7801","addr":"경기도 용인시 처인구 마평동 627-12번지","category":"일반휴게음식 - 일반한식"},{"name":"오복건강원","tel":"031-336-9966","addr":"경기도 용인시 처인구 마평동 627-12번지 성욱빌딩 1층","category":"건강식품 - 기타건강식품"},{"name":"훼이스&바디스토리","tel":"031-335-9978","addr":"경기도 용인시 처인구 마평동 627-12번지 2층","category":"보건위생 - 피부미용실"}]},{"lat":"37.234665327","long":"127.21279043","items":[{"name":"김미럽","tel":"02-000-0000","addr":"경기도 용인시 처인구 마평동 626-1번지 대명그린빌 101호","category":"일반휴게음식 - 일반한식"}]},{"lat":"37.234717065","long":"127.21409778","items":[{"name":"김밥천국","tel":"031-333-6333","addr":"경기도 용인시 처인구 마평동 955주공상가105호","category":"일반휴게음식 - 일반한식"}]},{"lat":"37.232384426","long":"127.21351657","items":[{"name":"김영준세무회계사무소","tel":"031-321-2126","addr":"경기도 용인시 처인구 마평동 602-10번지","category":"용역 서비스 - 법률회계서비스(개인)"},{"name":"인선건강원","tel":"031-336-3563","addr":"경기도 용인시 처인구 마평동 602-10번지","category":"건강식품 - 기타건강식품"}]},{"lat":"37.23432688","long":"127.21562928","items":[{"name":"꼬지사께 마평점","tel":"031-322-0428","addr":"경기도 용인시 처인구 마평동 644-3번지 1층","category":"일반휴게음식 - 일반한식"},{"name":"담","tel":"031-333-3877","addr":"경기도 용인시 처인구 마평동 644-3","category":"일반휴게음식 - 일반한식"},{"name":"하늘모터스","tel":"031-337-1321","addr":"경기도 용인시 처인구 마평동 644-3","category":"자동차판매 - 이륜차판매"}]},{"lat":"37.235604904","long":"127.21137312","items":[{"name":"꽃나라물나라","tel":"031-336-3365","addr":"경기도 용인시 처인구 마평동 727-1번지 희성빌딩 102호","category":"문화.취미 - 화원"},{"name":"마평59쌀피자","tel":"031-322-8959","addr":"경기도 용인시 처인구 마평동 727-1번지 희성빌딩 101호","category":"일반휴게음식 - 서양음식"},{"name":"마평통닭","tel":"031-321-8987","addr":"경기도 용인시 처인구 마평동 727-1번지 외1필지","category":"일반휴게음식 - 주점"},{"name":"상락원꽃방","tel":"031-333-5588","addr":"경기도 용인시 처인구 마평동 727-1번지 희성빌딩 1층 8호","category":"문화.취미 - 화원"},{"name":"아모레외판","tel":"031-337-1782","addr":"경기도 용인시 처인구 마평동 727-1번지","category":"보건위생 - 화장품"},{"name":"아모레외판","tel":"031-337-1782","addr":"경기도 용인시 처인구 마평동 727-1번지","category":"보건위생 - 화장품"},{"name":"왕십리순대국","tel":"031-339-0880","addr":"경기도 용인시 처인구 마평동 727-1번지 희성빌딩","category":"일반휴게음식 - 일반한식"},{"name":"용인성산로타리클럽","tel":"031-323-3602","addr":"경기도 용인시 처인구 마평동 727-1번지","category":"기타 - 비영리/대상"},{"name":"용인수족관","tel":"031-336-3365","addr":"경기도 용인시 처인구 마평동 727-1번지","category":"문화.취미 - 수족관"},{"name":"용인제일한의원","tel":"031-332-8887","addr":"경기도 용인시 처인구 마평동 727-1번지 2층","category":"의원 - 한의원"},{"name":"용인주니어스포츠클럽","tel":"031-1600-6802","addr":"경기도 용인시 처인구 마평동 727-1번지 희성빌딩","category":"학원 - 예·체능계학원"},{"name":"창","tel":"","addr":"경기도 용인시 처인구 마평동 727-1번지 희성빌딩 A동 301호","category":"보건위생 - 화장품"},{"name":"커피2.0(COFFEE2.0)","tel":"031-7621-7903","addr":"경기도 용인시 처인구 마평동 727-1번지 희성빌딩 가동 103호","category":"일반휴게음식 - 서양음식"}]},{"lat":"37.236909684","long":"127.21234588","items":[{"name":"꽃내음","tel":"031-000-0000","addr":"경기도 용인시 처인구 마평동 686-1번지 1층","category":"문화.취미 - 화원"},{"name":"이화타일","tel":"031-335-9609","addr":"경기도 용인시 처인구 마평동 686-1번지 1층","category":"건축자재 - 건축용 요업제품"}]},{"lat":"37.234633189","long":"127.21565268","items":[{"name":"꾀보반찬","tel":"02-1111-1111","addr":"경기도 용인시 처인구 마평동 644-1번지","category":"음료식품 - 기타음료식품"}]},{"lat":"37.236219503","long":"127.2153754","items":[{"name":"날고더해날다","tel":"","addr":"경기도 용인시 처인구 마평동 675-1번지 영평빌딩 지하1층","category":"레져용품 - 스포츠·레져용품"},{"name":"모스트학원","tel":"031-338-0579","addr":"경기도 용인시 처인구 마평동 675-1번지 영평빌딩 2층","category":"학원 - 보습학원"},{"name":"용인대올림픽체육관","tel":"031-321-8863","addr":"경기도 용인시 처인구 마평동 675-1번지 영평빌딩 지하1층","category":"학원 - 예·체능계학원"},{"name":"포스트피자","tel":"031-321-8484","addr":"경기도 용인시 처인구 마평동 675-1번지","category":"일반휴게음식 - 스넥"},{"name":"홍익미술예담음악학원","tel":"031-337-1590","addr":"경기도 용인시 처인구 마평동 675-1번지 3층","category":"학원 - 예·체능계학원"}]},{"lat":"37.236858402","long":"127.21076803","items":[{"name":"낭만치킨","tel":"031-333-3250","addr":"경기도 용인시 처인구 마평동 720-5번지 101호","category":"일반휴게음식 - 스넥"},{"name":"네일언니","tel":"02-0000-0000","addr":"경기도 용인시 처인구 마평동 720-5번지 101호","category":"보건위생 - 피부미용실"}]},{"lat":"37.234193724","long":"127.21451328","items":[{"name":"내폼스타일","tel":"031-336-8254","addr":"경기도 용인시 처인구 마평동 627-11번지","category":"수리서비스 - 세탁소"},{"name":"상미헤어","tel":"031-335-8973","addr":"경기도 용인시 처인구 마평동 627-11번지","category":"보건위생 - 미용원"},{"name":"와부로눈물떡볶이 (용인점)","tel":"031-336-9289","addr":"경기도 용인시 처인구 마평동 627-11번지 1호","category":"일반휴게음식 - 일반한식"},{"name":"와부로숯불구이","tel":"031-336-9289","addr":"경기도 용인시 처인구 마평동 627-11번지","category":"일반휴게음식 - 일반한식"}]},{"lat":"37.235187143","long":"127.21323137","items":[{"name":"놀부옛날통닭","tel":"031-322-4292","addr":"경기도 용인시 처인구 마평동 653-4번지","category":"일반휴게음식 - 일반한식"},{"name":"안옥순헤어클릭","tel":"031-321-2005","addr":"경기도 용인시 처인구 마평동 653-4번지","category":"보건위생 - 미용원"}]},{"lat":"37.236051729","long":"127.21345916","items":[{"name":"누나네식당","tel":"031-339-8584","addr":"경기도 용인시 처인구 마평동 671-18번지","category":"일반휴게음식 - 일반한식"}]},{"lat":"37.231250171","long":"127.21292746","items":[{"name":"누리광고","tel":"031-336-0904","addr":"경기도 용인시 처인구 마평동 601-10번지","category":"용역 서비스 - 종합용역"}]},{"lat":"37.23352424","long":"127.22097973","items":[{"name":"늘푸른아동상담센터","tel":"031-322-5832","addr":"경기도 용인시 처인구 마평동 518-12번지 2층","category":"보건위생 - 기타대인서비스"},{"name":"아이지에스컨설팅(주)","tel":"02-365-3335","addr":"경기도 용인시 처인구 마평동 518-12번지 르노삼성자동차용인지점 301호","category":"회원제형태 - 기타4"}]},{"lat":"37.237408088","long":"127.21073573","items":[{"name":"다래궁","tel":"031-332-2230","addr":"경기도 용인시 처인구 마평동 717-4번지","category":"일반휴게음식 - 중국식"}]},{"lat":"37.226522088","long":"127.21665526","items":[{"name":"다준O&C","tel":"031-323-5109","addr":"경기도 용인시 처인구 마평동 548번지 2층","category":"자동차정비 유지 - 자동차부품"},{"name":"수리카센타","tel":"031-333-2328","addr":"경기도 용인시 처인구 마평동 548번지","category":"자동차정비 유지 - 자동차정비"}]},{"lat":"37.235660628","long":"127.21042666","items":[{"name":"대나무집","tel":"031-335-0468","addr":"경기도 용인시 처인구 마평동 734-5번지","category":"일반휴게음식 - 일반한식"},{"name":"화성토종순대국","tel":"031-337-1119","addr":"경기도 용인시 처인구 마평동 734-5번지 1층","category":"일반휴게음식 - 일반한식"}]},{"lat":"37.22716332","long":"127.21582324","items":[{"name":"대명마트","tel":"031-337-2045","addr":"경기도 용인시 처인구 마평동 568-2번지","category":"유통업 영리 - 슈퍼마켓"},{"name":"대명해장국","tel":"031-337-2045","addr":"경기도 용인시 처인구 마평동 568-2번지","category":"일반휴게음식 - 일반한식"},{"name":"조은기획인쇄","tel":"031-321-0388","addr":"경기도 용인시 처인구 마평동 568-2번지","category":"서적문구 - 출판 및 인쇄물"},{"name":"태성카센타","tel":"031-321-0972","addr":"경기도 용인시 처인구 마평동 568-2번지","category":"자동차정비 유지 - 자동차정비"}]},{"lat":"37.234747496","long":"127.21218213","items":[{"name":"대명한의원","tel":"031-321-1275","addr":"경기도 용인시 처인구 마평동 625-5번지","category":"의원 - 한의원"},{"name":"서원치과의원","tel":"031-337-2875","addr":"경기도 용인시 처인구 마평동 625-5번지","category":"의원 - 치과의원"}]},{"lat":"37.232269271","long":"127.21240066","items":[{"name":"대박막창닭발","tel":"031-335-8778","addr":"경기도 용인시 처인구 마평동 878번지","category":"일반휴게음식 - 일반한식"},{"name":"물레방아","tel":"031-338-5954","addr":"경기도 용인시 처인구 마평동 878번지","category":"일반휴게음식 - 스넥"},{"name":"자갈치숯불꼼장어","tel":"031-321-3915","addr":"경기도 용인시 처인구 마평동 878번지 1층","category":"일반휴게음식 - 일반한식"},{"name":"장수집묵은지쪽갈비찜","tel":"031-337-2231","addr":"경기도 용인시 처인구 마평동 878번지","category":"일반휴게음식 - 일반한식"}]},{"lat":"37.235829287","long":"127.21186958","items":[{"name":"대박집","tel":"031-335-0724","addr":"경기도 용인시 처인구 마평동 657-9번지","category":"음료식품 - 기타음료식품"}]},{"lat":"37.23543285","long":"127.2169058","items":[{"name":"대성상사","tel":"","addr":"경기도 용인시 처인구 마평동 923번지 용인두보아파트","category":"회원제형태 - 기타3"}]},{"lat":"37.233324608","long":"127.21176125","items":[{"name":"대연암","tel":"","addr":"경기도 용인시 처인구 마평동 858-29번지 102호","category":"보건위생 - 기타대인서비스"},{"name":"동우엠알오","tel":"031-339-1256","addr":"경기도 용인시 처인구 마평동 858-29번지","category":"용역 서비스 - 기타용역서비스"},{"name":"태성종합공구","tel":"031-336-0944","addr":"경기도 용인시 처인구 마평동 858-29번지","category":"기타 - 기계공구"}]},{"lat":"37.233358537","long":"127.21295584","items":[{"name":"대일공구나라","tel":"031-323-0984","addr":"경기도 용인시 처인구 마평동 620-7번지","category":"건축자재 - 목재·석재·철물"}]},{"lat":"37.233190834","long":"127.23056852","items":[{"name":"대정","tel":"031-337-1212","addr":"경기도 용인시 처인구 마평동 263-1번지","category":"건축자재 - 목재·석재·철물"}]},{"lat":"37.232464776","long":"127.21393374","items":[{"name":"대진상사","tel":"031-322-7750","addr":"경기도 용인시 처인구 마평동 607-25번지","category":"건축자재 - 페인트"}]},{"lat":"37.233882675","long":"127.21712679","items":[{"name":"대창건재","tel":"031-335-2037","addr":"경기도 용인시 처인구 마평동 638-4번지","category":"건축자재 - 기타건축자재"},{"name":"한일화공약품","tel":"031-335-1491","addr":"경기도 용인시 처인구 마평동 638-4번지","category":"약국 - 제약회사"}]},{"lat":"37.231193723","long":"127.21426825","items":[{"name":"대한불교 법성종 대불암","tel":"070-4623-0418","addr":"경기도 용인시 처인구 마평동 590-1번지","category":"용역 서비스 - 사무서비스"}]},{"lat":"37.235049338","long":"127.21471851","items":[{"name":"대한불교 법성종 선녀암","tel":"","addr":"경기도 용인시 처인구 마평동 650-1번지 마평우성아파트","category":"보건위생 - 기타대인서비스"},{"name":"신흥","tel":"","addr":"경기도 용인시 처인구 마평동 650-1번지 마평우성아파트","category":"용역 서비스 - 기타용역서비스"},{"name":"청춘푸드","tel":"031-332-2621","addr":"경기도 용인시 처인구 마평동 650-1번지 마평우성아파트","category":"음료식품 - 기타음료식품"}]},{"lat":"37.234880934","long":"127.21315164","items":[{"name":"대한사료","tel":"031-336-7719","addr":"경기도 용인시 처인구 마평동 652-2번지","category":"농업 - 비료,사료,종자"}]},{"lat":"37.234020164","long":"127.21076024","items":[{"name":"대한자동차공업사","tel":"031-333-5522","addr":"경기도 용인시 처인구 마평동 897번지 외1필지","category":"자동차정비 유지 - 자동차정비"}]},{"lat":"37.230771144","long":"127.21375999","items":[{"name":"더굿피씨카페(The Good Cafe)","tel":"031-335-4196","addr":"경기도 용인시 처인구 마평동 595번지 석산빌딩 2층","category":"레저업소 - 기타레져업소"},{"name":"동원샘물","tel":"031-337-1786","addr":"경기도 용인시 처인구 마평동 595번지","category":"유통업 영리 - 기타유통업"},{"name":"또와또피자","tel":"031-335-7562","addr":"경기도 용인시 처인구 마평동 595번지 서산빌딩","category":"일반휴게음식 - 서양음식"},{"name":"미니스톱용인송담대점","tel":"031-335-6526","addr":"경기도 용인시 처인구 마평동 595번지","category":"유통업 영리 - 편 의 점"},{"name":"우리노래연습장","tel":"031-335-1142","addr":"경기도 용인시 처인구 마평동 595번지 석산빌딩","category":"레저업소 - 노 래 방"},{"name":"웰컴당구장","tel":"031-335-6526","addr":"경기도 용인시 처인구 마평동 595번지 석산빌딩","category":"레저업소 - 당 구 장"}]},{"lat":"37.232828784","long":"127.21190638","items":[{"name":"더설렘코리안디저트공방","tel":"070-4116-0319","addr":"경기도 용인시 처인구 마평동 867번지","category":"일반휴게음식 - 일반한식"},{"name":"카파커피","tel":"031-334-0243","addr":"경기도 용인시 처인구 마평동 867번지","category":"일반휴게음식 - 서양음식"}]},{"lat":"37.234522954","long":"127.21682434","items":[{"name":"더스토리","tel":"","addr":"경기도 용인시 처인구 마평동 642번지 설성빌딩 1층 101호","category":"일반휴게음식 - 서양음식"},{"name":"더쌤수학교습소","tel":"070-7763-9160","addr":"경기도 용인시 처인구 마평동 642번지 설성빌딩 104호","category":"회원제형태 - 학원"},{"name":"레고봉봉","tel":"031-336-7607","addr":"경기도 용인시 처인구 마평동 642번지 설성빌딩 302호","category":"학원 - 기타 교육기관"},{"name":"비에이치씨(BHC)마평점","tel":"031-334-9282","addr":"경기도 용인시 처인구 마평동 642번지 설성빌딩","category":"일반휴게음식 - 스넥"},{"name":"세븐일레븐용인마평자이점","tel":"031-1577-0711","addr":"경기도 용인시 처인구 마평동 642번지 103호","category":"유통업 영리 - 편 의 점"},{"name":"용인대청도체육관","tel":"031-335-2318","addr":"경기도 용인시 처인구 마평동 642번지 2층","category":"학원 - 예·체능계학원"},{"name":"용인처인마평한우리독서토론논술교습소","tel":"031-323-6016","addr":"경기도 용인시 처인구 마평동 642번지 설성빌딩 3층","category":"학원 - 보습학원"},{"name":"인경학원","tel":"031-338-2119","addr":"경기도 용인시 처인구 마평동 642번지 설성빌딩 2층 일부","category":"학원 - 보습학원"},{"name":"조미희헤어샵","tel":"031-321-9678","addr":"경기도 용인시 처인구 마평동 642번지 102호","category":"보건위생 - 미용원"}]},{"lat":"37.234385509","long":"127.21307138","items":[{"name":"더아나 스튜디오","tel":"031-333-2455","addr":"경기도 용인시 처인구 마평동 627-8번지 1층 1호","category":"광학제품 - 사진관"},{"name":"잉크충전방","tel":"031-338-8320","addr":"경기도 용인시 처인구 마평동 627-8번지","category":"사무통신 - 기타 사무용품"},{"name":"제이스타커피","tel":"031-338-9488","addr":"경기도 용인시 처인구 마평동 627-8번지 1층","category":"일반휴게음식 - 서양음식"},{"name":"한량고기","tel":"031-332-5315","addr":"경기도 용인시 처인구 마평동 627-8번지 1호","category":"일반휴게음식 - 일반한식"},{"name":"히트다히트","tel":"031-333-8281","addr":"경기도 용인시 처인구 마평동 627-8번지 1층","category":"일반휴게음식 - 일반한식"},{"name":"히트다히트","tel":"031-333-8281","addr":"경기도 용인시 처인구 마평동 627-8번지","category":"일반휴게음식 - 일반한식"}]},{"lat":"37.234374965","long":"127.21893122","items":[{"name":"더제인STUDIO","tel":"","addr":"경기도 용인시 처인구 마평동 957번지 푸른마을용인자이 104동 602호","category":"광학제품 - 사진관"}]},{"lat":"37.229802595","long":"127.24439581","items":[{"name":"더하기 메디컬","tel":"031-323-4789","addr":"경기도 용인시 처인구 마평동 368-1번지 1층","category":"보건위생 - 의료용품"},{"name":"세븐일레븐용인신평중앙점","tel":"031-1577-0711","addr":"경기도 용인시 처인구 마평동 368-1번지","category":"유통업 영리 - 편 의 점"}]},{"lat":"37.228108021","long":"127.21659213","items":[{"name":"데일리프레소","tel":"","addr":"경기도 용인시 처인구 마평동 571-1 조화관동지하1층","category":"일반휴게음식 - 일반한식"},{"name":"로봇을 만드는 친구들","tel":"031-321-5466","addr":"경기도 용인시 처인구 마평동 571-1 용인송담대학창업보육센터 219","category":"서적문구 - 과학기자재"},{"name":"용인송담대학","tel":"031-330-9141","addr":"경기도 용인시 처인구 마평동 571-1","category":"기타 - 비영리/대상"},{"name":"용인송담대학구내서점","tel":"031-330-9452","addr":"경기도 용인시 처인구 마평동 571-1용인송담대학내","category":"서적문구 - 일반서적"},{"name":"파앤텍","tel":"031-323-2523","addr":"경기도 용인시 처인구 마평동 571-1용인송담대학창업보육센터307","category":"기타 - 기계공구"}]},{"lat":"37.233717506","long":"127.2137682","items":[{"name":"도야지","tel":"031-338-8586","addr":"경기도 용인시 처인구 마평동 616-6번지","category":"일반휴게음식 - 일반한식"},{"name":"참치일번가","tel":"031-332-1405","addr":"경기도 용인시 처인구 마평동 616-6번지 1층","category":"일반휴게음식 - 일반한식"}]},{"lat":"37.232882508","long":"127.2120981","items":[{"name":"도원정보시스템","tel":"070-8656-9220","addr":"경기도 용인시 처인구 마평동 858-9번지 외3필지","category":"수리서비스 - 사무·통신기기수리"},{"name":"스마일동물병원","tel":"031-337-0372","addr":"경기도 용인시 처인구 마평동 858-9번지","category":"기타의료기관 - 동물병원"},{"name":"신세계 엘이디 조명","tel":"031-335-5300","addr":"경기도 용인시 처인구 마평동 858-9번지","category":"건축자재 - 조명기구"},{"name":"월드여행사","tel":"031-333-0058","addr":"경기도 용인시 처인구 마평동 858-9번지","category":"여행 - 관광여행"},{"name":"주식회사 용인가축약품","tel":"031-296-2272","addr":"경기도 용인시 처인구 마평동 858-9번지","category":"기타의료기관 - 동물병원"}]},{"lat":"37.231356311","long":"127.21404334","items":[{"name":"돈오인쇄기획","tel":"031-336-4288","addr":"경기도 용인시 처인구 마평동 604-5번지","category":"서적문구 - 출판 및 인쇄물"},{"name":"오드리네일","tel":"031-8097-3522","addr":"경기도 용인시 처인구 마평동 604-5번지","category":"보건위생 - 피부미용실"}]},{"lat":"37.22868707","long":"127.21526412","items":[{"name":"동남카센타","tel":"031-335-7434","addr":"경기도 용인시 처인구 마평동 572-11번지","category":"자동차정비 유지 - 자동차부품"}]},{"lat":"37.230109679","long":"127.2440362","items":[{"name":"동네치킨","tel":"031-339-3259","addr":"경기도 용인시 처인구 마평동 367-1번지","category":"일반휴게음식 - 일반한식"}]},{"lat":"37.229494375","long":"127.24086786","items":[{"name":"동백농원","tel":"031-335-1179","addr":"경기도 용인시 처인구 마평동 116-2","category":"문화.취미 - 화원"},{"name":"라비앙로즈","tel":"031-339-2237","addr":"경기도 용인시 처인구 마평동 116-2","category":"문화.취미 - 화원"}]},{"lat":"37.234741422","long":"127.2105143","items":[{"name":"동부이발관","tel":"031-337-0698","addr":"경기도 용인시 처인구 마평동 858-7번지","category":"보건위생 - 이용원"},{"name":"봉화체육사,씨엔씨무역","tel":"031-336-0085","addr":"경기도 용인시 처인구 마평동 858-7번지","category":"신변잡화 - 기타잡화"},{"name":"쌍용공구","tel":"031-336-8988","addr":"경기도 용인시 처인구 마평동 858-7번지","category":"기타 - 기계공구"},{"name":"용인그린케미칼","tel":"031-336-4202","addr":"경기도 용인시 처인구 마평동 858-7번지","category":"농업 - 비료,사료,종자"},{"name":"제일청과","tel":"031-336-7849","addr":"경기도 용인시 처인구 마평동 858-7번지","category":"음료식품 - 농·축·수산품"},{"name":"태경","tel":"031-334-5850","addr":"경기도 용인시 처인구 마평동 858-7번지 1층","category":"음료식품 - 기타음료식품"}]},{"lat":"37.23413234","long":"127.21356651","items":[{"name":"동부텔레콤","tel":"031-338-2468","addr":"경기도 용인시 처인구 마평동 628-1번지","category":"사무통신 - 통신기기"},{"name":"멋쟁이","tel":"070-8113-3634","addr":"경기도 용인시 처인구 마평동 628-1번지 1층","category":"의류 - 정장"},{"name":"영환기획","tel":"031-336-3118","addr":"경기도 용인시 처인구 마평동 628-1번지","category":"사무통신 - 통신기기"},{"name":"최수현헤어","tel":"031-321-1335","addr":"경기도 용인시 처인구 마평동 628-1번지 103호","category":"보건위생 - 미용원"}]},{"lat":"37.234026575","long":"127.21223648","items":[{"name":"동양공구","tel":"031-338-8987","addr":"경기도 용인시 처인구 마평동 622번지","category":"기타 - 기계공구"}]},{"lat":"37.232828952","long":"127.22178908","items":[{"name":"동양샷시부속","tel":"031-336-5947","addr":"경기도 용인시 처인구 마평동 537번지","category":"건축자재 - 보일러·펌프·샷시"},{"name":"삼미종합금속","tel":"031-322-2768","addr":"경기도 용인시 처인구 마평동 537번지 1층","category":"건축자재 - 보일러·펌프·샷시"},{"name":"태화우드","tel":"031-323-2551","addr":"경기도 용인시 처인구 마평동 537번지","category":"건축자재 - 인테리어전문"},{"name":"협성호스상사","tel":"031-336-4851","addr":"경기도 용인시 처인구 마평동 537번지","category":"건축자재 - 기타건축자재"}]},{"lat":"37.233359375","long":"127.21248255","items":[{"name":"동양전기","tel":"031-335-4547","addr":"경기도 용인시 처인구 마평동 620-3번지 1층","category":"전기제품 - 기타전기제품"},{"name":"동양종합볼트","tel":"031-321-0257","addr":"경기도 용인시 처인구 마평동 620-3번지","category":"기타 - 기계공구"},{"name":"시디스디자인","tel":"031-333-1790","addr":"경기도 용인시 처인구 마평동 620-3번지","category":"용역 서비스 - 종합용역"}]},{"lat":"37.233997727","long":"127.21326188","items":[{"name":"동양종합보일러","tel":"031-321-1199","addr":"경기도 용인시 처인구 마평동 628-9번지 1층","category":"건축자재 - 보일러·펌프·샷시"}]},{"lat":"37.23401909","long":"127.21642851","items":[{"name":"동양철물건재상사","tel":"031-336-5976","addr":"경기도 용인시 처인구 마평동 639-4번지","category":"기타 - 기계공구"}]},{"lat":"37.233333181","long":"127.21200919","items":[{"name":"동우건설중기","tel":"031-332-1881","addr":"경기도 용인시 처인구 마평동 620번지","category":"자동차판매 - 기타운송"},{"name":"부국종합중기","tel":"031-322-6957","addr":"경기도 용인시 처인구 마평동 620번지","category":"기타 - 기계공구"},{"name":"신한펌프카","tel":"031-355-6980","addr":"경기도 용인시 처인구 마평동 620번지 동양공구백화점","category":"기타 - 기계공구"},{"name":"용인펌프카","tel":"031-336-8984","addr":"경기도 용인시 처인구 마평동 620","category":"기타 - 기계공구"},{"name":"정우조경중기","tel":"031-798-4444","addr":"경기도 용인시 처인구 마평동 620번지 동양공구백화점","category":"건축자재 - 인테리어전문"},{"name":"정우종합중기","tel":"031-336-8984","addr":"경기도 용인시 처인구 마평동 620번지 동양공구백화점","category":"기타 - 기계공구"},{"name":"정우종합중기","tel":"031-339-4638","addr":"경기도 용인시 처인구 마평동 620번지","category":"기타 - 기계공구"},{"name":"정우종합중기(주)","tel":"031-336-8984","addr":"경기도 용인시 처인구 마평동 620번지 동양공구백화점 2층","category":"기타 - 기계공구"},{"name":"정우펌프카","tel":"031-333-4877","addr":"경기도 용인시 처인구 마평동 620번지 동양공구백화점","category":"건축자재 - 기타건축자재"},{"name":"진성종합중기","tel":"031-769-1163","addr":"경기도 용인시 처인구 마평동 620번지","category":"기타 - 기계공구"},{"name":"처인지게차","tel":"031-339-8599","addr":"경기도 용인시 처인구 마평동 620번지 동양공구백화점","category":"기타 - 기계공구"},{"name":"필승커뮤니케이션","tel":"031-336-1879","addr":"경기도 용인시 처인구 마평동 620번지 동양공구백화점","category":"용역 서비스 - 종합용역"},{"name":"화승고압호스","tel":"031-339-2398","addr":"경기도 용인시 처인구 마평동 620번지","category":"기타 - 기계공구"}]},{"lat":"37.23349669","long":"127.22126137","items":[{"name":"동진판넬","tel":"031-338-7567","addr":"경기도 용인시 처인구 마평동 518-11번지","category":"건축자재 - 기타건축자재"},{"name":"분도청과","tel":"","addr":"경기도 용인시 처인구 마평동 518-11번지","category":"음료식품 - 농·축·수산품"}]},{"lat":"37.233440253","long":"127.22254586","items":[{"name":"동태사랑","tel":"031-339-4469","addr":"경기도 용인시 처인구 마평동 514-2번지","category":"일반휴게음식 - 일반한식"},{"name":"산채골","tel":"031-338-2211","addr":"경기도 용인시 처인구 마평동 514-2번지 1층","category":"일반휴게음식 - 일반한식"}]},{"lat":"37.233687751","long":"127.22025899","items":[{"name":"돼박집","tel":"031-339-9599","addr":"경기도 용인시 처인구 마평동 520번지","category":"일반휴게음식 - 일반한식"},{"name":"차밍피부샵","tel":"031-332-9569","addr":"경기도 용인시 처인구 마평동 520번지","category":"자동차정비 유지 - 세차장"}]},{"lat":"37.234997928","long":"127.21323085","items":[{"name":"뚜레쥬르 용인마평","tel":"031-331-7894","addr":"경기도 용인시 처인구 마평동 652-4번지","category":"음료식품 - 제과점"},{"name":"유사랑의원","tel":"031-321-3231","addr":"경기도 용인시 처인구 마평동 652-4번지","category":"의원 - 의원"}]},{"lat":"37.234324891","long":"127.21673363","items":[{"name":"레드호프","tel":"031-334-6999","addr":"경기도 용인시 처인구 마평동 640-1번지 가동","category":"일반휴게음식 - 주점"}]},{"lat":"37.234883287","long":"127.2118219","items":[{"name":"렛츠핫요가(Let's Hot Yoga)","tel":"031-333-0622","addr":"경기도 용인시 처인구 마평동 625번지 3층","category":"회원제형태 - 레져업소"},{"name":"영자의전성시대","tel":"031-338-0080","addr":"경기도 용인시 처인구 마평동 625번지","category":"보건위생 - 미용원"},{"name":"청년 모바일","tel":"031-332-1160","addr":"경기도 용인시 처인구 마평동 625번지 1층","category":"사무통신 - 통신기기"}]},{"lat":"37.234602055","long":"127.21290295","items":[{"name":"롯데나뚜루용인마평점","tel":"031-339-3172","addr":"경기도 용인시 처인구 마평동 626-29번지","category":"음료식품 - 제과점"},{"name":"핑크여우","tel":"031-338-3408","addr":"경기도 용인시 처인구 마평동 626-29번지","category":"보건위생 - 화장품"}]},{"lat":"37.23080169","long":"127.23592512","items":[{"name":"루비네다육(꽃담자기도윤네)","tel":"031-321-3229","addr":"경기도 용인시 처인구 마평동 290-2","category":"문화.취미 - 화원"}]},{"lat":"37.23479876","long":"127.21375994","items":[{"name":"리스빌","tel":"031-337-2172","addr":"경기도 용인시 처인구 마평동 649-3","category":"숙박업 - 여관/기타숙박업"}]},{"lat":"37.2368562","long":"127.21201892","items":[{"name":"마니커닭직매장","tel":"031-336-0034","addr":"경기도 용인시 처인구 마평동 688-1번지","category":"음료식품 - 정육점"}]},{"lat":"37.234608439","long":"127.21437921","items":[{"name":"마평당구클럽","tel":"070-7018-5392","addr":"경기도 용인시 처인구 마평동 649-5번지","category":"레저업소 - 당 구 장"},{"name":"젠피시방","tel":"031-307-1288","addr":"경기도 용인시 처인구 마평동 649-5번지","category":"레저업소 - 기타레져업소"},{"name":"주문진회집","tel":"031-321-1277","addr":"경기도 용인시 처인구 마평동 649-5번지 1층","category":"일반휴게음식 - 일식·회집"},{"name":"한쌤탁구클럽","tel":"031-338-0709","addr":"경기도 용인시 처인구 마평동 649-5번지 3층","category":"레저업소 - 기타레져업소"}]},{"lat":"37.235801699","long":"127.21218505","items":[{"name":"마평맨숀","tel":"031-328-8789","addr":"경기도 용인시 처인구 마평동 661-5번지 지층 1-2","category":"일반휴게음식 - 서양음식"}]},{"lat":"37.230964739","long":"127.23548615","items":[{"name":"마평산업개발,이가네김사부","tel":"031-322-7954","addr":"경기도 용인시 처인구 마평동 290번지","category":"일반휴게음식 - 일반한식"}]},{"lat":"37.234197341","long":"127.21751083","items":[{"name":"마평예쁜사랑어린이집","tel":"031-334-5885","addr":"경기도 용인시 처인구 마평동 957번지 푸른마을용인자이","category":"학원 - 유아원"}]},{"lat":"37.235053108","long":"127.21259993","items":[{"name":"마평자전거","tel":"031-335-7441","addr":"경기도 용인시 처인구 마평동 656-2번지","category":"레져용품 - 스포츠·레져용품"}]},{"lat":"37.234190834","long":"127.21612473","items":[{"name":"마평카인테리어","tel":"031-335-4196","addr":"경기도 용인시 처인구 마평동 639-3번지","category":"자동차정비 유지 - 자동차정비"}]},{"lat":"37.234388512","long":"127.21642955","items":[{"name":"마평한솔플러스수학교습소","tel":"031-321-8060","addr":"경기도 용인시 처인구 마평동 640-10번지","category":"회원제형태 - 학원"},{"name":"우림갈비","tel":"","addr":"경기도 용인시 처인구 마평동 640-10번지","category":"일반휴게음식 - 일반한식"}]},{"lat":"37.231800337","long":"127.21262473","items":[{"name":"만성오리돌구이","tel":"031-333-2357","addr":"경기도 용인시 처인구 마평동 859-1번지 1층","category":"일반휴게음식 - 일반한식"}]},{"lat":"37.236148995","long":"127.2144962","items":[{"name":"만세청과","tel":"","addr":"경기도 용인시 처인구 마평동 956번지 마평주공아파트","category":"음료식품 - 농·축·수산품"}]},{"lat":"37.233416126","long":"127.22581375","items":[{"name":"맘다육","tel":"031-284-2120","addr":"경기도 용인시 처인구 마평동 496-1번지","category":"문화.취미 - 화원"}]},{"lat":"37.234744397","long":"127.21392882","items":[{"name":"맛있는 식당","tel":"031-339-9008","addr":"경기도 용인시 처인구 마평동 649-6번지 1층","category":"일반휴게음식 - 일반한식"},{"name":"참조은약국","tel":"031-322-6911","addr":"경기도 용인시 처인구 마평동 649-6번지","category":"약국 - 약국"}]},{"lat":"37.233359116","long":"127.21262905","items":[{"name":"매일전기","tel":"031-335-7399","addr":"경기도 용인시 처인구 마평동 620-4번지","category":"전기제품 - 기타전기제품"}]},{"lat":"37.232912671","long":"127.21539993","items":[{"name":"매직터치","tel":"031-336-6969","addr":"경기도 용인시 처인구 마평동 610-4번지","category":"자동차정비 유지 - 카인테리어"},{"name":"장어명가","tel":"031-335-0584","addr":"경기도 용인시 처인구 마평동 610-4번지 1층","category":"일반휴게음식 - 일반한식"}]},{"lat":"37.231358394","long":"127.21287141","items":[{"name":"맨앤맨","tel":"031-339-6200","addr":"경기도 용인시 처인구 마평동 601-9번지 1층 일부","category":"보건위생 - 미용원"}]},{"lat":"37.237491908","long":"127.21428584","items":[{"name":"머내","tel":"031-338-6668","addr":"경기도 용인시 처인구 마평동 695-6번지","category":"일반휴게음식 - 일반한식"}]},{"lat":"37.229382779","long":"127.23809553","items":[{"name":"멜론상사","tel":"031-323-0875","addr":"경기도 용인시 처인구 마평동 223번지","category":"자동차정비 유지 - 자동차부품"},{"name":"일등카서비스","tel":"031-334-9337","addr":"경기도 용인시 처인구 마평동 223번지","category":"자동차정비 유지 - 자동차정비"}]},{"lat":"37.233605058","long":"127.2111197","items":[{"name":"명성소금구이","tel":"031-336-1247","addr":"경기도 용인시 처인구 마평동 906번지 1층","category":"일반휴게음식 - 일반한식"},{"name":"석골","tel":"031-332-8886","addr":"경기도 용인시 처인구 마평동 906번지 1층","category":"일반휴게음식 - 일반한식"}]},{"lat":"37.231049204","long":"127.23376233","items":[{"name":"명성천막공업사","tel":"031-334-1675","addr":"경기도 용인시 처인구 마평동 240-4번지","category":"직물 - 카페트,커튼,천막,지물"}]},{"lat":"37.233491608","long":"127.21912027","items":[{"name":"명품가구","tel":"031-339-5015","addr":"경기도 용인시 처인구 마평동 529-2번지","category":"가구 - 일반가구"}]},{"lat":"37.234992106","long":"127.21142778","items":[{"name":"목화다방","tel":"031-332-1120","addr":"경기도 용인시 처인구 마평동 740-1번지","category":"일반휴게음식 - 서양음식"},{"name":"열린매점","tel":"031-323-1118","addr":"경기도 용인시 처인구 마평동 740-1번지","category":"음료식품 - 기타음료식품"},{"name":"열린정육점","tel":"031-323-1118","addr":"경기도 용인시 처인구 마평동 740-1번지","category":"음료식품 - 정육점"}]},{"lat":"37.233609142","long":"127.21390312","items":[{"name":"무지개인테리어","tel":"031-335-0960","addr":"경기도 용인시 처인구 마평동 617-1 태양연립306","category":"회원제형태 - 기타4"}]},{"lat":"37.2350208","long":"127.21048126","items":[{"name":"미진슈퍼","tel":"031-335-7346","addr":"경기도 용인시 처인구 마평동 735-1번지","category":"유통업 영리 - 슈퍼마켓"},{"name":"스카이당구클럽","tel":"031-328-3979","addr":"경기도 용인시 처인구 마평동 735-1번지 2층","category":"레저업소 - 당 구 장"},{"name":"헤어피플미용실","tel":"031-338-0929","addr":"경기도 용인시 처인구 마평동 735-1번지","category":"보건위생 - 미용원"}]},{"lat":"37.23488673","long":"127.21495471","items":[{"name":"밀탑베이커리","tel":"031-337-0944","addr":"경기도 용인시 처인구 마평동 650-1번지 우성 상가 108동 109호","category":"음료식품 - 제과점"},{"name":"우성떡집","tel":"031-338-8351","addr":"경기도 용인시 처인구 마평동 650-1","category":"음료식품 - 제과점"},{"name":"진학원","tel":"031-333-3020","addr":"경기도 용인시 처인구 마평동 650-1번지","category":"학원 - 보습학원"}]},{"lat":"37.235743452","long":"127.21454015","items":[{"name":"바다","tel":"070-7018-5392","addr":"경기도 용인시 처인구 마평동 956번지 마평주공아파트","category":"음료식품 - 기타음료식품"}]},{"lat":"37.227774595","long":"127.24472738","items":[{"name":"바른랙","tel":"031-339-8482","addr":"경기도 용인시 처인구 마평동 127번지 105호","category":"건축자재 - 기타건축자재"},{"name":"원헤어토탈뷰티라인","tel":"031-1644-9040","addr":"경기도 용인시 처인구 마평동 127번지 102호","category":"보건위생 - 미용원"},{"name":"케이문구","tel":"031-8580-7890","addr":"경기도 용인시 처인구 마평동 127번지 102호","category":"서적문구 - 문구용품"}]},{"lat":"37.235495986","long":"127.21182359","items":[{"name":"바른푸드","tel":"031-328-5553","addr":"경기도 용인시 처인구 마평동 657-4번지 1층,2층","category":"일반휴게음식 - 중국식"},{"name":"연플라워","tel":"031-336-8600","addr":"경기도 용인시 처인구 마평동 657-4번지","category":"문화.취미 - 화원"},{"name":"장발단속미용실","tel":"031-321-3223","addr":"경기도 용인시 처인구 마평동 657-4번지 1층","category":"보건위생 - 미용원"}]},{"lat":"37.237690033","long":"127.21434274","items":[{"name":"박성순뷰티라인","tel":"031-338-3533","addr":"경기도 용인시 처인구 마평동 698-20번지 퀸즈하임 101호","category":"보건위생 - 피부미용실"},{"name":"유테크","tel":"031-225-2300","addr":"경기도 용인시 처인구 마평동 698-20번지 퀸즈하임 301호","category":"회원제형태 - 기타4"}]},{"lat":"37.236830837","long":"127.21107223","items":[{"name":"반올림피자샵","tel":"031-333-0118","addr":"경기도 용인시 처인구 마평동 720-7번지","category":"일반휴게음식 - 서양음식"}]},{"lat":"37.234694032","long":"127.21184391","items":[{"name":"발리","tel":"070-8833-4231","addr":"경기도 용인시 처인구 마평동 625-1번지 B동 4층","category":"일반휴게음식 - 주점"},{"name":"용평목욕탕","tel":"031-335-9102","addr":"경기도 용인시 처인구 마평동 625-1번지","category":"보건위생 - 사우나"},{"name":"혜성분식","tel":"031-323-4888","addr":"경기도 용인시 처인구 마평동 625-1,비동1층","category":"일반휴게음식 - 스넥"}]},{"lat":"37.234130007","long":"127.2148737","items":[{"name":"발리노래연습장","tel":"031-000-0000","addr":"경기도 용인시 처인구 마평동 634-3번지 2층","category":"레저업소 - 노 래 방"},{"name":"원정보통신","tel":"031-335-1019","addr":"경기도 용인시 처인구 마평동 634-3번지","category":"사무통신 - 통신기기"},{"name":"원정보통신(특별할부)","tel":"031-335-1019","addr":"경기도 용인시 처인구 마평동 634-3번지","category":"사무통신 - 통신기기(무이자할부)"}]},{"lat":"37.2366924","long":"127.21293128","items":[{"name":"방일해장국","tel":"031-335-4189","addr":"경기도 용인시 처인구 마평동 668-15번지 외1필지","category":"일반휴게음식 - 일반한식"}]},{"lat":"37.234965452","long":"127.21121359","items":[{"name":"백마왕족보쌈","tel":"031-336-5160","addr":"경기도 용인시 처인구 마평동 738번지","category":"일반휴게음식 - 일반한식"},{"name":"씨유용인수민점","tel":"031-333-4997","addr":"경기도 용인시 처인구 마평동 738번지","category":"유통업 영리 - 편 의 점"},{"name":"통통포차","tel":"031-332-3371","addr":"경기도 용인시 처인구 마평동 738번지 만송빌딩 103호","category":"일반휴게음식 - 일반한식"},{"name":"파랑새노래연습장","tel":"031-338-1129","addr":"경기도 용인시 처인구 마평동 738번지 만송빌딩 2층","category":"레저업소 - 노 래 방"},{"name":"팔푼이","tel":"031-334-2848","addr":"경기도 용인시 처인구 마평동 738번지 만송빌딩 102호","category":"일반휴게음식 - 일반한식"}]},{"lat":"37.236298159","long":"127.2116793","items":[{"name":"별4호","tel":"031-332-0281","addr":"경기도 용인시 처인구 마평동 722-6번지","category":"음료식품 - 기타음료식품"}]},{"lat":"37.230993562","long":"127.21534947","items":[{"name":"브라운하우스","tel":"031-335-4206","addr":"경기도 용인시 처인구 마평동 587-4번지","category":"일반휴게음식 - 일반한식"}]},{"lat":"37.233471207","long":"127.21545784","items":[{"name":"사랑의 요양병원","tel":"031-321-6262","addr":"경기도 용인시 처인구 마평동 612-1번지","category":"병원 - 병원"},{"name":"샘물약국","tel":"031-321-2667","addr":"경기도 용인시 처인구 마평동 612-1번지","category":"약국 - 약국"},{"name":"용인사랑의병원장례식장","tel":"031-223-5214","addr":"경기도 용인시 처인구 마평동 612-1번지","category":"용역 서비스 - 가례서비스업"},{"name":"진(JIN).2","tel":"031-333-5630","addr":"경기도 용인시 처인구 마평동 612-1번지 1층 일부","category":"일반휴게음식 - 일반한식"}]},{"lat":"37.232354522","long":"127.22970959","items":[{"name":"삼원건설(명가 Design)","tel":"070-7579-0450","addr":"경기도 용인시 처인구 마평동 254-2번지","category":"용역 서비스 - 기타용역서비스"},{"name":"세진에어컨","tel":"070-7727-8536","addr":"경기도 용인시 처인구 마평동 254-2번지","category":"전기제품 - 냉열기기"},{"name":"신세기상사","tel":"031-321-0133","addr":"경기도 용인시 처인구 마평동 254-2번지","category":"기타 - 기타 전문점"},{"name":"용인 파라솔 텐트","tel":"031-321-5558","addr":"경기도 용인시 처인구 마평동 254-2번지 1층","category":"직물 - 카페트,커튼,천막,지물"}]},{"lat":"37.233658723","long":"127.21134523","items":[{"name":"상록검정고시학원","tel":"031-336-0173","addr":"경기도 용인시 처인구 마평동 740-24번지 미래아트 1동 2층","category":"학원 - 보습학원"}]},{"lat":"37.234747257","long":"127.21231736","items":[{"name":"새물내감자탕","tel":"031-321-2082","addr":"경기도 용인시 처인구 마평동 625-6번지","category":"일반휴게음식 - 일반한식"},{"name":"쉬리노래연습장","tel":"031-336-4887","addr":"경기도 용인시 처인구 마평동 625-6번지","category":"레저업소 - 노 래 방"},{"name":"용인당구장","tel":"031-336-9115","addr":"경기도 용인시 처인구 마평동 625-6번지 2층","category":"레저업소 - 당 구 장"},{"name":"현대기획","tel":"031-321-2082","addr":"경기도 용인시 처인구 마평동 625-6번지 1/5 1층","category":"건축자재 - 인테리어전문"}]},{"lat":"37.233438889","long":"127.21337301","items":[{"name":"생방송","tel":"031-333-1817","addr":"경기도 용인시 처인구 마평동 618-5번지 지하1층","category":"레저업소 - 노 래 방"},{"name":"세무사정병찬사무소","tel":"031-337-3337","addr":"경기도 용인시 처인구 마평동 618-5번지 1호","category":"용역 서비스 - 법률회계서비스(개인)"},{"name":"이나경헤어샵","tel":"031-321-0877","addr":"경기도 용인시 처인구 마평동 618-5번지","category":"보건위생 - 미용원"},{"name":"컴퓨터수리센터","tel":"031-335-6119","addr":"경기도 용인시 처인구 마평동 618-5번지","category":"사무통신 - 컴퓨터"}]},{"lat":"37.230410572","long":"127.21384914","items":[{"name":"샵헤어라인","tel":"031-336-9334","addr":"경기도 용인시 처인구 마평동 596-5번지","category":"보건위생 - 미용원"},{"name":"우리정육점","tel":"031-333-5368","addr":"경기도 용인시 처인구 마평동 596-5번지","category":"음료식품 - 정육점"},{"name":"의주유통","tel":"031-322-8893","addr":"경기도 용인시 처인구 마평동 596-5번지 102호","category":"음료식품 - 주류 판매점"}]},{"lat":"37.236324454","long":"127.21209634","items":[{"name":"서만희대리점","tel":"031-000-0000","addr":"경기도 용인시 처인구 마평동 664번지","category":"보건위생 - 화장품"}]},{"lat":"37.230354468","long":"127.24329327","items":[{"name":"서울설비","tel":"070-4922-1261","addr":"경기도 용인시 처인구 마평동 364-5번지","category":"용역 서비스 - 기타용역서비스"}]},{"lat":"37.232886629","long":"127.21484769","items":[{"name":"성심종합공구","tel":"031-337-0984","addr":"경기도 용인시 처인구 마평동 612-3번지","category":"기타 - 기계공구"},{"name":"용인한샘아울렛","tel":"031-322-2550","addr":"경기도 용인시 처인구 마평동 612-3번지 1층","category":"가구 - 일반가구"},{"name":"이글골프존","tel":"031-338-2171","addr":"경기도 용인시 처인구 마평동 612-3번지 2층","category":"회원제형태 - 레져업소"},{"name":"주식회사 스케쳐스코리아 SKX오프라벨","tel":"031-322-5214","addr":"경기도 용인시 처인구 마평동 612-3번지","category":"레져용품 - 스포츠·레져용품"}]},{"lat":"37.230068923","long":"127.21343126","items":[{"name":"성화코리아","tel":"02-1588-5604","addr":"경기도 용인시 처인구 마평동 597-19번지 우성하이츠빌라 나동 102호","category":"사무통신 - 기타 사무용품"}]},{"lat":"37.235444125","long":"127.21057257","items":[{"name":"세븐노래연습장","tel":"031-336-3033","addr":"경기도 용인시 처인구 마평동 729-2번지","category":"레저업소 - 노 래 방"},{"name":"센트럴","tel":"031-321-7267","addr":"경기도 용인시 처인구 마평동 729-2번지 2층","category":"보건위생 - 의료용품"},{"name":"오사카부루스","tel":"031-323-5531","addr":"경기도 용인시 처인구 마평동 729-2번지","category":"일반휴게음식 - 일반한식"},{"name":"클린피아","tel":"031-322-7551","addr":"경기도 용인시 처인구 마평동 729-2번지 2층","category":"용역 서비스 - 종합용역"}]},{"lat":"37.235439371","long":"127.21326588","items":[{"name":"세븐일레븐용인마평중앙점","tel":"031-1577-0711","addr":"경기도 용인시 처인구 마평동 653-2번지 1층 103,104호","category":"유통업 영리 - 편 의 점"},{"name":"정가네찌개백반","tel":"031-321-2271","addr":"경기도 용인시 처인구 마평동 653-2번지 1층","category":"일반휴게음식 - 일반한식"},{"name":"크린토피아 경기용인마평주공점","tel":"031-332-0852","addr":"경기도 용인시 처인구 마평동 653-2번지 101호","category":"수리서비스 - 세탁소"}]},{"lat":"37.236547695","long":"127.21323515","items":[{"name":"세븐일레븐용인운동장점","tel":"031-1577-0711","addr":"경기도 용인시 처인구 마평동 685-2번지 주안빌딩","category":"유통업 영리 - 편 의 점"},{"name":"신전떡볶이","tel":"031-323-3132","addr":"경기도 용인시 처인구 마평동 685-2번지 주안빌딩 1층 105호","category":"일반휴게음식 - 일반한식"},{"name":"신통치킨","tel":"031-321-2032","addr":"경기도 용인시 처인구 마평동 685-2번지 주안빌딩 101호","category":"일반휴게음식 - 스넥"},{"name":"오하루수제돈까스","tel":"031-322-2370","addr":"경기도 용인시 처인구 마평동 685-2번지 주안빌딩 106호","category":"일반휴게음식 - 서양음식"},{"name":"카페인(IN)","tel":"","addr":"경기도 용인시 처인구 마평동 685-2번지 주안빌딩 102호","category":"일반휴게음식 - 서양음식"}]},{"lat":"37.233359575","long":"127.21236987","items":[{"name":"세운공구","tel":"031-336-0945","addr":"경기도 용인시 처인구 마평동 620-2번지","category":"기타 - 기계공구"}]},{"lat":"37.236886125","long":"127.21037368","items":[{"name":"속초횟집","tel":"031-339-7888","addr":"경기도 용인시 처인구 마평동 720-2번지 1층","category":"일반휴게음식 - 일식·회집"}]},{"lat":"37.233882211","long":"127.21234877","items":[{"name":"솔밭휴게소","tel":"031-321-3819","addr":"경기도 용인시 처인구 마평동 622-8번지 해담빌","category":"유통업 영리 - 슈퍼마켓"}]},{"lat":"37.230409789","long":"127.2142886","items":[{"name":"송담대닭한마리","tel":"031-339-5888","addr":"경기도 용인시 처인구 마평동 593-6번지 1층","category":"일반휴게음식 - 일반한식"},{"name":"송라한의원","tel":"053-421-7975","addr":"경기도 용인시 처인구 마평동 593-6번지 A동 2층 204호","category":"의원 - 한의원"}]},{"lat":"37.231051204","long":"127.21334384","items":[{"name":"송담대성식당","tel":"031-335-9778","addr":"경기도 용인시 처인구 마평동 603번지","category":"일반휴게음식 - 일반한식"},{"name":"신정원","tel":"031-336-1418","addr":"경기도 용인시 처인구 마평동 603번지 해피마트 101호","category":"일반휴게음식 - 중국식"},{"name":"유한베스트","tel":"031-333-3774","addr":"경기도 용인시 처인구 마평동 603번지 해피마트 1동 102호","category":"회원제형태 - 기타4"}]},{"lat":"37.228885499","long":"127.215152","items":[{"name":"송담자동차공업사","tel":"031-336-9666","addr":"경기도 용인시 처인구 마평동 572-6번지","category":"자동차정비 유지 - 자동차정비"}]},{"lat":"37.232772469","long":"127.21317959","items":[{"name":"송월타월용인대리점","tel":"031-321-1590","addr":"경기도 용인시 처인구 마평동 602-3번지 106호","category":"신변잡화 - 기타잡화"},{"name":"신경옥요양센터","tel":"031-338-5038","addr":"경기도 용인시 처인구 마평동 602-3번지","category":"기타의료기관 - 기타의료기관 및 기타"},{"name":"키즈쿡","tel":"031-332-9991","addr":"경기도 용인시 처인구 마평동 602-3번지 2층 201호","category":"일반휴게음식 - 일반한식"},{"name":"파랑새한복","tel":"031-416-1150","addr":"경기도 용인시 처인구 마평동 602-3번지 성범빌딩","category":"직물 - 옷감·직물"},{"name":"피케이아이(PKI)어학원","tel":"031-339-3600","addr":"경기도 용인시 처인구 마평동 602-3번지 2층","category":"회원제형태 - 학원"}]},{"lat":"37.233853562","long":"127.21326148","items":[{"name":"수다방","tel":"031-338-8838","addr":"경기도 용인시 처인구 마평동 616-5번지 지하1층","category":"일반휴게음식 - 서양음식"},{"name":"투다리","tel":"031-335-9940","addr":"경기도 용인시 처인구 마평동 616-5번지","category":"일반휴게음식 - 칵테일바"}]},{"lat":"37.232078237","long":"127.21342557","items":[{"name":"수생아구탕","tel":"031-335-9059","addr":"경기도 용인시 처인구 마평동 601-36번지","category":"일반휴게음식 - 일반한식"}]},{"lat":"37.229093623","long":"127.21465678","items":[{"name":"순수당","tel":"070-7018-5392","addr":"경기도 용인시 처인구 마평동 573-39번지 석담빌 나동 1층 일부","category":"음료식품 - 제과점"}]},{"lat":"37.234747735","long":"127.2120469","items":[{"name":"스위스파크","tel":"031-338-6261","addr":"경기도 용인시 처인구 마평동 625-2번지","category":"숙박업 - 여관/기타숙박업"}]},{"lat":"37.231465177","long":"127.2136267","items":[{"name":"스타일K","tel":"031-335-4439","addr":"경기도 용인시 처인구 마평동 604-17번지 1층","category":"보건위생 - 미용원"},{"name":"원조마평전","tel":"031-334-0307","addr":"경기도 용인시 처인구 마평동 604-17번지","category":"일반휴게음식 - 일반한식"}]},{"lat":"37.229166196","long":"127.23826388","items":[{"name":"시민모터스","tel":"031-336-1752","addr":"경기도 용인시 처인구 마평동 222-1번지","category":"자동차정비 유지 - 자동차정비"},{"name":"효성P.M","tel":"031-334-4555","addr":"경기도 용인시 처인구 마평동 222-1번지","category":"수리서비스 - 기타수리서비스"}]},{"lat":"37.233830117","long":"127.21123301","items":[{"name":"신도렌탈","tel":"031-338-7288","addr":"경기도 용인시 처인구 마평동 740-59번지 1층","category":"사무통신 - 사무용 OA기기"}]},{"lat":"37.233415341","long":"127.21646061","items":[{"name":"신도토탈OA플러스","tel":"031-335-5513","addr":"경기도 용인시 처인구 마평동 636-6번지","category":"사무통신 - 사무용 OA기기"},{"name":"해창종합포장기계","tel":"031-338-8614","addr":"경기도 용인시 처인구 마평동 636-6번지","category":"기타 - 기계공구"}]},{"lat":"37.23188872","long":"127.21359408","items":[{"name":"신세한탄닭발","tel":"031-338-9900","addr":"경기도 용인시 처인구 마평동 604-8번지 2층","category":"일반휴게음식 - 일반한식"},{"name":"최고봉갈매기살","tel":"","addr":"경기도 용인시 처인구 마평동 604-8번지","category":"일반휴게음식 - 일반한식"}]},{"lat":"37.234302933","long":"127.21390506","items":[{"name":"신쿤컴퍼니(Shinkun&Co.)용인킥복싱센터","tel":"031-328-2826","addr":"경기도 용인시 처인구 마평동 627-1번지 지하1층","category":"레저업소 - 헬스클럽"}]},{"lat":"37.229386025","long":"127.2409802","items":[{"name":"신평농원","tel":"031-333-0177","addr":"경기도 용인시 처인구 마평동 116-1","category":"문화.취미 - 화원"}]},{"lat":"37.231438446","long":"127.2134576","items":[{"name":"신현공업사","tel":"031-334-9524","addr":"경기도 용인시 처인구 마평동 604-16번지","category":"건축자재 - 보일러·펌프·샷시"}]},{"lat":"37.231022934","long":"127.2468675","items":[{"name":"신흥어패럴","tel":"031-338-0228","addr":"경기도 용인시 처인구 마평동 55번지 전원맨션 101호","category":"의류 - 기타의류"}]},{"lat":"37.232859218","long":"127.2388726","items":[{"name":"싱싱다육","tel":"031-332-0382","addr":"경기도 용인시 처인구 마평동 317-3","category":"문화.취미 - 화원"}]},{"lat":"37.23591028","long":"127.21192615","items":[{"name":"써니호프","tel":"031-546-8856","addr":"경기도 용인시 처인구 마평동 657번지","category":"일반휴게음식 - 주점"}]},{"lat":"37.229660663","long":"127.23881756","items":[{"name":"씨유마평로드점","tel":"031-322-6567","addr":"경기도 용인시 처인구 마평동 283-2번지 외1필지","category":"유통업 영리 - 편 의 점"},{"name":"패시브윈도우","tel":"070-8874-9699","addr":"경기도 용인시 처인구 마평동 283-2번지","category":"건축자재 - 목재·석재·철물"}]},{"lat":"37.231076851","long":"127.21412144","items":[{"name":"씨유마평제일점","tel":"031-337-2244","addr":"경기도 용인시 처인구 마평동 594-1번지","category":"유통업 영리 - 편 의 점"},{"name":"정우공사","tel":"031-335-6254","addr":"경기도 용인시 처인구 마평동 594-1번지","category":"수리서비스 - 사무·통신기기수리"},{"name":"희선옛날손칼국수","tel":"031-335-4514","addr":"경기도 용인시 처인구 마평동 594-1번지","category":"일반휴게음식 - 칵테일바"}]},{"lat":"37.230777753","long":"127.23434747","items":[{"name":"씨유마평중부점","tel":"031-898-6569","addr":"경기도 용인시 처인구 마평동 239-1번지 해창팩 나동","category":"유통업 영리 - 편 의 점"}]},{"lat":"37.23427536","long":"127.21420924","items":[{"name":"씨유용인마평점","tel":"031-321-0154","addr":"경기도 용인시 처인구 마평동 627-9번지","category":"유통업 영리 - 편 의 점"},{"name":"원당구장","tel":"070-7018-5367","addr":"경기도 용인시 처인구 마평동 627-9번지 3층","category":"레저업소 - 당 구 장"},{"name":"코코양복점","tel":"031-335-3997","addr":"경기도 용인시 처인구 마평동 627-9번지 103호","category":"의류 - 맞춤복점"},{"name":"큐피시방","tel":"","addr":"경기도 용인시 처인구 마평동 627-9번지 2층","category":"레저업소 - 기타레져업소"}]},{"lat":"37.229192998","long":"127.21451057","items":[{"name":"씨유용인송담대앞점","tel":"031-333-6023","addr":"경기도 용인시 처인구 마평동 573-40번지 1층 101호","category":"유통업 영리 - 편 의 점"}]},{"lat":"37.234703678","long":"127.21148333","items":[{"name":"아름다운미용실","tel":"031-334-8676","addr":"경기도 용인시 처인구 마평동 740-70번지 엠피하우스 B동 2층 201호","category":"보건위생 - 미용원"}]},{"lat":"37.230132216","long":"127.2462336","items":[{"name":"아모르미오헤어&스파","tel":"","addr":"경기도 용인시 처인구 마평동 48-2번지","category":"보건위생 - 미용원"}]},{"lat":"37.237372919","long":"127.21532229","items":[{"name":"아소비공부방","tel":"","addr":"경기도 용인시 처인구 마평동 681-4번지 웰튼빌 가동 203호","category":"학원 - 기타 교육기관"}]},{"lat":"37.235219484","long":"127.21530498","items":[{"name":"아이샘","tel":"0505-913-9130","addr":"경기도 용인시 처인구 마평동 650-1번지","category":"서적문구 - 기타서적문구"}]},{"lat":"37.233384968","long":"127.21329398","items":[{"name":"알리바이","tel":"070-8186-4473","addr":"경기도 용인시 처인구 마평동 619-3번지 1층","category":"일반휴게음식 - 주점"}]},{"lat":"37.2357469","long":"127.21260185","items":[{"name":"알짜유통","tel":"031-322-2378","addr":"경기도 용인시 처인구 마평동 661-8번지 우량그린맨션 1동 403호","category":"음료식품 - 기타음료식품"}]},{"lat":"37.229606866","long":"127.21484977","items":[{"name":"애니카랜드마평점","tel":"031-333-4990","addr":"경기도 용인시 처인구 마평동 582-9번지 나동","category":"자동차정비 유지 - 자동차정비"}]},{"lat":"37.233385308","long":"127.21310241","items":[{"name":"양지상사","tel":"031-321-5000","addr":"경기도 용인시 처인구 마평동 619-1번지","category":"건축자재 - 페인트"},{"name":"이로운종합상사","tel":"031-323-7172","addr":"경기도 용인시 처인구 마평동 619-1번지","category":"유통업 영리 - 기타유통업"}]},{"lat":"37.232832124","long":"127.21509545","items":[{"name":"양평옥","tel":"031-336-3382","addr":"경기도 용인시 처인구 마평동 610-3번지","category":"일반휴게음식 - 일반한식"},{"name":"용포본갈비","tel":"031-322-0203","addr":"경기도 용인시 처인구 마평동 610-3번지","category":"일반휴게음식 - 일반한식"}]},{"lat":"37.234692597","long":"127.21265528","items":[{"name":"에스엠스타일(Sm Style)","tel":"031-745-3142","addr":"경기도 용인시 처인구 마평동 626-4번지","category":"의류 - 정장"},{"name":"에스케이 마평 열쇠","tel":"031-322-1313","addr":"경기도 용인시 처인구 마평동 626-4번지","category":"건축자재 - 목재·석재·철물"}]},{"lat":"37.235674338","long":"127.21287211","items":[{"name":"에스제이에스헤어샵(SJS Hair shop)","tel":"031-323-1251","addr":"경기도 용인시 처인구 마평동 662-2번지 우량그린맨션2차 105호","category":"보건위생 - 미용원"}]},{"lat":"37.233829522","long":"127.21157107","items":[{"name":"엠(M)마트","tel":"031-333-6768","addr":"경기도 용인시 처인구 마평동 740-26번지","category":"유통업 영리 - 슈퍼마켓"}]},{"lat":"37.23477207","long":"127.21356829","items":[{"name":"엠제이벨리(MJ Belly)","tel":"070-8810-1000","addr":"경기도 용인시 처인구 마평동 649-7번지 지하1층","category":"학원 - 예·체능계학원"},{"name":"최강영어최강수학학원","tel":"","addr":"경기도 용인시 처인구 마평동 649-7번지 2층","category":"학원 - 보습학원"},{"name":"파리바게뜨용인마평점","tel":"031-339-8204","addr":"경기도 용인시 처인구 마평동 649-7번지 1층","category":"음료식품 - 제과점"}]},{"lat":"37.235884956","long":"127.21095693","items":[{"name":"영천숯불갈비","tel":"031-333-0256","addr":"경기도 용인시 처인구 마평동 730-5번지 1층","category":"일반휴게음식 - 일반한식"}]},{"lat":"37.231610082","long":"127.21321017","items":[{"name":"예쁜풍선만들기","tel":"031-338-8984","addr":"경기도 용인시 처인구 마평동 601-26번지","category":"용역 서비스 - 종합용역"}]},{"lat":"37.232941839","long":"127.21420552","items":[{"name":"예직 인테리어","tel":"031-321-3870","addr":"경기도 용인시 처인구 마평동 618-23번지 1층 1호","category":"건축자재 - 인테리어전문"},{"name":"오쏘.리팸 팬들팸 패션","tel":"031-339-3415","addr":"경기도 용인시 처인구 마평동 618-23번지 3층","category":"의류 - 정장"},{"name":"최진사양념치킨1호점","tel":"031-335-5577","addr":"경기도 용인시 처인구 마평동 618-23번지","category":"일반휴게음식 - 주점"}]},{"lat":"37.23294208","long":"127.2140703","items":[{"name":"오렌지동화나라","tel":"031-336-5556","addr":"경기도 용인시 처인구 마평동 618-24번지 오렌지동화나라","category":"회원제형태 - 학원"},{"name":"찬스노래연습장","tel":"031-336-6272","addr":"경기도 용인시 처인구 마평동 618-24번지 지하1층","category":"레저업소 - 노 래 방"},{"name":"책둥지","tel":"031-333-5419","addr":"경기도 용인시 처인구 마평동 618-24번지","category":"회원제형태 - 서적"}]},{"lat":"37.226135194","long":"127.21634994","items":[{"name":"올드카센터","tel":"070-7550-7695","addr":"경기도 용인시 처인구 마평동 550번지 1층","category":"자동차정비 유지 - 자동차정비"}]},{"lat":"37.235325337","long":"127.21656742","items":[{"name":"용마슈퍼","tel":"031-336-6383","addr":"경기도 용인시 처인구 마평동 923두보상가3동102","category":"유통업 영리 - 슈퍼마켓"}]},{"lat":"37.234303676","long":"127.21348811","items":[{"name":"용마식당","tel":"031-335-8484","addr":"경기도 용인시 처인구 마평동 627-14번지 1층","category":"일반휴게음식 - 일반한식"}]},{"lat":"37.236408422","long":"127.21046252","items":[{"name":"용인라이온스클럽","tel":"031-335-3407","addr":"경기도 용인시 처인구 마평동 721-9번지","category":"기타 - 비영리/대상"},{"name":"혜성종합철물건재","tel":"031-322-0935","addr":"경기도 용인시 처인구 마평동 721-9번지 1층","category":"건축자재 - 목재·석재·철물"}]},{"lat":"37.23224395","long":"127.22142679","items":[{"name":"용인로타리클럽","tel":"031-335-2289","addr":"경기도 용인시 처인구 마평동 538-3번지","category":"기타 - 비영리/대상"}]},{"lat":"37.228465071","long":"127.24192383","items":[{"name":"용인시개인택시조합","tel":"031-337-1092","addr":"경기도 용인시 처인구 마평동 122-3번지","category":"여행 - 택시회사"}]},{"lat":"37.232159609","long":"127.21326804","items":[{"name":"용인식당","tel":"031-335-4044","addr":"경기도 용인시 처인구 마평동 601-34번지 1층","category":"일반휴게음식 - 일반한식"}]},{"lat":"37.233800929","long":"127.21748717","items":[{"name":"용인아크릴","tel":"031-321-1636","addr":"경기도 용인시 처인구 마평동 638-5번지","category":"용역 서비스 - 종합용역"}]},{"lat":"37.232357755","long":"127.21331366","items":[{"name":"용인양품","tel":"031-335-0255","addr":"경기도 용인시 처인구 마평동 602-37번지 1층","category":"의류 - 정장"},{"name":"용인한증막","tel":"031-335-4044","addr":"경기도 용인시 처인구 마평동 602-37번지","category":"보건위생 - 사우나"}]},{"lat":"37.232749345","long":"127.22582306","items":[{"name":"용인잔듸조경","tel":"031-335-0358","addr":"경기도 용인시 처인구 마평동 508-5번지","category":"건축자재 - 인테리어전문"}]},{"lat":"37.228997223","long":"127.24165507","items":[{"name":"용인조경마트","tel":"031-338-0659","addr":"경기도 용인시 처인구 마평동 124-1","category":"문화.취미 - 화원"},{"name":"푸른공간","tel":"031-713-9622","addr":"경기도 용인시 처인구 마평동 124-1번지 제일화훼유통단지A동10호","category":"문화.취미 - 화원"}]},{"lat":"37.231831083","long":"127.2301475","items":[{"name":"용인종합상사","tel":"031-338-4955","addr":"경기도 용인시 처인구 마평동 250번지","category":"서적문구 - 과학기자재"}]},{"lat":"37.234109138","long":"127.21140281","items":[{"name":"용인처인행복식품","tel":"031-335-6274","addr":"경기도 용인시 처인구 마평동 740-33번지 101호","category":"음료식품 - 기타음료식품"},{"name":"천일24시편의점","tel":"031-338-3778","addr":"경기도 용인시 처인구 마평동 740-33번지 101호","category":"유통업 영리 - 편 의 점"}]},{"lat":"37.229635085","long":"127.21418502","items":[{"name":"우두정소머리곰탕","tel":"031-336-8379","addr":"경기도 용인시 처인구 마평동 573-5번지","category":"일반휴게음식 - 일반한식"}]},{"lat":"37.231690494","long":"127.21359352","items":[{"name":"우리마트","tel":"031-333-5214","addr":"경기도 용인시 처인구 마평동 604-13번지","category":"유통업 영리 - 슈퍼마켓"}]},{"lat":"37.23418876","long":"127.21223693","items":[{"name":"우성광고기획","tel":"031-322-3430","addr":"경기도 용인시 처인구 마평동 623-5번지","category":"용역 서비스 - 종합용역"}]},{"lat":"37.232941856","long":"127.22406569","items":[{"name":"우정공업사","tel":"031-339-4774","addr":"경기도 용인시 처인구 마평동 510-3번지","category":"자동차정비 유지 - 자동차정비"}]},{"lat":"37.23496654","long":"127.2105938","items":[{"name":"원대구탕","tel":"031-338-1235","addr":"경기도 용인시 처인구 마평동 735-10번지","category":"일반휴게음식 - 일반한식"}]},{"lat":"37.234214213","long":"127.21312725","items":[{"name":"원삼막걸리","tel":"031-335-6512","addr":"경기도 용인시 처인구 마평동 628-3번지","category":"일반휴게음식 - 일반한식"},{"name":"충북방앗간","tel":"031-332-1900","addr":"경기도 용인시 처인구 마평동 628-3번지","category":"음료식품 - 제과점"}]},{"lat":"37.232798157","long":"127.21393467","items":[{"name":"유니랜드","tel":"02-3422-3248","addr":"경기도 용인시 처인구 마평동 607-1,607-10,843-1,843-2","category":"용역 서비스 - 종합용역"}]},{"lat":"37.234830397","long":"127.21115688","items":[{"name":"유림장여관","tel":"031-335-7111","addr":"경기도 용인시 처인구 마평동 737번지","category":"숙박업 - 여관/기타숙박업"}]},{"lat":"37.232942622","long":"127.21376604","items":[{"name":"유명청과마트","tel":"031-335-8021","addr":"경기도 용인시 처인구 마평동 618-31번지","category":"음료식품 - 농·축·수산품"}]},{"lat":"37.223855232","long":"127.2402079","items":[{"name":"유성타일","tel":"031-336-8446","addr":"경기도 용인시 처인구 마평동 139-7번지","category":"건축자재 - 건축용 요업제품"}]},{"lat":"37.226833026","long":"127.21409833","items":[{"name":"유성판넬","tel":"031-321-7913","addr":"경기도 용인시 처인구 마평동 554-5번지","category":"건축자재 - 기타건축자재"}]},{"lat":"37.230076905","long":"127.23792866","items":[{"name":"윤짬뽕","tel":"031-336-5611","addr":"경기도 용인시 처인구 마평동 285번지","category":"일반휴게음식 - 중국식"}]},{"lat":"37.233970155","long":"127.21356606","items":[{"name":"은하수다방","tel":"070-7018-5392","addr":"경기도 용인시 처인구 마평동 629-7번지","category":"일반휴게음식 - 서양음식"},{"name":"전통맛집할매순대국","tel":"","addr":"경기도 용인시 처인구 마평동 629-7번지","category":"일반휴게음식 - 일반한식"}]},{"lat":"37.23444011","long":"127.21276727","items":[{"name":"은행나무집","tel":"031-332-5233","addr":"경기도 용인시 처인구 마평동 626-5번지","category":"일반휴게음식 - 일반한식"}]},{"lat":"37.235495349","long":"127.2121842","items":[{"name":"이마트24 사단법인글로리비전","tel":"031-000-0000","addr":"경기도 용인시 처인구 마평동 659-5번지 2층","category":"유통업 영리 - 편 의 점"}]},{"lat":"37.234360751","long":"127.21178665","items":[{"name":"이마트24 용인마평점","tel":"","addr":"경기도 용인시 처인구 마평동 740-38번지 1호","category":"유통업 영리 - 편 의 점"}]},{"lat":"37.231574681","long":"127.21284948","items":[{"name":"이브로드이엔티(ENT)","tel":"031-334-7080","addr":"경기도 용인시 처인구 마평동 601-7번지","category":"문화.취미 - 티켓"}]},{"lat":"37.230797432","long":"127.214177","items":[{"name":"장금이네찬방식당","tel":"031-333-3736","addr":"경기도 용인시 처인구 마평동 594-7번지 1층","category":"일반휴게음식 - 일반한식"},{"name":"타림","tel":"031-000-0000","addr":"경기도 용인시 처인구 마평동 594-7번지 1층","category":"일반휴게음식 - 일반한식"}]},{"lat":"37.232471713","long":"127.21509444","items":[{"name":"제이블리 플랜트","tel":"031-323-0520","addr":"경기도 용인시 처인구 마평동 607-22번지 301호","category":"문화.취미 - 화원"},{"name":"제이블리 플랜트","tel":"070-7648-7648","addr":"경기도 용인시 처인구 마평동 607-22번지 301호","category":"문화.취미 - 화원"}]},{"lat":"37.232910076","long":"127.21179392","items":[{"name":"제이블리플라워","tel":"031-323-0520","addr":"경기도 용인시 처인구 마평동 888번지","category":"문화.취미 - 화원"}]},{"lat":"37.231970993","long":"127.21292946","items":[{"name":"제이에스쏠라","tel":"","addr":"경기도 용인시 처인구 마평동 601-18번지","category":"수리서비스 - 사무·통신기기수리"}]},{"lat":"37.233881073","long":"127.2129911","items":[{"name":"제일상사","tel":"031-769-7914","addr":"경기도 용인시 처인구 마평동 626-3번지","category":"레져용품 - 스포츠·레져용품"}]},{"lat":"37.233912205","long":"127.2157408","items":[{"name":"제일중고타이어","tel":"031-323-2719","addr":"경기도 용인시 처인구 마평동 634-5번지","category":"자동차정비 유지 - 자동차시트·타이어"}]},{"lat":"37.229833472","long":"127.21409543","items":[{"name":"제일플러스축산","tel":"031-339-8062","addr":"경기도 용인시 처인구 마평동 573-4번지 제일플러스마트","category":"음료식품 - 정육점"}]},{"lat":"37.234107796","long":"127.2316531","items":[{"name":"주식회사 경기시설안전","tel":"031-335-0479","addr":"경기도 용인시 처인구 마평동 456번지","category":"용역 서비스 - 기타용역서비스"}]},{"lat":"37.232883679","long":"127.22142863","items":[{"name":"주식회사 라이더스캠프","tel":"031-328-5109","addr":"경기도 용인시 처인구 마평동 536-6번지 1층","category":"자동차판매 - 이륜차판매"}]},{"lat":"37.228493018","long":"127.24590156","items":[{"name":"주식회사 상도전기","tel":"031-335-5968","addr":"경기도 용인시 처인구 마평동 108번지","category":"전기제품 - 기타전기제품"}]},{"lat":"37.232944583","long":"127.22260076","items":[{"name":"주식회사 양지주택","tel":"031-285-3122","addr":"경기도 용인시 처인구 마평동 492-5번지","category":"건축자재 - 부동산 분양"}]},{"lat":"37.225973617","long":"127.23973003","items":[{"name":"주식회사 프리미엄캠핑카","tel":"031-526-7702","addr":"경기도 용인시 처인구 마평동 203-1번지","category":"레져용품 - 스포츠·레져용품"}]},{"lat":"37.23360476","long":"127.21634846","items":[{"name":"주식회사중앙인터내셔날","tel":"031-321-3040","addr":"경기도 용인시 처인구 마평동 636-2번지","category":"유통업 영리 - 기타유통업"}]},{"lat":"37.231326598","long":"127.21554197","items":[{"name":"준플라워","tel":"031-336-5552","addr":"경기도 용인시 처인구 마평동 587-9","category":"문화.취미 - 화원"}]},{"lat":"37.235407787","long":"127.21074151","items":[{"name":"지성다방","tel":"031-337-1252","addr":"경기도 용인시 처인구 마평동 728-4번지 2층","category":"일반휴게음식 - 서양음식"},{"name":"페리카나치킨(마평지점)","tel":"031-335-8546","addr":"경기도 용인시 처인구 마평동 728-4번지","category":"일반휴게음식 - 주점"},{"name":"헤어톡톡","tel":"031-335-5423","addr":"경기도 용인시 처인구 마평동 728-4번지 1층","category":"보건위생 - 미용원"},{"name":"현대","tel":"031-335-6662","addr":"경기도 용인시 처인구 마평동 728-4번지 지층","category":"레저업소 - 노 래 방"}]},{"lat":"37.231742995","long":"127.23376445","items":[{"name":"진모터스(구 팀류진)","tel":"031-322-5877","addr":"경기도 용인시 처인구 마평동 274-2번지 1층","category":"자동차판매 - 이륜차판매"},{"name":"진주화원","tel":"02-507-2274","addr":"경기도 용인시 처인구 마평동 274-2번지 구보다용인대리점 202호","category":"문화.취미 - 화원"}]},{"lat":"37.228527161","long":"127.21399038","items":[{"name":"최강클린","tel":"031-525-3333","addr":"경기도 용인시 처인구 마평동 574-5번지","category":"용역 서비스 - 종합용역"}]},{"lat":"37.23291123","long":"127.221147","items":[{"name":"충남석재","tel":"031-335-4047","addr":"경기도 용인시 처인구 마평동 536-3번지","category":"기타 - 기타 전문점"}]},{"lat":"37.232360545","long":"127.24042612","items":[{"name":"충남시트","tel":"031-338-5983","addr":"경기도 용인시 처인구 마평동 334-3번지","category":"자동차정비 유지 - 자동차시트·타이어"}]},{"lat":"37.232888967","long":"127.21854385","items":[{"name":"칼국수한마당","tel":"031-336-5005","addr":"경기도 용인시 처인구 마평동 533-11번지","category":"일반휴게음식 - 일반한식"}]},{"lat":"37.23344113","long":"127.22207257","items":[{"name":"커피2.0랩(전시장점)","tel":"031-332-2254","addr":"경기도 용인시 처인구 마평동 514-4번지 1층 전면우측2,3호","category":"일반휴게음식 - 서양음식"},{"name":"퓨어스킨","tel":"031-332-7716","addr":"경기도 용인시 처인구 마평동 514-4번지 제일빌딩","category":"보건위생 - 피부미용실"}]},{"lat":"37.235666266","long":"127.21234244","items":[{"name":"큰집오리","tel":"031-322-0016","addr":"경기도 용인시 처인구 마평동 659-15번지","category":"일반휴게음식 - 일반한식"}]},{"lat":"37.23473958","long":"127.21156231","items":[{"name":"클럽하우스","tel":"","addr":"경기도 용인시 처인구 마평동 740-2번지 엠피하우스 A동 201호","category":"일반휴게음식 - 일반한식"}]},{"lat":"37.232916553","long":"127.21322507","items":[{"name":"키즈쿡","tel":"031-332-9991","addr":"경기도 용인시 처인구 마평동 602-3번지 가동 2층","category":"일반휴게음식 - 일반한식"}]},{"lat":"37.234883685","long":"127.21159652","items":[{"name":"킹당구장","tel":"","addr":"경기도 용인시 처인구 마평동 625-3번지 현대빌딩 2층","category":"레저업소 - 당 구 장"},{"name":"펀비어킹용인마평점","tel":"031-333-7933","addr":"경기도 용인시 처인구 마평동 625-3번지 현대빌딩 1층","category":"일반휴게음식 - 일반한식"}]},{"lat":"37.233497769","long":"127.22067539","items":[{"name":"태강자동차공업사","tel":"031-321-4949","addr":"경기도 용인시 처인구 마평동 518-4번지","category":"자동차정비 유지 - 자동차정비"}]},{"lat":"37.222577665","long":"127.23925745","items":[{"name":"태화유리","tel":"031-336-2836","addr":"경기도 용인시 처인구 마평동 173-3","category":"건축자재 - 유리"}]},{"lat":"37.22788546","long":"127.23890217","items":[{"name":"토탈 큐맥스산업","tel":"031-335-5515","addr":"경기도 용인시 처인구 마평동 209번지","category":"전기제품 - 냉열기기"}]},{"lat":"37.234248028","long":"127.2143782","items":[{"name":"토희공방","tel":"031-335-2700","addr":"경기도 용인시 처인구 마평동 627-10번지","category":"문화.취미 - 민예·공예품"}]},{"lat":"37.236108983","long":"127.21165624","items":[{"name":"파고다숯불구이","tel":"031-323-3185","addr":"경기도 용인시 처인구 마평동 724-3번지","category":"일반휴게음식 - 스넥"}]},{"lat":"37.232970945","long":"127.22296144","items":[{"name":"평창세차장","tel":"031-297-4875","addr":"경기도 용인시 처인구 마평동 492-3번지","category":"자동차정비 유지 - 세차장"}]},{"lat":"37.234885092","long":"127.21079642","items":[{"name":"포브스요양병원","tel":"031-338-0911","addr":"경기도 용인시 처인구 마평동 735-2번지","category":"병원 - 병원"}]},{"lat":"37.236773991","long":"127.21264978","items":[{"name":"피오레/주식회사 나이스닷컴","tel":"031-323-6012","addr":"경기도 용인시 처인구 마평동 668-14번지 3동","category":"일반휴게음식 - 서양음식"}]},{"lat":"37.237498329","long":"127.21065709","items":[{"name":"필플라워(커피가능성)","tel":"031-333-4922","addr":"경기도 용인시 처인구 마평동 717-9번지 426호","category":"문화.취미 - 화원"}]},{"lat":"37.237275802","long":"127.21420635","items":[{"name":"하얀마을카공업사","tel":"031-336-3274","addr":"경기도 용인시 처인구 마평동 695-5번지","category":"자동차정비 유지 - 자동차정비"}]},{"lat":"37.231610482","long":"127.2129848","items":[{"name":"학생통학마을버스","tel":"","addr":"경기도 용인시 처인구 마평동 601-15번지 1층","category":"용역 서비스 - 종합용역"}]},{"lat":"37.233466531","long":"127.22295161","items":[{"name":"한국샷시부속","tel":"031-336-9390","addr":"경기도 용인시 처인구 마평동 514번지","category":"건축자재 - 보일러·펌프·샷시"}]},{"lat":"37.234108949","long":"127.21656399","items":[{"name":"한빛이엔지","tel":"031-332-8878","addr":"경기도 용인시 처인구 마평동 639-7번지","category":"용역 서비스 - 기타용역서비스"}]},{"lat":"37.232355535","long":"127.22917996","items":[{"name":"한성종합주방","tel":"031-321-4987","addr":"경기도 용인시 처인구 마평동 254-3번지","category":"주방용구 - 주방용식기"}]},{"lat":"37.233332823","long":"127.21221203","items":[{"name":"한신철물공구","tel":"031-335-9637","addr":"경기도 용인시 처인구 마평동 620-8번지","category":"건축자재 - 목재·석재·철물"}]},{"lat":"37.231353431","long":"127.23020241","items":[{"name":"한우정","tel":"031-336-1666","addr":"경기도 용인시 처인구 마평동 249-2번지","category":"일반휴게음식 - 일반한식"},{"name":"한우정정육점","tel":"031-336-1666","addr":"경기도 용인시 처인구 마평동 249-2번지","category":"음료식품 - 정육점"}]},{"lat":"37.234218311","long":"127.21587689","items":[{"name":"한일공업사","tel":"031-332-4000","addr":"경기도 용인시 처인구 마평동 644-6번지 101호","category":"건축자재 - 기타건축자재"}]},{"lat":"37.23410599","long":"127.21318329","items":[{"name":"한일텔레콤","tel":"0031-0336-3118","addr":"경기도 용인시 처인구 마평동 628-4번지 1층","category":"별도관리 - 자체물품대금"}]},{"lat":"37.238077072","long":"127.21456921","items":[{"name":"함's HAIR","tel":"031-332-5463","addr":"경기도 용인시 처인구 마평동 698-3번지 엔젤하임","category":"보건위생 - 미용원"}]},{"lat":"37.232853439","long":"127.21826203","items":[{"name":"해림자동차공업사","tel":"031-323-6571","addr":"경기도 용인시 처인구 마평동 533-12번지","category":"자동차정비 유지 - 자동차정비"}]},{"lat":"37.229886189","long":"127.23868304","items":[{"name":"행복지게차","tel":"031-332-7989","addr":"경기도 용인시 처인구 마평동 284번지","category":"자동차판매 - 기타운송"}]},{"lat":"37.232941336","long":"127.21448724","items":[{"name":"현장특수상사","tel":"031-338-4200","addr":"경기도 용인시 처인구 마평동 612-12번지","category":"기타 - 기계공구"}]},{"lat":"37.232444668","long":"127.22493193","items":[{"name":"호텔에비뉴","tel":"031-338-4111","addr":"경기도 용인시 처인구 마평동 508-7번지","category":"숙박업 - 여관/기타숙박업"}]},{"lat":"37.23410243","long":"127.22014749","items":[{"name":"황소식당","tel":"031-338-9677","addr":"경기도 용인시 처인구 마평동 522-6번지 B동","category":"일반휴게음식 - 일반한식"}]},{"lat":"37.237191505","long":"127.21092671","items":[{"name":"효성식품","tel":"031-335-6484","addr":"경기도 용인시 처인구 마평동 717-6번지","category":"음료식품 - 기타음료식품"}]},{"lat":"37.233495681","long":"127.21687778","items":[{"name":"히트자동차용품점","tel":"031-322-7749","addr":"경기도 용인시 처인구 마평동 637-4","category":"자동차정비 유지 - 자동차부품"}]}]