[{"lat":"37.273459754","long":"127.01619755","items":[{"name":"(주) 중앙안전하이텍","tel":"031-242-1471","addr":"경기도 수원시 팔달구 중동 94번지 베레슈트 2층","category":"회원제형태 - 학원"},{"name":"(주)더덴버스테이크","tel":"070-4693-1062","addr":"경기도 수원시 팔달구 중동 94번지 7층","category":"일반휴게음식 - 일반한식"},{"name":"(주)아쿠아주","tel":"031-207-3566","addr":"경기도 수원시 팔달구 중동 94번지 지하1층","category":"문화.취미 - 티켓"},{"name":"(주)에이앤티뉴스통신(ANT NEWS AGENCY CO.","tel":"031-254-8001","addr":"경기도 수원시 팔달구 중동 94번지 7층","category":"전기제품 - 기타전기제품"},{"name":"(주)친환경상품지원센터","tel":"031-245-0780","addr":"경기도 수원시 팔달구 중동 94번지 베레슈트 2506호","category":"신변잡화 - 기타잡화"},{"name":"(주)해피니스","tel":"031-254-8001","addr":"경기도 수원시 팔달구 중동 94번지","category":"의류 - 정장"},{"name":"(주)해피니스","tel":"031-254-8001","addr":"경기도 수원시 팔달구 중동 94번지","category":"의류 - 정장"},{"name":"(주)해피니스컨벤션","tel":"031-248-1361","addr":"경기도 수원시 팔달구 중동 94번지 베레슈트 11층","category":"일반휴게음식 - 일반한식"},{"name":"5층158호","tel":"031-248-8027","addr":"경기도 수원시 팔달구 중동 94번지 베레슈트 5층 158호","category":"신변잡화 - 제화"},{"name":"꽃과같이","tel":"031-248-8149","addr":"경기도 수원시 팔달구 중동 94번지 베레슈트 5층 149호","category":"신변잡화 - 기타잡화"},{"name":"대왕식자재마트","tel":"031-241-0150","addr":"경기도 수원시 팔달구 중동 94번지","category":"유통업 영리 - 슈퍼마켓"},{"name":"더(THE)공감커뮤니케이션","tel":"070-4064-9569","addr":"경기도 수원시 팔달구 중동 94번지 베레슈트빌딩자이언트큐브 108호","category":"회원제형태 - 기타4"},{"name":"딱다구리","tel":"031-594-1789","addr":"경기도 수원시 팔달구 중동 94번지 2층 베레슈트 25-8호","category":"용역 서비스 - 사무서비스"},{"name":"리그홀릭","tel":"070-4076-7640","addr":"경기도 수원시 팔달구 중동 94번지 베레슈트 자이언트큐브311호","category":"의류 - 기타의류"},{"name":"명동칼국수","tel":"031-248-8727","addr":"경기도 수원시 팔달구 중동 94번지 베레슈트 7층 27호","category":"일반휴게음식 - 칵테일바"},{"name":"미(  )그린","tel":"031-222-0431","addr":"경기도 수원시 팔달구 중동 94번지 해피니스쇼핑몰 5층","category":"주방용구 - 주방용구"},{"name":"미키와미니","tel":"031-248-8324","addr":"경기도 수원시 팔달구 중동 94번지 베레슈트F 24호","category":"의류 - 아동의류"},{"name":"베레슈트","tel":"031-245-1264","addr":"경기도 수원시 팔달구 중동 94번지 베레슈트 2층 42호","category":"의류 - 정장"},{"name":"삼성키즈에듀","tel":"","addr":"경기도 수원시 팔달구 중동 94번지 3층 183호","category":"서적문구 - 출판 및 인쇄물"},{"name":"세라핌","tel":"031-248-8152","addr":"경기도 수원시 팔달구 중동 94번지 베레슈트 1동 152호","category":"의류 - 정장"},{"name":"썬앤문","tel":"070-4227-5228","addr":"경기도 수원시 팔달구 중동 94번지 베레슈트B/D 3층자이언트큐브 8","category":"음료식품 - 기타음료식품"},{"name":"와이글로벌","tel":"","addr":"경기도 수원시 팔달구 중동 94번지 자이언트큐브 3층 304호","category":"학원 - 기타 교육기관"},{"name":"유근례부자패션","tel":"031-243-3013","addr":"경기도 수원시 팔달구 중동 94번지 베레슈트 1층 22호","category":"의류 - 정장"},{"name":"이케이샵","tel":"070-4806-6789","addr":"경기도 수원시 팔달구 중동 94번지 베레슈트B/D 3층 91호","category":"자동차판매 - 이륜차판매"},{"name":"이코(EKO)","tel":"031-893-7508","addr":"경기도 수원시 팔달구 중동 94번지 3층 자이언트큐브","category":"신변잡화 - 기타잡화"},{"name":"자이언트큐브","tel":"02-1644-7478","addr":"경기도 수원시 팔달구 중동 94번지 베레슈트 3층 1호","category":"용역 서비스 - 사무서비스"},{"name":"제인바이오","tel":"031-419-0162","addr":"경기도 수원시 팔달구 중동 94번지 베레슈트빌딩 2층 2201-1호","category":"서적문구 - 과학기자재"},{"name":"주식회사 리빙앤코","tel":"02-543-0999","addr":"경기도 수원시 팔달구 중동 94번지 베레슈트빌딩 3층 144호","category":"건축자재 - 인테리어전문"},{"name":"친구찾기","tel":"031-248-8221","addr":"경기도 수원시 팔달구 중동 94번지 베레슈트 2층 121호","category":"의류 - 정장"},{"name":"포인트","tel":"031-256-8876","addr":"경기도 수원시 팔달구 중동 94번지 베레슈트 4층 160호","category":"의류 - 정장"},{"name":"푸른나무","tel":"031-207-2959","addr":"경기도 수원시 팔달구 중동 94번지 베레슈트","category":"가구 - 일반가구"},{"name":"한야","tel":"031-248-8125","addr":"경기도 수원시 팔달구 중동 94번지 베레슈트 2층 13호","category":"의류 - 정장"},{"name":"한양테크","tel":"","addr":"경기도 수원시 팔달구 중동 94번지 베레슈트빌딩 1동 2층 1호","category":"전기제품 - 가전제품"},{"name":"홈마트","tel":"031-241-0150","addr":"경기도 수원시 팔달구 중동 94번지 1층","category":"유통업 영리 - 슈퍼마켓"},{"name":"화성디앤씨","tel":"070-8233-3939","addr":"경기도 수원시 팔달구 중동 94번지 베레슈트2층자이언트큐브2601호","category":"신변잡화 - 기타잡화"}]},{"lat":"37.274568019","long":"127.01619774","items":[{"name":"(주)소닉더치코리아","tel":"070-4131-0754","addr":"경기도 수원시 팔달구 중동 20번지 제일빌딩 410호","category":"주방용구 - 주방용구"},{"name":"(주)키스코이앤엠","tel":"031-217-1588","addr":"경기도 수원시 팔달구 중동 20번지 창업지원센터 201호","category":"사무통신 - 컴퓨터"},{"name":"(주)태원","tel":"031-251-8910","addr":"경기도 수원시 팔달구 중동 20번지 창업지원센터 311호","category":"건축자재 - 조명기구"},{"name":"(주)페미존","tel":"070-8888-0926","addr":"경기도 수원시 팔달구 중동 20번지 수원시 창업보육센터 창업관","category":"보건위생 - 화장품"},{"name":"농업회사법인 주식회사 팜퍼스트","tel":"031-111-1111","addr":"경기도 수원시 팔달구 중동 20번지 제일빌딩 601-3호","category":"농업 - 기타농업관련"},{"name":"레이69(RAY69)","tel":"031-253-8654","addr":"경기도 수원시 팔달구 중동 20번지 수원시창업지원센터 204호","category":"용역 서비스 - 사무서비스"},{"name":"리치맨 아이앤씨(Richmen.lnc)","tel":"","addr":"경기도 수원시 팔달구 중동 20번지 창업지원센터 305호","category":"전기제품 - 기타전기제품"},{"name":"메이키스퀘어","tel":"070-4626-3527","addr":"경기도 수원시 팔달구 중동 20번지 제일빌딩 창업지원센터 5층 511호","category":"사무통신 - 통신기기"},{"name":"멘도롱/밥잡 주식회사","tel":"031-268-3030","addr":"경기도 수원시 팔달구 중동 20번지 창업지원센터 2층 204호","category":"일반휴게음식 - 서양음식"},{"name":"에스에스씨라이팅 주식회사(SSC LIGHTING)","tel":"031-222-9482","addr":"경기도 수원시 팔달구 중동 20번지 제일빌딩 502호 제일실딩","category":"건축자재 - 조명기구"},{"name":"주식회사 어린이상상연구소","tel":"02-1644-1048","addr":"경기도 수원시 팔달구 중동 20번지 제일빌딩 수원시 시니어창업보육센터 601-6호","category":"문화.취미 - 티켓"},{"name":"주식회사 요한손라이프","tel":"070-7655-0105","addr":"경기도 수원시 팔달구 중동 20번지 수원시 창업지원센터 306호","category":"의류 - 아동의류"},{"name":"주식회사 청광놀티르","tel":"070-4191-8901","addr":"경기도 수원시 팔달구 중동 20번지 제일빌딩 202호 시니어창업보육센터","category":"서적문구 - 완구점"},{"name":"주식회사 파인드팡","tel":"070-4113-8203","addr":"경기도 수원시 팔달구 중동 20번지 수원시창업지원센터 401호","category":"용역 서비스 - 소프트웨어"},{"name":"퓨리바이드 주식회사","tel":"031-248-9399","addr":"경기도 수원시 팔달구 중동 20번지 제일빌딩 창업지원센터창업관","category":"기타 - 기계공구"},{"name":"플라워비즈카페협동조합","tel":"","addr":"경기도 수원시 팔달구 중동 20번지 제일빌딩 1층","category":"일반휴게음식 - 서양음식"},{"name":"휴먼시스템","tel":"070-8670-4455","addr":"경기도 수원시 팔달구 중동 20번지 수원시창업지원센터 510호","category":"수리서비스 - 세탁소"}]},{"lat":"37.274955476","long":"127.01606251","items":[{"name":"(주)수원남문프라자","tel":"031-528-5101","addr":"경기도 수원시 팔달구 중동 4번지 우림빌딩 1층","category":"의류 - 스포츠의류"},{"name":"(주)수원남문프라자","tel":"031-247-4700","addr":"경기도 수원시 팔달구 중동 4번지 우림빌딩 1층","category":"레져용품 - 스포츠·레져용품"},{"name":"구광모항외과의원","tel":"031-207-2111","addr":"경기도 수원시 팔달구 중동 4번지 우림빌딩 503호","category":"의원 - 의원"},{"name":"국제미용직업전문학교","tel":"031-245-5233","addr":"경기도 수원시 팔달구 중동 4번지 우리림빌딩 8층 전체","category":"기타 - 비영리/비대상"},{"name":"그리스노래연습장","tel":"031-243-3855","addr":"경기도 수원시 팔달구 중동 4번지 우림빌딩 지하1층","category":"레저업소 - 노 래 방"},{"name":"김일표세무회계사무소","tel":"031-244-6110","addr":"경기도 수원시 팔달구 중동 4번지 우림빌딩 703호","category":"용역 서비스 - 법률회계서비스(개인)"},{"name":"로데오헤어아트","tel":"031-244-8888","addr":"경기도 수원시 팔달구 중동 4번지 우림빌딩 1층 101호","category":"보건위생 - 미용원"},{"name":"세향","tel":"031-1577-8722","addr":"경기도 수원시 팔달구 중동 4번지 우림빌딩 701호","category":"신변잡화 - 액세서리"},{"name":"수피야PC","tel":"031-242-7488","addr":"경기도 수원시 팔달구 중동 4번지 우림빌딩 3층","category":"레저업소 - 기타레져업소"},{"name":"에스티코(STCO)수원남문점","tel":"031-244-1811","addr":"경기도 수원시 팔달구 중동 4번지","category":"레져용품 - 스포츠·레져용품"},{"name":"에이치엠에스주식회사","tel":"031-258-0700","addr":"경기도 수원시 팔달구 중동 4번지 우림빌딩 702호","category":"신변잡화 - 기타잡화"},{"name":"이지동안성형외과의원","tel":"031-207-7575","addr":"경기도 수원시 팔달구 중동 4번지 우림빌딩","category":"의원 - 의원"}]},{"lat":"37.274432913","long":"127.01575799","items":[{"name":"(주)아이엠컴퍼니","tel":"031-242-1311","addr":"경기도 수원시 팔달구 중동 10-1번지","category":"의류 - 정장"}]},{"lat":"37.274874232","long":"127.01735912","items":[{"name":"(주)엠텔레콤","tel":"031-243-2242","addr":"경기도 수원시 팔달구 중동 33번지 설영빌딩 103호","category":"사무통신 - 통신기기"},{"name":"SW스크린골프","tel":"031-252-7974","addr":"경기도 수원시 팔달구 중동 33번지 설영빌딩","category":"레저업소 - 스크린골프"},{"name":"남문성인게임장","tel":"","addr":"경기도 수원시 팔달구 중동 33번지 설영빌딩 2층 202호","category":"레저업소 - 기타레져업소"},{"name":"신전떡볶이남문점","tel":"031-252-7778","addr":"경기도 수원시 팔달구 중동 33번지 설영빌딩 1층 102호","category":"일반휴게음식 - 스넥"},{"name":"탕화쿵푸마라탕","tel":"070-4787-3668","addr":"경기도 수원시 팔달구 중동 33번지 설영빌딩 101호","category":"일반휴게음식 - 중국식"}]},{"lat":"37.275045591","long":"127.01594977","items":[{"name":"(주)청려원","tel":"031-242-2078","addr":"경기도 수원시 팔달구 중동 2-2번지","category":"약국 - 약국"},{"name":"청려원동물병원","tel":"031-242-2078","addr":"경기도 수원시 팔달구 중동 2-2번지","category":"기타의료기관 - 동물병원"}]},{"lat":"37.272901136","long":"127.01602833","items":[{"name":"(주)핸즈헬스케어","tel":"031-242-0705","addr":"경기도 수원시 팔달구 중동 109-1번지 3층","category":"보건위생 - 의료용품"},{"name":"대물찜","tel":"031-242-0266","addr":"경기도 수원시 팔달구 중동 109-1번지","category":"일반휴게음식 - 일반한식"},{"name":"베레슈트상가관리(주)","tel":"031-248-2101","addr":"경기도 수원시 팔달구 중동 109-1번지","category":"의류 - 정장"},{"name":"지엔느헤어라미","tel":"031-248-7790","addr":"경기도 수원시 팔달구 중동 109-1번지","category":"보건위생 - 미용원"},{"name":"춘향골밥상","tel":"","addr":"경기도 수원시 팔달구 중동 109-1번지 1층","category":"일반휴게음식 - 일반한식"}]},{"lat":"37.273874234","long":"127.01614124","items":[{"name":"2층2호","tel":"031-248-8035","addr":"경기도 수원시 팔달구 중동 84베레슈트2층2","category":"의류 - 정장"}]},{"lat":"37.274793256","long":"127.01636691","items":[{"name":"JustGTrading (져스트 지)","tel":"070-4076-7640","addr":"경기도 수원시 팔달구 중동 22-2번지 3층","category":"레져용품 - 스포츠·레져용품"},{"name":"스칼렛템아트","tel":"031-253-8831","addr":"경기도 수원시 팔달구 중동 22-2번지 2층","category":"보건위생 - 미용재료"},{"name":"포트리스쌀국수","tel":"","addr":"경기도 수원시 팔달구 중동 22-2번지 1층","category":"일반휴게음식 - 서양음식"}]},{"lat":"37.274739262","long":"127.01575805","items":[{"name":"MP3노래방(연습장)","tel":"031-242-4171","addr":"경기도 수원시 팔달구 중동 8-3번지 청덕빌딩 3층","category":"레저업소 - 노 래 방"},{"name":"돼지들의소풍","tel":"031-252-4478","addr":"경기도 수원시 팔달구 중동 8-3번지 청석빌딩 1층","category":"일반휴게음식 - 일반한식"}]},{"lat":"37.271738701","long":"127.01697519","items":[{"name":"WOTC매교점","tel":"031-255-3879","addr":"경기도 수원시 팔달구 중동 150-1번지","category":"신변잡화 - 신발"},{"name":"경화집","tel":"031-7-4028","addr":"경기도 수원시 팔달구 중동 150-1번지","category":"일반휴게음식 - 일반한식"},{"name":"화성볼트","tel":"031-251-3356","addr":"경기도 수원시 팔달구 중동 150-1번지","category":"기타 - 기계공구"}]},{"lat":"37.274513942","long":"127.01633303","items":[{"name":"강남수족관","tel":"031-247-3355","addr":"경기도 수원시 팔달구 중동 19번지 1층","category":"문화.취미 - 수족관"},{"name":"남문동물병원","tel":"031-248-0075","addr":"경기도 수원시 팔달구 중동 19번지","category":"기타의료기관 - 동물병원"}]},{"lat":"37.274099472","long":"127.01631041","items":[{"name":"경남마크사","tel":"031-256-5250","addr":"경기도 수원시 팔달구 중동 80번지","category":"수리서비스 - 세탁소"},{"name":"동양토탈수원남문점","tel":"031-254-4883","addr":"경기도 수원시 팔달구 중동 80번지","category":"가구 - 일반가구"},{"name":"치치와와","tel":"031-222-6317","addr":"경기도 수원시 팔달구 중동 80번지","category":"문화.취미 - 애완동물"}]},{"lat":"37.274486865","long":"127.01672765","items":[{"name":"공일공모바일","tel":"031-242-6010","addr":"경기도 수원시 팔달구 중동 36-2번지 1층 101호","category":"사무통신 - 통신기기"},{"name":"매직캣 마술학원","tel":"032-501-9849","addr":"경기도 수원시 팔달구 중동 36-2번지 2층","category":"문화.취미 - 티켓"},{"name":"비마트","tel":"031-252-8777","addr":"경기도 수원시 팔달구 중동 36-2번지","category":"보건위생 - 미용재료"},{"name":"태경(아름다운산행수원점)","tel":"031-246-2181","addr":"경기도 수원시 팔달구 중동 36-2번지","category":"레져용품 - 스포츠·레져용품"}]},{"lat":"37.272126152","long":"127.01689634","items":[{"name":"국제종합상사","tel":"031-244-9284","addr":"경기도 수원시 팔달구 중동 145-2번지","category":"건축자재 - 기타건축자재"},{"name":"제비표페인트","tel":"031-246-7789","addr":"경기도 수원시 팔달구 중동 145-2번지","category":"건축자재 - 페인트"},{"name":"창신상사","tel":"031-252-7815","addr":"경기도 수원시 팔달구 중동 145-2번지","category":"기타 - 기계공구"},{"name":"협성도장건설주식회사","tel":"031-252-3055","addr":"경기도 수원시 팔달구 중동 145-2번지","category":"건축자재 - 페인트"}]},{"lat":"37.27473914","long":"127.01684045","items":[{"name":"그라찌에","tel":"031-246-7508","addr":"경기도 수원시 팔달구 중동 35-1번지","category":"일반휴게음식 - 서양음식"}]},{"lat":"37.27299122","long":"127.01619746","items":[{"name":"김정민네일","tel":"031-242-1668","addr":"경기도 수원시 팔달구 중동 111-1번지","category":"보건위생 - 미용재료"},{"name":"루비네일미용학원","tel":"031-242-1668","addr":"경기도 수원시 팔달구 중동 111-1번지 3층","category":"회원제형태 - 학원"},{"name":"미소체형관리","tel":"031-241-6888","addr":"경기도 수원시 팔달구 중동 111-1번지 2층","category":"보건위생 - 피부미용실"}]},{"lat":"37.273540799","long":"127.01661473","items":[{"name":"나라가발","tel":"031-238-0230","addr":"경기도 수원시 팔달구 중동 74-1번지 1층","category":"보건위생 - 미용재료"}]},{"lat":"37.272765978","long":"127.01606213","items":[{"name":"남문짜장","tel":"031-253-1585","addr":"경기도 수원시 팔달구 중동 109-3번지","category":"일반휴게음식 - 중국식"}]},{"lat":"37.274541025","long":"127.01585949","items":[{"name":"달리는커피수원팔달점","tel":"031-242-4037","addr":"경기도 수원시 팔달구 중동 8-4번지 102호","category":"일반휴게음식 - 서양음식"},{"name":"디자이드(DESIDE)","tel":"031-244-1336","addr":"경기도 수원시 팔달구 중동 8-4번지 2층 202호","category":"서적문구 - 출판 및 인쇄물"},{"name":"미소","tel":"031-243-1005","addr":"경기도 수원시 팔달구 중동 8-4번지","category":"의류 - 정장"}]},{"lat":"37.273153417","long":"127.01608474","items":[{"name":"대우커텐","tel":"031-243-3477","addr":"경기도 수원시 팔달구 중동 112","category":"직물 - 카페트,커튼,천막,지물"},{"name":"대한곱창","tel":"031-244-6908","addr":"경기도 수원시 팔달구 중동 112번지","category":"일반휴게음식 - 일반한식"},{"name":"동해공사","tel":"031-244-7272","addr":"경기도 수원시 팔달구 중동 112번지","category":"용역 서비스 - 종합용역"},{"name":"만샵","tel":"","addr":"경기도 수원시 팔달구 중동 112번지","category":"의류 - 정장"},{"name":"비비투","tel":"070-4412-4234","addr":"경기도 수원시 팔달구 중동 112번지","category":"의류 - 정장"}]},{"lat":"37.271990989","long":"127.01697524","items":[{"name":"대일종합상사","tel":"031-243-7711","addr":"경기도 수원시 팔달구 중동 146-1번지","category":"기타 - 기계공구"},{"name":"부일파크","tel":"031-258-3097","addr":"경기도 수원시 팔달구 중동 146-1번지 1","category":"숙박업 - 여관/기타숙박업"}]},{"lat":"37.273207416","long":"127.01663722","items":[{"name":"대정","tel":"031-253-5011","addr":"경기도 수원시 팔달구 중동 71-1번지","category":"사무통신 - 통신기기"}]},{"lat":"37.27507264","long":"127.01578065","items":[{"name":"더빅칠","tel":"031-215-6990","addr":"경기도 수원시 팔달구 중동 1-5번지","category":"일반휴게음식 - 주점"},{"name":"숙이네단란주점","tel":"031-252-3393","addr":"경기도 수원시 팔달구 중동 1-5번지","category":"일반휴게음식 - 일반한식"},{"name":"스페이스","tel":"031-111-1111","addr":"경기도 수원시 팔달구 중동 1-5번지 중동빌딩 2층","category":"일반휴게음식 - 서양음식"},{"name":"엘리웨이탭하우스","tel":"070-7524-3565","addr":"경기도 수원시 팔달구 중동 1-5번지 중동빌딩 4호 충","category":"일반휴게음식 - 일반한식"}]},{"lat":"37.273955311","long":"127.01627656","items":[{"name":"도그스토리","tel":"031-242-6464","addr":"경기도 수원시 팔달구 중동 82번지","category":"문화.취미 - 애완동물"},{"name":"애견사랑","tel":"031-253-0096","addr":"경기도 수원시 팔달구 중동 82번지 외1필지","category":"문화.취미 - 애완동물"},{"name":"애견사랑","tel":"031-253-0096","addr":"경기도 수원시 팔달구 중동 82번지","category":"문화.취미 - 애완동물"},{"name":"제이(J)플라워","tel":"070-6519-2253","addr":"경기도 수원시 팔달구 중동 82번지 104호","category":"문화.취미 - 화원"}]},{"lat":"37.274378855","long":"127.01572416","items":[{"name":"돈부리쇼쿠도","tel":"031-254-0056","addr":"경기도 수원시 팔달구 중동 10-2번지 1층","category":"일반휴게음식 - 일반한식"}]},{"lat":"37.273045178","long":"127.01708818","items":[{"name":"동양기계공구","tel":"031-253-0980","addr":"경기도 수원시 팔달구 중동 61번지","category":"기타 - 기계공구"}]},{"lat":"37.274568071","long":"127.01572419","items":[{"name":"럭키당구장","tel":"070-7779-9884","addr":"경기도 수원시 팔달구 중동 8-5번지 3층","category":"레저업소 - 당 구 장"},{"name":"쿠스","tel":"031-252-7746","addr":"경기도 수원시 팔달구 중동 8-5번지 3층","category":"일반휴게음식 - 칵테일바"},{"name":"포달스토리","tel":"031-242-6178","addr":"경기도 수원시 팔달구 중동 8-5번지 1층","category":"일반휴게음식 - 일반한식"}]},{"lat":"37.27432468","long":"127.01672762","items":[{"name":"메이드라포","tel":"031-257-5430","addr":"경기도 수원시 팔달구 중동 38-1번지 2층 201호","category":"의류 - 정장"},{"name":"미조사","tel":"031-252-1288","addr":"경기도 수원시 팔달구 중동 38-1번지 101호","category":"의류 - 맞춤복점"},{"name":"수원전자담배멀티샵","tel":"070-8285-5444","addr":"경기도 수원시 팔달구 중동 38-1번지 1층","category":"수리서비스 - 사무·통신기기수리"},{"name":"오시빅","tel":"031-248-5430","addr":"경기도 수원시 팔달구 중동 38-1번지","category":"의류 - 정장"}]},{"lat":"37.273847245","long":"127.01575789","items":[{"name":"메이크헤어","tel":"","addr":"경기도 수원시 팔달구 중동 14번지 1층 102호","category":"보건위생 - 미용원"},{"name":"바이리썸","tel":"031-257-3669","addr":"경기도 수원시 팔달구 중동 14번지","category":"의류 - 정장"},{"name":"버닝","tel":"031-294-4409","addr":"경기도 수원시 팔달구 중동 14번지","category":"의류 - 정장"},{"name":"원더풀치타","tel":"","addr":"경기도 수원시 팔달구 중동 14번지","category":"일반휴게음식 - 서양음식"},{"name":"해운영상기획실","tel":"031-44-1223","addr":"경기도 수원시 팔달구 중동 14번지","category":"광학제품 - 사진관"}]},{"lat":"37.274288755","long":"127.01570159","items":[{"name":"명품포차","tel":"031-207-0120","addr":"경기도 수원시 팔달구 중동 11-1번지 4호","category":"일반휴게음식 - 일반한식"},{"name":"바로주스","tel":"031-676-7646","addr":"경기도 수원시 팔달구 중동 11-1번지 1층 2호","category":"음료식품 - 기타음료식품"},{"name":"여성시대","tel":"031-245-0434","addr":"경기도 수원시 팔달구 중동 11-1번지 101호","category":"의류 - 정장"},{"name":"주식회사 경관조경","tel":"031-243-2200","addr":"경기도 수원시 팔달구 중동 11-1번지 2층","category":"건축자재 - 인테리어전문"}]},{"lat":"37.273288509","long":"127.01663723","items":[{"name":"몬스터와이드","tel":"","addr":"경기도 수원시 팔달구 중동 72-1번지","category":"수리서비스 - 세탁소"}]},{"lat":"37.274288619","long":"127.01689674","items":[{"name":"문모텔","tel":"031-246-2285","addr":"경기도 수원시 팔달구 중동 39-1번지","category":"숙박업 - 여관/기타숙박업"}]},{"lat":"37.273513854","long":"127.01585931","items":[{"name":"벌집","tel":"031-248-8150","addr":"경기도 수원시 팔달구 중동 99-1베레슈트1층50","category":"의류 - 정장"}]},{"lat":"37.274594989","long":"127.01672767","items":[{"name":"소리샘보청기 수원남문센터","tel":"031-252-3992","addr":"경기도 수원시 팔달구 중동 36-1번지 2층","category":"보건위생 - 의료용품"}]},{"lat":"37.274712164","long":"127.01636689","items":[{"name":"시가헌터","tel":"031-252-6129","addr":"경기도 수원시 팔달구 중동 21-1번지","category":"기타 - 기타 전문점"},{"name":"아담카페","tel":"031-8234-2348","addr":"경기도 수원시 팔달구 중동 21-1번지 지하1층","category":"일반휴게음식 - 일반한식"}]},{"lat":"37.272684879","long":"127.01611849","items":[{"name":"쏠레노래방","tel":"031-252-3243","addr":"경기도 수원시 팔달구 중동 121-1번지 B1층","category":"레저업소 - 노 래 방"},{"name":"애드미루","tel":"031-251-0603","addr":"경기도 수원시 팔달구 중동 121-1번지 3층","category":"건축자재 - 인테리어전문"},{"name":"웹툰홀릭학원","tel":"031-548-1771","addr":"경기도 수원시 팔달구 중동 121-1번지 중동빌딩 4층","category":"학원 - 기능학원"}]},{"lat":"37.274928478","long":"127.01575808","items":[{"name":"씨유수원중앙점","tel":"031-254-0393","addr":"경기도 수원시 팔달구 중동 1-7번지","category":"유통업 영리 - 편 의 점"},{"name":"카라","tel":"031-247-2460","addr":"경기도 수원시 팔달구 중동 1-7번지","category":"의류 - 정장"},{"name":"카라","tel":"031-247-2460","addr":"경기도 수원시 팔달구 중동 1-7번지 1층","category":"문화.취미 - 화원"},{"name":"피씨리더","tel":"","addr":"경기도 수원시 팔달구 중동 1-7번지 1층","category":"사무통신 - 컴퓨터"}]},{"lat":"37.274207666","long":"127.01566776","items":[{"name":"안만진헤어","tel":"031-253-1190","addr":"경기도 수원시 팔달구 중동 11-2번지 2층","category":"보건위생 - 미용원"}]},{"lat":"37.274351675","long":"127.01703205","items":[{"name":"우래정","tel":"031-252-3675","addr":"경기도 수원시 팔달구 중동 40번지","category":"일반휴게음식 - 일반한식"}]},{"lat":"37.271963978","long":"127.01680611","items":[{"name":"우리산들한의원","tel":"031-241-0231","addr":"경기도 수원시 팔달구 중동 146-2번지 2,3층","category":"의원 - 한의원"},{"name":"우리한약","tel":"031-251-5925","addr":"경기도 수원시 팔달구 중동 146-2번지","category":"음료식품 - 농·축·수산품"}]},{"lat":"37.272324398","long":"127.01672726","items":[{"name":"임마누엘패션","tel":"031-46-8792","addr":"경기도 수원시 팔달구 중동 138","category":"의류 - 정장"}]},{"lat":"37.271873858","long":"127.01695266","items":[{"name":"제이원소파","tel":"031-241-4420","addr":"경기도 수원시 팔달구 중동 147-1번지 1층","category":"가구 - 기타가구"}]},{"lat":"37.273513719","long":"127.01703189","items":[{"name":"중동식당","tel":"031-46-2277","addr":"경기도 수원시 팔달구 중동 54번지","category":"일반휴게음식 - 일반한식"}]},{"lat":"37.273153299","long":"127.01711075","items":[{"name":"중앙기계","tel":"031-252-0333","addr":"경기도 수원시 팔달구 중동 60-2번지 1층","category":"농업 - 농기계"}]},{"lat":"37.274207551","long":"127.01669378","items":[{"name":"지앤미","tel":"031-251-3880","addr":"경기도 수원시 팔달구 중동 38-3번지","category":"보건위생 - 미용재료"}]},{"lat":"37.273018167","long":"127.01691905","items":[{"name":"진성종합상사","tel":"031-251-0989","addr":"경기도 수원시 팔달구 중동 62번지","category":"기타 - 기계공구"}]},{"lat":"37.273261422","long":"127.01711077","items":[{"name":"청기와식당","tel":"031-253-5930","addr":"경기도 수원시 팔달구 중동 59-2번지 1층","category":"일반휴게음식 - 일반한식"}]},{"lat":"37.272820031","long":"127.01614106","items":[{"name":"청해반점본점","tel":"031-252-3708","addr":"경기도 수원시 팔달구 중동 110번지","category":"일반휴게음식 - 중국식"}]},{"lat":"37.273018194","long":"127.01669356","items":[{"name":"펫조은나라","tel":"031-211-0702","addr":"경기도 수원시 팔달구 중동 65-1, 70-1","category":"문화.취미 - 애완동물"}]},{"lat":"37.273126324","long":"127.0166372","items":[{"name":"한미타올경호상사","tel":"031-257-8800","addr":"경기도 수원시 팔달구 중동 70-1번지","category":"직물 - 옷감·직물"}]},{"lat":"37.274739233","long":"127.01602865","items":[{"name":"할매순대국","tel":"031-258-3488","addr":"경기도 수원시 팔달구 중동 8-8번지 1층","category":"일반휴게음식 - 일반한식"},{"name":"할매순대국","tel":"031-258-3488","addr":"경기도 수원시 팔달구 중동 8-8번지 1층","category":"일반휴게음식 - 일반한식"},{"name":"형제인쇄소","tel":"031-252-4411","addr":"경기도 수원시 팔달구 중동 8-8번지","category":"서적문구 - 출판 및 인쇄물"}]}]