[{"lat":"37.284710318","long":"126.90550935","items":[{"name":"(주) 엠에이치시스템","tel":"031-295-2708","addr":"경기도 화성시 매송면 송라리 227-2번지","category":"건축자재 - 기타건축자재"}]},{"lat":"37.276897947","long":"126.89459361","items":[{"name":"(주)원종합상사","tel":"031-419-3338","addr":"경기도 화성시 매송면 송라리 537-4번지","category":"음료식품 - 기타음료식품"}]},{"lat":"37.281704226","long":"126.90965153","items":[{"name":"(주)제일하우징","tel":"031-298-6133","addr":"경기도 화성시 매송면 송라리 77번지","category":"건축자재 - 기타건축자재"},{"name":"세일특수강정공","tel":"031-294-4077","addr":"경기도 화성시 매송면 송라리 77번지 202호","category":"주방용구 - 주방용구"}]},{"lat":"37.27356827","long":"126.88937813","items":[{"name":"권명화찹쌀떡","tel":"031-295-2380","addr":"경기도 화성시 매송면 송라리 590-3번지 외1필지 2동 1층","category":"음료식품 - 제과점"}]},{"lat":"37.268539765","long":"126.89832603","items":[{"name":"농업회사법인 주식회사 삼원라이스","tel":"031-000-0000","addr":"경기도 화성시 매송면 송라리 782번지","category":"음료식품 - 미곡상"}]},{"lat":"37.284432498","long":"126.90734777","items":[{"name":"송라녹색농촌체험마을","tel":"031-296-3542","addr":"경기도 화성시 매송면 송라리 184-2번지","category":"레저업소 - 기타레져업소"}]},{"lat":"37.272648638","long":"126.88877068","items":[{"name":"송라초등학교병설유치원[아이행복]","tel":"031-295-8452","addr":"경기도 화성시 매송면 송라리 585번지 송라초등학교","category":"학원 - 유치원"}]},{"lat":"37.286876746","long":"126.91045708","items":[{"name":"신촌낚시터","tel":"031-296-5751","addr":"경기도 화성시 매송면 송라리 142-5번지","category":"레저업소 - 기타레져업소"}]},{"lat":"37.270489692","long":"126.89248321","items":[{"name":"원카","tel":"031-486-6488","addr":"경기도 화성시 매송면 송라리 722-3번지","category":"자동차정비 유지 - 자동차정비"}]},{"lat":"37.274425385","long":"126.89057199","items":[{"name":"주현씽크","tel":"031-292-7082","addr":"경기도 화성시 매송면 송라리 604번지","category":"주방용구 - 주방용구"}]},{"lat":"37.273433623","long":"126.88990825","items":[{"name":"해드림렌탈","tel":"","addr":"경기도 화성시 매송면 송라리 684-4번지","category":"신변잡화 - 기타잡화"}]}]