[{"lat":"36.982555318","long":"127.05191987","items":[{"name":"(주)대성에프앤비/삼원FA(일반)","tel":"031-692-0797","addr":"경기도 평택시 팽성읍 신호리 50-1번지","category":"기타 - 기타 전문점"},{"name":"주식회사대성에프앤비","tel":"031-692-0798","addr":"경기도 평택시 팽성읍 신호리 50-1","category":"음료식품 - 기타음료식품"}]},{"lat":"36.980547646","long":"127.04756077","items":[{"name":"(주)에프씨평택한양","tel":"031-654-6683","addr":"경기도 평택시 팽성읍 신호리 138-1번지","category":"학원 - 예·체능계학원"}]},{"lat":"36.980996541","long":"127.05172793","items":[{"name":"다모농원","tel":"031-653-4466","addr":"경기도 평택시 팽성읍 신호리 38-1번지","category":"소매업 - 농산물"},{"name":"다보농원","tel":"031-658-1933","addr":"경기도 평택시 팽성읍 신호리 38-1번지","category":"도소매업 - 농산물"},{"name":"다보농원","tel":"031-691-5168","addr":"경기도 평택시 팽성읍 신호리 38-1번지","category":"음료식품 - 농·축·수산품"}]},{"lat":"36.978608118","long":"127.05311907","items":[{"name":"동아전업사","tel":"031-651-5823","addr":"경기도 평택시 팽성읍 신호리 171-7","category":"용역 서비스 - 기타용역서비스"}]},{"lat":"36.981943051","long":"127.05078508","items":[{"name":"우진농장","tel":"031-691-5635","addr":"경기도 평택시 팽성읍 신호리 125-1","category":"음료식품 - 기타음료식품"}]}]