[{"lat":"37.928765836","long":"126.86244528","items":[{"name":"SD스톤","tel":"","addr":"경기도 파주시 파평면 눌노리 34번지","category":"건축자재 - 목재·석재·철물"}]},{"lat":"37.931594576","long":"126.8623034","items":[{"name":"늘로리 쌈밥","tel":"031-959-0108","addr":"경기도 파주시 파평면 눌노리 214번지","category":"일반휴게음식 - 일반한식"}]},{"lat":"37.925487553","long":"126.8633614","items":[{"name":"다모아양봉","tel":"031-958-6403","addr":"경기도 파주시 파평면 눌노리 80번지","category":"건강식품 - 기타건강식품"}]},{"lat":"37.930681597","long":"126.86738952","items":[{"name":"바우가든","tel":"031-959-3304","addr":"경기도 파주시 파평면 눌노리 12-10","category":"일반휴게음식 - 일반한식"}]},{"lat":"37.930599197","long":"126.85869961","items":[{"name":"박엄마네","tel":"031-958-4439","addr":"경기도 파주시 파평면 눌노리 231-12번지","category":"음료식품 - 기타음료식품"}]},{"lat":"37.930124732","long":"126.86119152","items":[{"name":"봉평막국수","tel":"031-959-7702","addr":"경기도 파주시 파평면 눌노리 27-8번지","category":"일반휴게음식 - 일반한식"}]},{"lat":"37.930233445","long":"126.86169178","items":[{"name":"빈센트","tel":"031-111-1111","addr":"경기도 파주시 파평면 눌노리 27-1번지","category":"일반휴게음식 - 일반한식"}]},{"lat":"37.930789197","long":"126.85935895","items":[{"name":"성실시스템공조","tel":"031-959-8954","addr":"경기도 파주시 파평면 눌노리 231-7번지","category":"전기제품 - 가전제품"}]},{"lat":"37.93084451","long":"126.86039392","items":[{"name":"순흥닭곰탕집","tel":"031-958-8025","addr":"경기도 파주시 파평면 눌노리 231-32번지","category":"일반휴게음식 - 일반한식"}]},{"lat":"37.930122277","long":"126.85916688","items":[{"name":"스마테리아","tel":"031-959-2357","addr":"경기도 파주시 파평면 눌노리 54-4번지","category":"가구 - 일반가구"}]},{"lat":"37.931236411","long":"126.85671919","items":[{"name":"시골손만두국","tel":"031-958-0828","addr":"경기도 파주시 파평면 눌노리 255-2번지","category":"일반휴게음식 - 일반한식"}]},{"lat":"37.930348284","long":"126.85980341","items":[{"name":"에스아이(SI)","tel":"031-959-8787","addr":"경기도 파주시 파평면 눌노리 198","category":"신변잡화 - 기타잡화"}]},{"lat":"37.931513302","long":"126.86214431","items":[{"name":"옛집","tel":"031-958-8300","addr":"경기도 파주시 파평면 눌노리 214-3","category":"일반휴게음식 - 일반한식"}]},{"lat":"37.93067881","long":"126.85750513","items":[{"name":"용바위순대국","tel":"031-958-6787","addr":"경기도 파주시 파평면 눌노리 238-1번지","category":"일반휴게음식 - 일반한식"}]},{"lat":"37.928769454","long":"126.85799798","items":[{"name":"용연초등학교병설유치원[아이행복]","tel":"031-958-9696","addr":"경기도 파주시 파평면 눌노리 186번지","category":"학원 - 유치원"}]},{"lat":"37.930677768","long":"126.85666343","items":[{"name":"육미 율","tel":"031-959-8892","addr":"경기도 파주시 파평면 눌노리 239-7번지","category":"일반휴게음식 - 일반한식"}]},{"lat":"37.930797468","long":"126.86630873","items":[{"name":"윤가네오리&닭","tel":"031-953-5592","addr":"경기도 파주시 파평면 눌노리 11-6번지","category":"일반휴게음식 - 일반한식"}]},{"lat":"37.930764361","long":"126.86116754","items":[{"name":"임진강여관","tel":"031-959-5322","addr":"경기도 파주시 파평면 눌노리 202-3","category":"숙박업 - 여관/기타숙박업"}]},{"lat":"37.930652473","long":"126.86558103","items":[{"name":"자연나눔센터","tel":"031-959-4942","addr":"경기도 파주시 파평면 눌노리 10-6번지","category":"레저업소 - 기타레져업소"}]},{"lat":"37.930899965","long":"126.86155401","items":[{"name":"제안컨테이너하우징","tel":"031-959-7257","addr":"경기도 파주시 파평면 눌노리 201-6","category":"건축자재 - 건축용 요업제품"}]},{"lat":"37.932099622","long":"126.86274605","items":[{"name":"주식회사 더레인보우","tel":"031-952-7729","addr":"경기도 파주시 파평면 눌노리 217-4번지","category":"직물 - 침구·수예점"}]},{"lat":"37.931350167","long":"126.86133703","items":[{"name":"춘천막국수","tel":"031-000-0000","addr":"경기도 파주시 파평면 눌노리 200-1번지","category":"일반휴게음식 - 일반한식"}]},{"lat":"37.927345924","long":"126.85794391","items":[{"name":"파주대추농원","tel":"031-958-3308","addr":"경기도 파주시 파평면 눌노리 180-1번지","category":"음료식품 - 농·축·수산품"}]},{"lat":"37.9332905","long":"126.8641429","items":[{"name":"파평기사식당","tel":"031-958-8681","addr":"경기도 파주시 파평면 눌노리 220-2","category":"일반휴게음식 - 일반한식"}]},{"lat":"37.932461498","long":"126.85658027","items":[{"name":"행복재활요양원","tel":"031-959-9966","addr":"경기도 파주시 파평면 눌노리 821번지","category":"기타의료기관 - 기타의료기관 및 기타"}]},{"lat":"37.930401425","long":"126.8590526","items":[{"name":"현대식당","tel":"031-958-3078","addr":"경기도 파주시 파평면 눌노리 53-2","category":"일반휴게음식 - 일반한식"}]}]