[{"lat":"37.518352775","long":"127.29910898","items":[{"name":"LYNN Fine Art (린 파인아트)","tel":"031-433-2639","addr":"경기도 남양주시 조안면 능내리 98-4번지","category":"문화.취미 - 화랑"}]},{"lat":"37.517236156","long":"127.30244142","items":[{"name":"감나무집","tel":"031-576-8263","addr":"경기도 남양주시 조안면 능내리 4-1번지","category":"일반휴게음식 - 일반한식"}]},{"lat":"37.535349641","long":"127.26285793","items":[{"name":"강과산","tel":"031-111-1111","addr":"경기도 남양주시 조안면 능내리 825번지","category":"음료식품 - 기타음료식품"},{"name":"구멍가게","tel":"","addr":"경기도 남양주시 조안면 능내리 825번지","category":"유통업 영리 - 슈퍼마켓"},{"name":"구멍가게","tel":"070-7530-6000","addr":"경기도 남양주시 조안면 능내리 825번지","category":"유통업 영리 - 슈퍼마켓"}]},{"lat":"37.514993815","long":"127.29479752","items":[{"name":"강변연가","tel":"031-853-8668","addr":"경기도 남양주시 조안면 능내리 311번지","category":"일반휴게음식 - 일반한식"}]},{"lat":"37.521797878","long":"127.29046888","items":[{"name":"강변편의점","tel":"031-576-4368","addr":"경기도 남양주시 조안면 능내리 171-2번지","category":"유통업 영리 - 슈퍼마켓"}]},{"lat":"37.531074017","long":"127.2884115","items":[{"name":"과일도소매직판장","tel":"031-577-4824","addr":"경기도 남양주시 조안면 능내리 521번지","category":"음료식품 - 농·축·수산품"}]},{"lat":"37.529876429","long":"127.28435678","items":[{"name":"기프트(gift)","tel":"031-576-8355","addr":"경기도 남양주시 조안면 능내리 470-4번지","category":"음료식품 - 기타음료식품"}]},{"lat":"37.523541552","long":"127.29586023","items":[{"name":"넘버나인","tel":"031-576-0709","addr":"경기도 남양주시 조안면 능내리 130-5번지","category":"음료식품 - 기타음료식품"}]},{"lat":"37.51535382","long":"127.29857682","items":[{"name":"능내1리다산영농조합법인","tel":"031-577-9991","addr":"경기도 남양주시 조안면 능내리 35-1","category":"음료식품 - 농·축·수산품"}]},{"lat":"37.523821472","long":"127.29561246","items":[{"name":"능내옥","tel":"031-577-2624","addr":"경기도 남양주시 조안면 능내리 139-4번지","category":"일반휴게음식 - 일반한식"}]},{"lat":"37.514822724","long":"127.29838244","items":[{"name":"다우재","tel":"","addr":"경기도 남양주시 조안면 능내리 54번지 1층","category":"학원 - 기타 교육기관"}]},{"lat":"37.51532455","long":"127.29947028","items":[{"name":"대가농원","tel":"031-576-6955","addr":"경기도 남양주시 조안면 능내리 26-3번지","category":"음료식품 - 농·축·수산품"}]},{"lat":"37.529154513","long":"127.28482922","items":[{"name":"대림정","tel":"031-576-8173","addr":"경기도 남양주시 조안면 능내리 473-3번지","category":"일반휴게음식 - 일반한식"}]},{"lat":"37.529352521","long":"127.28866514","items":[{"name":"도둑과시인","tel":"031-62-8049","addr":"경기도 남양주시 조안면 능내리 456-1번지","category":"일반휴게음식 - 일반한식"},{"name":"도둑과시인","tel":"031-576-8049","addr":"경기도 남양주시 조안면 능내리 456-1번지","category":"일반휴게음식 - 일반한식"}]},{"lat":"37.523211354","long":"127.29458066","items":[{"name":"도예화","tel":"031-577-2535","addr":"경기도 남양주시 조안면 능내리 140-4번지","category":"문화.취미 - 화원"},{"name":"자기랑","tel":"031-577-2535","addr":"경기도 남양주시 조안면 능내리 140-4번지","category":"주방용구 - 주방용구"},{"name":"자기랑카페","tel":"031-577-2535","addr":"경기도 남양주시 조안면 능내리 140-4번지","category":"일반휴게음식 - 일반한식"}]},{"lat":"37.528907804","long":"127.2899984","items":[{"name":"또바기","tel":"031-576-4477","addr":"경기도 남양주시 조안면 능내리 산66-3번지","category":"일반휴게음식 - 일반한식"}]},{"lat":"37.515298628","long":"127.29902904","items":[{"name":"밤나무집","tel":"031-576-0438","addr":"경기도 남양주시 조안면 능내리 26-2번지","category":"일반휴게음식 - 일반한식"}]},{"lat":"37.529407455","long":"127.28830333","items":[{"name":"밤이네","tel":"031-8890-0808","addr":"경기도 남양주시 조안면 능내리 457-8번지","category":"음료식품 - 농·축·수산품"}]},{"lat":"37.532985373","long":"127.28788704","items":[{"name":"봉안어린이집[아이행복]","tel":"031-576-0057","addr":"경기도 남양주시 조안면 능내리 527-17번지","category":"학원 - 유아원"}]},{"lat":"37.523215135","long":"127.28935441","items":[{"name":"봉주르","tel":"031-521-1945","addr":"경기도 남양주시 조안면 능내리 165-7번지 외2필지","category":"유통업 영리 - 슈퍼마켓"}]},{"lat":"37.525018931","long":"127.29230256","items":[{"name":"사계절민박","tel":"031-577-3115","addr":"경기도 남양주시 조안면 능내리 147번지","category":"숙박업 - 여관/기타숙박업"}]},{"lat":"37.529515822","long":"127.28444594","items":[{"name":"성심냉동 종합설비","tel":"031-576-8172","addr":"경기도 남양주시 조안면 능내리 471-3번지","category":"용역 서비스 - 기타용역서비스"}]},{"lat":"37.531208835","long":"127.28854778","items":[{"name":"소원","tel":"031-577-5609","addr":"경기도 남양주시 조안면 능내리 521-1번지","category":"일반휴게음식 - 일반한식"}]},{"lat":"37.522931967","long":"127.29461351","items":[{"name":"쉼터농원","tel":"031-576-8091","addr":"경기도 남양주시 조안면 능내리 127-12번지","category":"음료식품 - 기타음료식품"},{"name":"쉼터자전거대여소","tel":"031-576-8093","addr":"경기도 남양주시 조안면 능내리 127-12번지","category":"레져용품 - 스포츠·레져용품"}]},{"lat":"37.519264661","long":"127.2983547","items":[{"name":"시간을 잃어버린 마을","tel":"031-5776-8258","addr":"경기도 남양주시 조안면 능내리 104번지","category":"음료식품 - 기타음료식품"}]},{"lat":"37.529686765","long":"127.2845484","items":[{"name":"시골밥상","tel":"031-576-8355","addr":"경기도 남양주시 조안면 능내리 471-2,470-4","category":"일반휴게음식 - 일반한식"}]},{"lat":"37.520930761","long":"127.29502426","items":[{"name":"씨엔디아트프로젝트(CNDARTPROJECT)","tel":"031-576-9152","addr":"경기도 남양주시 조안면 능내리 112-6번지","category":"문화.취미 - 화랑"}]},{"lat":"37.529127222","long":"127.28868691","items":[{"name":"씨유남양주조안점","tel":"031-577-0854","addr":"경기도 남양주시 조안면 능내리 456-6번지","category":"유통업 영리 - 편 의 점"}]},{"lat":"37.517494134","long":"127.29658314","items":[{"name":"아트팜 (art farm)","tel":"031-473-9107","addr":"경기도 남양주시 조안면 능내리 77번지","category":"문화.취미 - 화랑"}]},{"lat":"37.52156984","long":"127.29527561","items":[{"name":"야시","tel":"031-577-9828","addr":"경기도 남양주시 조안면 능내리 125-5번지","category":"유통업 영리 - 편 의 점"}]},{"lat":"37.515188579","long":"127.29979776","items":[{"name":"언덕","tel":"031-576-6955","addr":"경기도 남양주시 조안면 능내리 27-17번지","category":"음료식품 - 기타음료식품"}]},{"lat":"37.532990649","long":"127.28569219","items":[{"name":"에어컨","tel":"","addr":"경기도 남양주시 조안면 능내리 495-16번지","category":"용역 서비스 - 기타용역서비스"}]},{"lat":"37.528018252","long":"127.28899944","items":[{"name":"엣더팔당 (At the 8 dang)","tel":"031-521-5670","addr":"경기도 남양주시 조안면 능내리 539-3번지","category":"유통업 영리 - 편 의 점"}]},{"lat":"37.515797454","long":"127.30130455","items":[{"name":"옛나루터","tel":"031-576-8263","addr":"경기도 남양주시 조안면 능내리 12-7번지","category":"일반휴게음식 - 일반한식"}]},{"lat":"37.530658965","long":"127.28865881","items":[{"name":"온누리바베큐","tel":"031-576-9588","addr":"경기도 남양주시 조안면 능내리 518-28번지","category":"음료식품 - 기타음료식품"}]},{"lat":"37.514435557","long":"127.29827911","items":[{"name":"온다","tel":"","addr":"경기도 남양주시 조안면 능내리 56-37번지","category":"음료식품 - 기타음료식품"}]},{"lat":"37.514742738","long":"127.29794099","items":[{"name":"율이랑 소부당","tel":"031-577-8355","addr":"경기도 남양주시 조안면 능내리 53-2번지 1층 2호","category":"음료식품 - 기타음료식품"}]},{"lat":"37.514211302","long":"127.29788235","items":[{"name":"이마트24 다산생태공원점","tel":"031-2215-8313","addr":"경기도 남양주시 조안면 능내리 56-18번지","category":"유통업 영리 - 편 의 점"},{"name":"이마트24 다산생태공원점","tel":"","addr":"경기도 남양주시 조안면 능내리 56-18번지","category":"유통업 영리 - 편 의 점"}]},{"lat":"37.517543708","long":"127.29838185","items":[{"name":"저녁바람","tel":"031-577-6225","addr":"경기도 남양주시 조안면 능내리 82-3번지","category":"서적문구 - 출판 및 인쇄물"}]},{"lat":"37.524269911","long":"127.29644002","items":[{"name":"주식회사 물빛자전거세상","tel":"070-4407-9991","addr":"경기도 남양주시 조안면 능내리 135-1번지","category":"음료식품 - 기타음료식품"},{"name":"주식회사 물빛자전거세상","tel":"070-4407-9991","addr":"경기도 남양주시 조안면 능내리 135-1번지","category":"레져용품 - 스포츠·레져용품"}]},{"lat":"37.523820575","long":"127.29597445","items":[{"name":"파주상회","tel":"031-576-8084","addr":"경기도 남양주시 조안면 능내리 130-3번지","category":"음료식품 - 기타음료식품"}]},{"lat":"37.532214941","long":"127.2860513","items":[{"name":"팔로비팜","tel":"031-577-4425","addr":"경기도 남양주시 조안면 능내리 499-12번지","category":"음료식품 - 농·축·수산품"}]},{"lat":"37.529073695","long":"127.28471579","items":[{"name":"플로라","tel":"031-576-8484","addr":"경기도 남양주시 조안면 능내리 473-4","category":"일반휴게음식 - 일반한식"}]},{"lat":"37.529460981","long":"127.28477381","items":[{"name":"하늘조경","tel":"031-576-8181","addr":"경기도 남양주시 조안면 능내리 471-5","category":"건축자재 - 인테리어전문"}]},{"lat":"37.524487803","long":"127.29577344","items":[{"name":"홍씨농장","tel":"031-000-0000","addr":"경기도 남양주시 조안면 능내리 137-3번지","category":"음료식품 - 농·축·수산품"},{"name":"홍씨농장","tel":"031-000-0000","addr":"경기도 남양주시 조안면 능내리 137-3번지","category":"음료식품 - 농·축·수산품"}]},{"lat":"37.515075054","long":"127.29836081","items":[{"name":"황토마당","tel":"031-576-8087","addr":"경기도 남양주시 조안면 능내리 35-2번지","category":"일반휴게음식 - 일반한식"}]}]