[{"lat":"37.51677396","long":"127.43434029","items":[{"name":"(주)가일전통안료","tel":"02-723-9031","addr":"경기도 양평군 옥천면 아신리 845-1번지","category":"서적문구 - 문구용품"}]},{"lat":"37.511802181","long":"127.44365414","items":[{"name":"(주)네발로코리아 양평아신지점","tel":"031-773-2230","addr":"경기도 양평군 옥천면 아신리 422-19번지","category":"문화.취미 - 애완동물"}]},{"lat":"37.511358427","long":"127.4442623","items":[{"name":"(주)알이","tel":"031-771-6091","addr":"경기도 양평군 옥천면 아신리 421-7번지","category":"건축자재 - 부동산 분양"},{"name":"알이매물정보시스템","tel":"031-771-6091","addr":"경기도 양평군 옥천면 아신리 421-7번지","category":"회원제형태 - 기타4"}]},{"lat":"37.511296796","long":"127.44387738","items":[{"name":"(주)코리아세븐양평2호점/954호점","tel":"031-773-0968","addr":"경기도 양평군 옥천면 아신리 421-1번지","category":"유통업 영리 - 편 의 점"}]},{"lat":"37.511634563","long":"127.44751003","items":[{"name":"(주)한빛에프에스","tel":"031-774-3960","addr":"경기도 양평군 옥천면 아신리 387-3번지","category":"음료식품 - 정육점"},{"name":"두물이타일","tel":"031-774-6905","addr":"경기도 양평군 옥천면 아신리 387-3번지 1동","category":"건축자재 - 기타건축자재"},{"name":"에스필라테스 운동연구소","tel":"031-775-5544","addr":"경기도 양평군 옥천면 아신리 387-3번지","category":"레저업소 - 헬스클럽"}]},{"lat":"37.511351","long":"127.43653723","items":[{"name":"J호텔","tel":"031-771-0338","addr":"경기도 양평군 옥천면 아신리 484-1번지","category":"숙박업 - 여관/기타숙박업"},{"name":"J호텔","tel":"031-771-0338","addr":"경기도 양평군 옥천면 아신리 484-1번지","category":"숙박업 - 여관/기타숙박업"},{"name":"카페484","tel":"031-771-4840","addr":"경기도 양평군 옥천면 아신리 484-1번지","category":"숙박업 - 여관/기타숙박업"}]},{"lat":"37.51102266","long":"127.44490501","items":[{"name":"NSK마트양평점","tel":"031-772-6263","addr":"경기도 양평군 옥천면 아신리 437-4번지","category":"유통업 영리 - 슈퍼마켓"},{"name":"양평가락식자재","tel":"031-772-6263","addr":"경기도 양평군 옥천면 아신리 437-4번지 1층","category":"유통업 영리 - 슈퍼마켓"}]},{"lat":"37.515524096","long":"127.43365444","items":[{"name":"간이역","tel":"031-774-0730","addr":"경기도 양평군 옥천면 아신리 854-5번지","category":"일반휴게음식 - 일반한식"}]},{"lat":"37.512464216","long":"127.44731136","items":[{"name":"갤러리곽","tel":"031-771-9007","addr":"경기도 양평군 옥천면 아신리 384-9번지","category":"일반휴게음식 - 서양음식"}]},{"lat":"37.510519979","long":"127.43465492","items":[{"name":"남한강수상레져","tel":"031-773-0855","addr":"경기도 양평군 옥천면 아신리 918-1번지","category":"레져용품 - 스포츠·레져용품"}]},{"lat":"37.516377944","long":"127.44156586","items":[{"name":"다락방 딸기체험농장","tel":"031-774-8789","addr":"경기도 양평군 옥천면 아신리 553","category":"음료식품 - 농·축·수산품"}]},{"lat":"37.52182881","long":"127.44400723","items":[{"name":"대한예수교장로회은혜교회","tel":"070-8881-6377","addr":"경기도 양평군 옥천면 아신리 294-31번지","category":"기타 - 비영리/대상"},{"name":"힐링하우스","tel":"031-772-0985","addr":"경기도 양평군 옥천면 아신리 294-31번지 1층","category":"신변잡화 - 기타잡화"}]},{"lat":"37.511966547","long":"127.44306696","items":[{"name":"돈까스클럽양평점","tel":"031-775-2350","addr":"경기도 양평군 옥천면 아신리 368-6번지","category":"일반휴게음식 - 서양음식"}]},{"lat":"37.511992185","long":"127.4458495","items":[{"name":"락빈","tel":"","addr":"경기도 양평군 옥천면 아신리 373-6번지","category":"일반휴게음식 - 일반한식"}]},{"lat":"37.511080309","long":"127.43909181","items":[{"name":"리베","tel":"031-775-0706","addr":"경기도 양평군 옥천면 아신리 469-3번지","category":"숙박업 - 여관/기타숙박업"}]},{"lat":"37.51749643","long":"127.45320048","items":[{"name":"만복상점","tel":"031-771-8010","addr":"경기도 양평군 옥천면 아신리 21-4번지","category":"일반휴게음식 - 서양음식"}]},{"lat":"37.511800323","long":"127.4441518","items":[{"name":"망향비빔국수 옥천점","tel":"031-772-2120","addr":"경기도 양평군 옥천면 아신리 422-7번지","category":"일반휴게음식 - 일반한식"},{"name":"무봉리토종순대국","tel":"031-773-4017","addr":"경기도 양평군 옥천면 아신리 422-7번지","category":"일반휴게음식 - 일반한식"},{"name":"세븐일레븐양평아신역점","tel":"031-1577-0711","addr":"경기도 양평군 옥천면 아신리 422-7번지","category":"유통업 영리 - 편 의 점"},{"name":"화이트노래방","tel":"031-774-0494","addr":"경기도 양평군 옥천면 아신리 422-7번지","category":"레저업소 - 노 래 방"}]},{"lat":"37.51191105","long":"127.44825816","items":[{"name":"명동함흥냉면백암순대","tel":"031-775-0027","addr":"경기도 양평군 옥천면 아신리 387-9번지","category":"일반휴게음식 - 일반한식"},{"name":"무궁화꽃이피었습니다","tel":"031-774-6500","addr":"경기도 양평군 옥천면 아신리 387-9번지 1층","category":"일반휴게음식 - 일반한식"}]},{"lat":"37.511962864","long":"127.4464601","items":[{"name":"박금순집밥","tel":"031-773-2034","addr":"경기도 양평군 옥천면 아신리 384-11번지","category":"일반휴게음식 - 일반한식"}]},{"lat":"37.510966442","long":"127.44548151","items":[{"name":"밤비니어린이집[아이행복]","tel":"031-774-4241","addr":"경기도 양평군 옥천면 아신리 437-3번지","category":"학원 - 유아원"}]},{"lat":"37.51019211","long":"127.43314876","items":[{"name":"백합,제이헬프 스트라세","tel":"031-775-1907","addr":"경기도 양평군 옥천면 아신리 926-1번지","category":"문화.취미 - 화원"},{"name":"베이커스빌","tel":"031-775-7755","addr":"경기도 양평군 옥천면 아신리 926-1번지 1층","category":"일반휴게음식 - 일반한식"},{"name":"빠빠에피/(주)오드쥬네스","tel":"031-775-7755","addr":"경기도 양평군 옥천면 아신리 926-1번지","category":"일반휴게음식 - 일반한식"}]},{"lat":"37.51110772","long":"127.44384234","items":[{"name":"버들피리","tel":"031-774-1339","addr":"경기도 양평군 옥천면 아신리 423-1번지","category":"일반휴게음식 - 일반한식"}]},{"lat":"37.513190847","long":"127.44334561","items":[{"name":"본스치킨카페 양평본점","tel":"031-773-7500","addr":"경기도 양평군 옥천면 아신리 372-10번지 청풍빌딩","category":"일반휴게음식 - 일반한식"},{"name":"카페 베라노","tel":"","addr":"경기도 양평군 옥천면 아신리 372-10번지 청풍빌딩 1층","category":"일반휴게음식 - 서양음식"}]},{"lat":"37.524492933","long":"127.44954337","items":[{"name":"산수유","tel":"031-774-4475","addr":"경기도 양평군 옥천면 아신리 113-2번지","category":"일반휴게음식 - 일반한식"}]},{"lat":"37.512104213","long":"127.44720743","items":[{"name":"신흥기업주식회사","tel":"031-772-5544","addr":"경기도 양평군 옥천면 아신리 384-18번지","category":"연료판매점 - 주유소"}]},{"lat":"37.511073734","long":"127.43598142","items":[{"name":"쏘갈매운탕","tel":"031-774-0338","addr":"경기도 양평군 옥천면 아신리 905-1번지","category":"일반휴게음식 - 일반한식"}]},{"lat":"37.510351128","long":"127.42654447","items":[{"name":"아세아연합신학대학교","tel":"031-770-7755","addr":"경기도 양평군 옥천면 아신리 산151-1번지 아세아연합신학대학교","category":"학원 - 대학등록금"},{"name":"이마트24 아세아연합신학대점","tel":"","addr":"경기도 양평군 옥천면 아신리 산151-1번지 아세아연합신학대학교","category":"유통업 영리 - 편 의 점"}]},{"lat":"37.512411477","long":"127.44696042","items":[{"name":"양평우드","tel":"031-771-9339","addr":"경기도 양평군 옥천면 아신리 384-17번지","category":"건축자재 - 목재·석재·철물"}]},{"lat":"37.512303651","long":"127.4420623","items":[{"name":"양평전원주택","tel":"031-775-9511","addr":"경기도 양평군 옥천면 아신리 367-1번지","category":"용역 서비스 - 기타용역서비스"}]},{"lat":"37.51132821","long":"127.44270128","items":[{"name":"양평프라자주유소","tel":"031-771-0162","addr":"경기도 양평군 옥천면 아신리 368-1번지","category":"연료판매점 - SK주유소"}]},{"lat":"37.511463416","long":"127.44025902","items":[{"name":"어린왕자","tel":"070-4105-6614","addr":"경기도 양평군 옥천면 아신리 496-1번지","category":"일반휴게음식 - 일반한식"}]},{"lat":"37.511213977","long":"127.44434062","items":[{"name":"오성벽난로","tel":"031-771-5551","addr":"경기도 양평군 옥천면 아신리 420번지","category":"건축자재 - 기타건축자재"}]},{"lat":"37.512574713","long":"127.44667862","items":[{"name":"용수지하수개발","tel":"","addr":"경기도 양평군 옥천면 아신리 384-1번지 신흥빌라 A동 102호","category":"용역 서비스 - 기타용역서비스"}]},{"lat":"37.511130352","long":"127.4401779","items":[{"name":"유리성(카페)","tel":"031-774-2088","addr":"경기도 양평군 옥천면 아신리 492-1번지","category":"일반휴게음식 - 서양음식"}]},{"lat":"37.511998096","long":"127.44667521","items":[{"name":"일품옥천감자탕","tel":"031-775-2456","addr":"경기도 양평군 옥천면 아신리 384-13번지","category":"일반휴게음식 - 일반한식"}]},{"lat":"37.512829934","long":"127.43862695","items":[{"name":"자연가구풍경","tel":"031-774-9876","addr":"경기도 양평군 옥천면 아신리 526-4번지","category":"가구 - 일반가구"}]},{"lat":"37.511354281","long":"127.4453707","items":[{"name":"전주콩나물국밥","tel":"031-771-9687","addr":"경기도 양평군 옥천면 아신리 420-5번지","category":"일반휴게음식 - 일반한식"}]},{"lat":"37.516629269","long":"127.43448651","items":[{"name":"주식회사광야","tel":"031-775-7529","addr":"경기도 양평군 옥천면 아신리 845번지","category":"음료식품 - 농·축·수산품"}]},{"lat":"37.526129499","long":"127.43834228","items":[{"name":"주식회사꿈","tel":"031-771-1623","addr":"경기도 양평군 옥천면 아신리 671번지","category":"음료식품 - 기타음료식품"}]},{"lat":"37.513493756","long":"127.44426356","items":[{"name":"지에스파크24 (주) 아신역주차장","tel":"02-3272-3500","addr":"경기도 양평군 옥천면 아신리 산112-2번지 일원","category":"자동차정비 유지 - 주차장"}]},{"lat":"37.510414357","long":"127.44373647","items":[{"name":"지중해수상스키","tel":"031-774-3714","addr":"경기도 양평군 옥천면 아신리 433-1번지","category":"레저업소 - 기타레져업소"}]},{"lat":"37.515630253","long":"127.43665248","items":[{"name":"클럽더독스","tel":"070-8249-7289","addr":"경기도 양평군 옥천면 아신리 545-1번지","category":"문화.취미 - 애완동물"}]},{"lat":"37.509853076","long":"127.43223069","items":[{"name":"타임플라이스","tel":"","addr":"경기도 양평군 옥천면 아신리 923-1번지","category":"일반휴게음식 - 서양음식"}]},{"lat":"37.519770819","long":"127.45217347","items":[{"name":"테이크아웃","tel":"070-4243-5201","addr":"경기도 양평군 옥천면 아신리 82번지","category":"음료식품 - 기타음료식품"}]},{"lat":"37.511269334","long":"127.44639944","items":[{"name":"해뜰참갈비탕","tel":"031-774-7926","addr":"경기도 양평군 옥천면 아신리 438-1번지 1층","category":"일반휴게음식 - 서양음식"}]}]