[{"lat":"37.844916646","long":"127.05384853","items":[{"name":"(주)경기북부자동차공업사","tel":"031-859-0472","addr":"경기도 양주시 회정동 46-21번지","category":"자동차정비 유지 - 자동차정비"}]},{"lat":"37.831448826","long":"127.05087452","items":[{"name":"(주)프레젠스월드","tel":"031-859-4424","addr":"경기도 양주시 회정동 457번지","category":"서적문구 - 완구점"}]},{"lat":"37.830339647","long":"127.05331599","items":[{"name":"BHC 치킨","tel":"031-866-7330","addr":"경기도 양주시 회정동 421-19번지 1층","category":"일반휴게음식 - 스넥"},{"name":"발해수산","tel":"031-859-5530","addr":"경기도 양주시 회정동 421-19번지","category":"일반휴게음식 - 일반한식"},{"name":"싱글족발","tel":"031-859-5530","addr":"경기도 양주시 회정동 421-19번지","category":"일반휴게음식 - 일반한식"},{"name":"팡팡노래방","tel":"031-857-3827","addr":"경기도 양주시 회정동 421-19번지","category":"레저업소 - 노 래 방"}]},{"lat":"37.838916177","long":"127.05432154","items":[{"name":"DS정비","tel":"070-7797-6265","addr":"경기도 양주시 회정동 129번지 2동 201호","category":"자동차정비 유지 - 자동차부품"}]},{"lat":"37.831313098","long":"127.05229433","items":[{"name":"GS25양주LF몰점","tel":"","addr":"경기도 양주시 회정동 453-19번지 V PLUS몰 3층","category":"유통업 영리 - 편 의 점"},{"name":"주식회사 세연","tel":"031-894-2447","addr":"경기도 양주시 회정동 453-19번지","category":"의류 - 정장"},{"name":"할리스커피","tel":"031-857-1112","addr":"경기도 양주시 회정동 453-19번지 LF스퀘어 3층","category":"일반휴게음식 - 서양음식"}]},{"lat":"37.829366198","long":"127.05431491","items":[{"name":"GS25양주회정점","tel":"","addr":"경기도 양주시 회정동 391-7번지 1층","category":"유통업 영리 - 편 의 점"},{"name":"닭한마리","tel":"031-858-8949","addr":"경기도 양주시 회정동 391-7번지","category":"일반휴게음식 - 일반한식"},{"name":"덕계 요양보호사 교육원","tel":"031-857-0127","addr":"경기도 양주시 회정동 391-7번지 2층","category":"학원 - 기능학원"},{"name":"월드기획","tel":"031-857-3182","addr":"경기도 양주시 회정동 391-7번지","category":"용역 서비스 - 부동산 중개·임대"},{"name":"진희란 헤어","tel":"070-3600-1433","addr":"경기도 양주시 회정동 391-7번지 1층 2호","category":"보건위생 - 미용원"}]},{"lat":"37.848358082","long":"127.05420311","items":[{"name":"J.J프로카","tel":"031-859-1777","addr":"경기도 양주시 회정동 26-7번지","category":"자동차정비 유지 - 자동차부품"}]},{"lat":"37.829672721","long":"127.05384941","items":[{"name":"KB배관크리너전국총판","tel":"031-861-1890","addr":"경기도 양주시 회정동 420-15번지 B2층","category":"용역 서비스 - 종합용역"}]},{"lat":"37.835645835","long":"127.05414887","items":[{"name":"SIN비데","tel":"031-864-3663","addr":"경기도 양주시 회정동 189-15번지 양주빌딩 1층","category":"전기제품 - 가전제품"},{"name":"공&찬","tel":"031-859-4477","addr":"경기도 양주시 회정동 189-15번지 115,116호","category":"건축자재 - 인테리어전문"},{"name":"대기문구","tel":"031-859-4777","addr":"경기도 양주시 회정동 189-15번지 1층 109~112호","category":"서적문구 - 문구용품"},{"name":"미담","tel":"031-864-7375","addr":"경기도 양주시 회정동 189-15번지","category":"일반휴게음식 - 일반한식"}]},{"lat":"37.835501818","long":"127.05384205","items":[{"name":"강북 민물장어","tel":"031-862-0592","addr":"경기도 양주시 회정동 189-5번지","category":"일반휴게음식 - 일반한식"},{"name":"이불공장","tel":"031-861-2989","addr":"경기도 양주시 회정동 189-5번지 양주빌딩 1호","category":"직물 - 침구·수예점"},{"name":"해조기획","tel":"031-858-1380","addr":"경기도 양주시 회정동 189-5번지 1층 113호","category":"서적문구 - 출판 및 인쇄물"}]},{"lat":"37.84747527","long":"127.05395255","items":[{"name":"강인식당","tel":"031-861-9849","addr":"경기도 양주시 회정동 61-2번지 1층","category":"일반휴게음식 - 일반한식"},{"name":"씨유덕정사거리점","tel":"031-859-8951","addr":"경기도 양주시 회정동 61-2번지","category":"유통업 영리 - 편 의 점"},{"name":"오토마스터","tel":"031-858-8583","addr":"경기도 양주시 회정동 61-2번지","category":"자동차정비 유지 - 자동차정비"}]},{"lat":"37.846691693","long":"127.05339529","items":[{"name":"경기모타","tel":"031-858-1315","addr":"경기도 양주시 회정동 69-2","category":"수리서비스 - 기타수리서비스"},{"name":"보성전기자재","tel":"031-858-2606","addr":"경기도 양주시 회정동 69-2","category":"건축자재 - 기타건축자재"},{"name":"해성풍력","tel":"031-857-7146","addr":"경기도 양주시 회정동 69-2,70-3","category":"건축자재 - 보일러·펌프·샷시"}]},{"lat":"37.829087876","long":"127.05204295","items":[{"name":"경기섬유봉제 협동조합","tel":"031-850-3690","addr":"경기도 양주시 회정동 344번지","category":"의류 - 단체복"}]},{"lat":"37.848475189","long":"127.05423728","items":[{"name":"경동보일러양주특약점","tel":"031-859-0051","addr":"경기도 양주시 회정동 26-3번지","category":"건축자재 - 보일러·펌프·샷시"}]},{"lat":"37.83275404","long":"127.05362434","items":[{"name":"경북실업","tel":"031-859-2663","addr":"경기도 양주시 회정동 449-11번지","category":"건축자재 - 기타건축자재"},{"name":"선진산업안전철물","tel":"031-863-3878","addr":"경기도 양주시 회정동 449-11번지","category":"기타 - 기계공구"},{"name":"주식회사 나무와사람들","tel":"031-829-5005","addr":"경기도 양주시 회정동 449-11번지","category":"건축자재 - 기타건축자재"}]},{"lat":"37.840447274","long":"127.05545866","items":[{"name":"경풍철강","tel":"031-858-6565","addr":"경기도 양주시 회정동 131-18번지","category":"건축자재 - 기타건축자재"}]},{"lat":"37.832087769","long":"127.05262426","items":[{"name":"광릉불고기","tel":"031-858-0049","addr":"경기도 양주시 회정동 454-5번지","category":"일반휴게음식 - 일반한식"}]},{"lat":"37.827834705","long":"127.05406396","items":[{"name":"국보어탕","tel":"031-858-0052","addr":"경기도 양주시 회정동 869번지 상가동 104호","category":"일반휴게음식 - 일반한식"},{"name":"오고파","tel":"031-858-9222","addr":"경기도 양주시 회정동 869번지","category":"일반휴게음식 - 중국식"},{"name":"은혜학원","tel":"031-868-3330","addr":"경기도 양주시 회정동 869번지 203호 상가","category":"학원 - 보습학원"},{"name":"이노미술교습소","tel":"031-857-8034","addr":"경기도 양주시 회정동 869번지 상가동 202","category":"학원 - 예·체능계학원"},{"name":"카라헤어샵","tel":"031-858-2278","addr":"경기도 양주시 회정동 869번지","category":"보건위생 - 미용원"},{"name":"태산ENG","tel":"031-843-0717","addr":"경기도 양주시 회정동 869번지 진빌딩 103호 상가동","category":"용역 서비스 - 기타용역서비스"},{"name":"피터팬","tel":"031-859-7122","addr":"경기도 양주시 회정동 869번지 1층","category":"일반휴게음식 - 일반한식"}]},{"lat":"37.827645708","long":"127.05359812","items":[{"name":"궁중떡집","tel":"031-858-8090","addr":"경기도 양주시 회정동 870-1번지 5","category":"음료식품 - 제과점"},{"name":"돼만족","tel":"031-859-7888","addr":"경기도 양주시 회정동 870-1번지","category":"일반휴게음식 - 일반한식"},{"name":"만수장","tel":"031-858-6860","addr":"경기도 양주시 회정동 870-1번지","category":"일반휴게음식 - 중국식"},{"name":"숙이네미용실","tel":"","addr":"경기도 양주시 회정동 870-1번지","category":"보건위생 - 미용원"},{"name":"영암철물","tel":"031-840-0837","addr":"경기도 양주시 회정동 870-1번지","category":"건축자재 - 목재·석재·철물"}]},{"lat":"37.838006007","long":"127.05482075","items":[{"name":"그린머리방","tel":"031-859-4074","addr":"경기도 양주시 회정동 125-3번지","category":"보건위생 - 미용원"},{"name":"엘카페","tel":"031-999-8880","addr":"경기도 양주시 회정동 125-3번지","category":"일반휴게음식 - 서양음식"},{"name":"현대자동차정비공업사","tel":"031-859-5558","addr":"경기도 양주시 회정동 125-3번지","category":"자동차정비 유지 - 자동차정비"}]},{"lat":"37.847115673","long":"127.05212308","items":[{"name":"그집","tel":"031-1111-1111","addr":"경기도 양주시 회정동 67-1번지","category":"일반휴게음식 - 주점"}]},{"lat":"37.846583047","long":"127.05462226","items":[{"name":"금성전기","tel":"031-858-1940","addr":"경기도 양주시 회정동 56-12번지","category":"전기제품 - 기타전기제품"},{"name":"대광철망","tel":"031-858-7028","addr":"경기도 양주시 회정동 56-12번지","category":"건축자재 - 기타건축자재"}]},{"lat":"37.841943559","long":"127.0538124","items":[{"name":"김밥 제일가(양주점)","tel":"02-6242-3341","addr":"경기도 양주시 회정동 98번지 1층","category":"일반휴게음식 - 스넥"},{"name":"뽀로로맘앤키즈카페 이마트 양주점","tel":"031-123-1234","addr":"경기도 양주시 회정동 98번지 2층 이마트 양주점","category":"레저업소 - 기타레져업소"},{"name":"클린보이 양주점","tel":"031-859-5269","addr":"경기도 양주시 회정동 98번지 3층","category":"자동차정비 유지 - 세차장"}]},{"lat":"37.827979023","long":"127.05367786","items":[{"name":"김삿갓 순대국","tel":"031-864-4100","addr":"경기도 양주시 회정동 870-4번지","category":"일반휴게음식 - 일반한식"},{"name":"봄바봄바","tel":"031-861-8882","addr":"경기도 양주시 회정동 870-4번지 1층","category":"일반휴게음식 - 일반한식"},{"name":"씨유양주범양점","tel":"031-858-4722","addr":"경기도 양주시 회정동 870-4번지","category":"유통업 영리 - 편 의 점"}]},{"lat":"37.829420457","long":"127.05384923","items":[{"name":"까치당구장","tel":"031-827-9288","addr":"경기도 양주시 회정동 392-1번지","category":"레저업소 - 당 구 장"},{"name":"사보라펫","tel":"031-859-5571","addr":"경기도 양주시 회정동 392-1번지","category":"문화.취미 - 애완동물"}]},{"lat":"37.839251084","long":"127.05061828","items":[{"name":"꾸밈터씽크","tel":"031-865-3851","addr":"경기도 양주시 회정동 107-2번지","category":"주방용구 - 주방용구"}]},{"lat":"37.830006299","long":"127.05331576","items":[{"name":"다모아분식","tel":"031-858-4714","addr":"경기도 양주시 회정동 421-22번지","category":"일반휴게음식 - 일반한식"},{"name":"만복종합열쇠","tel":"031-858-3612","addr":"경기도 양주시 회정동 421-22번지","category":"기타 - 기계공구"}]},{"lat":"37.836501536","long":"127.0545925","items":[{"name":"다온홈앤데코","tel":"02-111-1111","addr":"경기도 양주시 회정동 188-2번지","category":"직물 - 침구·수예점"}]},{"lat":"37.829808101","long":"127.05329291","items":[{"name":"다인소방","tel":"031-867-1190","addr":"경기도 양주시 회정동 421-12번지 1층","category":"기타 - 기계공구"},{"name":"솔건강원","tel":"031-859-2722","addr":"경기도 양주시 회정동 421-12번지 1층 일부","category":"건강식품 - 기타건강식품"}]},{"lat":"37.847610093","long":"127.05467979","items":[{"name":"대성모터스","tel":"031-859-3928","addr":"경기도 양주시 회정동 60-9번지","category":"자동차정비 유지 - 자동차정비"},{"name":"진터보","tel":"031-1111-1111","addr":"경기도 양주시 회정동 60-9번지","category":"자동차정비 유지 - 자동차부품"}]},{"lat":"37.846835662","long":"127.05381577","items":[{"name":"대성종합배관","tel":"031-859-1077","addr":"경기도 양주시 회정동 64-6","category":"건축자재 - 기타건축자재"},{"name":"덕정자동차매매상사","tel":"031-858-4482","addr":"경기도 양주시 회정동 64-6번지","category":"자동차판매 - 중고자동차판매"},{"name":"양주냉동","tel":"031-858-0087","addr":"경기도 양주시 회정동 64-6","category":"전기제품 - 냉열기기"}]},{"lat":"37.836474918","long":"127.0536496","items":[{"name":"대양주방산업","tel":"031-858-9336","addr":"경기도 양주시 회정동 188-17번지","category":"건축자재 - 인테리어전문"}]},{"lat":"37.838005887","long":"127.0550934","items":[{"name":"대원세차장","tel":"031-859-1701","addr":"경기도 양주시 회정동 125-6번지","category":"자동차정비 유지 - 세차장"}]},{"lat":"37.848142264","long":"127.05325994","items":[{"name":"대종엠앤씨","tel":"031-000-0000","addr":"경기도 양주시 회정동 21-2번지","category":"기타 - 기계공구"}]},{"lat":"37.83044776","long":"127.05331606","items":[{"name":"더건강제환원","tel":"070-7435-3993","addr":"경기도 양주시 회정동 421-18번지 1층 일부","category":"음료식품 - 기타음료식품"},{"name":"벌말왕족발","tel":"031-859-0686","addr":"경기도 양주시 회정동 421-18번지","category":"일반휴게음식 - 일반한식"}]},{"lat":"37.828168493","long":"127.0530419","items":[{"name":"덕계동물병원","tel":"031-861-7588","addr":"경기도 양주시 회정동 347번지 2층","category":"기타의료기관 - 동물병원"},{"name":"세븐일레븐양주회정점","tel":"","addr":"경기도 양주시 회정동 347가동1층3호","category":"유통업 영리 - 편 의 점"},{"name":"용인대영웅태권도장","tel":"031-857-8003","addr":"경기도 양주시 회정동 347번지","category":"회원제형태 - 학원"},{"name":"정관장홍삼양주점","tel":"031-859-2385","addr":"경기도 양주시 회정동 347번지","category":"건강식품 - 홍삼제품"},{"name":"정관장홍삼양주점","tel":"031-859-2385","addr":"경기도 양주시 회정동 347번지","category":"건강식품 - 홍삼제품"},{"name":"주식회사 국민유통","tel":"031-862-6007","addr":"경기도 양주시 회정동 347번지 평촌빌딩 가동 102호","category":"전기제품 - 가전제품"},{"name":"지원FlowerandHerb","tel":"031-843-2552","addr":"경기도 양주시 회정동 347번지 평촌빌딩 가동 103호","category":"문화.취미 - 화원"},{"name":"초원마차","tel":"031-861-3261","addr":"경기도 양주시 회정동 347번지","category":"일반휴게음식 - 일반한식"},{"name":"친구들을위해","tel":"031-865-1890","addr":"경기도 양주시 회정동 347번지 가동지하1층","category":"일반휴게음식 - 주점"}]},{"lat":"37.833276766","long":"127.05320439","items":[{"name":"덕계라이닝","tel":"031-859-1186","addr":"경기도 양주시 회정동 199-1번지","category":"자동차정비 유지 - 자동차부품"},{"name":"양주대형부품","tel":"031-5223-8989","addr":"경기도 양주시 회정동 199-1번지","category":"자동차정비 유지 - 자동차부품"},{"name":"양주타이어수리","tel":"031-857-0587","addr":"경기도 양주시 회정동 199-1번지","category":"자동차정비 유지 - 자동차시트·타이어"}]},{"lat":"37.84691551","long":"127.05659941","items":[{"name":"덕정꽃화원","tel":"031-859-0887","addr":"경기도 양주시 회정동 521번지","category":"문화.취미 - 화원"},{"name":"스컬존 셀프세차장","tel":"031-858-5298","addr":"경기도 양주시 회정동 521번지","category":"자동차정비 유지 - 세차장"}]},{"lat":"37.84699747","long":"127.05464527","items":[{"name":"덕정장여관","tel":"031-859-0645","addr":"경기도 양주시 회정동 56-9번지","category":"숙박업 - 여관/기타숙박업"},{"name":"양주회관","tel":"031-859-0646","addr":"경기도 양주시 회정동 56-9번지","category":"일반휴게음식 - 일반한식"}]},{"lat":"37.846700085","long":"127.05481549","items":[{"name":"동아철강","tel":"031-859-1959","addr":"경기도 양주시 회정동 56-14번지","category":"건축자재 - 기타건축자재"},{"name":"우정철재","tel":"031-846-4863","addr":"경기도 양주시 회정동 56-14번지","category":"기타 - 기계공구"}]},{"lat":"37.838393291","long":"127.05509367","items":[{"name":"동일전자","tel":"031-862-6742","addr":"경기도 양주시 회정동 127-3번지 3호 ,4호 ,5호","category":"전기제품 - 가전제품"},{"name":"양주전기공사","tel":"031-859-3370","addr":"경기도 양주시 회정동 127-3번지","category":"용역 서비스 - 기타용역서비스"},{"name":"카스전자저울의정부점","tel":"031-858-8765","addr":"경기도 양주시 회정동 127-3번지","category":"주방용구 - 주방용구"},{"name":"한국광고","tel":"031-859-7119","addr":"경기도 양주시 회정동 127-3번지 1층9,10호","category":"건축자재 - 인테리어전문"}]},{"lat":"37.829033456","long":"127.05290618","items":[{"name":"레인보우 음악학원","tel":"031-861-8003","addr":"경기도 양주시 회정동 345-19번지 돈계빌딩 4층","category":"학원 - 예·체능계학원"},{"name":"쌤쓰넷","tel":"070-7736-0117","addr":"경기도 양주시 회정동 345-19 3층","category":"서적문구 - 문구용품"},{"name":"한수위보습외국어학원","tel":"031-827-0114","addr":"경기도 양주시 회정동 345-19번지 돈계빌딩 3층","category":"회원제형태 - 학원"}]},{"lat":"37.850394095","long":"127.05445449","items":[{"name":"루마썬팅","tel":"031-858-5001","addr":"경기도 양주시 회정동 17-9번지","category":"자동차정비 유지 - 자동차부품"},{"name":"회정점현대자동차","tel":"031-864-8272","addr":"경기도 양주시 회정동 17-9번지","category":"자동차정비 유지 - 자동차정비"}]},{"lat":"37.834060585","long":"127.05320493","items":[{"name":"리트머스","tel":"031-859-9908","addr":"경기도 양주시 회정동 200-1번지","category":"레져용품 - 스포츠·레져용품"}]},{"lat":"37.839339314","long":"127.05501482","items":[{"name":"메르시샵","tel":"031-861-8832","addr":"경기도 양주시 회정동 130-11번지","category":"신변잡화 - 액세서리"},{"name":"메르시카페","tel":"031-861-8832","addr":"경기도 양주시 회정동 130-11번지 101호","category":"일반휴게음식 - 서양음식"}]},{"lat":"37.829699988","long":"127.05329284","items":[{"name":"명신자동차공업사","tel":"031-864-0296","addr":"경기도 양주시 회정동 421-23번지","category":"자동차정비 유지 - 자동차정비"}]},{"lat":"37.831251202","long":"127.04942042","items":[{"name":"명품가구","tel":"031-862-1666","addr":"경기도 양주시 회정동 463-1번지 A동1층일부","category":"가구 - 일반가구"}]},{"lat":"37.850781484","long":"127.05448885","items":[{"name":"명품백화점","tel":"031-864-2911","addr":"경기도 양주시 회정동 17-7번지 상가일부","category":"음료식품 - 기타음료식품"}]},{"lat":"37.855475497","long":"127.05420805","items":[{"name":"모든카오디오","tel":"031-858-2406","addr":"경기도 양주시 회정동 4-10번지","category":"전기제품 - 기타전기제품"},{"name":"자동차복원달인(회정점)","tel":"","addr":"경기도 양주시 회정동 4-10번지","category":"자동차정비 유지 - 카인테리어"}]},{"lat":"37.82958288","long":"127.05325868","items":[{"name":"미래물산","tel":"031-858-2733","addr":"경기도 양주시 회정동 421-24번지","category":"기타 - 기타 전문점"},{"name":"세계꽃식물원","tel":"031-859-0613","addr":"경기도 양주시 회정동 421-24번지","category":"문화.취미 - 화원"}]},{"lat":"37.846809014","long":"127.05292955","items":[{"name":"미래종합광고","tel":"031-859-3322","addr":"경기도 양주시 회정동 68-4 B동","category":"용역 서비스 - 종합용역"}]},{"lat":"37.828060778","long":"127.05209906","items":[{"name":"버맥스(Vermaxs)","tel":"031-861-9603","addr":"경기도 양주시 회정동 343-10번지 1층","category":"용역 서비스 - 종합용역"}]},{"lat":"37.852168954","long":"127.054433","items":[{"name":"별산카센타","tel":"031-858-7537","addr":"경기도 양주시 회정동 9-4번지","category":"자동차정비 유지 - 자동차정비"}]},{"lat":"37.843474964","long":"127.05425654","items":[{"name":"보쉬카서비스덕정점","tel":"031-843-1488","addr":"경기도 양주시 회정동 95-5번지","category":"자동차정비 유지 - 자동차정비"},{"name":"상하정밀","tel":"031-858-2111","addr":"경기도 양주시 회정동 95-5번지","category":"회원제형태 - 기타4"},{"name":"전진호이스트","tel":"031-858-5290","addr":"경기도 양주시 회정동 95-5번지","category":"기타 - 기계공구"},{"name":"태광지하수","tel":"031-866-2420","addr":"경기도 양주시 회정동 95-5번지","category":"건축자재 - 부동산 분양"},{"name":"한신콤프레샤","tel":"031-858-8374","addr":"경기도 양주시 회정동 95-5번지","category":"기타 - 기타 전문점"}]},{"lat":"37.829447113","long":"127.05470117","items":[{"name":"부산수제어묵","tel":"","addr":"경기도 양주시 회정동 393-3번지 가동 1층","category":"일반휴게음식 - 일반한식"},{"name":"하리벗","tel":"031-866-2758","addr":"경기도 양주시 회정동 393-3번지","category":"일반휴게음식 - 일반한식"},{"name":"향기머리방","tel":"031-863-4142","addr":"경기도 양주시 회정동 393-3번지","category":"보건위생 - 미용원"}]},{"lat":"37.846781033","long":"127.05512231","items":[{"name":"부일포장","tel":"031-864-5518","addr":"경기도 양주시 회정동 525번지","category":"기타 - 기타 전문점"}]},{"lat":"37.845692132","long":"127.05225847","items":[{"name":"불이도방","tel":"031-823-6548","addr":"경기도 양주시 회정동 75-1번지","category":"문화.취미 - 문화취미기타"}]},{"lat":"37.832222982","long":"127.05245396","items":[{"name":"브랜뉴 모터스","tel":"","addr":"경기도 양주시 회정동 454-22번지","category":"자동차정비 유지 - 자동차부품"},{"name":"셀프킹","tel":"031-868-3555","addr":"경기도 양주시 회정동 454-22번지","category":"자동차정비 유지 - 세차장"}]},{"lat":"37.828448045","long":"127.05242872","items":[{"name":"뼈사랑 감자탕","tel":"031-864-3320","addr":"경기도 양주시 회정동 343-3번지","category":"일반휴게음식 - 일반한식"}]},{"lat":"37.837699577","long":"127.05507046","items":[{"name":"뽕스까스","tel":"031-859-3818","addr":"경기도 양주시 회정동 142-3번지","category":"일반휴게음식 - 일반한식"}]},{"lat":"37.836753774","long":"127.05464948","items":[{"name":"삼육산업","tel":"031-859-9336","addr":"경기도 양주시 회정동 188-7번지","category":"주방용구 - 주방용구"},{"name":"세무사은창준사무소","tel":"031-859-8778","addr":"경기도 양주시 회정동 188-7번지","category":"용역 서비스 - 법률회계서비스(개인)"},{"name":"신일세무회계사무소","tel":"031-859-8778","addr":"경기도 양주시 회정동 188-7번지 2층","category":"용역 서비스 - 법률회계서비스(개인)"},{"name":"찬스노래연습장","tel":"031-857-6833","addr":"경기도 양주시 회정동 188-7번지","category":"레저업소 - 노 래 방"}]},{"lat":"37.825889587","long":"127.05190453","items":[{"name":"상용자동차매매상사","tel":"031-858-0524","addr":"경기도 양주시 회정동 321-10.321-6.321-11","category":"자동차판매 - 중고자동차판매"}]},{"lat":"37.829446938","long":"127.05509873","items":[{"name":"선경학원","tel":"070-7013-8875","addr":"경기도 양주시 회정동 394-4번지 정안빌라 2층","category":"학원 - 보습학원"}]},{"lat":"37.844448064","long":"127.05406407","items":[{"name":"소망장례식장,식당,매점","tel":"031-866-4444","addr":"경기도 양주시 회정동 41-5번지 외1필지","category":"일반휴게음식 - 일반한식"},{"name":"소망장례예식장","tel":"031-866-4444","addr":"경기도 양주시 회정동 41-5 외1필지지하1층","category":"용역 서비스 - 가례서비스업"},{"name":"소망장례예식장","tel":"031-858-0404","addr":"경기도 양주시 회정동 41-5번지","category":"용역 서비스 - 가례서비스업"},{"name":"신안의전","tel":"031-866-4444","addr":"경기도 양주시 회정동 41-5번지 1층 소망장례식장","category":"용역 서비스 - 가례서비스업"}]},{"lat":"37.830222525","long":"127.05331591","items":[{"name":"소문난한방순대국","tel":"031-862-1533","addr":"경기도 양주시 회정동 421-20번지","category":"일반휴게음식 - 일반한식"}]},{"lat":"37.835060273","long":"127.05403487","items":[{"name":"손짜장마을","tel":"031-858-9988","addr":"경기도 양주시 회정동 183-19번지","category":"일반휴게음식 - 중국식"}]},{"lat":"37.846916295","long":"127.05484973","items":[{"name":"수도정밀","tel":"031-859-4349","addr":"경기도 양주시 회정동 56-16번지","category":"전기제품 - 기타전기제품"}]},{"lat":"37.832222567","long":"127.05343086","items":[{"name":"스피드헌터","tel":"031-859-5953","addr":"경기도 양주시 회정동 434-2번지","category":"자동차정비 유지 - 자동차부품"},{"name":"썬가드 양주점","tel":"031-866-7558","addr":"경기도 양주시 회정동 434-2번지 2층","category":"자동차정비 유지 - 카인테리어"},{"name":"이마트24 양주회정점","tel":"031-111-1111","addr":"경기도 양주시 회정동 434-2번지","category":"유통업 영리 - 편 의 점"},{"name":"이마트24 양주회정점","tel":"","addr":"경기도 양주시 회정동 434-2번지","category":"유통업 영리 - 편 의 점"}]},{"lat":"37.845421197","long":"127.05379207","items":[{"name":"신용천막","tel":"031-859-6548","addr":"경기도 양주시 회정동 46-12번지","category":"직물 - 카페트,커튼,천막,지물"}]},{"lat":"37.83336667","long":"127.05364747","items":[{"name":"썬가드양주점/맥과이어스","tel":"031-866-7558","addr":"경기도 양주시 회정동 448-5번지","category":"자동차정비 유지 - 자동차부품"},{"name":"양주디젤","tel":"031-858-0605","addr":"경기도 양주시 회정동 448-5번지 5호","category":"수리서비스 - 기타수리서비스"},{"name":"정명기계공구","tel":"031-864-0949","addr":"경기도 양주시 회정동 448-5번지 3호","category":"기타 - 기계공구"}]},{"lat":"37.845889744","long":"127.05365606","items":[{"name":"쎄이2 당구장","tel":"070-8690-7648","addr":"경기도 양주시 회정동 46-9 2층","category":"레저업소 - 당 구 장"},{"name":"쎄이2당구장","tel":"","addr":"경기도 양주시 회정동 46-9번지 2층 201호","category":"레저업소 - 당 구 장"},{"name":"양주갈비랜드","tel":"031-857-6688","addr":"경기도 양주시 회정동 46-9번지","category":"일반휴게음식 - 일반한식"},{"name":"짜장면짬뽕리","tel":"","addr":"경기도 양주시 회정동 46-9번지 1층 101호","category":"일반휴게음식 - 중국식"}]},{"lat":"37.82933849","long":"127.05584834","items":[{"name":"씨유양주회정점","tel":"080-080-3663","addr":"경기도 양주시 회정동 395-17번지","category":"유통업 영리 - 편 의 점"}]},{"lat":"37.834645983","long":"127.05370515","items":[{"name":"아테나","tel":"031-000-0000","addr":"경기도 양주시 회정동 194-1번지 가동","category":"레져용품 - 골프용품 전문점"},{"name":"아테나 골프존","tel":"031-863-0753","addr":"경기도 양주시 회정동 194-1번지","category":"레저업소 - 스크린골프"},{"name":"알이즈웰(All is well)","tel":"031-111-1111","addr":"경기도 양주시 회정동 194-1번지 1층","category":"일반휴게음식 - 서양음식"},{"name":"지오다노양주점","tel":"031-859-2682","addr":"경기도 양주시 회정동 194-1번지 가동4호","category":"의류 - 스포츠의류"},{"name":"크루즈","tel":"031-858-9223","addr":"경기도 양주시 회정동 194-1번지 나동","category":"레져용품 - 스포츠·레져용품"}]},{"lat":"37.829502801","long":"127.05085054","items":[{"name":"안골","tel":"031-859-0435","addr":"경기도 양주시 회정동 341번지 1층","category":"일반휴게음식 - 일반한식"}]},{"lat":"37.829032943","long":"127.05409886","items":[{"name":"안심정육점","tel":"031-868-9831","addr":"경기도 양주시 회정동 391-1번지 1층","category":"음료식품 - 정육점"},{"name":"준서네 정육식당","tel":"031-866-9831","addr":"경기도 양주시 회정동 391-1번지 1층","category":"일반휴게음식 - 일반한식"}]},{"lat":"37.851358134","long":"127.05437563","items":[{"name":"알찬주방도매유통","tel":"031-821-0094","addr":"경기도 양주시 회정동 17-11번지","category":"가구 - 일반가구"}]},{"lat":"37.837168062","long":"127.05497921","items":[{"name":"양주 창 이야기","tel":"031-858-0779","addr":"경기도 양주시 회정동 142-27번지 28","category":"직물 - 침구·수예점"}]},{"lat":"37.84058305","long":"127.05401596","items":[{"name":"양주경찰서 상조회","tel":"031-869-9480","addr":"경기도 양주시 회정동 84-7번지 양주경찰서","category":"음료식품 - 기타음료식품"}]},{"lat":"37.827862207","long":"127.05296219","items":[{"name":"양주블랙박스(스마트전자)","tel":"031-861-7522","addr":"경기도 양주시 회정동 349-2번지 1층","category":"자동차정비 유지 - 자동차부품"},{"name":"양주전자","tel":"031-861-7522","addr":"경기도 양주시 회정동 349-2번지 1층","category":"자동차정비 유지 - 자동차부품"},{"name":"우리도니2호점","tel":"031-858-3560","addr":"경기도 양주시 회정동 349-2번지 1층","category":"음료식품 - 정육점"}]},{"lat":"37.845754593","long":"127.05367869","items":[{"name":"양주송월타월","tel":"031-861-9334","addr":"경기도 양주시 회정동 46-10번지","category":"직물 - 옷감·직물"},{"name":"천둥노래연습장","tel":"031-859-2626","addr":"경기도 양주시 회정동 46-10번지","category":"레저업소 - 노 래 방"},{"name":"한국라이닝상사","tel":"031-858-5393","addr":"경기도 양주시 회정동 46-10번지","category":"자동차정비 유지 - 자동차부품"},{"name":"헬로편의점","tel":"031-858-4407","addr":"경기도 양주시 회정동 46-10번지","category":"유통업 영리 - 편 의 점"}]},{"lat":"37.849691387","long":"127.05439719","items":[{"name":"양주통일주유소","tel":"031-868-5151","addr":"경기도 양주시 회정동 17-8번지","category":"연료판매점 - SK주유소"}]},{"lat":"37.84706046","long":"127.05481574","items":[{"name":"양지설비","tel":"031-867-6704","addr":"경기도 양주시 회정동 56-1번지","category":"건축자재 - 인테리어전문"}]},{"lat":"37.84611491","long":"127.05381527","items":[{"name":"엄마손김밥","tel":"031-858-5353","addr":"경기도 양주시 회정동 46-8번지","category":"일반휴게음식 - 주점"}]},{"lat":"37.829420348","long":"127.05409913","items":[{"name":"영어에 풍덩빠지다 with 파머스학원","tel":"031-838-8779","addr":"경기도 양주시 회정동 392-9번지 2층","category":"학원 - 보습학원"},{"name":"조마루감자탕(양주점)","tel":"031-863-8777","addr":"경기도 양주시 회정동 392-9번지","category":"일반휴게음식 - 일반한식"}]},{"lat":"37.828312879","long":"127.05248542","items":[{"name":"예원인테리어","tel":"031-858-5806","addr":"경기도 양주시 회정동 343-4번지","category":"건축자재 - 인테리어전문"}]},{"lat":"37.846808965","long":"127.05304316","items":[{"name":"오성공업사","tel":"031-858-5209","addr":"경기도 양주시 회정동 69-6","category":"기타 - 기계공구"}]},{"lat":"37.827618345","long":"127.05437049","items":[{"name":"오토오아시스 양주점","tel":"031-858-8112","addr":"경기도 양주시 회정동 868번지","category":"자동차정비 유지 - 자동차정비"},{"name":"오토오아시스 양주점","tel":"031-859-4449","addr":"경기도 양주시 회정동 868번지","category":"자동차정비 유지 - 자동차정비"}]},{"lat":"37.847889374","long":"127.05470271","items":[{"name":"옥석공예사","tel":"031-859-5689","addr":"경기도 양주시 회정동 60-2번지","category":"문화.취미 - 민예·공예품"}]},{"lat":"37.828393907","long":"127.05262178","items":[{"name":"왕가네","tel":"031-858-1917","addr":"경기도 양주시 회정동 343-2번지","category":"일반휴게음식 - 일반한식"}]},{"lat":"37.846637455","long":"127.05381563","items":[{"name":"유한상사","tel":"031-858-0949","addr":"경기도 양주시 회정동 70-3번지","category":"건축자재 - 건축용 요업제품"}]},{"lat":"37.82969903","long":"127.05548511","items":[{"name":"이주현에스테틱","tel":"031-861-7979","addr":"경기도 양주시 회정동 394-17 정안빌라 302-102 5/4","category":"회원제형태 - 기타4"}]},{"lat":"37.847114938","long":"127.05385004","items":[{"name":"인생해장국","tel":"031-111-1111","addr":"경기도 양주시 회정동 64-5번지 1층","category":"일반휴게음식 - 일반한식"}]},{"lat":"37.833332969","long":"127.04789955","items":[{"name":"작은성","tel":"031-858-4329","addr":"경기도 양주시 회정동 479번지","category":"일반휴게음식 - 서양음식"}]},{"lat":"37.832970716","long":"127.05256806","items":[{"name":"정성포장산업","tel":"031-858-5678","addr":"경기도 양주시 회정동 450-4번지","category":"신변잡화 - 기타잡화"}]},{"lat":"37.827393203","long":"127.05415452","items":[{"name":"제이뷰티샵","tel":"031-857-5505","addr":"경기도 양주시 회정동 868-4번지 1층 101호","category":"보건위생 - 피부미용실"}]},{"lat":"37.846196068","long":"127.05364491","items":[{"name":"주식회사 겜박스","tel":"070-8682-6226","addr":"경기도 양주시 회정동 46-7번지 2층","category":"서적문구 - 완구점"},{"name":"진우 에프에이 (F.A)","tel":"031-821-9079","addr":"경기도 양주시 회정동 46-7번지","category":"기타 - 기계공구"}]},{"lat":"37.853754521","long":"127.05462727","items":[{"name":"주식회사 대한자동차","tel":"031-866-7991","addr":"경기도 양주시 회정동 490번지","category":"자동차정비 유지 - 자동차부품"}]},{"lat":"37.846304396","long":"127.05314507","items":[{"name":"주식회사 필헌","tel":"031-865-0578","addr":"경기도 양주시 회정동 71-4번지","category":"용역 서비스 - 종합용역"},{"name":"주식회사승진정보","tel":"031-875-8968","addr":"경기도 양주시 회정동 71-4번지 장한 상가 5호","category":"사무통신 - 통신기기"}]},{"lat":"37.830114412","long":"127.05331584","items":[{"name":"천지OA","tel":"031-826-3313","addr":"경기도 양주시 회정동 421-21번지 2층","category":"사무통신 - 사무용 OA기기"}]},{"lat":"37.832503354","long":"127.04981878","items":[{"name":"천지당","tel":"","addr":"경기도 양주시 회정동 464-2번지 A동 502호","category":"보건위생 - 기타대인서비스"}]},{"lat":"37.84660918","long":"127.05662191","items":[{"name":"카페컨테이너","tel":"02-0000-0000","addr":"경기도 양주시 회정동 521번지 ,1,2층","category":"일반휴게음식 - 서양음식"}]},{"lat":"37.853079301","long":"127.05351327","items":[{"name":"크래프터코리아","tel":"031-858-9090","addr":"경기도 양주시 회정동 8번지","category":"레져용품 - 악기점"}]},{"lat":"37.827420937","long":"127.05250754","items":[{"name":"크린테크(양주점)","tel":"031-858-1777","addr":"경기도 양주시 회정동 351-2번지 3층","category":"자동차정비 유지 - 세차장"}]},{"lat":"37.844114785","long":"127.05390479","items":[{"name":"타이가","tel":"031-857-8087","addr":"경기도 양주시 회정동 41-4번지 6호","category":"숙박업 - 여관/기타숙박업"},{"name":"타이가","tel":"031-857-8087","addr":"경기도 양주시 회정동 41-4번지","category":"숙박업 - 여관/기타숙박업"}]},{"lat":"37.845168909","long":"127.0538487","items":[{"name":"타이어프로 덕정사거리점","tel":"031-843-2000","addr":"경기도 양주시 회정동 46-20번지","category":"자동차정비 유지 - 자동차시트·타이어"}]},{"lat":"37.837753759","long":"127.0547865","items":[{"name":"탑동고을","tel":"031-858-2053","addr":"경기도 양주시 회정동 115-43번지 1층","category":"일반휴게음식 - 일반한식"},{"name":"탑동마트","tel":"031-862-0406","addr":"경기도 양주시 회정동 115-43번지","category":"유통업 영리 - 슈퍼마켓"},{"name":"해촌해물샤브칼국수","tel":"031-875-5335","addr":"경기도 양주시 회정동 115-43번지 1층","category":"일반휴게음식 - 일반한식"}]},{"lat":"37.838915847","long":"127.05507132","items":[{"name":"탑솥뚜껑생고기","tel":"031-862-3363","addr":"경기도 양주시 회정동 128-3번지 1층 좌측","category":"일반휴게음식 - 일반한식"},{"name":"현대.기아 김반장","tel":"","addr":"경기도 양주시 회정동 128-3번지 C동","category":"자동차정비 유지 - 자동차정비"}]},{"lat":"37.838331249","long":"127.0527307","items":[{"name":"탑에어콘","tel":"","addr":"경기도 양주시 회정동 115-3번지","category":"용역 서비스 - 기타용역서비스"}]},{"lat":"37.832501874","long":"127.05339698","items":[{"name":"태림제재소","tel":"031-859-7477","addr":"경기도 양주시 회정동 449-4번지","category":"건축자재 - 목재·석재·철물"}]},{"lat":"37.851664429","long":"127.05443265","items":[{"name":"토이야","tel":"031-853-4426","addr":"경기도 양주시 회정동 9-10번지","category":"레져용품 - 스포츠·레져용품"}]},{"lat":"37.83227721","long":"127.05204506","items":[{"name":"티티오토스","tel":"031-8222-7698","addr":"경기도 양주시 회정동 454-1번지","category":"자동차정비 유지 - 카인테리어"}]},{"lat":"37.852420997","long":"127.05493312","items":[{"name":"펫스퀘어","tel":"031-861-7532","addr":"경기도 양주시 회정동 494번지","category":"문화.취미 - 애완동물"}]},{"lat":"37.830555859","long":"127.05335021","items":[{"name":"한솔","tel":"031-858-2014","addr":"경기도 양주시 회정동 421-17번지","category":"직물 - 카페트,커튼,천막,지물"}]},{"lat":"37.836114624","long":"127.05345624","items":[{"name":"해피트리공동체협동조합","tel":"031-823-7770","addr":"경기도 양주시 회정동 189-2번지 A동","category":"기타의료기관 - 기타의료기관 및 기타"}]},{"lat":"37.846700169","long":"127.05462234","items":[{"name":"현대장식","tel":"031-858-6905","addr":"경기도 양주시 회정동 56-11번지 3","category":"직물 - 카페트,커튼,천막,지물"}]},{"lat":"37.830915892","long":"127.0541456","items":[{"name":"형제정밀","tel":"031-859-0380","addr":"경기도 양주시 회정동 428","category":"기타 - 기계공구"}]},{"lat":"37.849691128","long":"127.05498802","items":[{"name":"홍길동낚시마트","tel":"031-857-2727","addr":"경기도 양주시 회정동 503번지","category":"레져용품 - 스포츠·레져용품"}]},{"lat":"37.836123388","long":"127.05402424","items":[{"name":"황금달 수족관","tel":"","addr":"경기도 양주시 회정동 189-9번지 회정문화빌리지 가동 101호","category":"문화.취미 - 수족관"}]},{"lat":"37.829447003","long":"127.05495106","items":[{"name":"효촌생고기","tel":"031-855-7220","addr":"경기도 양주시 회정동 394-2번지 외1필지가 1층","category":"일반휴게음식 - 일반한식"}]},{"lat":"37.84611564","long":"127.05209969","items":[{"name":"힐링케어요양원","tel":"","addr":"경기도 양주시 회정동 74-11번지","category":"기타의료기관 - 기타의료기관 및 기타"}]}]