[{"lat":"37.057535332","long":"126.79675659","items":[{"name":"(주)글로벌한국현대에너지 만남주유소","tel":"031-0000-0000","addr":"경기도 화성시 장안면 사곡리 667-11번지","category":"연료판매점 - SK주유소"},{"name":"아이지에이마트(만남주유소점)","tel":"","addr":"경기도 화성시 장안면 사곡리 667-11번지","category":"유통업 영리 - 슈퍼마켓"},{"name":"하동진곰탕","tel":"031-000-0000","addr":"경기도 화성시 장안면 사곡리 667-11번지","category":"일반휴게음식 - 일반한식"}]},{"lat":"37.071149202","long":"126.81224881","items":[{"name":"24시슈퍼","tel":"031-111-1111","addr":"경기도 화성시 장안면 사곡리 188-24번지 A동","category":"유통업 영리 - 슈퍼마켓"}]},{"lat":"37.075148384","long":"126.8169731","items":[{"name":"GS25조암산호점","tel":"","addr":"경기도 화성시 장안면 사곡리 172-2번지 산호 상가 1층 101, 103호","category":"유통업 영리 - 편 의 점"}]},{"lat":"37.067568095","long":"126.81545114","items":[{"name":"가나가설산업","tel":"031-358-6888","addr":"경기도 화성시 장안면 사곡리 219-23번지 사곡리 219-21,22,23","category":"건축자재 - 기타건축자재"}]},{"lat":"37.075954946","long":"126.8141935","items":[{"name":"가제트 건설기계","tel":"031-358-0923","addr":"경기도 화성시 장안면 사곡리 11-1번지","category":"기타 - 기계공구"},{"name":"대흥양꼬치","tel":"070-7648-0206","addr":"경기도 화성시 장안면 사곡리 11-1번지 1층 101호,102호","category":"일반휴게음식 - 중국식"},{"name":"차사랑마을","tel":"031-351-0305","addr":"경기도 화성시 장안면 사곡리 11-1번지","category":"자동차정비 유지 - 자동차부품"},{"name":"한울돼지갈비","tel":"031-358-6652","addr":"경기도 화성시 장안면 사곡리 11-1번지","category":"일반휴게음식 - 일반한식"}]},{"lat":"37.074038639","long":"126.81605371","items":[{"name":"극동테크툴","tel":"03.1-351-8209","addr":"경기도 화성시 장안면 사곡리 178-4번지","category":"기타 - 기계공구"},{"name":"미림왕족발보쌈","tel":"031-358-5855","addr":"경기도 화성시 장안면 사곡리 178-4번지","category":"일반휴게음식 - 일반한식"},{"name":"청화전자","tel":"031-358-3510","addr":"경기도 화성시 장안면 사곡리 178-4번지","category":"자동차정비 유지 - 자동차부품"}]},{"lat":"37.072784202","long":"126.81480858","items":[{"name":"기성유통","tel":"031-358-7890","addr":"경기도 화성시 장안면 사곡리 187-1번지","category":"음료식품 - 농·축·수산품"}]},{"lat":"37.074704585","long":"126.81552354","items":[{"name":"김명자 낙지마당","tel":"031-351-5959","addr":"경기도 화성시 장안면 사곡리 162-1번지 B동 1층 2,3호","category":"일반휴게음식 - 일반한식"},{"name":"서미연헤어","tel":"031-351-2502","addr":"경기도 화성시 장안면 사곡리 162-1번지 B-2호","category":"보건위생 - 미용원"},{"name":"펀비어킹화성조암점","tel":"031-351-3038","addr":"경기도 화성시 장안면 사곡리 162-1번지 B동 1층","category":"일반휴게음식 - 일반한식"}]},{"lat":"37.067282889","long":"126.80625407","items":[{"name":"남원한식","tel":"031-297-3401","addr":"경기도 화성시 장안면 사곡리 476-3번지","category":"일반휴게음식 - 일반한식"}]},{"lat":"37.071420456","long":"126.81283286","items":[{"name":"다경감자탕","tel":"031-358-5300","addr":"경기도 화성시 장안면 사곡리 188-31번지","category":"일반휴게음식 - 일반한식"}]},{"lat":"37.075370849","long":"126.81519579","items":[{"name":"다드림전자","tel":"031-351-1183","addr":"경기도 화성시 장안면 사곡리 164-1번지 1층","category":"수리서비스 - 기타수리서비스"},{"name":"윤까페","tel":"031-351-6785","addr":"경기도 화성시 장안면 사곡리 164-1번지","category":"일반휴게음식 - 서양음식"},{"name":"정헤어라인","tel":"031-358-6797","addr":"경기도 화성시 장안면 사곡리 164-1","category":"보건위생 - 미용원"}]},{"lat":"37.077341152","long":"126.81330165","items":[{"name":"드림디포","tel":"031-351-3175","addr":"경기도 화성시 장안면 사곡리 85-9번지","category":"서적문구 - 문구용품"}]},{"lat":"37.072288444","long":"126.81469736","items":[{"name":"딩가딩가노래연습장","tel":"031-358-8777","addr":"경기도 화성시 장안면 사곡리 186-5번지","category":"레저업소 - 노 래 방"}]},{"lat":"37.072567592","long":"126.81458422","items":[{"name":"딸기노래연습장","tel":"031-358-0926","addr":"경기도 화성시 장안면 사곡리 187-6번지","category":"레저업소 - 노 래 방"},{"name":"카스바 노래연습장","tel":"031-358-0926","addr":"경기도 화성시 장안면 사곡리 187-6번지","category":"레저업소 - 노 래 방"}]},{"lat":"37.071900241","long":"126.81422603","items":[{"name":"또래오래조암점","tel":"031-351-9992","addr":"경기도 화성시 장안면 사곡리 186-8번지","category":"일반휴게음식 - 스넥"}]},{"lat":"37.067400491","long":"126.80653487","items":[{"name":"맛샘가든","tel":"031-358-7230","addr":"경기도 화성시 장안면 사곡리 476-1번지","category":"일반휴게음식 - 일반한식"}]},{"lat":"37.072144043","long":"126.81455153","items":[{"name":"맛의최강자","tel":"031-351-5989","addr":"경기도 화성시 장안면 사곡리 186-6번지","category":"일반휴게음식 - 일반한식"}]},{"lat":"37.061400746","long":"126.81858072","items":[{"name":"매봉골","tel":"031-351-0088","addr":"경기도 화성시 장안면 사곡리 267-23번지","category":"일반휴게음식 - 일반한식"}]},{"lat":"37.075559804","long":"126.81502664","items":[{"name":"메가진(MEGAZIN)","tel":"","addr":"경기도 화성시 장안면 사곡리 168-1번지","category":"유통업 영리 - 슈퍼마켓"},{"name":"사마르칸","tel":"03-111-1111","addr":"경기도 화성시 장안면 사곡리 168-1번지 1층","category":"일반휴게음식 - 서양음식"},{"name":"사마르칸","tel":"031-851-4410","addr":"경기도 화성시 장안면 사곡리 168-1번지 1층","category":"일반휴게음식 - 서양음식"},{"name":"유명남성컷","tel":"031-358-1908","addr":"경기도 화성시 장안면 사곡리 168-1번지 1층","category":"보건위생 - 이용원"},{"name":"진주식당","tel":"031-351-5954","addr":"경기도 화성시 장안면 사곡리 168-1번지","category":"일반휴게음식 - 일반한식"}]},{"lat":"37.059563037","long":"126.79694223","items":[{"name":"미네팜","tel":"031-498-6305","addr":"경기도 화성시 장안면 사곡리 620-14번지","category":"신변잡화 - 기타잡화"}]},{"lat":"37.073506095","long":"126.81547026","items":[{"name":"바다양푼이동태탕","tel":"070-4084-1236","addr":"경기도 화성시 장안면 사곡리 184-2번지 1층","category":"일반휴게음식 - 일반한식"},{"name":"양평해장국","tel":"031-358-9030","addr":"경기도 화성시 장안면 사곡리 184-2번지","category":"일반휴게음식 - 일반한식"},{"name":"옛날보신탕","tel":"031-351-4692","addr":"경기도 화성시 장안면 사곡리 184-2번지","category":"일반휴게음식 - 일반한식"},{"name":"원조능이 오리마을","tel":"031-358-5249","addr":"경기도 화성시 장안면 사곡리 184-2번지","category":"일반휴게음식 - 일반한식"},{"name":"장수탕수육보쌈","tel":"031-358-2062","addr":"경기도 화성시 장안면 사곡리 184-2","category":"일반휴게음식 - 중국식"}]},{"lat":"37.077757981","long":"126.81477381","items":[{"name":"블랙&화이트","tel":"031-351-0889","addr":"경기도 화성시 장안면 사곡리 6-4번지","category":"일반휴게음식 - 일반한식"},{"name":"수미곱창","tel":"031-351-2500","addr":"경기도 화성시 장안면 사곡리 6-4번지","category":"일반휴게음식 - 일반한식"},{"name":"신의주찹쌀순대","tel":"031-351-7393","addr":"경기도 화성시 장안면 사곡리 6-4번지","category":"일반휴게음식 - 일반한식"},{"name":"에스와이푸드","tel":"031-358-3533","addr":"경기도 화성시 장안면 사곡리 6-4번지","category":"일반휴게음식 - 일반한식"},{"name":"유명종합가구","tel":"031-358-0951","addr":"경기도 화성시 장안면 사곡리 6-4번지","category":"가구 - 일반가구"}]},{"lat":"37.075288614","long":"126.81447628","items":[{"name":"사곡부속살구이","tel":"031-358-8233","addr":"경기도 화성시 장안면 사곡리 167-3","category":"일반휴게음식 - 일반한식"},{"name":"임금님쌈밥","tel":"031-351-1130","addr":"경기도 화성시 장안면 사곡리 167-3번지","category":"일반휴게음식 - 일반한식"},{"name":"처갓집양념치킨","tel":"031-358-3392","addr":"경기도 화성시 장안면 사곡리 167-3번지 103호","category":"일반휴게음식 - 스넥"},{"name":"포인트당구장","tel":"031-358-5618","addr":"경기도 화성시 장안면 사곡리 167-3번지 2층","category":"레저업소 - 당 구 장"}]},{"lat":"37.071647283","long":"126.8138106","items":[{"name":"솟대","tel":"031-358-6597","addr":"경기도 화성시 장안면 사곡리 188-1번지","category":"일반휴게음식 - 일반한식"}]},{"lat":"37.061562079","long":"126.81802941","items":[{"name":"송우케미언스(주)","tel":"031-351-6961","addr":"경기도 화성시 장안면 사곡리 916-3번지","category":"서적문구 - 과학기자재"}]},{"lat":"37.073928629","long":"126.81486198","items":[{"name":"수빈노래방","tel":"031-351-2678","addr":"경기도 화성시 장안면 사곡리 159-7번지","category":"레저업소 - 노 래 방"},{"name":"수빈레스토랑","tel":"031-351-2679","addr":"경기도 화성시 장안면 사곡리 159-7번지","category":"일반휴게음식 - 서양음식"}]},{"lat":"37.067589936","long":"126.80666931","items":[{"name":"쌍용자동차 화성우정서비스 프라자","tel":"031-351-5582","addr":"경기도 화성시 장안면 사곡리 475-1번지 1층","category":"자동차정비 유지 - 자동차정비"}]},{"lat":"37.076810517","long":"126.81392148","items":[{"name":"씨유화서장안사곡점","tel":"031-898-6568","addr":"경기도 화성시 장안면 사곡리 13-7번지 1층","category":"유통업 영리 - 편 의 점"}]},{"lat":"37.074010169","long":"126.81514291","items":[{"name":"씨유화성리더스점","tel":"031-351-4458","addr":"경기도 화성시 장안면 사곡리 159-2번지","category":"유통업 영리 - 편 의 점"},{"name":"아산카독크","tel":"031-358-8562","addr":"경기도 화성시 장안면 사곡리 159-2번지","category":"자동차정비 유지 - 자동차정비"}]},{"lat":"37.070066379","long":"126.81128448","items":[{"name":"씽크공장","tel":"031-358-6058","addr":"경기도 화성시 장안면 사곡리 439-4번지","category":"주방용구 - 주방용구"}]},{"lat":"37.075884448","long":"126.80958302","items":[{"name":"아소비 우정점","tel":"","addr":"경기도 화성시 장안면 사곡리 121-10번지 다인빌라 나동 101호","category":"학원 - 기타 교육기관"}]},{"lat":"37.075506452","long":"126.81547659","items":[{"name":"아이랜드어린이집[아이행복]","tel":"031-358-7187","addr":"경기도 화성시 장안면 사곡리 169-1번지","category":"학원 - 유아원"}]},{"lat":"37.070950518","long":"126.81196819","items":[{"name":"영우카센타","tel":"031-351-7887","addr":"경기도 화성시 장안면 사곡리 188-25번지 나은빌 1동 1층 101호","category":"자동차정비 유지 - 자동차정비"}]},{"lat":"37.073477924","long":"126.81475065","items":[{"name":"오리엔탈깻잎칩킨","tel":"031-358-2787","addr":"경기도 화성시 장안면 사곡리 157-3번지","category":"일반휴게음식 - 스넥"},{"name":"자금성","tel":"031-351-7780","addr":"경기도 화성시 장안면 사곡리 157-3번지 1층","category":"일반휴게음식 - 중국식"}]},{"lat":"37.065093364","long":"126.80628221","items":[{"name":"우드무드(WOOD MOOD)","tel":"","addr":"경기도 화성시 장안면 사곡리 491-13번지 228호","category":"주방용구 - 주방용구"}]},{"lat":"37.066119662","long":"126.81689394","items":[{"name":"유니스포텍(주)","tel":"031-351-9866","addr":"경기도 화성시 장안면 사곡리 280-1번지","category":"레져용품 - 스포츠·레져용품"}]},{"lat":"37.074928496","long":"126.81466834","items":[{"name":"이드프랑베이커리","tel":"031-358-3787","addr":"경기도 화성시 장안면 사곡리 166-3번지","category":"음료식품 - 제과점"}]},{"lat":"37.073090863","long":"126.81499899","items":[{"name":"이레음악전문학원","tel":"031-358-1236","addr":"경기도 화성시 장안면 사곡리 187-5번지 1층","category":"학원 - 예·체능계학원"},{"name":"햇님 수산","tel":"","addr":"경기도 화성시 장안면 사곡리 187-5번지","category":"음료식품 - 농·축·수산품"}]},{"lat":"37.077616282","long":"126.81633732","items":[{"name":"장안여자중학교","tel":"031-351-2081","addr":"경기도 화성시 장안면 사곡리 1번지 장안여자중학교","category":"학원 - 초중고교육기관"}]},{"lat":"37.068837916","long":"126.80942099","items":[{"name":"장안철물건재","tel":"031-351-4337","addr":"경기도 화성시 장안면 사곡리 451-19번지","category":"건축자재 - 목재·석재·철물"}]},{"lat":"37.074505518","long":"126.8149955","items":[{"name":"정가네","tel":"031-351-4638","addr":"경기도 화성시 장안면 사곡리 161-2번지 가동","category":"일반휴게음식 - 일반한식"},{"name":"패밀리카페","tel":"031-358-0391","addr":"경기도 화성시 장안면 사곡리 161-2번지 1층","category":"일반휴게음식 - 일반한식"}]},{"lat":"37.061839102","long":"126.81655585","items":[{"name":"조암종합가스","tel":"031-358-3121","addr":"경기도 화성시 장안면 사곡리 302번지","category":"연료판매점 - LPG 취급점"}]},{"lat":"37.06945257","long":"126.81061135","items":[{"name":"주식회사미각수","tel":"031-359-8020","addr":"경기도 화성시 장안면 사곡리 441-7번지","category":"주방용구 - 정수기"}]},{"lat":"37.072062788","long":"126.81445053","items":[{"name":"진주가든","tel":"031-351-5954","addr":"경기도 화성시 장안면 사곡리 186-4번지 1층","category":"일반휴게음식 - 일반한식"}]},{"lat":"37.076703232","long":"126.81445029","items":[{"name":"코스모세차장","tel":"031-358-0492","addr":"경기도 화성시 장안면 사곡리 7-7번지","category":"자동차정비 유지 - 세차장"}]},{"lat":"37.067788911","long":"126.80711857","items":[{"name":"타이어마트","tel":"031-351-7915","addr":"경기도 화성시 장안면 사곡리 475-7번지","category":"자동차정비 유지 - 자동차시트·타이어"}]},{"lat":"37.074316617","long":"126.81519838","items":[{"name":"평택정대포(조암점)","tel":"031-358-2239","addr":"경기도 화성시 장안면 사곡리 160-2번지","category":"일반휴게음식 - 일반한식"}]},{"lat":"37.074372507","long":"126.81635651","items":[{"name":"하우스인테리어","tel":"031-351-2812","addr":"경기도 화성시 장안면 사곡리 178-1번지","category":"건축자재 - 인테리어전문"}]},{"lat":"37.065593485","long":"126.81463519","items":[{"name":"한길농업기계","tel":"031-358-8809","addr":"경기도 화성시 장안면 사곡리 382-6번지","category":"수리서비스 - 기타수리서비스"}]}]