[{"lat":"37.498409218","long":"127.19164435","items":[{"name":"(주)서림","tel":"031-795-5852","addr":"경기도 하남시 상사창동 247번지","category":"음료식품 - 기타음료식품"}]},{"lat":"37.496432747","long":"127.19369748","items":[{"name":"(주)예철사","tel":"031-794-6198","addr":"경기도 하남시 상사창동 206-3번지","category":"신변잡화 - 기념품점"}]},{"lat":"37.492239711","long":"127.19020407","items":[{"name":"FM렌탈","tel":"031-761-5194","addr":"경기도 하남시 상사창동 359-1번지","category":"신변잡화 - 기타잡화"}]},{"lat":"37.501819284","long":"127.19455936","items":[{"name":"강쥐와냥이","tel":"070-4194-8294","addr":"경기도 하남시 상사창동 271-1번지","category":"문화.취미 - 애완동물"}]},{"lat":"37.501347954","long":"127.19070179","items":[{"name":"고골분식","tel":"031-794-0163","addr":"경기도 하남시 상사창동 326-1번지","category":"일반휴게음식 - 스넥"},{"name":"둔촌상회","tel":"031-793-7922","addr":"경기도 하남시 상사창동 326-1번지","category":"음료식품 - 기타음료식품"}]},{"lat":"37.491355142","long":"127.19120822","items":[{"name":"고골산장","tel":"031-793-7600","addr":"경기도 하남시 상사창동 394-2번지","category":"일반휴게음식 - 일반한식"}]},{"lat":"37.495906307","long":"127.19048462","items":[{"name":"고골풍경채갤러리","tel":"031-793-0440","addr":"경기도 하남시 상사창동 338번지 1,2층 일부","category":"문화.취미 - 화랑"},{"name":"고골풍경채맛집","tel":"031-793-0440","addr":"경기도 하남시 상사창동 338번지 1층","category":"일반휴게음식 - 일반한식"}]},{"lat":"37.494737479","long":"127.19456388","items":[{"name":"고씨네집","tel":"031-793-6758","addr":"경기도 하남시 상사창동 180-11번지","category":"일반휴게음식 - 일반한식"}]},{"lat":"37.50351619","long":"127.19267505","items":[{"name":"남도한식뷔페","tel":"031-795-7008","addr":"경기도 하남시 상사창동 317-4번지","category":"일반휴게음식 - 일반한식"}]},{"lat":"37.504965396","long":"127.19353824","items":[{"name":"농업회사법인 푸른에프앤지(주)","tel":"02-576-0730","addr":"경기도 하남시 상사창동 60-4번지 주건축물제 1동","category":"음료식품 - 농·축·수산품"}]},{"lat":"37.495460336","long":"127.19328791","items":[{"name":"대광테크","tel":"031-791-9729","addr":"경기도 하남시 상사창동 177번지 1층","category":"주방용구 - 주방용구"}]},{"lat":"37.505125064","long":"127.19508805","items":[{"name":"더 오케이","tel":"031-795-9153","addr":"경기도 하남시 상사창동 46번지","category":"음료식품 - 기타음료식품"}]},{"lat":"37.498271621","long":"127.19317066","items":[{"name":"도상토탈퍼니처","tel":"031-793-5110","addr":"경기도 하남시 상사창동 234-6번지","category":"가구 - 일반가구"}]},{"lat":"37.509849151","long":"127.19880993","items":[{"name":"도은산업","tel":"031-796-1209","addr":"경기도 하남시 상사창동 9-1번지 1층","category":"건축자재 - 기타건축자재"}]},{"lat":"37.50388078","long":"127.19565033","items":[{"name":"동해냉동","tel":"031-573-8444","addr":"경기도 하남시 상사창동 72-1번지","category":"주방용구 - 주방용구"}]},{"lat":"37.503214915","long":"127.19511709","items":[{"name":"동해오피스","tel":"031-792-1474","addr":"경기도 하남시 상사창동 305-1번지","category":"가구 - 일반가구"}]},{"lat":"37.496847822","long":"127.19331405","items":[{"name":"드림렌탈","tel":"02-1855-0375","addr":"경기도 하남시 상사창동 207-1번지","category":"용역 서비스 - 종합용역"},{"name":"무지개렌탈","tel":"02-1855-2510","addr":"경기도 하남시 상사창동 207-1번지","category":"신변잡화 - 기타잡화"}]},{"lat":"37.503461767","long":"127.19290109","items":[{"name":"렌탈프리","tel":"","addr":"경기도 하남시 상사창동 68-4번지","category":"용역 서비스 - 종합용역"},{"name":"오션라이브이엔티","tel":"031-793-3686","addr":"경기도 하남시 상사창동 68-4번지","category":"전기제품 - 가전제품"}]},{"lat":"37.503687777","long":"127.19242667","items":[{"name":"매직빈 (magic bean)","tel":"070-7518-3502","addr":"경기도 하남시 상사창동 65-1번지","category":"서적문구 - 완구점"}]},{"lat":"37.498571739","long":"127.1914299","items":[{"name":"명신ENG","tel":"070-4154-9279","addr":"경기도 하남시 상사창동 249번지","category":"주방용구 - 주방용구"}]},{"lat":"37.491237363","long":"127.191615","items":[{"name":"모두다 수거","tel":"02-400-8647","addr":"경기도 하남시 상사창동 396-7번지","category":"용역 서비스 - 종합용역"}]},{"lat":"37.491020764","long":"127.1918406","items":[{"name":"물레방아집","tel":"031-793-6217","addr":"경기도 하남시 상사창동 395번지","category":"일반휴게음식 - 일반한식"}]},{"lat":"37.506790987","long":"127.19564651","items":[{"name":"미래자원개발","tel":"031-796-2114","addr":"경기도 하남시 상사창동 86-7번지","category":"신변잡화 - 기타잡화"}]},{"lat":"37.501820456","long":"127.19383559","items":[{"name":"보광통상","tel":"02-406-1888","addr":"경기도 하남시 상사창동 269-4번지","category":"음료식품 - 미곡상"}]},{"lat":"37.50173931","long":"127.1993655","items":[{"name":"삼우퍼니처","tel":"031-794-6973","addr":"경기도 하남시 상사창동 130-1번지","category":"주방용구 - 주방용구"}]},{"lat":"37.497820708","long":"127.19342961","items":[{"name":"성원후램","tel":"031-793-7351","addr":"경기도 하남시 상사창동 235-3번지","category":"용역 서비스 - 종합용역"}]},{"lat":"37.499379527","long":"127.19336572","items":[{"name":"애니죤","tel":"","addr":"경기도 하남시 상사창동 225-2번지","category":"주방용구 - 주방용구"}]},{"lat":"37.496599601","long":"127.19078037","items":[{"name":"어닝 스토리","tel":"","addr":"경기도 하남시 상사창동 336-2번지","category":"직물 - 카페트,커튼,천막,지물"}]},{"lat":"37.505347353","long":"127.19689816","items":[{"name":"에이치렌탈","tel":"02-1111-1111","addr":"경기도 하남시 상사창동 90-5번지 1동","category":"신변잡화 - 기타잡화"}]},{"lat":"37.505241879","long":"127.19528062","items":[{"name":"오름푸드시스템","tel":"070-8834-1224","addr":"경기도 하남시 상사창동 44번지","category":"음료식품 - 기타음료식품"}]},{"lat":"37.504214145","long":"127.19565119","items":[{"name":"우영통상","tel":"","addr":"경기도 하남시 상사창동 78-2번지","category":"의류 - 정장"}]},{"lat":"37.500153884","long":"127.19367302","items":[{"name":"주식회사 세종종합렌탈","tel":"031-796-9601","addr":"경기도 하남시 상사창동 277번지","category":"신변잡화 - 기타잡화"}]},{"lat":"37.508187203","long":"127.19584237","items":[{"name":"주식회사 페페","tel":"031-791-8879","addr":"경기도 하남시 상사창동 32-9번지","category":"문화.취미 - 애완동물"}]},{"lat":"37.500765752","long":"127.19417217","items":[{"name":"주식회사 피엔에이치인터내셔날","tel":"070-4845-0085","addr":"경기도 하남시 상사창동 285번지","category":"보건위생 - 화장품"}]},{"lat":"37.500572348","long":"127.19117482","items":[{"name":"주식회사 한국쏘매트","tel":"02-478-3540","addr":"경기도 하남시 상사창동 263번지","category":"주방용구 - 주방용구"}]},{"lat":"37.502681838","long":"127.19603176","items":[{"name":"진주상사","tel":"070-8118-2597","addr":"경기도 하남시 상사창동 300-2번지","category":"문화.취미 - 애완동물"}]},{"lat":"37.503659985","long":"127.1929016","items":[{"name":"창동모터스","tel":"031-795-2141","addr":"경기도 하남시 상사창동 68-2번지","category":"자동차정비 유지 - 카인테리어"}]},{"lat":"37.498492163","long":"127.19047978","items":[{"name":"청우 영테크","tel":"031-8028-5123","addr":"경기도 하남시 상사창동 332-15번지 1층","category":"음료식품 - 기타음료식품"}]},{"lat":"37.488879753","long":"127.18973209","items":[{"name":"토박이","tel":"031-793-5220","addr":"경기도 하남시 상사창동 388-2번지","category":"일반휴게음식 - 일반한식"},{"name":"하나통신","tel":"031-793-5220","addr":"경기도 하남시 상사창동 388-2번지","category":"용역 서비스 - 기타용역서비스"}]},{"lat":"37.497154377","long":"127.19317913","items":[{"name":"티앤엠","tel":"02-720-8085","addr":"경기도 하남시 상사창동 207번지 1층","category":"기타 - 기계공구"}]},{"lat":"37.503794295","long":"127.19342217","items":[{"name":"펫토피아코리아","tel":"031-794-4056","addr":"경기도 하남시 상사창동 68-1번지","category":"문화.취미 - 애완동물"}]},{"lat":"37.503042824","long":"127.1956708","items":[{"name":"플라듀오","tel":"02-431-0231","addr":"경기도 하남시 상사창동 301-1번지","category":"용역 서비스 - 종합용역"}]},{"lat":"37.493159258","long":"127.18986713","items":[{"name":"하비비","tel":"031-793-1314","addr":"경기도 하남시 상사창동 345번지","category":"일반휴게음식 - 일반한식"}]},{"lat":"37.505960024","long":"127.19689974","items":[{"name":"한신 써비스","tel":"031-755-1737","addr":"경기도 하남시 상사창동 90-2번지","category":"수리서비스 - 기타수리서비스"}]}]