[{"lat":"37.96970877","long":"127.24976953","items":[{"name":"GS25 포천만세교리","tel":"031-535-6867","addr":"경기도 포천시 영중면 금주리 917-14번지","category":"편의점 - 편의점"},{"name":"GS25 포천만세교리점","tel":"","addr":"경기도 포천시 영중면 금주리 917-14번지","category":"유통업 영리 - 편 의 점"},{"name":"GS25포천만세교리점","tel":"535-6867","addr":"경기도 포천시 영중면 금주리 917-14번지","category":"소매업 - 편의점"}]},{"lat":"37.966071106","long":"127.26139896","items":[{"name":"S모텔","tel":"031-938-3837","addr":"경기도 포천시 영중면 금주리 1044-2","category":"숙박업 - 여관/기타숙박업"},{"name":"메딘코","tel":"","addr":"경기도 포천시 영중면 금주리 1044-2번지 8","category":"가구 - 기타가구"},{"name":"테마모델","tel":"031-534-4411","addr":"경기도 포천시 영중면 금주리 1044-2번지","category":"숙박업 - 여관/기타숙박업"}]},{"lat":"37.976740912","long":"127.25168241","items":[{"name":"금복모텔","tel":"031-534-5353","addr":"경기도 포천시 영중면 금주리 823-2번지 외1필지","category":"숙박업 - 여관/기타숙박업"}]},{"lat":"37.973709735","long":"127.2699843","items":[{"name":"금주낚시터","tel":"031-473-9107","addr":"경기도 포천시 영중면 금주리 231번지","category":"레저업소 - 기타레져업소"},{"name":"금주낚시터","tel":"031-533-9545","addr":"경기도 포천시 영중면 금주리 231","category":"레저업소 - 기타레져업소"}]},{"lat":"37.97384671","long":"127.2770183","items":[{"name":"금주산방까사펜션","tel":"031-531-1122","addr":"경기도 포천시 영중면 금주리 212번지","category":"숙박업 - 여관/기타숙박업"}]},{"lat":"37.957020494","long":"127.25974012","items":[{"name":"금주산주유소","tel":"031-866-5151","addr":"경기도 포천시 영중면 금주리 1053-1번지","category":"연료판매점 - 주유소"}]},{"lat":"37.973460629","long":"127.26049163","items":[{"name":"금주초등학교","tel":"031-531-6313","addr":"경기도 포천시 영중면 금주리 522-1번지 금주초등학교","category":"학원 - 초중고교육기관"},{"name":"금주초등학교 병설유치원[아이행복]","tel":"031-531-6303","addr":"경기도 포천시 영중면 금주리 522-1번지 금주초등학교","category":"학원 - 유치원"}]},{"lat":"37.979909141","long":"127.24882484","items":[{"name":"농업회사법인 사과깡패㈜","tel":"544-8998","addr":"경기도 포천시 영중면 금주리 729-3번지","category":"도소매 - 농산물"},{"name":"농업회사법인사과랑주식회사","tel":"031-544-8998","addr":"경기도 포천시 영중면 금주리 729-3번지","category":"음료식품 - 농·축·수산품"}]},{"lat":"37.984409053","long":"127.26354632","items":[{"name":"마우농원","tel":"031-532-6924","addr":"경기도 포천시 영중면 금주리 350번지","category":"음료식품 - 농·축·수산품"}]},{"lat":"37.970158294","long":"127.25021487","items":[{"name":"만세아울렛","tel":"","addr":"경기도 포천시 영중면 금주리 917-8번지 101호","category":"의류 - 정장"}]},{"lat":"37.966993669","long":"127.25135364","items":[{"name":"바이오나르샤","tel":"031-531-0908","addr":"경기도 포천시 영중면 금주리 1029-110번지 1층 101호","category":"음료식품 - 농·축·수산품"},{"name":"오스타팜","tel":"031-534-3484","addr":"경기도 포천시 영중면 금주리 1029-110번지","category":"음료식품 - 농·축·수산품"}]},{"lat":"37.976902969","long":"127.24743764","items":[{"name":"백노주카센타","tel":"031-534-5268","addr":"경기도 포천시 영중면 금주리 867-2 백노주유소내","category":"자동차정비 유지 - 자동차정비"}]},{"lat":"37.981797602","long":"127.24176273","items":[{"name":"백로주유원지","tel":"031-532-6600","addr":"경기도 포천시 영중면 금주리 694-1번지","category":"레저업소 - 기타레져업소"}]},{"lat":"37.985706339","long":"127.28315227","items":[{"name":"서울에서","tel":"031-765-1010","addr":"경기도 포천시 영중면 금주리 12-3번지","category":"의류 - 정장"}]},{"lat":"37.955018076","long":"127.26082545","items":[{"name":"서진퍼니처","tel":"031-531-0621","addr":"경기도 포천시 영중면 금주리 1061-30번지","category":"가구 - 일반가구"}]},{"lat":"37.98165991","long":"127.27990431","items":[{"name":"선옥식품","tel":"031-531-6815","addr":"경기도 포천시 영중면 금주리 31번지","category":"음료식품 - 기타음료식품"}]},{"lat":"37.984236327","long":"127.26826952","items":[{"name":"수현종이공예","tel":"031-531-3440","addr":"경기도 포천시 영중면 금주리 377번지","category":"문화.취미 - 문화취미기타"}]},{"lat":"37.973791701","long":"127.27742781","items":[{"name":"숲펜션","tel":"031-0000-0000","addr":"경기도 포천시 영중면 금주리 198-3번지 가동","category":"숙박업 - 여관/기타숙박업"},{"name":"퀴즈펜션","tel":"","addr":"경기도 포천시 영중면 금주리 198-3번지 나동","category":"숙박업 - 여관/기타숙박업"}]},{"lat":"37.970680201","long":"127.25051252","items":[{"name":"썬웨이통상","tel":"031-533-4560","addr":"경기도 포천시 영중면 금주리 916-12","category":"전기제품 - 냉열기기"}]},{"lat":"37.970771751","long":"127.24981861","items":[{"name":"씨유포천인생역전점","tel":"031-533-1456","addr":"경기도 포천시 영중면 금주리 916-7번지","category":"유통업 영리 - 편 의 점"},{"name":"원주식당","tel":"031-531-5066","addr":"경기도 포천시 영중면 금주리 916-7번지","category":"일반휴게음식 - 일반한식"}]},{"lat":"37.965847576","long":"127.26062435","items":[{"name":"아침고요마당포천맛집","tel":"532-9940","addr":"경기도 포천시 영중면 금주리 1039-3번지","category":"음식 - 한식"},{"name":"아침고요마당포천맛집","tel":"031-532-9940","addr":"경기도 포천시 영중면 금주리 1039-3번지","category":"일반휴게음식 - 일반한식"}]},{"lat":"37.977406982","long":"127.24767833","items":[{"name":"양심건강푸드","tel":"031-532-6553","addr":"경기도 포천시 영중면 금주리 732-4번지 1층","category":"건강식품 - 기타건강식품"}]},{"lat":"37.981819471","long":"127.24428967","items":[{"name":"오두막식당","tel":"031-533-4552","addr":"경기도 포천시 영중면 금주리 685-1번지","category":"일반휴게음식 - 일반한식"}]},{"lat":"37.970374417","long":"127.25026112","items":[{"name":"윤식당","tel":"031-535-0825","addr":"경기도 포천시 영중면 금주리 917-30번지","category":"일반휴게음식 - 일반한식"},{"name":"윤식당","tel":"534-8995","addr":"경기도 포천시 영중면 금주리 917-30번지","category":"음식 - 한식"}]},{"lat":"37.971798791","long":"127.24982205","items":[{"name":"자현(아소브)","tel":"031-536-7914","addr":"경기도 포천시 영중면 금주리 914번지","category":"직물 - 침구·수예점"}]},{"lat":"37.978849414","long":"127.25574147","items":[{"name":"주식회사 늘빛이앤피피","tel":"031-533-4237","addr":"경기도 포천시 영중면 금주리 774-1번지","category":"유통업 영리 - 기타유통업"}]},{"lat":"37.983932714","long":"127.24179242","items":[{"name":"창성농장","tel":"031-861-8100","addr":"경기도 포천시 영중면 금주리 698-4번지","category":"음료식품 - 농·축·수산품"}]},{"lat":"37.975686938","long":"127.27209702","items":[{"name":"커피공방","tel":"02-3454-0944","addr":"경기도 포천시 영중면 금주리 259-1번지","category":"일반휴게음식 - 서양음식"},{"name":"커피공방","tel":"","addr":"경기도 포천시 영중면 금주리 259-1번지","category":"음식 - 커피"}]},{"lat":"37.973902063","long":"127.27646083","items":[{"name":"포레스트 G1","tel":"031-0000-0000","addr":"경기도 포천시 영중면 금주리 211번지 나동","category":"숙박업 - 여관/기타숙박업"},{"name":"포레스트 G2","tel":"031-0000-0000","addr":"경기도 포천시 영중면 금주리 211번지 가동","category":"숙박업 - 여관/기타숙박업"}]},{"lat":"37.972572476","long":"127.25034816","items":[{"name":"한성산업","tel":"031-532-7800","addr":"경기도 포천시 영중면 금주리 912번지","category":"가구 - 일반가구"}]},{"lat":"37.980929551","long":"127.260347","items":[{"name":"현대 냉동 에어컨","tel":"031-531-9930","addr":"경기도 포천시 영중면 금주리 595-1번지","category":"용역 서비스 - 기타용역서비스"}]},{"lat":"37.974405407","long":"127.27696347","items":[{"name":"호수가의 아침 SM","tel":"031-534-4900","addr":"경기도 포천시 영중면 금주리 192번지","category":"숙박업 - 여관/기타숙박업"}]},{"lat":"37.979572084","long":"127.25901057","items":[{"name":"홍익타이어","tel":"031-532-8917","addr":"경기도 포천시 영중면 금주리 589-1번지","category":"자동차정비 유지 - 자동차시트·타이어"}]}]