[{"lat":"38.006099459","long":"127.32990129","items":[{"name":"9137","tel":"031-535-9137","addr":"경기도 포천시 이동면 노곡리 894-28","category":"일반휴게음식 - 일반한식"}]},{"lat":"38.008959987","long":"127.34100443","items":[{"name":"GS25포천노곡점","tel":"031-534-7890","addr":"경기도 포천시 이동면 노곡리 569-2번지","category":"편의점 - 편의점"},{"name":"GS25포천노곡점","tel":"","addr":"경기도 포천시 이동면 노곡리 569-2번지","category":"유통업 영리 - 편 의 점"},{"name":"종로원조삼숙이라면&돈까스","tel":"031-536-1502","addr":"경기도 포천시 이동면 노곡리 569-2번지","category":"일반휴게음식 - 일반한식"}]},{"lat":"38.00951766","long":"127.34131443","items":[{"name":"cu노곡리점","tel":"536-1937","addr":"경기도 포천시 이동면 노곡리 597-5번지","category":"편의점 - 편의점"},{"name":"뒷고기숯불구이","tel":"031-532-7788","addr":"경기도 포천시 이동면 노곡리 597-5번지 1층","category":"일반휴게음식 - 일반한식"},{"name":"뒷고기숯불구이","tel":"532-7788","addr":"경기도 포천시 이동면 노곡리 597-5번지 1층","category":"음식 - 한식"},{"name":"씨유포천노곡리점","tel":"031-536-1937","addr":"경기도 포천시 이동면 노곡리 597-5번지","category":"유통업 영리 - 편 의 점"}]},{"lat":"38.005788708","long":"127.32498116","items":[{"name":"금강산동태탕","tel":"031-532-1300","addr":"경기도 포천시 이동면 노곡리 1214-5번지","category":"일반휴게음식 - 일반한식"}]},{"lat":"38.007518357","long":"127.32829074","items":[{"name":"금경상사","tel":"031-535-1820","addr":"경기도 포천시 이동면 노곡리 910-8번지","category":"신변잡화 - 기타잡화"},{"name":"은경상회","tel":"031-535-1820","addr":"경기도 포천시 이동면 노곡리 910-8번지","category":"신변잡화 - 액세서리"}]},{"lat":"38.013234107","long":"127.35203543","items":[{"name":"까까머리미용실","tel":"031-535-5653","addr":"경기도 포천시 이동면 노곡리 280-59","category":"보건위생 - 미용원"},{"name":"호식이두마리치킨(이동점)","tel":"031-536-1234","addr":"경기도 포천시 이동면 노곡리 280-59번지","category":"일반휴게음식 - 스넥"}]},{"lat":"38.00601181","long":"127.32575639","items":[{"name":"낭유리촌닭","tel":"534-3784","addr":"경기도 포천시 이동면 노곡리 920-1번지","category":"음식 - 한식"}]},{"lat":"38.013154344","long":"127.35159095","items":[{"name":"노곡슈퍼","tel":"031-533-1330","addr":"경기도 포천시 이동면 노곡리 280-52번지","category":"유통업 영리 - 슈퍼마켓"},{"name":"초류향","tel":"031-536-1080","addr":"경기도 포천시 이동면 노곡리 280-52번지","category":"일반휴게음식 - 중국식"}]},{"lat":"38.00787654","long":"127.33551125","items":[{"name":"노곡초병설유치원[아이행복]","tel":"031-536-7378","addr":"경기도 포천시 이동면 노곡리 846-6번지 노곡초등학교","category":"학원 - 유치원"},{"name":"포천노곡초등학교","tel":"031-535-8030","addr":"경기도 포천시 이동면 노곡리 846-6번지 노곡초등학교","category":"학원 - 초중고교육기관"}]},{"lat":"38.007207376","long":"127.32997453","items":[{"name":"딩동댕노래방","tel":"031-535-0403","addr":"경기도 포천시 이동면 노곡리 894-17","category":"레저업소 - 노 래 방"},{"name":"방포차","tel":"031-531-7688","addr":"경기도 포천시 이동면 노곡리 894-17번지","category":"일반휴게음식 - 일반한식"}]},{"lat":"38.006599546","long":"127.33469707","items":[{"name":"미자네식당","tel":"536-7588","addr":"경기도 포천시 이동면 노곡리 847-6번지","category":"음식 - 한식"},{"name":"오복솥뚜껑삼겹살 설렁탕","tel":"031-536-1253","addr":"경기도 포천시 이동면 노곡리 847-6번지","category":"일반휴게음식 - 일반한식"},{"name":"오복수제왕돈까스","tel":"031-536-1253","addr":"경기도 포천시 이동면 노곡리 847-6번지 1층","category":"일반휴게음식 - 서양음식"},{"name":"오복수제왕돈까스","tel":"536-1253","addr":"경기도 포천시 이동면 노곡리 847-6번지","category":"음식 - 한식"}]},{"lat":"38.020231509","long":"127.36189666","items":[{"name":"바위섬가든","tel":"531-3700","addr":"경기도 포천시 이동면 노곡리 1번지","category":"음식 - 한식"},{"name":"바위섬가든","tel":"031-534-3700","addr":"경기도 포천시 이동면 노곡리 1번지","category":"일반휴게음식 - 일반한식"},{"name":"제2672부대","tel":"031-534-9600","addr":"경기도 포천시 이동면 노곡리 1번지 사서함117-1호","category":"일반휴게음식 - 일반한식"},{"name":"제2672부대","tel":"","addr":"경기도 포천시 이동면 노곡리 1 사서함117-1호","category":"유통업 비영리 - 구내매점(국가기관"},{"name":"제2672부대","tel":"031-531-9359","addr":"경기도 포천시 이동면 노곡리 1번지 사서함 117-1호","category":"유통업 비영리 - 구내매점(국가기관"},{"name":"제2672부대/골프장","tel":"031-531-7344","addr":"경기도 포천시 이동면 노곡리 1 사서함117-1호","category":"유통업 비영리 - 구내매점(국가기관"},{"name":"제2672부대/스넥바","tel":"031-531-7344","addr":"경기도 포천시 이동면 노곡리 1번지 사서함117-1호","category":"유통업 비영리 - 구내매점(국가기관"},{"name":"제3070부대","tel":"031-535-6665","addr":"경기도 포천시 이동면 노곡리 1번지 사서함 103-1호","category":"보건위생 - 이용원"},{"name":"제3070부대/오뚜기회관","tel":"031-534-9600","addr":"경기도 포천시 이동면 노곡리 1","category":"유통업 비영리 - 구내매점(국가기관"}]},{"lat":"38.008235415","long":"127.32961473","items":[{"name":"백일사","tel":"031-535-1138","addr":"경기도 포천시 이동면 노곡리 902-6","category":"수리서비스 - 세탁소"}]},{"lat":"38.009204571","long":"127.34053871","items":[{"name":"별미촌감자탕","tel":"031-535-8777","addr":"경기도 포천시 이동면 노곡리 595번지","category":"일반휴게음식 - 일반한식"},{"name":"별미촌감자탕","tel":"535-8777","addr":"경기도 포천시 이동면 노곡리 595번지","category":"음식 - 한식"},{"name":"조인자진곰탕","tel":"031-535-8776","addr":"경기도 포천시 이동면 노곡리 595번지","category":"일반휴게음식 - 일반한식"}]},{"lat":"38.01326181","long":"127.35180782","items":[{"name":"병천순대","tel":"031-535-1288","addr":"경기도 포천시 이동면 노곡리 280-14번지","category":"일반휴게음식 - 일반한식"},{"name":"병천순대","tel":"535-1288","addr":"경기도 포천시 이동면 노곡리 280-14번지","category":"음식 - 한식"}]},{"lat":"38.029785817","long":"127.32612266","items":[{"name":"비버리힐","tel":"031-536-6660","addr":"경기도 포천시 이동면 노곡리 1109-8번지","category":"숙박업 - 여관/기타숙박업"}]},{"lat":"38.008128224","long":"127.32928405","items":[{"name":"사철영양식당","tel":"031-535-0825","addr":"경기도 포천시 이동면 노곡리 902-3번지 1층","category":"일반휴게음식 - 일반한식"}]},{"lat":"38.019678134","long":"127.32919861","items":[{"name":"산정호수빌리지","tel":"031-536-7618","addr":"경기도 포천시 이동면 노곡리 1045-6번지","category":"숙박업 - 여관/기타숙박업"}]},{"lat":"38.005984902","long":"127.32897851","items":[{"name":"삼사카센타","tel":"031-536-2889","addr":"경기도 포천시 이동면 노곡리 908-1번지","category":"자동차정비 유지 - 자동차정비"}]},{"lat":"38.006402343","long":"127.33434321","items":[{"name":"삼정주유소","tel":"031-535-6671","addr":"경기도 포천시 이동면 노곡리 847-2","category":"연료판매점 - SK주유소"}]},{"lat":"38.009710505","long":"127.33369768","items":[{"name":"스팀닥터","tel":"031-111-1111","addr":"경기도 포천시 이동면 노곡리 811-4번지","category":"자동차정비 유지 - 세차장"}]},{"lat":"38.008959885","long":"127.31834532","items":[{"name":"에이트빌꿈나무어린이집[아이행복]","tel":"031-535-9581","addr":"경기도 포천시 이동면 노곡리 1180-1번지 에이트빌 109동 2층 보육시설","category":"학원 - 유아원"}]},{"lat":"38.005732479","long":"127.322476","items":[{"name":"올터쟁반짜장","tel":"535-9929","addr":"경기도 포천시 이동면 노곡리 1220-9번지","category":"음식 - 중식"}]},{"lat":"38.004514365","long":"127.31648178","items":[{"name":"이레추어탕","tel":"031-532-1411","addr":"경기도 포천시 이동면 노곡리 1235-3번지","category":"일반휴게음식 - 일반한식"}]},{"lat":"38.002073985","long":"127.30923026","items":[{"name":"자연의집","tel":"535-1460","addr":"경기도 포천시 이동면 노곡리 1244-1번지","category":"음식 - 한식"},{"name":"자연의집","tel":"031-535-1460","addr":"경기도 포천시 이동면 노곡리 1244-1번지 2/1","category":"일반휴게음식 - 일반한식"}]},{"lat":"38.006927242","long":"127.33028071","items":[{"name":"전순대","tel":"031-535-7144","addr":"경기도 포천시 이동면 노곡리 894-13번지 1층","category":"일반휴게음식 - 일반한식"}]},{"lat":"38.005315801","long":"127.32659589","items":[{"name":"전우종합물류","tel":"031-536-3929","addr":"경기도 포천시 이동면 노곡리 879-6번지","category":"서적문구 - 문구용품"},{"name":"전우종합물류","tel":"536-3929","addr":"경기도 포천시 이동면 노곡리 879-6번지","category":"도소매 - 문구"}]},{"lat":"38.022680339","long":"127.31512421","items":[{"name":"제103군사우체국","tel":"031-535-6100","addr":"경기도 포천시 이동면 노곡리 산130-1번지","category":"용역 서비스 - 공공요금대행서비스/소"}]},{"lat":"38.00598288","long":"127.32970721","items":[{"name":"종점상회","tel":"031-535-6781","addr":"경기도 포천시 이동면 노곡리 894-30","category":"음료식품 - 기타음료식품"}]},{"lat":"38.006711248","long":"127.33020005","items":[{"name":"직구유통","tel":"031-000-0000","addr":"경기도 포천시 이동면 노곡리 894-15번지","category":"음료식품 - 정육점"}]},{"lat":"38.004599919","long":"127.31817863","items":[{"name":"청록고기촌","tel":"031-536-6649","addr":"경기도 포천시 이동면 노곡리 1235-1","category":"일반휴게음식 - 일반한식"}]},{"lat":"38.004626519","long":"127.31833814","items":[{"name":"청록고기촌","tel":"536-6649","addr":"경기도 포천시 이동면 노곡리 1235-12번지","category":"음식 - 한식"}]},{"lat":"38.006846287","long":"127.3302348","items":[{"name":"최강만리장성","tel":"031-535-8003","addr":"경기도 포천시 이동면 노곡리 894-14번지 1층","category":"일반휴게음식 - 중국식"}]},{"lat":"38.006289123","long":"127.32973134","items":[{"name":"칠성상회","tel":"031-535-6588","addr":"경기도 포천시 이동면 노곡리 894-4","category":"건축자재 - 목재·석재·철물"}]},{"lat":"38.008371754","long":"127.34503251","items":[{"name":"케어메디","tel":"02-6227-4418","addr":"경기도 포천시 이동면 노곡리 1507번지 5/3","category":"신변잡화 - 기타잡화"}]},{"lat":"38.009239887","long":"127.34078937","items":[{"name":"코리엔탈 깻잎두마리치킨","tel":"031-533-7942","addr":"경기도 포천시 이동면 노곡리 595-7번지 1호","category":"일반휴게음식 - 스넥"},{"name":"코리엔탈깻잎두마리치킨","tel":"533-7942","addr":"경기도 포천시 이동면 노곡리 595-7번지","category":"음식 - 치킨"}]},{"lat":"38.015929737","long":"127.36039529","items":[{"name":"태윤콩비지","tel":"031-535-4494","addr":"경기도 포천시 이동면 노곡리 73-23번지","category":"농업 - 비료,사료,종자"}]},{"lat":"38.017598024","long":"127.31556955","items":[{"name":"토담","tel":"031-536-6288","addr":"경기도 포천시 이동면 노곡리 1145-122번지","category":"숙박업 - 여관/기타숙박업"}]},{"lat":"38.008290386","long":"127.32928477","items":[{"name":"평남상회","tel":"535-1727","addr":"경기도 포천시 이동면 노곡리 902-2번지","category":"소매업 - 잡화"}]},{"lat":"38.008046606","long":"127.32947726","items":[{"name":"평남상회","tel":"031-533-8668","addr":"경기도 포천시 이동면 노곡리 902-10번지","category":"음료식품 - 기타음료식품"}]},{"lat":"38.028987768","long":"127.3247524","items":[{"name":"푸른우드","tel":"031-533-1644","addr":"경기도 포천시 이동면 노곡리 1112-3번지","category":"건축자재 - 기타건축자재"}]},{"lat":"38.006405005","long":"127.33017591","items":[{"name":"해창사","tel":"031-535-1964","addr":"경기도 포천시 이동면 노곡리 894-36번지","category":"서적문구 - 문구용품"}]}]