[{"lat":"37.635105435","long":"126.83136859","items":[{"name":"coffee969(커피969)","tel":"031-967-0969","addr":"경기도 고양시 덕양구 화정로","category":"일반휴게음식 - 서양음식"},{"name":"스시웨이","tel":"031-815-3774","addr":"경기도 고양시 덕양구 화정로","category":"일반휴게음식 - 일식·회집"}]},{"lat":"37.635106125","long":"126.83184441","items":[{"name":"로얄퀀텀마스타","tel":"031-964-5770","addr":"경기도 고양시 덕양구 화정로","category":"보건위생 - 의료용품"},{"name":"샤브향 화정 직영점","tel":"031-965-5655","addr":"경기도 고양시 덕양구 화정로","category":"일반휴게음식 - 일반한식"},{"name":"이삭토스트 화정역점","tel":"031-968-0515","addr":"경기도 고양시 덕양구 화정로","category":"일반휴게음식 - 스넥"},{"name":"커피에반하다","tel":"031-969-8320","addr":"경기도 고양시 덕양구 화정로","category":"일반휴게음식 - 서양음식"}]},{"lat":"37.635386147","long":"126.83234226","items":[{"name":"메인코스","tel":"031-968-8883","addr":"경기도 고양시 덕양구 화정로","category":"보건위생 - 화장품"},{"name":"제이미용재료","tel":"031-967-7100","addr":"경기도 고양시 덕양구 화정로","category":"보건위생 - 미용재료"}]},{"lat":"37.633912173","long":"126.82865236","items":[{"name":"별빛슈퍼","tel":"031-971-6422","addr":"경기도 고양시 덕양구 화정로","category":"유통업 영리 - 슈퍼마켓"}]},{"lat":"37.634276511","long":"126.83134783","items":[{"name":"비쥬악세사리","tel":"031-974-9818","addr":"경기도 고양시 덕양구 화정로","category":"의류 - 내의판매"},{"name":"아이린","tel":"031-973-7937","addr":"경기도 고양시 덕양구 화정로","category":"의류 - 정장"},{"name":"카카샵","tel":"031-974-8172","addr":"경기도 고양시 덕양구 화정로","category":"의류 - 정장"}]},{"lat":"37.636715169","long":"126.82931425","items":[{"name":"아이지에이마트화정점","tel":"031-768-0708","addr":"경기도 고양시 덕양구 화정로","category":"유통업 영리 - 슈퍼마켓"},{"name":"튼튼영어마스터클럽화정탑학원","tel":"031-966-0585","addr":"경기도 고양시 덕양구 화정로","category":"회원제형태 - 서적"}]},{"lat":"37.63477577","long":"126.83392974","items":[{"name":"원스탑18","tel":"031-969-4486","addr":"경기도 고양시 덕양구 화정로","category":"회원제형태 - 기타4"}]}]