[{"lat":"37.223413511","long":"127.4517955","items":[{"name":"(사)이천나드리","tel":"031-636-2723","addr":"경기도 이천시 단월동 57-2번지 1층","category":"레저업소 - 기타레져업소"},{"name":"(사)이천농촌나드리","tel":"031-636-2724","addr":"경기도 이천시 단월동 57-2번지","category":"학원 - 기타 교육기관"}]},{"lat":"37.221555412","long":"127.4499367","items":[{"name":"rangra ( 란그레 )","tel":"","addr":"경기도 이천시 단월동 512-4번지 빨간집","category":"신변잡화 - 액세서리"},{"name":"길건강원","tel":"031-634-0397","addr":"경기도 이천시 단월동 512-4번지","category":"건강식품 - 기타건강식품"}]},{"lat":"37.224921692","long":"127.4508805","items":[{"name":"가온사무용가구","tel":"031-632-7789","addr":"경기도 이천시 단월동 356-5번지","category":"가구 - 기타가구"}]},{"lat":"37.22130313","long":"127.44993521","items":[{"name":"광성슈퍼","tel":"031-633-5829","addr":"경기도 이천시 단월동 509-4번지","category":"유통업 영리 - 슈퍼마켓"},{"name":"항아리영양탕","tel":"031-633-7205","addr":"경기도 이천시 단월동 509-4번지","category":"일반휴게음식 - 일반한식"}]},{"lat":"37.225282862","long":"127.45067982","items":[{"name":"단드레머리방","tel":"031-634-8396","addr":"경기도 이천시 단월동 356-3번지 외1필지 1층","category":"보건위생 - 미용원"},{"name":"신명전기","tel":"031-632-0204","addr":"경기도 이천시 단월동 356-3번지","category":"건축자재 - 조명기구"}]},{"lat":"37.224775381","long":"127.45382045","items":[{"name":"단드레산방","tel":"031-631-7708","addr":"경기도 이천시 단월동 131-1번지","category":"숙박업 - 여관/기타숙박업"}]},{"lat":"37.221310651","long":"127.45032959","items":[{"name":"단월식당","tel":"031-633-0425","addr":"경기도 이천시 단월동 540-6번지","category":"일반휴게음식 - 일반한식"},{"name":"하우스홀드","tel":"031-633-3342","addr":"경기도 이천시 단월동 540-6번지","category":"일반휴게음식 - 서양음식"}]},{"lat":"37.220220729","long":"127.45024429","items":[{"name":"단월원조중화요리","tel":"031-633-4260","addr":"경기도 이천시 단월동 551-2번지","category":"일반휴게음식 - 일식·회집"}]},{"lat":"37.221472875","long":"127.45031929","items":[{"name":"단월정육점,슈퍼","tel":"031-634-0426","addr":"경기도 이천시 단월동 537-4번지","category":"음료식품 - 정육점"}]},{"lat":"37.221943186","long":"127.44984885","items":[{"name":"동양상사","tel":"031-633-5866","addr":"경기도 이천시 단월동 513번지","category":"기타 - 기계공구"},{"name":"솜씨데코","tel":"031-637-9908","addr":"경기도 이천시 단월동 513번지 2층","category":"문화.취미 - 화원"}]},{"lat":"37.225359004","long":"127.45198731","items":[{"name":"마도종합상사 주식회사","tel":"031-631-5142","addr":"경기도 이천시 단월동 152-6번지 1동","category":"자동차정비 유지 - 윤활유 전문 판매"}]},{"lat":"37.223752979","long":"127.45018628","items":[{"name":"명품감자탕","tel":"031-633-5207","addr":"경기도 이천시 단월동 366-10번지","category":"일반휴게음식 - 일반한식"}]},{"lat":"37.231920569","long":"127.44905132","items":[{"name":"신남도정","tel":"031-634-6868","addr":"경기도 이천시 단월동 247-4번지","category":"일반휴게음식 - 일반한식"}]},{"lat":"37.231752516","long":"127.44821646","items":[{"name":"여명카센타","tel":"031-632-8404","addr":"경기도 이천시 단월동 244-8번지 9","category":"자동차정비 유지 - 자동차정비"}]},{"lat":"37.221274704","long":"127.45505024","items":[{"name":"영농조합법인단드레한과","tel":"031-633-5898","addr":"경기도 이천시 단월동 71-6번지","category":"음료식품 - 제과점"}]},{"lat":"37.220859934","long":"127.45038327","items":[{"name":"예연광고","tel":"031-638-1920","addr":"경기도 이천시 단월동 544-4번지","category":"용역 서비스 - 종합용역"},{"name":"예연전기,설비","tel":"031-638-1900","addr":"경기도 이천시 단월동 544-4 2/","category":"건축자재 - 조명기구"}]},{"lat":"37.224997646","long":"127.4498556","items":[{"name":"우림산업","tel":"031-634-1627","addr":"경기도 이천시 단월동 332-1번지","category":"건축자재 - 목재·석재·철물"}]},{"lat":"37.22347239","long":"127.45052264","items":[{"name":"원자동차공업사","tel":"031-631-3133","addr":"경기도 이천시 단월동 523-6번지","category":"자동차정비 유지 - 자동차정비"}]},{"lat":"37.213558865","long":"127.45110622","items":[{"name":"이마트24 이천단월점","tel":"031-111-1111","addr":"경기도 이천시 단월동 731번지","category":"유통업 영리 - 편 의 점"},{"name":"이마트24 이천단월점","tel":"","addr":"경기도 이천시 단월동 731번지","category":"유통업 영리 - 편 의 점"}]},{"lat":"37.227890391","long":"127.44973746","items":[{"name":"이송창호","tel":"031-631-2261","addr":"경기도 이천시 단월동 207번지","category":"건축자재 - 기타건축자재"}]},{"lat":"37.22730804","long":"127.45124392","items":[{"name":"이천단월초등학교","tel":"031-632-0750","addr":"경기도 이천시 단월동 182-3번지","category":"학원 - 초중고교육기관"},{"name":"이천단월초등학교[아이행복]","tel":"031-633-4089","addr":"경기도 이천시 단월동 182-3번지","category":"학원 - 유치원"}]},{"lat":"37.219781445","long":"127.44965582","items":[{"name":"이천양돈영농조합법인","tel":"031-635-9382","addr":"경기도 이천시 단월동 555-3번지","category":"음료식품 - 정육점"}]},{"lat":"37.229640682","long":"127.44912804","items":[{"name":"이천철물건재","tel":"031-631-6989","addr":"경기도 이천시 단월동 199번지","category":"기타 - 기계공구"}]},{"lat":"37.222805644","long":"127.4505187","items":[{"name":"주미전자","tel":"031-632-9425","addr":"경기도 이천시 단월동 522-9번지","category":"전기제품 - 냉열기기"}]},{"lat":"37.218224866","long":"127.44907205","items":[{"name":"태광농자재","tel":"031-633-8398","addr":"경기도 이천시 단월동 565-9번지","category":"농업 - 기타농업관련"}]},{"lat":"37.221059517","long":"127.4500239","items":[{"name":"페리카나(단월점)","tel":"031-634-4547","addr":"경기도 이천시 단월동 507-2번지","category":"일반휴게음식 - 일반한식"}]},{"lat":"37.220755597","long":"127.4493799","items":[{"name":"하은","tel":"031-633-7527","addr":"경기도 이천시 단월동 502-2","category":"문화.취미 - 민예·공예품"}]},{"lat":"37.21655732","long":"127.44924249","items":[{"name":"황룡한우전문가든","tel":"031-631-2092","addr":"경기도 이천시 단월동 576-10번지","category":"일반휴게음식 - 일반한식"},{"name":"황룡한우정육점","tel":"031-631-2092","addr":"경기도 이천시 단월동 576-10번지","category":"음료식품 - 정육점"}]}]