[{"lat":"37.266269543","long":"127.0162301","items":[{"name":"(주)그랜드여행사","tel":"031-232-1500","addr":"경기도 수원시 팔달구 매교동 185-3번지","category":"여행 - 관광여행"},{"name":"경기모타","tel":"031-232-8340","addr":"경기도 수원시 팔달구 매교동 185-3번지","category":"수리서비스 - 기타수리서비스"},{"name":"다원산업","tel":"031-657-4966","addr":"경기도 수원시 팔달구 매교동 185-3번지","category":"건축자재 - 기타건축자재"},{"name":"동아인테리어","tel":"031-221-8494","addr":"경기도 수원시 팔달구 매교동 185-3번지","category":"건축자재 - 인테리어전문"}]},{"lat":"37.271459248","long":"127.01805749","items":[{"name":"(주)백산","tel":"031-234-5252","addr":"경기도 수원시 팔달구 매교동 224-48번지","category":"자동차판매 - 이륜차판매"}]},{"lat":"37.269017727","long":"127.01581344","items":[{"name":"(주)부창","tel":"031-242-2619","addr":"경기도 수원시 팔달구 매교동 133-7번지 1층","category":"건축자재 - 페인트"}]},{"lat":"37.266017528","long":"127.01353564","items":[{"name":"(주)신보인터내셔널","tel":"031-224-8525","addr":"경기도 수원시 팔달구 매교동 112-11번지 2층","category":"신변잡화 - 귀금속"},{"name":"아름다운약속","tel":"031-257-6788","addr":"경기도 수원시 팔달구 매교동 112-11번지 1층","category":"회원제형태 - 기타4"}]},{"lat":"37.266657048","long":"127.01566648","items":[{"name":"(주)에스와이트레딩","tel":"031-296-1422","addr":"경기도 수원시 팔달구 매교동 161번지","category":"전기제품 - 기타전기제품"},{"name":"JSTECH","tel":"031-233-2120","addr":"경기도 수원시 팔달구 매교동 161번지 매교상가 A-161호","category":"기타 - 기타 전문점"},{"name":"걸스카우트","tel":"031-237-1048","addr":"경기도 수원시 팔달구 매교동 161번지 매교종합 상가 1층 135호","category":"의류 - 정장"},{"name":"늘푸른복지사회적협동조합","tel":"02-1234-1234","addr":"경기도 수원시 팔달구 매교동 161번지 매교종합상가 236호","category":"학원 - 기능학원"},{"name":"대명조립식벽돌","tel":"031-37-7745","addr":"경기도 수원시 팔달구 매교동 165-245번지 매교상가 A-245호","category":"기타 - 기타 전문점"},{"name":"동남통신","tel":"031-237-4664","addr":"경기도 수원시 팔달구 매교동 161번지","category":"사무통신 - 통신기기"},{"name":"동성공조","tel":"","addr":"경기도 수원시 팔달구 매교동 161번지","category":"용역 서비스 - 기타용역서비스"},{"name":"디씨정보통신기술","tel":"031-8013-1500","addr":"경기도 수원시 팔달구 매교동 161번지 매교종합상가 1동 248호","category":"사무통신 - 통신기기"},{"name":"매교사우나","tel":"031-224-2007","addr":"경기도 수원시 팔달구 매교동 161번지 매교종합상가 A동 지하1층","category":"보건위생 - 사우나"},{"name":"매교피부관리실","tel":"031-221-3118","addr":"경기도 수원시 팔달구 매교동 161번지 매교상가 152호","category":"회원제형태 - 기타4"},{"name":"반도교역","tel":"031-238-6125","addr":"경기도 수원시 팔달구 매교동 116번지 매교상가 A-246호","category":"사무통신 - 기타 사무용품"},{"name":"비티에스","tel":"031-233-4715","addr":"경기도 수원시 팔달구 매교동 161번지 매교상가 A-215호","category":"수리서비스 - 기타수리서비스"},{"name":"삼우전자","tel":"031-237-1868","addr":"경기도 수원시 팔달구 매교동 161번지 매교종합상가 104호","category":"용역 서비스 - 기타용역서비스"},{"name":"세븐미용상사","tel":"02-1111-1111","addr":"경기도 수원시 팔달구 매교동 161번지 매교상사 1동 166호","category":"보건위생 - 미용재료"},{"name":"센츄리냉열기","tel":"031-236-2177","addr":"경기도 수원시 팔달구 매교동 161 매교상가A-147","category":"전기제품 - 냉열기기"},{"name":"애드프린팅","tel":"031-222-7306","addr":"경기도 수원시 팔달구 매교동 161번지 매교상가 248호","category":"건축자재 - 인테리어전문"},{"name":"에이앤디모션","tel":"031-221-1280","addr":"경기도 수원시 팔달구 매교동 161번지 매교상가 A동 135호","category":"사무통신 - 기타 사무용품"},{"name":"엔와이컴퍼니","tel":"031-223-6595","addr":"경기도 수원시 팔달구 매교동 161번지 매교상가 1동 246호","category":"용역 서비스 - 종합용역"},{"name":"우리한복집","tel":"070-4922-1261","addr":"경기도 수원시 팔달구 매교동 161번지 매교종합상가 150호","category":"의류 - 맞춤복점"},{"name":"윈플랜","tel":"031-264-2870","addr":"경기도 수원시 팔달구 매교동 161번지 매교종합상가 1층 162호","category":"보건위생 - 의료용품"},{"name":"이지텍(EZTECH)","tel":"031-239-9275","addr":"경기도 수원시 팔달구 매교동 161번지 매교상가 122호","category":"기타 - 기타 전문점"},{"name":"제이앤씨글로벌","tel":"070-5022-4846","addr":"경기도 수원시 팔달구 매교동 161번지 매교종합상가 1동 122호","category":"전기제품 - 가전제품"},{"name":"주식회사에스엔","tel":"031-224-2007","addr":"경기도 수원시 팔달구 매교동 161번지 지하1층","category":"보건위생 - 사우나"},{"name":"진성생고기","tel":"031-238-3830","addr":"경기도 수원시 팔달구 매교동 161번지 매교상가 103호","category":"일반휴게음식 - 일반한식"},{"name":"티와이개발 주식회사","tel":"","addr":"경기도 수원시 팔달구 매교동 161번지 매교종합상가 1동 252호","category":"용역 서비스 - 종합용역"},{"name":"프랑스안경","tel":"031-236-3732","addr":"경기도 수원시 팔달구 매교동 161번지 매교상가 1층 159호","category":"보건위생 - 안경"},{"name":"허바기스토리","tel":"031-223-0202","addr":"경기도 수원시 팔달구 매교동 161번지 매교종합상가 1동 132호","category":"전기제품 - 가전제품"}]},{"lat":"37.269927791","long":"127.01558811","items":[{"name":"(주)지금","tel":"031-223-0331","addr":"경기도 수원시 팔달구 매교동 28-21번지 1층","category":"건축자재 - 부동산 분양"}]},{"lat":"37.26620656","long":"127.01541838","items":[{"name":"1번가","tel":"031-244-2127","addr":"경기도 수원시 팔달구 매교동 161-3번지","category":"레저업소 - 노 래 방"},{"name":"쉘터(Shelter)","tel":"031-237-9477","addr":"경기도 수원시 팔달구 매교동 161-3번지 매교상가 B동 101호","category":"일반휴게음식 - 일반한식"},{"name":"아모레 카운셀러","tel":"031-242-4285","addr":"경기도 수원시 팔달구 매교동 161-3번지 매교상가 B동 206호","category":"보건위생 - 화장품"},{"name":"아모레 카운셀러","tel":"031-242-4285","addr":"경기도 수원시 팔달구 매교동 161-3번지 매교상가 B동 206호","category":"보건위생 - 화장품"},{"name":"아모레 카운셀러","tel":"031-242-4285","addr":"경기도 수원시 팔달구 매교동 161-3번지 매교상가 B동 206호","category":"보건위생 - 화장품"},{"name":"아모레 카운셀러","tel":"031-242-4285","addr":"경기도 수원시 팔달구 매교동 161-3번지 B동 206호","category":"보건위생 - 화장품"},{"name":"아모레 카운셀러","tel":"031-242-4285","addr":"경기도 수원시 팔달구 매교동 161-3번지 B동 206호","category":"보건위생 - 화장품"},{"name":"아모레 카운셀러","tel":"031-242-4285","addr":"경기도 수원시 팔달구 매교동 161-3번지 B동 206호","category":"보건위생 - 화장품"},{"name":"아모레 카운셀러","tel":"031-242-4285","addr":"경기도 수원시 팔달구 매교동 161-3번지 매교상가 B동 206호","category":"보건위생 - 화장품"},{"name":"아모레 카운셀러","tel":"031-242-4285","addr":"경기도 수원시 팔달구 매교동 161-3번지 B동 206호","category":"보건위생 - 화장품"},{"name":"아모레 카운셀러","tel":"031-242-4285","addr":"경기도 수원시 팔달구 매교동 161-3번지 B동 206호","category":"보건위생 - 화장품"},{"name":"아모레 카운셀러","tel":"031-242-4285","addr":"경기도 수원시 팔달구 매교동 161-3번지 매교상가 B동 206호","category":"보건위생 - 화장품"},{"name":"아모레 카운셀러","tel":"031-242-4285","addr":"경기도 수원시 팔달구 매교동 161-3번지 매교상가 B동 206호","category":"보건위생 - 화장품"},{"name":"아모레 카운셀러","tel":"031-242-4285","addr":"경기도 수원시 팔달구 매교동 161-3번지 B동 206호","category":"보건위생 - 화장품"},{"name":"아모레 카운셀러","tel":"031-242-4285","addr":"경기도 수원시 팔달구 매교동 161-3번지 배교상가 B동 206호","category":"보건위생 - 화장품"},{"name":"아모레 카운셀러","tel":"031-242-4285","addr":"경기도 수원시 팔달구 매교동 161-3번지 매교상가 B동 206호","category":"보건위생 - 화장품"},{"name":"아모레 카운셀러","tel":"031-242-4285","addr":"경기도 수원시 팔달구 매교동 161-3번지 B동 206호","category":"보건위생 - 화장품"},{"name":"아모레 카운셀러","tel":"031-242-4285","addr":"경기도 수원시 팔달구 매교동 161-3번지 B동 206호","category":"보건위생 - 화장품"},{"name":"아모레 카운셀러","tel":"031-242-4285","addr":"경기도 수원시 팔달구 매교동 161-3번지 매교상가 B동 206호","category":"보건위생 - 화장품"},{"name":"아모레 카운셀러","tel":"031-242-4285","addr":"경기도 수원시 팔달구 매교동 161-3번지 매교상가 B동 206호","category":"보건위생 - 화장품"},{"name":"아모레 카운셀러","tel":"031-996-3352","addr":"경기도 수원시 팔달구 매교동 161-3번지 매교3가 B동 2층","category":"보건위생 - 화장품"},{"name":"아모레 카운셀러","tel":"031-242-4285","addr":"경기도 수원시 팔달구 매교동 161-3번지 B동 2층 206호","category":"보건위생 - 화장품"},{"name":"아모레 카운셀러","tel":"031-242-4285","addr":"경기도 수원시 팔달구 매교동 161-3번지 B동 2층 6호","category":"보건위생 - 화장품"},{"name":"아모레외판","tel":"031-242-4286","addr":"경기도 수원시 팔달구 매교동 161-3 매교상가B동2층6호","category":"보건위생 - 화장품"},{"name":"아모레외판","tel":"031-242-4285","addr":"경기도 수원시 팔달구 매교동 161-3번지 매교상가 2층 B-6호","category":"보건위생 - 화장품"},{"name":"아모레외판","tel":"031-258-6809","addr":"경기도 수원시 팔달구 매교동 161-3번지 매교상가 B-206호","category":"보건위생 - 화장품"},{"name":"아모레외판","tel":"031-242-4285","addr":"경기도 수원시 팔달구 매교동 161-3 매교상가B동2층6호","category":"보건위생 - 화장품"},{"name":"아모레외판원","tel":"031-242-4286","addr":"경기도 수원시 팔달구 매교동 161-3번지 매교빌딩 B동 2층6호","category":"보건위생 - 화장품"},{"name":"아모레카운셀러","tel":"031-242-4285","addr":"경기도 수원시 팔달구 매교동 161-3번지 매교상가 B동 206호","category":"보건위생 - 화장품"},{"name":"아모레카운셀러","tel":"031-242-4285","addr":"경기도 수원시 팔달구 매교동 161-3번지 B동 2층 206호","category":"보건위생 - 화장품"},{"name":"아모레카운셀러","tel":"031-242-4285","addr":"경기도 수원시 팔달구 매교동 161-3번지 B동 2층 6호","category":"보건위생 - 화장품"},{"name":"아모레카운셀러","tel":"031-242-4285","addr":"경기도 수원시 팔달구 매교동 161-3번지 매교상가B B동 2층 6호","category":"보건위생 - 화장품"},{"name":"아모레카운셀러","tel":"031-242-4285","addr":"경기도 수원시 팔달구 매교동 161-3번지 매교상가 B동 206호","category":"보건위생 - 화장품"},{"name":"아모레카운셀러","tel":"031-242-4285","addr":"경기도 수원시 팔달구 매교동 161-3번지 매교상가 B동 206호","category":"보건위생 - 화장품"},{"name":"아모레카운셀러","tel":"031-242-4285","addr":"경기도 수원시 팔달구 매교동 161-3번지 206호","category":"보건위생 - 화장품"},{"name":"아모레카운셀러","tel":"031-242-4285","addr":"경기도 수원시 팔달구 매교동 161-3번지 206호","category":"보건위생 - 화장품"},{"name":"아모레카운셀러","tel":"031-242-4285","addr":"경기도 수원시 팔달구 매교동 161-3번지 매교상가 B동 206호","category":"보건위생 - 화장품"},{"name":"아모레카운셀러","tel":"031-242-4285","addr":"경기도 수원시 팔달구 매교동 161-3번지 B동 206호","category":"보건위생 - 화장품"},{"name":"아모레카운셀러","tel":"031-242-4285","addr":"경기도 수원시 팔달구 매교동 161-3번지 B동 206호","category":"보건위생 - 화장품"},{"name":"아모레카운셀러","tel":"031-242-4285","addr":"경기도 수원시 팔달구 매교동 161-3번지 매교상가 B동 206호","category":"보건위생 - 화장품"},{"name":"아모레카운셀러","tel":"031-242-4285","addr":"경기도 수원시 팔달구 매교동 161-3번지 매교상사 B동 206호","category":"보건위생 - 화장품"},{"name":"아모레카운셀러","tel":"031-242-4285","addr":"경기도 수원시 팔달구 매교동 161-3번지 매교상가 B동 206호","category":"보건위생 - 화장품"},{"name":"아모레카운셀러","tel":"031-242-4285","addr":"경기도 수원시 팔달구 매교동 161-3매교상가B동2층6호B","category":"보건위생 - 화장품"},{"name":"아모레카운셀러","tel":"031-242-4285","addr":"경기도 수원시 팔달구 매교동 161-3 매교상가B동2층6호","category":"보건위생 - 화장품"},{"name":"아모레카운셀러","tel":"031-243-8473","addr":"경기도 수원시 팔달구 매교동 161-3번지 매교상가 B동 206호","category":"보건위생 - 화장품"},{"name":"아모레카운셀러","tel":"031-242-4285","addr":"경기도 수원시 팔달구 매교동 161-3번지 매교상가 B-206호","category":"보건위생 - 화장품"},{"name":"아모레카운셀러","tel":"031-242-4285","addr":"경기도 수원시 팔달구 매교동 161-3 매교상가 B동 2층 6호","category":"보건위생 - 화장품"},{"name":"아모레카운셀러","tel":"031-242-4285","addr":"경기도 수원시 팔달구 매교동 161-3번지 B동 206호","category":"보건위생 - 화장품"},{"name":"아모레카운셀러","tel":"031-242-4285","addr":"경기도 수원시 팔달구 매교동 161-3번지 매교상가 B동 206호","category":"보건위생 - 화장품"},{"name":"아모레카운셀러","tel":"031-242-4285","addr":"경기도 수원시 팔달구 매교동 161-3번지 매교상가 B동 206호","category":"보건위생 - 화장품"},{"name":"아모레카운셀러","tel":"031-242-4285","addr":"경기도 수원시 팔달구 매교동 161-3번지 매교상가 B동 206호","category":"보건위생 - 화장품"},{"name":"아모레카운셀러","tel":"031-242-4285","addr":"경기도 수원시 팔달구 매교동 161-3번지 매교상가 B동 206호","category":"보건위생 - 화장품"},{"name":"아모레카운셀러","tel":"031-242-4285","addr":"경기도 수원시 팔달구 매교동 161-3번지 B동 206호","category":"보건위생 - 화장품"},{"name":"아모레카운셀러","tel":"031-242-4285","addr":"경기도 수원시 팔달구 매교동 161-3번지 B동 206호","category":"보건위생 - 화장품"},{"name":"아모레카운셀러","tel":"031-242-4285","addr":"경기도 수원시 팔달구 매교동 161-3 매교상가B동2층6호","category":"보건위생 - 화장품"},{"name":"아모레카운셀러","tel":"031-242-4285","addr":"경기도 수원시 팔달구 매교동 161-3 매교상가B동2층6호","category":"보건위생 - 화장품"},{"name":"아모레카운셀러","tel":"031-242-4285","addr":"경기도 수원시 팔달구 매교동 161-3번지 매교상가 B동 206호","category":"보건위생 - 화장품"},{"name":"아모레카운셀러","tel":"031-242-4285","addr":"경기도 수원시 팔달구 매교동 161-3번지 B동 2층 6호","category":"보건위생 - 화장품"},{"name":"아모레카운셀러","tel":"031-242-4285","addr":"경기도 수원시 팔달구 매교동 161-3번지 B동 206호","category":"보건위생 - 화장품"},{"name":"아모레카운셀러","tel":"031-242-4285","addr":"경기도 수원시 팔달구 매교동 161-3번지 B동 206호","category":"보건위생 - 화장품"},{"name":"아모레카운셀러","tel":"031-242-4285","addr":"경기도 수원시 팔달구 매교동 161-3번지 206호","category":"보건위생 - 화장품"},{"name":"아모레카운셀러","tel":"031-242-4285","addr":"경기도 수원시 팔달구 매교동 161-3번지 매교상가 B동 206호","category":"보건위생 - 화장품"},{"name":"아모레카운셀러","tel":"031-242-4285","addr":"경기도 수원시 팔달구 매교동 161-3번지 B동 206호","category":"보건위생 - 화장품"},{"name":"아모레카운셀러","tel":"031-242-4286","addr":"경기도 수원시 팔달구 매교동 161-3매교상가B동2층6","category":"보건위생 - 화장품"},{"name":"아모레카운셀러","tel":"031-242-4286","addr":"경기도 수원시 팔달구 매교동 161-3 매교상가B동2층6호","category":"보건위생 - 화장품"},{"name":"아모레카운셀러","tel":"031-242-4286","addr":"경기도 수원시 팔달구 매교동 161-3 매교상가B동2층6호","category":"보건위생 - 화장품"},{"name":"아모레카운셀러","tel":"031-242-4286","addr":"경기도 수원시 팔달구 매교동 161-3번지 매교상가2층 6","category":"보건위생 - 화장품"},{"name":"아모레카운셀러","tel":"031-242-4285","addr":"경기도 수원시 팔달구 매교동 161-3번지 매교상가 B동 2층 6","category":"보건위생 - 화장품"},{"name":"아모레카운셀러","tel":"031-242-4286","addr":"경기도 수원시 팔달구 매교동 161-3매교상가b동2층6호","category":"보건위생 - 화장품"},{"name":"아모레카운셀러","tel":"031-242-4285","addr":"경기도 수원시 팔달구 매교동 161-3 매교상가비동2층6","category":"보건위생 - 화장품"},{"name":"아모레카운셀러","tel":"031-242-4285","addr":"경기도 수원시 팔달구 매교동 161-3번지 매교상가 B-206호","category":"보건위생 - 화장품"},{"name":"아모레카운셀러","tel":"031-242-4285","addr":"경기도 수원시 팔달구 매교동 161-3 매교상가B동2층6호","category":"보건위생 - 화장품"},{"name":"아모레카운셀러","tel":"031-242-4285","addr":"경기도 수원시 팔달구 매교동 161-3 매교빌딩B동2층6호","category":"보건위생 - 화장품"},{"name":"아모레카운셀러","tel":"031-242-4285","addr":"경기도 수원시 팔달구 매교동 161-3 매교상가 B동 2층 6","category":"보건위생 - 화장품"},{"name":"아모레카운셀러","tel":"031-242-4285","addr":"경기도 수원시 팔달구 매교동 161-3 매교상가B동2층6호","category":"보건위생 - 화장품"},{"name":"아모레카운셀러","tel":"031-242-4285","addr":"경기도 수원시 팔달구 매교동 161-3 매교상가B동2층6호","category":"보건위생 - 화장품"},{"name":"아모레카운셀러","tel":"031-242-4285","addr":"경기도 수원시 팔달구 매교동 161-3 매교상가B동2층6호","category":"보건위생 - 화장품"},{"name":"아모레카운셀러","tel":"031-242-4285","addr":"경기도 수원시 팔달구 매교동 161-3번지 매교상가 B-206호","category":"보건위생 - 화장품"},{"name":"아모레카운셀러","tel":"031-242-4286","addr":"경기도 수원시 팔달구 매교동 161-3번지 매교상가 2층 B-6호","category":"보건위생 - 화장품"},{"name":"아모레카운셀러","tel":"031-242-4286","addr":"경기도 수원시 팔달구 매교동 161-3 매교상가B동2층6호","category":"보건위생 - 화장품"},{"name":"아모레카운셀러","tel":"031-242-4286","addr":"경기도 수원시 팔달구 매교동 161-3 매교상가B동2층6호","category":"보건위생 - 화장품"},{"name":"아모레카운셀러","tel":"031-242-4286","addr":"경기도 수원시 팔달구 매교동 161-3,2층비-6","category":"보건위생 - 화장품"},{"name":"아모레카운셀러","tel":"031-242-4286","addr":"경기도 수원시 팔달구 매교동 161-3매교상가b동 2층6호","category":"보건위생 - 화장품"},{"name":"아모레카운셀러","tel":"031-242-4286","addr":"경기도 수원시 팔달구 매교동 616-3매교상가B동 2층6호","category":"보건위생 - 화장품"},{"name":"아모레카운셀러","tel":"031-242-4286","addr":"경기도 수원시 팔달구 매교동 161-3번지 매교상가 2층 B-6호","category":"보건위생 - 화장품"},{"name":"아모레카운셀러","tel":"031-242-4285","addr":"경기도 수원시 팔달구 매교동 161-3번지 206호","category":"보건위생 - 화장품"},{"name":"아모레카운셀러","tel":"031-242-4285","addr":"경기도 수원시 팔달구 매교동 161-3번지 B동 206호","category":"보건위생 - 화장품"},{"name":"아모레카운셀러","tel":"031-242-4285","addr":"경기도 수원시 팔달구 매교동 161-3번지 B동 206호","category":"보건위생 - 화장품"},{"name":"아모레카운셀러","tel":"031-242-4285","addr":"경기도 수원시 팔달구 매교동 161-3번지","category":"보건위생 - 화장품"},{"name":"아모레카운셀러","tel":"031-242-4285","addr":"경기도 수원시 팔달구 매교동 161-3번지 매교상가 B동 2층 6호","category":"보건위생 - 화장품"},{"name":"아모레카운셀러","tel":"031-242-4285","addr":"경기도 수원시 팔달구 매교동 161-3번지 매교상가 B동 206호","category":"보건위생 - 화장품"},{"name":"아모레카운셀러","tel":"031-242-4285","addr":"경기도 수원시 팔달구 매교동 161-3번지 B동 206호","category":"보건위생 - 화장품"},{"name":"아모레카운셀러","tel":"031-242-4285","addr":"경기도 수원시 팔달구 매교동 161-3 매교상가B동2층6호","category":"보건위생 - 화장품"},{"name":"아모레카운셀러","tel":"031-242-4285","addr":"경기도 수원시 팔달구 매교동 161-3 매교상가B동2층6호","category":"보건위생 - 화장품"},{"name":"아모레카운셀러","tel":"031-242-4285","addr":"경기도 수원시 팔달구 매교동 161-3번지 매교상가 B-6호","category":"보건위생 - 화장품"},{"name":"아모레카운셀러","tel":"031-242-4285","addr":"경기도 수원시 팔달구 매교동 161-3번지 매교상가 B동 206호","category":"보건위생 - 화장품"},{"name":"아모레카운셀러","tel":"031-242-4285","addr":"경기도 수원시 팔달구 매교동 161-3번지 매교상가 B동 206호","category":"보건위생 - 화장품"},{"name":"아모레카운셀러","tel":"031-242-4285","addr":"경기도 수원시 팔달구 매교동 161-3번지 매교상가 B동 206호","category":"보건위생 - 화장품"},{"name":"아모레카운셀러","tel":"031-242-4285","addr":"경기도 수원시 팔달구 매교동 161-3번지 매교상가 B동 2층 6호","category":"보건위생 - 화장품"},{"name":"아모레카운셀러","tel":"031-242-4285","addr":"경기도 수원시 팔달구 매교동 161-3번지 매교상가 B동 206호","category":"보건위생 - 화장품"},{"name":"아모레카운셀러","tel":"031-242-4285","addr":"경기도 수원시 팔달구 매교동 161-3번지 매교상가 B동 206호","category":"보건위생 - 화장품"},{"name":"아모레카운셀러","tel":"031-242-4285","addr":"경기도 수원시 팔달구 매교동 161-3번지 매교상가 B동 206호","category":"보건위생 - 화장품"},{"name":"아모레카운셀러","tel":"031-242-4285","addr":"경기도 수원시 팔달구 매교동 161-3번지 매교상가 B동 206호","category":"보건위생 - 화장품"},{"name":"아모레카운셀러","tel":"031-242-4285","addr":"경기도 수원시 팔달구 매교동 161-3번지 매교상가 B동 206호","category":"보건위생 - 화장품"},{"name":"아모레카운셀러","tel":"031-242-4285","addr":"경기도 수원시 팔달구 매교동 161-3번지 매교상가 B동 2층 6호","category":"보건위생 - 화장품"},{"name":"아모레카운셀러","tel":"031-242-4285","addr":"경기도 수원시 팔달구 매교동 161-3번지 매교상가 B- 206호 2층","category":"보건위생 - 화장품"},{"name":"아모레카운셀러","tel":"031-242-4285","addr":"경기도 수원시 팔달구 매교동 161-3번지 매교상가 B동 2층 206호","category":"보건위생 - 화장품"},{"name":"아모레카운셀러","tel":"031-242-4285","addr":"경기도 수원시 팔달구 매교동 161-3번지","category":"보건위생 - 화장품"},{"name":"아모레카운셀러","tel":"031-242-4285","addr":"경기도 수원시 팔달구 매교동 161-3번지 B동 206호","category":"보건위생 - 화장품"},{"name":"아모레카운셀러","tel":"031-242-4285","addr":"경기도 수원시 팔달구 매교동 161-3번지 매교상가B동2층6호","category":"보건위생 - 화장품"},{"name":"아모레카운셀러","tel":"031-242-4285","addr":"경기도 수원시 팔달구 매교동 161-3번지 매교상가 B동 2층 6호","category":"보건위생 - 화장품"},{"name":"아모레카운셀러","tel":"031-242-4285","addr":"경기도 수원시 팔달구 매교동 161-3번지 매교상가 B동 206호","category":"보건위생 - 화장품"},{"name":"아모레카운셀러","tel":"031-242-4285","addr":"경기도 수원시 팔달구 매교동 161-3번지","category":"보건위생 - 화장품"},{"name":"아모레카운셀러","tel":"031-242-4285","addr":"경기도 수원시 팔달구 매교동 161-3번지 매교상가B동 206호","category":"보건위생 - 화장품"},{"name":"아모레카운셀러","tel":"031-242-4285","addr":"경기도 수원시 팔달구 매교동 161-3번지 매교상가 B동 206호","category":"보건위생 - 화장품"},{"name":"아모레카운셀러","tel":"031-242-4285","addr":"경기도 수원시 팔달구 매교동 161-3번지 B동 206호","category":"보건위생 - 화장품"},{"name":"아모레카운셀러","tel":"031-242-4285","addr":"경기도 수원시 팔달구 매교동 161-3번지 매교상가 B동 206호","category":"보건위생 - 화장품"},{"name":"아모레카운셀러","tel":"031-242-4285","addr":"경기도 수원시 팔달구 매교동 161-3번지 B동 206호","category":"보건위생 - 화장품"},{"name":"아모레카운셀러","tel":"031-242-4285","addr":"경기도 수원시 팔달구 매교동 161-3번지 매교상가 B동 206호","category":"보건위생 - 화장품"},{"name":"아모레카운셀러","tel":"031-242-4285","addr":"경기도 수원시 팔달구 매교동 161-3번지 매교상가 B동","category":"보건위생 - 화장품"},{"name":"아모레카운셀러","tel":"031-242-4285","addr":"경기도 수원시 팔달구 매교동 161-3번지 매교상가 B동 206호","category":"보건위생 - 화장품"},{"name":"아모레카운셀러","tel":"031-242-4285","addr":"경기도 수원시 팔달구 매교동 161-3번지 매교상가 B동 206호","category":"보건위생 - 화장품"},{"name":"아모레카운셀러","tel":"031-242-4285","addr":"경기도 수원시 팔달구 매교동 161-3번지 매교상가B동206호","category":"보건위생 - 화장품"},{"name":"아모레카운셀러","tel":"031-242-4285","addr":"경기도 수원시 팔달구 매교동 161-3번지 B동 206호","category":"보건위생 - 화장품"},{"name":"엔이씨샤프수원서비스센타","tel":"031-233-6626","addr":"경기도 수원시 팔달구 매교동 161-3번지 매교상가 2동 203호","category":"수리서비스 - 가정용품수리"},{"name":"전국도민일보경기분실","tel":"031-234-9515","addr":"경기도 수원시 팔달구 매교동 161-3번지","category":"용역 서비스 - 종합용역"},{"name":"춘하추동 전골마을","tel":"031-235-9700","addr":"경기도 수원시 팔달구 매교동 161-3번지 B동 102호","category":"일반휴게음식 - 일반한식"},{"name":"태광수원써비스쎈타","tel":"031-223-9006","addr":"경기도 수원시 팔달구 매교동 161-3번지 매교상가 B-306호","category":"수리서비스 - 가정용품수리"},{"name":"태평양유통","tel":"031-242-4285","addr":"경기도 수원시 팔달구 매교동 161-3 매교상가B동2층6","category":"보건위생 - 화장품"},{"name":"하은정보통신","tel":"070-4404-8959","addr":"경기도 수원시 팔달구 매교동 161-3번지 236호","category":"사무통신 - 통신기기"}]},{"lat":"37.268792578","long":"127.01478746","items":[{"name":"25시음식점","tel":"031-234-9060","addr":"경기도 수원시 팔달구 매교동 83-2","category":"일반휴게음식 - 일반한식"},{"name":"떳다돼지마을","tel":"031-224-9588","addr":"경기도 수원시 팔달구 매교동 83-2번지","category":"일반휴게음식 - 일반한식"},{"name":"라이코스","tel":"031-233-2654","addr":"경기도 수원시 팔달구 매교동 83-2번지","category":"일반휴게음식 - 주점"},{"name":"오다가다한잔","tel":"031-239-3040","addr":"경기도 수원시 팔달구 매교동 83-2번지 1층","category":"일반휴게음식 - 주점"},{"name":"하하","tel":"031-239-2351","addr":"경기도 수원시 팔달구 매교동 83-2번지 지하층","category":"레저업소 - 노 래 방"}]},{"lat":"37.264629799","long":"127.01503482","items":[{"name":"GL상사(주)","tel":"031-239-9466","addr":"경기도 수원시 팔달구 매교동 170-5번지","category":"기타 - 기타 전문점"}]},{"lat":"37.264711013","long":"127.01378347","items":[{"name":"GS25매교유천점","tel":"","addr":"경기도 수원시 팔달구 매교동 269-5번지 1층","category":"유통업 영리 - 편 의 점"}]},{"lat":"37.268233926","long":"127.01492266","items":[{"name":"GS25수원대양점","tel":"","addr":"경기도 수원시 팔달구 매교동 122-9번지","category":"유통업 영리 - 편 의 점"},{"name":"매교당구장","tel":"","addr":"경기도 수원시 팔달구 매교동 122-9번지 2층","category":"레저업소 - 당 구 장"},{"name":"중앙닭집","tel":"031-235-8400","addr":"경기도 수원시 팔달구 매교동 122-9번지 1층","category":"일반휴게음식 - 일반한식"},{"name":"포유25대양점","tel":"031-233-6080","addr":"경기도 수원시 팔달구 매교동 122-9번지","category":"유통업 영리 - 슈퍼마켓"}]},{"lat":"37.266513169","long":"127.01266763","items":[{"name":"LIN광고","tel":"050-5745-6889","addr":"경기도 수원시 팔달구 매교동 111-61번지 1층","category":"건축자재 - 인테리어전문"}]},{"lat":"37.264819106","long":"127.01411042","items":[{"name":"VIP출장세차","tel":"031-241-8278","addr":"경기도 수원시 팔달구 매교동 169-7번지 1층","category":"자동차정비 유지 - 세차장"},{"name":"금모래미용실","tel":"031-224-3887","addr":"경기도 수원시 팔달구 매교동 169-7번지 1층","category":"보건위생 - 미용원"},{"name":"델리킹치킨","tel":"031-239-9929","addr":"경기도 수원시 팔달구 매교동 169-7번지","category":"일반휴게음식 - 주점"}]},{"lat":"37.264683684","long":"127.01664694","items":[{"name":"가락수산","tel":"031-111-1111","addr":"경기도 수원시 팔달구 매교동 175-4번지","category":"음료식품 - 농·축·수산품"}]},{"lat":"37.269296956","long":"127.01661396","items":[{"name":"개미산업(건설)","tel":"031-221-1124","addr":"경기도 수원시 팔달구 매교동 146-6번지 금성빌딩 1층","category":"건축자재 - 인테리어전문"}]},{"lat":"37.266152719","long":"127.01311853","items":[{"name":"경기소프트","tel":"031-239-9741","addr":"경기도 수원시 팔달구 매교동 111-21번지","category":"사무통신 - 컴퓨터"},{"name":"부성상사","tel":"031-247-4928","addr":"경기도 수원시 팔달구 매교동 111-21번지","category":"건축자재 - 페인트"}]},{"lat":"37.266206798","long":"127.01291561","items":[{"name":"경기수원지역자활센터","tel":"031-232-0179","addr":"경기도 수원시 팔달구 매교동 111-59번지 대영빌딩 3층","category":"자동차정비 유지 - 세차장"},{"name":"경기수원지역자활센터","tel":"031-232-0179","addr":"경기도 수원시 팔달구 매교동 111-59번지 대영빌딩 3층","category":"문화.취미 - 민예·공예품"},{"name":"경기수원지역자활센터","tel":"031-223-0179","addr":"경기도 수원시 팔달구 매교동 111-59번지 대영빌딩 3층","category":"문화.취미 - 화원"},{"name":"신세기학원","tel":"031-225-0505","addr":"경기도 수원시 팔달구 매교동 111-59번지 대영빌딩 4층","category":"학원 - 보습학원"}]},{"lat":"37.269927593","long":"127.01731308","items":[{"name":"경성계전","tel":"031-239-4171","addr":"경기도 수원시 팔달구 매교동 141-1번지","category":"전기제품 - 기타전기제품"}]},{"lat":"37.265846133","long":"127.01556488","items":[{"name":"경인카센타","tel":"031-236-7751","addr":"경기도 수원시 팔달구 매교동 161-5번지","category":"자동차정비 유지 - 자동차정비"},{"name":"드림CTA","tel":"031-221-1565","addr":"경기도 수원시 팔달구 매교동 161-5번지 102호","category":"사무통신 - 통신기기"},{"name":"소망아울렛DC마트","tel":"031-214-8885","addr":"경기도 수원시 팔달구 매교동 161-5번지 101호","category":"신변잡화 - 기타잡화"}]},{"lat":"37.270206735","long":"127.01869988","items":[{"name":"경일상사","tel":"031-236-2509","addr":"경기도 수원시 팔달구 매교동 240-15,1층4","category":"기타 - 기계공구"}]},{"lat":"37.270324036","long":"127.01739208","items":[{"name":"계양엔진공구","tel":"031-225-0989","addr":"경기도 수원시 팔달구 매교동 140-1번지","category":"기타 - 기계공구"}]},{"lat":"37.264764643","long":"127.01775176","items":[{"name":"고개마트","tel":"031-235-6570","addr":"경기도 수원시 팔달구 매교동 177-6번지","category":"유통업 영리 - 슈퍼마켓"}]},{"lat":"37.270792641","long":"127.0168059","items":[{"name":"골든세라텍기공소","tel":"031-892-8328","addr":"경기도 수원시 팔달구 매교동 51-2번지 2층","category":"보건위생 - 의료용품"},{"name":"새동신건강원","tel":"031-256-8544","addr":"경기도 수원시 팔달구 매교동 51-2번지 1층","category":"건강식품 - 기타건강식품"}]},{"lat":"37.271540549","long":"127.0163325","items":[{"name":"골목식당","tel":"031-239-3575","addr":"경기도 수원시 팔달구 매교동 25-2번지","category":"일반휴게음식 - 일반한식"},{"name":"백선암","tel":"070-5738-1364","addr":"경기도 수원시 팔달구 매교동 25-2번지 2,3호","category":"보건위생 - 기타대인서비스"}]},{"lat":"37.268900517","long":"127.01650115","items":[{"name":"광신스롯타","tel":"031-256-1780","addr":"경기도 수원시 팔달구 매교동 153-2번지","category":"기타 - 기계공구"}]},{"lat":"37.264044166","long":"127.01467398","items":[{"name":"구인당약국","tel":"031-237-1638","addr":"경기도 수원시 팔달구 매교동 171-3번지","category":"약국 - 약국"},{"name":"주식회사거산유통","tel":"031-254-2540","addr":"경기도 수원시 팔달구 매교동 171-3번지 1층","category":"사무통신 - 컴퓨터"}]},{"lat":"37.265044096","long":"127.01664701","items":[{"name":"국현우리옷","tel":"031-232-1406","addr":"경기도 수원시 팔달구 매교동 175-22번지 1층 2층","category":"의류 - 맞춤복점"}]},{"lat":"37.271955029","long":"127.0162762","items":[{"name":"궁한복백화점","tel":"031-231-8800","addr":"경기도 수원시 팔달구 매교동 4-1번지","category":"의류 - 맞춤복점"},{"name":"금족","tel":"031-223-9450","addr":"경기도 수원시 팔달구 매교동 4-1번지 4층","category":"보건위생 - 피부미용실"},{"name":"이단옆차기실용음악학원","tel":"031-234-1590","addr":"경기도 수원시 팔달구 매교동 4-1번지 일부 5층","category":"학원 - 예·체능계학원"},{"name":"휴대폰마트","tel":"070-8279-2323","addr":"경기도 수원시 팔달구 매교동 4-1번지 1층","category":"사무통신 - 통신기기"}]},{"lat":"37.265909184","long":"127.01575654","items":[{"name":"권영애치과의원","tel":"031-226-2875","addr":"경기도 수원시 팔달구 매교동 161-8결혼회관별관204","category":"의원 - 치과의원"}]},{"lat":"37.264575312","long":"127.01864233","items":[{"name":"그림방","tel":"031-314-8068","addr":"경기도 수원시 팔달구 매교동 253-27번지","category":"문화.취미 - 화방·표구점"}]},{"lat":"37.270513345","long":"127.01661418","items":[{"name":"금강기전","tel":"031-234-8192","addr":"경기도 수원시 팔달구 매교동 55-2번지","category":"건축자재 - 조명기구"}]},{"lat":"37.270152831","long":"127.01747096","items":[{"name":"금강유리샷시","tel":"031-245-3252","addr":"경기도 수원시 팔달구 매교동 140-5 외1필지","category":"건축자재 - 보일러·펌프·샷시"}]},{"lat":"37.270990854","long":"127.01691868","items":[{"name":"나라기계공구","tel":"031-221-0940","addr":"경기도 수원시 팔달구 매교동 50-1번지","category":"기타 - 기계공구"},{"name":"삼일상사","tel":"031-232-3153","addr":"경기도 수원시 팔달구 매교동 50-1번지","category":"기타 - 기타 전문점"},{"name":"일화종합전기","tel":"031-223-0990","addr":"경기도 수원시 팔달구 매교동 50-1번지","category":"전기제품 - 기타전기제품"}]},{"lat":"37.264512671","long":"127.01497843","items":[{"name":"나라연","tel":"031-232-4949","addr":"경기도 수원시 팔달구 매교동 167-47번지","category":"용역 서비스 - 종합용역"}]},{"lat":"37.26590025","long":"127.01503502","items":[{"name":"나우시스템","tel":"031-223-6272","addr":"경기도 수원시 팔달구 매교동 164-1번지 매교상가 140호","category":"사무통신 - 컴퓨터"},{"name":"황득희 빌리아드클럽","tel":"031-224-3949","addr":"경기도 수원시 팔달구 매교동 164-1번지 지하1층","category":"레저업소 - 당 구 장"}]},{"lat":"37.269927717","long":"127.0162533","items":[{"name":"남창떡방앗간","tel":"031-233-9017","addr":"경기도 수원시 팔달구 매교동 56-6","category":"음료식품 - 제과점"},{"name":"청일식품","tel":"031-296-7661","addr":"경기도 수원시 팔달구 매교동 56-6번지","category":"음료식품 - 정육점"}]},{"lat":"37.270738698","long":"127.01575736","items":[{"name":"남향할인마트","tel":"031-221-1608","addr":"경기도 수원시 팔달구 매교동 28-15번지","category":"유통업 영리 - 슈퍼마켓"}]},{"lat":"37.268684427","long":"127.01505802","items":[{"name":"네일스파클(Nail sparkle)","tel":"","addr":"경기도 수원시 팔달구 매교동 127-1번지 1층","category":"보건위생 - 피부미용실"},{"name":"대경전기","tel":"031-235-5605","addr":"경기도 수원시 팔달구 매교동 127-1번지 1동 1층","category":"전기제품 - 기타전기제품"},{"name":"화홍문화사","tel":"031-222-0003","addr":"경기도 수원시 팔달구 매교동 127-1번지 102호","category":"서적문구 - 출판 및 인쇄물"}]},{"lat":"37.268296949","long":"127.01539618","items":[{"name":"노란자전거","tel":"031-238-1201","addr":"경기도 수원시 팔달구 매교동 124-1번지 성원 1층","category":"일반휴게음식 - 서양음식"}]},{"lat":"37.265152313","long":"127.01581278","items":[{"name":"니트컴퍼니","tel":"031-214-2390","addr":"경기도 수원시 팔달구 매교동 173-7번지 동우빌딩 지하1층 3-4호","category":"사무통신 - 통신기기"},{"name":"발해패션","tel":"031-225-2010","addr":"경기도 수원시 팔달구 매교동 173-7번지 1층","category":"의류 - 기타의류"},{"name":"제이랑(Jrang)","tel":"02-0000-0000","addr":"경기도 수원시 팔달구 매교동 173-7번지 동우빌딩 B1층 일부","category":"신변잡화 - 액세서리"}]},{"lat":"37.267296992","long":"127.013502","items":[{"name":"대가푸드시스템","tel":"031-236-3313","addr":"경기도 수원시 팔달구 매교동 111-41번지","category":"음료식품 - 기타음료식품"}]},{"lat":"37.267990506","long":"127.01625295","items":[{"name":"대성샷다","tel":"031-224-4644","addr":"경기도 수원시 팔달구 매교동 158-15번지 201호","category":"용역 서비스 - 기타용역서비스"}]},{"lat":"37.265017308","long":"127.01436974","items":[{"name":"대성카센타","tel":"031-221-8873","addr":"경기도 수원시 팔달구 매교동 169-16번지","category":"자동차정비 유지 - 자동차정비"}]},{"lat":"37.271261227","long":"127.01636628","items":[{"name":"대왕약국","tel":"031-232-0427","addr":"경기도 수원시 팔달구 매교동 24-1번지","category":"약국 - 약국"},{"name":"도영 옛날식백반","tel":"031-223-5314","addr":"경기도 수원시 팔달구 매교동 24-1번지","category":"일반휴게음식 - 일반한식"},{"name":"아도슈퍼","tel":"031-236-1547","addr":"경기도 수원시 팔달구 매교동 24-1번지","category":"유통업 영리 - 슈퍼마켓"},{"name":"오닭꼬치","tel":"031-224-9295","addr":"경기도 수원시 팔달구 매교동 24-1번지","category":"일반휴게음식 - 일반한식"}]},{"lat":"37.26745916","long":"127.01369368","items":[{"name":"대운종합인쇄","tel":"031-222-3840","addr":"경기도 수원시 팔달구 매교동 111-66번지","category":"서적문구 - 출판 및 인쇄물"},{"name":"매직산업","tel":"031-236-0891","addr":"경기도 수원시 팔달구 매교동 111-66번지","category":"용역 서비스 - 종합용역"}]},{"lat":"37.265512708","long":"127.01597067","items":[{"name":"대풍소방","tel":"031-235-0942","addr":"경기도 수원시 팔달구 매교동 173-14번지","category":"기타 - 기타 전문점"}]},{"lat":"37.271405378","long":"127.01647905","items":[{"name":"대풍옥설렁탕","tel":"031-233-0039","addr":"경기도 수원시 팔달구 매교동 18-3번지","category":"일반휴게음식 - 일반한식"},{"name":"매교회수산","tel":"070-8269-9806","addr":"경기도 수원시 팔달구 매교동 18-3번지 1층 101,102호","category":"일반휴게음식 - 일반한식"}]},{"lat":"37.268927733","long":"127.01477621","items":[{"name":"대풍이네칼국수","tel":"031-232-3984","addr":"경기도 수원시 팔달구 매교동 82번지 A동 1층","category":"일반휴게음식 - 일반한식"},{"name":"연이네","tel":"031-238-7575","addr":"경기도 수원시 팔달구 매교동 82번지","category":"일반휴게음식 - 일반한식"},{"name":"연저보쌈","tel":"031-226-9286","addr":"경기도 수원시 팔달구 매교동 82번지","category":"일반휴게음식 - 일반한식"}]},{"lat":"37.269233893","long":"127.01653503","items":[{"name":"대현방재주식회사","tel":"031-214-1190","addr":"경기도 수원시 팔달구 매교동 147-11번지","category":"용역 서비스 - 기타용역서비스"}]},{"lat":"37.271351275","long":"127.01683982","items":[{"name":"대호종합상사","tel":"031-224-7090","addr":"경기도 수원시 팔달구 매교동 16-1번지 102호","category":"의류 - 정장"},{"name":"에어텍 어패럴","tel":"031-235-1093","addr":"경기도 수원시 팔달구 매교동 16-1번지 1층","category":"의류 - 기타의류"}]},{"lat":"37.270684704","long":"127.01511471","items":[{"name":"대화파크","tel":"031-223-3992","addr":"경기도 수원시 팔달구 매교동 74-5,2,3층","category":"숙박업 - 여관/기타숙박업"}]},{"lat":"37.268098575","long":"127.01672648","items":[{"name":"더타이어샵 매교점","tel":"031-235-0038","addr":"경기도 수원시 팔달구 매교동 158-25 1층.지하","category":"자동차정비 유지 - 자동차시트·타이어"}]},{"lat":"37.2694052","long":"127.01553165","items":[{"name":"동도종합설비공사","tel":"031-224-1212","addr":"경기도 수원시 팔달구 매교동 64-3번지 1층","category":"용역 서비스 - 기타용역서비스"}]},{"lat":"37.268819642","long":"127.01444924","items":[{"name":"동수원요양보호사교육원","tel":"031-237-9911","addr":"경기도 수원시 팔달구 매교동 77-35번지 3층","category":"학원 - 기능학원"}]},{"lat":"37.268044863","long":"127.01331044","items":[{"name":"동아디자인","tel":"031-239-0745","addr":"경기도 수원시 팔달구 매교동 99-1번지 명성에이스빌 101호","category":"건축자재 - 인테리어전문"}]},{"lat":"37.271207318","long":"127.01494568","items":[{"name":"동천홍","tel":"031-224-2888","addr":"경기도 수원시 팔달구 매교동 26-9번지 1층,2층전체","category":"일반휴게음식 - 중국식"}]},{"lat":"37.27048638","long":"127.01602791","items":[{"name":"동현여관","tel":"031-239-4766","addr":"경기도 수원시 팔달구 매교동 28-31번지","category":"숙박업 - 여관/기타숙박업"}]},{"lat":"37.267927709","long":"127.01353591","items":[{"name":"동화건축설비","tel":"031-237-6930","addr":"경기도 수원시 팔달구 매교동 100-7번지","category":"용역 서비스 - 기타용역서비스"}]},{"lat":"37.26768417","long":"127.01612889","items":[{"name":"디자인 율","tel":"","addr":"경기도 수원시 팔달구 매교동 158-6번지 문화맨션 A동 902호","category":"건축자재 - 인테리어전문"},{"name":"호남청과","tel":"031-257-8485","addr":"경기도 수원시 팔달구 매교동 158-6번지 문화맨션 A동 1007호","category":"음료식품 - 농·축·수산품"}]},{"lat":"37.268098747","long":"127.01517067","items":[{"name":"땡집","tel":"031-237-8288","addr":"경기도 수원시 팔달구 매교동 122-13번지 1층","category":"일반휴게음식 - 일반한식"}]},{"lat":"37.265071146","long":"127.01647791","items":[{"name":"란스킨케어","tel":"031-225-2253","addr":"경기도 수원시 팔달구 매교동 175-23번지 그린빌딩 4층","category":"보건위생 - 화장품"},{"name":"해피트리웨딩클럽","tel":"031-252-1022","addr":"경기도 수원시 팔달구 매교동 175-23번지","category":"광학제품 - 사진관"}]},{"lat":"37.269513197","long":"127.01667037","items":[{"name":"레포레스트 (REFOREST)","tel":"070-4042-0926","addr":"경기도 수원시 팔달구 매교동 147-5번지 1층","category":"전기제품 - 가전제품"}]},{"lat":"37.267350816","long":"127.01589208","items":[{"name":"리폼&수선","tel":"031-255-3995","addr":"경기도 수원시 팔달구 매교동 158-6번지 문화맨션 9호","category":"수리서비스 - 세탁소"},{"name":"목로주점","tel":"031-226-4025","addr":"경기도 수원시 팔달구 매교동 158-6번지 문화맨션 12호","category":"일반휴게음식 - 일반한식"},{"name":"봄기운","tel":"031-225-5953","addr":"경기도 수원시 팔달구 매교동 158-6번지 문화맨션 상가 13호","category":"보건위생 - 화장품"},{"name":"블랙스미스","tel":"031-234-5315","addr":"경기도 수원시 팔달구 매교동 158-6번지 문화맨션 1층 11호","category":"일반휴게음식 - 일반한식"},{"name":"안양집","tel":"031-245-1913","addr":"경기도 수원시 팔달구 매교동 158-6번지 문화맨션 1층","category":"일반휴게음식 - 일반한식"},{"name":"죽염나라","tel":"031-226-3460","addr":"경기도 수원시 팔달구 매교동 158-6번지 문화맨션 1층 7호8호","category":"건강식품 - 기타건강식품"},{"name":"쥬쥬미헤어샵","tel":"031-221-3304","addr":"경기도 수원시 팔달구 매교동 158-6,1-5","category":"보건위생 - 미용원"},{"name":"축구나라","tel":"031-238-0791","addr":"경기도 수원시 팔달구 매교동 158-6번지 문화맨션 상가 111호","category":"레져용품 - 스포츠·레져용품"}]},{"lat":"37.269738744","long":"127.01389694","items":[{"name":"만사대통쇼핑몰","tel":"031-254-3034","addr":"경기도 수원시 팔달구 매교동 77-70번지","category":"서적문구 - 전문서적"},{"name":"진고개","tel":"031-237-4425","addr":"경기도 수원시 팔달구 매교동 77-70번지","category":"일반휴게음식 - 일반한식"},{"name":"테마기획","tel":"031-222-6065","addr":"경기도 수원시 팔달구 매교동 77-70번지","category":"서적문구 - 출판 및 인쇄물"}]},{"lat":"37.265098193","long":"127.01634263","items":[{"name":"만오토하우스","tel":"031-267-1456","addr":"경기도 수원시 팔달구 매교동 175-28번지","category":"자동차정비 유지 - 자동차부품"}]},{"lat":"37.268927784","long":"127.01425759","items":[{"name":"만인식당","tel":"031-235-7363","addr":"경기도 수원시 팔달구 매교동 77-104번지","category":"일반휴게음식 - 일반한식"},{"name":"매교집","tel":"","addr":"경기도 수원시 팔달구 매교동 77-104번지","category":"일반휴게음식 - 일반한식"}]},{"lat":"37.270324219","long":"127.01581367","items":[{"name":"맛있는밥상","tel":"031-226-2888","addr":"경기도 수원시 팔달구 매교동 28-2번지","category":"일반휴게음식 - 일반한식"},{"name":"주식회사 대영배관","tel":"031-8002-6008","addr":"경기도 수원시 팔달구 매교동 28-2번지","category":"건축자재 - 기타건축자재"},{"name":"혜성전기","tel":"031-222-7758","addr":"경기도 수원시 팔달구 매교동 28-2번지","category":"전기제품 - 가전제품"}]},{"lat":"37.268738544","long":"127.0145056","items":[{"name":"매교꼼장어닭발","tel":"031-232-6939","addr":"경기도 수원시 팔달구 매교동 84-7번지","category":"일반휴게음식 - 일반한식"},{"name":"큰손할매순대","tel":"031-232-5291","addr":"경기도 수원시 팔달구 매교동 84-7번지 길성빌딩 1층 좌측","category":"일반휴게음식 - 일반한식"}]},{"lat":"37.268594393","long":"127.01437029","items":[{"name":"매교동주민자치위원회","tel":"031-228-7836","addr":"경기도 수원시 팔달구 매교동 88-1번지","category":"문화.취미 - 문화취미기타"}]},{"lat":"37.2646835","long":"127.01814632","items":[{"name":"매교맛집","tel":"031-234-8590","addr":"경기도 수원시 팔달구 매교동 253-7번지 1층","category":"일반휴게음식 - 일반한식"},{"name":"제비표페인트송아건설","tel":"031-234-2523","addr":"경기도 수원시 팔달구 매교동 253-7번지","category":"건축자재 - 페인트"},{"name":"헤어해피데이미용실","tel":"031-248-5449","addr":"경기도 수원시 팔달구 매교동 253-7번지","category":"보건위생 - 미용원"}]},{"lat":"37.267675161","long":"127.01611761","items":[{"name":"매교분식","tel":"031-898-6846","addr":"경기도 수원시 팔달구 매교동 158-6번지 문화맨션 1동 6호","category":"일반휴게음식 - 일반한식"}]},{"lat":"37.269513474","long":"127.0140322","items":[{"name":"매교예사랑실버케어","tel":"031-242-9238","addr":"경기도 수원시 팔달구 매교동 77-69번지","category":"기타의료기관 - 기타의료기관 및 기타"}]},{"lat":"37.269684372","long":"127.01683951","items":[{"name":"매교퍼스트빌401호","tel":"031-223-5214","addr":"경기도 수원시 팔달구 매교동 147-1번지 매교퍼스트빌 4층","category":"보건위생 - 기타대인서비스"}]},{"lat":"37.270873938","long":"127.01494563","items":[{"name":"맹꽁이노래연습장","tel":"031-238-8628","addr":"경기도 수원시 팔달구 매교동 77-54번지","category":"레저업소 - 노 래 방"}]},{"lat":"37.270963762","long":"127.01742602","items":[{"name":"명성계전","tel":"031-239-6600","addr":"경기도 수원시 팔달구 매교동 137-1번지","category":"전기제품 - 기타전기제품"},{"name":"명성계전/원격지","tel":"031-237-5228","addr":"경기도 수원시 팔달구 매교동 137-1번지","category":"기타 - 기타 전문점"}]},{"lat":"37.271153066","long":"127.01669322","items":[{"name":"모스테이션","tel":"031-232-9696","addr":"경기도 수원시 팔달구 매교동 20-2번지","category":"보건위생 - 화장품"}]},{"lat":"37.265152411","long":"127.01488835","items":[{"name":"문성기업","tel":"031-256-5688","addr":"경기도 수원시 팔달구 매교동 167-9번지 문성기업","category":"건축자재 - 목재·석재·철물"}]},{"lat":"37.268044595","long":"127.01600493","items":[{"name":"문화카공업사","tel":"031-232-8601","addr":"경기도 수원시 팔달구 매교동 159-20번지","category":"자동차정비 유지 - 세차장"}]},{"lat":"37.270207076","long":"127.01589257","items":[{"name":"미니펍매교점","tel":"031-222-1274","addr":"경기도 수원시 팔달구 매교동 32번지 1층","category":"일반휴게음식 - 서양음식"},{"name":"흥진산업","tel":"031-236-1274","addr":"경기도 수원시 팔달구 매교동 32번지","category":"건축자재 - 기타건축자재"}]},{"lat":"37.271567354","long":"127.01819281","items":[{"name":"미래상사","tel":"031-233-2208","addr":"경기도 수원시 팔달구 매교동 224-44번지","category":"기타 - 기계공구"},{"name":"세형산업 (주)","tel":"031-225-5700","addr":"경기도 수원시 팔달구 매교동 224-44번지","category":"용역 서비스 - 기타용역서비스"}]},{"lat":"37.270657301","long":"127.01830537","items":[{"name":"미래텔통신","tel":"031-238-5840","addr":"경기도 수원시 팔달구 매교동 242-1번지 201호","category":"사무통신 - 통신기기"},{"name":"알씨라인","tel":"031-253-0242","addr":"경기도 수원시 팔달구 매교동 242-1번지 2층 206호","category":"서적문구 - 완구점"}]},{"lat":"37.268152947","long":"127.01375015","items":[{"name":"민지네","tel":"031-232-2653","addr":"경기도 수원시 팔달구 매교동 92-8번지 1층","category":"의류 - 정장"}]},{"lat":"37.265269577","long":"127.01456143","items":[{"name":"버블샤인","tel":"031-221-8873","addr":"경기도 수원시 팔달구 매교동 169-3번지","category":"자동차정비 유지 - 세차장"}]},{"lat":"37.269044872","long":"127.01473113","items":[{"name":"병천토종순대국","tel":"031-233-8706","addr":"경기도 수원시 팔달구 매교동 77-40번지 원영빌딩 1층","category":"일반휴게음식 - 일반한식"},{"name":"신서민이발소","tel":"","addr":"경기도 수원시 팔달구 매교동 77-40번지 정석빌딩 1층","category":"보건위생 - 이용원"},{"name":"씨유매교사거리점","tel":"031-233-1477","addr":"경기도 수원시 팔달구 매교동 77-40번지","category":"유통업 영리 - 편 의 점"},{"name":"투애니원 PC방","tel":"031-123-4567","addr":"경기도 수원시 팔달구 매교동 77-40번지 원영빌딩 2층 투애니원PC방","category":"레저업소 - 기타레져업소"}]},{"lat":"37.271324466","long":"127.01481041","items":[{"name":"보브헤어","tel":"031-224-2176","addr":"경기도 수원시 팔달구 매교동 26-2번지","category":"보건위생 - 미용원"},{"name":"원더 컴퍼니(Wonder Company)","tel":"031-258-9920","addr":"경기도 수원시 팔달구 매교동 26-2번지 2층","category":"가구 - 기타가구"}]},{"lat":"37.268378071","long":"127.01511434","items":[{"name":"봉치킨","tel":"031-236-6137","addr":"경기도 수원시 팔달구 매교동 122-7번지 1층","category":"일반휴게음식 - 주점"}]},{"lat":"37.268540142","long":"127.01617413","items":[{"name":"부국파크","tel":"031-225-3466","addr":"경기도 수원시 팔달구 매교동 159-28번지","category":"숙박업 - 여관/기타숙박업"}]},{"lat":"37.271099082","long":"127.01600546","items":[{"name":"빽가네","tel":"031-893-4800","addr":"경기도 수원시 팔달구 매교동 28-3번지","category":"일반휴게음식 - 일반한식"}]},{"lat":"37.27035128","long":"127.01553181","items":[{"name":"사거리해장국","tel":"031-226-7517","addr":"경기도 수원시 팔달구 매교동 29-7번지","category":"일반휴게음식 - 일반한식"}]},{"lat":"37.267296749","long":"127.01593716","items":[{"name":"삼일유통","tel":"","addr":"경기도 수원시 팔달구 매교동 158-6번지 문화맨션 B동 605호","category":"음료식품 - 기타음료식품"}]},{"lat":"37.267540332","long":"127.0127805","items":[{"name":"삼일종합상사","tel":"031-222-0989","addr":"경기도 수원시 팔달구 매교동 96-19번지","category":"직물 - 카페트,커튼,천막,지물"}]},{"lat":"37.26823396","long":"127.01458444","items":[{"name":"삼호장여관","tel":"031-233-6348","addr":"경기도 수원시 팔달구 매교동 120-7번지","category":"숙박업 - 여관/기타숙박업"}]},{"lat":"37.270234045","long":"127.01644501","items":[{"name":"상미종합상사","tel":"031-234-5729","addr":"경기도 수원시 팔달구 매교동 56-3번지","category":"건축자재 - 기타건축자재"},{"name":"정인종합상사","tel":"031-234-6673","addr":"경기도 수원시 팔달구 매교동 56-3번지","category":"건축자재 - 기타건축자재"}]},{"lat":"37.268296788","long":"127.01683926","items":[{"name":"서라벌공예사","tel":"031-235-6057","addr":"경기도 수원시 팔달구 매교동 158-1번지","category":"문화.취미 - 민예·공예품"}]},{"lat":"37.267233954","long":"127.01311868","items":[{"name":"서민양복점","tel":"031-236-9366","addr":"경기도 수원시 팔달구 매교동 98-31번지","category":"의류 - 맞춤복점"}]},{"lat":"37.269071877","long":"127.01497916","items":[{"name":"서울종합유리","tel":"031-233-7795","addr":"경기도 수원시 팔달구 매교동 65-19번지","category":"건축자재 - 유리"}]},{"lat":"37.271072149","long":"127.01509223","items":[{"name":"설반정","tel":"031-224-5858","addr":"경기도 수원시 팔달구 매교동 26-10번지","category":"일반휴게음식 - 일반한식"}]},{"lat":"37.27107194","long":"127.01697506","items":[{"name":"성원기계콤프","tel":"031-232-5244","addr":"경기도 수원시 팔달구 매교동 50-2번지","category":"기타 - 기계공구"}]},{"lat":"37.264404556","long":"127.01488823","items":[{"name":"성원방앗간","tel":"032-232-9625","addr":"경기도 수원시 팔달구 매교동 167-53번지","category":"음료식품 - 기타음료식품"},{"name":"청원한의원","tel":"031-232-9441","addr":"경기도 수원시 팔달구 매교동 167-53번지","category":"의원 - 한의원"}]},{"lat":"37.27115311","long":"127.01630989","items":[{"name":"성원식당","tel":"031-232-1072","addr":"경기도 수원시 팔달구 매교동 24-9번지","category":"일반휴게음식 - 일반한식"}]},{"lat":"37.27059451","long":"127.01597155","items":[{"name":"성진여관","tel":"031-233-4948","addr":"경기도 수원시 팔달구 매교동 24-6","category":"숙박업 - 여관/기타숙박업"},{"name":"신일종합상사","tel":"070-8742-0001","addr":"경기도 수원시 팔달구 매교동 24-6번지","category":"신변잡화 - 기타잡화"}]},{"lat":"37.269378322","long":"127.01400963","items":[{"name":"세븐모텔","tel":"070-8666-4178","addr":"경기도 수원시 팔달구 매교동 77-83번지 2,3층","category":"숙박업 - 여관/기타숙박업"}]},{"lat":"37.264179309","long":"127.01478673","items":[{"name":"수기획","tel":"031-893-3354","addr":"경기도 수원시 팔달구 매교동 171-1번지","category":"서적문구 - 정기간행물"}]},{"lat":"37.268234069","long":"127.01342321","items":[{"name":"수선화","tel":"031-35-1692","addr":"경기도 수원시 팔달구 매교동 93-1번지","category":"일반휴게음식 - 일반한식"}]},{"lat":"37.267206446","long":"127.0176395","items":[{"name":"수원고등학교","tel":"031-300-3234","addr":"경기도 수원시 팔달구 매교동 191번지","category":"학원 - 초중고교육기관"},{"name":"수원고등학교매점","tel":"031-300-3230","addr":"경기도 수원시 팔달구 매교동 191번지","category":"음료식품 - 기타음료식품"},{"name":"수원중학교","tel":"031-232-8215","addr":"경기도 수원시 팔달구 매교동 191번지","category":"학원 - 초중고교육기관"},{"name":"수원중학교매점","tel":"031-232-8217","addr":"경기도 수원시 팔달구 매교동 191번지 수원중학교","category":"음료식품 - 기타음료식품"}]},{"lat":"37.270711718","long":"127.01528383","items":[{"name":"수원나비사","tel":"031-236-0732","addr":"경기도 수원시 팔달구 매교동 26-8번지 노정주택 101호","category":"서적문구 - 출판 및 인쇄물"},{"name":"에리제헤어","tel":"031-255-9529","addr":"경기도 수원시 팔달구 매교동 26-8번지 노정주택 102호","category":"보건위생 - 미용원"},{"name":"풍년칼국수","tel":"031-233-3989","addr":"경기도 수원시 팔달구 매교동 26-8번지 노정주택 103호","category":"일반휴게음식 - 일반한식"}]},{"lat":"37.268540006","long":"127.01733536","items":[{"name":"수원냉동산업","tel":"","addr":"경기도 수원시 팔달구 매교동 188-2번지","category":"전기제품 - 냉열기기"}]},{"lat":"37.271657653","long":"127.01659184","items":[{"name":"수원로또판매점","tel":"031-223-5214","addr":"경기도 수원시 팔달구 매교동 8-4번지","category":"음료식품 - 기타음료식품"},{"name":"오성당","tel":"031-232-3566","addr":"경기도 수원시 팔달구 매교동 8-4번지","category":"신변잡화 - 귀금속"},{"name":"오성동","tel":"031-232-3566","addr":"경기도 수원시 팔달구 매교동 8-4번지","category":"신변잡화 - 시계"}]},{"lat":"37.270486244","long":"127.01720044","items":[{"name":"수원산업설비배관공사","tel":"031-221-6002","addr":"경기도 수원시 팔달구 매교동 138-9번지","category":"용역 서비스 - 기타용역서비스"},{"name":"작곡가현정만사무실","tel":"031-233-1920","addr":"경기도 수원시 팔달구 매교동 138-9번지 2층","category":"학원 - 예·체능계학원"}]},{"lat":"37.26501734","long":"127.01403154","items":[{"name":"수지명인출장세차","tel":"070-7552-2284","addr":"경기도 수원시 팔달구 매교동 164-9번지","category":"자동차정비 유지 - 세차장"}]},{"lat":"37.268125795","long":"127.01500156","items":[{"name":"쉐반스","tel":"031-223-9541","addr":"경기도 수원시 팔달구 매교동 122-12번지 1층","category":"보건위생 - 화장품"}]},{"lat":"37.264485663","long":"127.01475296","items":[{"name":"스파클서수원대리점","tel":"031-898-6260","addr":"경기도 수원시 팔달구 매교동 167-52번지 1층","category":"음료식품 - 기타음료식품"}]},{"lat":"37.268846594","long":"127.01522716","items":[{"name":"승화유통","tel":"031-258-7485","addr":"경기도 수원시 팔달구 매교동 130-1번지 1층 1호","category":"음료식품 - 농·축·수산품"}]},{"lat":"37.27068444","long":"127.01744852","items":[{"name":"신명닥트설비","tel":"031-235-4224","addr":"경기도 수원시 팔달구 매교동 138-4번지","category":"건축자재 - 기타건축자재"},{"name":"해송난플라워","tel":"031-226-9694","addr":"경기도 수원시 팔달구 매교동 138-4번지","category":"문화.취미 - 화원"}]},{"lat":"37.270594431","long":"127.01667057","items":[{"name":"신용이엔지","tel":"031-237-7972","addr":"경기도 수원시 팔달구 매교동 55-1번지","category":"기타 - 기계공구"}]},{"lat":"37.269765548","long":"127.01611798","items":[{"name":"신흥상사","tel":"031-224-6363","addr":"경기도 수원시 팔달구 매교동 63-2번지","category":"기타 - 기계공구"}]},{"lat":"37.268819369","long":"127.01697464","items":[{"name":"신흥특수모터","tel":"031-238-4266","addr":"경기도 수원시 팔달구 매교동 152번지","category":"수리서비스 - 기타수리서비스"},{"name":"한영모타","tel":"031-232-4920","addr":"경기도 수원시 팔달구 매교동 152번지","category":"수리서비스 - 가정용품수리"},{"name":"화인중전기","tel":"031-233-3112","addr":"경기도 수원시 팔달구 매교동 152번지","category":"수리서비스 - 기타수리서비스"}]},{"lat":"37.266990669","long":"127.01319756","items":[{"name":"씨에이시스템","tel":"031-232-7753","addr":"경기도 수원시 팔달구 매교동 111-44번지 1층","category":"전기제품 - 기타전기제품"}]},{"lat":"37.271072023","long":"127.0162535","items":[{"name":"아이러브페인팅","tel":"031-215-6915","addr":"경기도 수원시 팔달구 매교동 24-14번지","category":"문화.취미 - 문화취미기타"}]},{"lat":"37.271351142","long":"127.01792218","items":[{"name":"아이템뱅크","tel":"031-256-9600","addr":"경기도 수원시 팔달구 매교동 224-50번지 4층","category":"신변잡화 - 기타잡화"},{"name":"인광종합상사","tel":"031-221-1118","addr":"경기도 수원시 팔달구 매교동 224-50번지","category":"전기제품 - 냉열기기"},{"name":"종합가전","tel":"031-239-3114","addr":"경기도 수원시 팔달구 매교동 224-50번지","category":"사무통신 - 통신기기"}]},{"lat":"37.269234102","long":"127.01458459","items":[{"name":"앤팻션","tel":"031-232-8514","addr":"경기도 수원시 팔달구 매교동 65-25번지","category":"의류 - 정장"},{"name":"태림식당","tel":"031-221-5421","addr":"경기도 수원시 팔달구 매교동 65-25번지 1층","category":"일반휴게음식 - 일반한식"}]},{"lat":"37.269630384","long":"127.01619687","items":[{"name":"엉클푸드랩","tel":"031-238-1268","addr":"경기도 수원시 팔달구 매교동 136-13번지 1층","category":"일반휴게음식 - 일반한식"}]},{"lat":"37.269630261","long":"127.01725665","items":[{"name":"에덴동물병원","tel":"031-224-2470","addr":"경기도 수원시 팔달구 매교동 141-4번지","category":"기타의료기관 - 동물병원"}]},{"lat":"37.267540242","long":"127.01380643","items":[{"name":"에스디전기조명","tel":"031-236-3812","addr":"경기도 수원시 팔달구 매교동 111-72번지","category":"건축자재 - 조명기구"}]},{"lat":"37.265017129","long":"127.01608332","items":[{"name":"엘디포스시스템","tel":"031-267-0400","addr":"경기도 수원시 팔달구 매교동 175-29번지 (1,2층4호)","category":"사무통신 - 통신기기"}]},{"lat":"37.27143238","long":"127.01672709","items":[{"name":"열린음악회","tel":"031-239-7557","addr":"경기도 수원시 팔달구 매교동 15-1번지 지하1층","category":"일반휴게음식 - 주점"},{"name":"열린음악회","tel":"","addr":"경기도 수원시 팔달구 매교동 15-1번지 지하1층","category":"일반휴게음식 - 일반한식"},{"name":"예울베이커리","tel":"031-231-8809","addr":"경기도 수원시 팔달구 매교동 15-1번지 1층","category":"일반휴게음식 - 일반한식"},{"name":"지벤 수원점","tel":"","addr":"경기도 수원시 팔달구 매교동 15-1번지 1층 102호","category":"의류 - 정장"}]},{"lat":"37.264512331","long":"127.01794336","items":[{"name":"열혈분식수원점/주식회사 긱스패밀리","tel":"031-898-9625","addr":"경기도 수원시 팔달구 매교동 253-6번지","category":"일반휴게음식 - 일반한식"}]},{"lat":"37.269792616","long":"127.01577975","items":[{"name":"영양건강원 (2호점)","tel":"031-256-6688","addr":"경기도 수원시 팔달구 매교동 30-6번지 1층","category":"건강식품 - 기타건강식품"}]},{"lat":"37.269261024","long":"127.01564437","items":[{"name":"영진농기구","tel":"031-232-6465","addr":"경기도 수원시 팔달구 매교동 135-3번지","category":"수리서비스 - 기타수리서비스"}]},{"lat":"37.2694323","long":"127.01486648","items":[{"name":"예빈","tel":"031-225-3553","addr":"경기도 수원시 팔달구 매교동 65-7번지 1층","category":"일반휴게음식 - 중국식"}]},{"lat":"37.263936052","long":"127.01458377","items":[{"name":"오렌지","tel":"031-232-4260","addr":"경기도 수원시 팔달구 매교동 171-5번지","category":"일반휴게음식 - 일반한식"}]},{"lat":"37.270071916","long":"127.01594891","items":[{"name":"옥진모터","tel":"031-233-0298","addr":"경기도 수원시 팔달구 매교동 31","category":"기타 - 기계공구"}]},{"lat":"37.271513298","long":"127.0181477","items":[{"name":"우성안전","tel":"031-223-1877","addr":"경기도 수원시 팔달구 매교동 224-45번지","category":"기타 - 기계공구"}]},{"lat":"37.271234023","long":"127.01780941","items":[{"name":"우신공구","tel":"031-239-5952","addr":"경기도 수원시 팔달구 매교동 224-52번지","category":"기타 - 기계공구"}]},{"lat":"37.27087373","long":"127.01683973","items":[{"name":"우주특수고무","tel":"031-236-7300","addr":"경기도 수원시 팔달구 매교동 51-1번지","category":"신변잡화 - 기타잡화"},{"name":"진주중고기계공구","tel":"031-252-3445","addr":"경기도 수원시 팔달구 매교동 51-1번지","category":"수리서비스 - 기타수리서비스"}]},{"lat":"37.264602863","long":"127.01406529","items":[{"name":"월드그린에이원서비스","tel":"031-204-3703","addr":"경기도 수원시 팔달구 매교동 167-19번지 101호","category":"신변잡화 - 기타잡화"}]},{"lat":"37.268044673","long":"127.0152834","items":[{"name":"월드마트","tel":"031-237-9275","addr":"경기도 수원시 팔달구 매교동 124-4번지 1층","category":"유통업 영리 - 슈퍼마켓"}]},{"lat":"37.269711677","long":"127.01428026","items":[{"name":"위더스 크린","tel":"","addr":"경기도 수원시 팔달구 매교동 77-27번지 201호","category":"용역 서비스 - 종합용역"}]},{"lat":"37.264990009","long":"127.0168612","items":[{"name":"유아이","tel":"070-7524-6163","addr":"경기도 수원시 팔달구 매교동 175-16번지","category":"보건위생 - 미용재료"},{"name":"핸즈","tel":"031-258-6710","addr":"경기도 수원시 팔달구 매교동 175-16번지 2층","category":"용역 서비스 - 사무서비스"}]},{"lat":"37.270432259","long":"127.01655779","items":[{"name":"유일시스템","tel":"031-255-4015","addr":"경기도 수원시 팔달구 매교동 56-1번지 상가 1층","category":"사무통신 - 통신기기"},{"name":"화신주방경기지사","tel":"031-239-7306","addr":"경기도 수원시 팔달구 매교동 56-1번지 상가일부 1층","category":"주방용구 - 주방용구"}]},{"lat":"37.268297126","long":"127.01359233","items":[{"name":"유황축산","tel":"031-282-1140","addr":"경기도 수원시 팔달구 매교동 92-27","category":"음료식품 - 정육점"}]},{"lat":"37.270261117","long":"127.01608424","items":[{"name":"은성공사","tel":"031-235-7565","addr":"경기도 수원시 팔달구 매교동 35번지","category":"용역 서비스 - 기타용역서비스"}]},{"lat":"37.271261185","long":"127.01672706","items":[{"name":"을지볼트","tel":"031-236-0257","addr":"경기도 수원시 팔달구 매교동 20-1번지","category":"기타 - 기계공구"}]},{"lat":"37.264539336","long":"127.01814629","items":[{"name":"이도시스템/원격지","tel":"031-236-7968","addr":"경기도 수원시 팔달구 매교동 253-8번지 1층","category":"기타 - 기타 전문점"}]},{"lat":"37.267179869","long":"127.01338924","items":[{"name":"이레산업","tel":"031-327-3976","addr":"경기도 수원시 팔달구 매교동 111-28번지","category":"용역 서비스 - 종합용역"}]},{"lat":"37.269765655","long":"127.01511457","items":[{"name":"이마트24 수원매교점","tel":"031-000-0000","addr":"경기도 수원시 팔달구 매교동 65-2번지","category":"유통업 영리 - 편 의 점"},{"name":"이마트24 수원매교점","tel":"","addr":"경기도 수원시 팔달구 매교동 65-2번지","category":"유통업 영리 - 편 의 점"}]},{"lat":"37.270432494","long":"127.01433674","items":[{"name":"이이에이치","tel":"","addr":"경기도 수원시 팔달구 매교동 74-46번지 해피팰리스 402호","category":"의류 - 정장"}]},{"lat":"37.269432275","long":"127.01511451","items":[{"name":"인쇄뱅크","tel":"031-231-8947","addr":"경기도 수원시 팔달구 매교동 65-15번지","category":"서적문구 - 출판 및 인쇄물"}]},{"lat":"37.265070943","long":"127.0181464","items":[{"name":"쟁이맘쓰","tel":"031-111-1111","addr":"경기도 수원시 팔달구 매교동 253-20번지 1층","category":"의류 - 정장"}]},{"lat":"37.264890884","long":"127.01696264","items":[{"name":"제이데이헤어","tel":"031-000-0000","addr":"경기도 수원시 팔달구 매교동 176-4번지 매교연립 가동 101호","category":"보건위생 - 미용원"}]},{"lat":"37.270630584","long":"127.01566715","items":[{"name":"제이에이치푸드(JHFOOD)","tel":"031-236-8692","addr":"경기도 수원시 팔달구 매교동 28-71번지 1층","category":"음료식품 - 기타음료식품"}]},{"lat":"37.26871153","long":"127.01433648","items":[{"name":"제일떡방앗간","tel":"031-233-0097","addr":"경기도 수원시 팔달구 매교동 84-8번지","category":"음료식품 - 제과점"}]},{"lat":"37.268431936","long":"127.01689565","items":[{"name":"주식회사 부광산업개발","tel":"031-222-6566","addr":"경기도 수원시 팔달구 매교동 156번지","category":"용역 서비스 - 기타용역서비스"}]},{"lat":"37.270153162","long":"127.01447199","items":[{"name":"진부산업","tel":"031-232-2340","addr":"경기도 수원시 팔달구 매교동 74-20번지 1층","category":"건축자재 - 목재·석재·철물"}]},{"lat":"37.267873363","long":"127.01633185","items":[{"name":"천호파크","tel":"031-236-9422","addr":"경기도 수원시 팔달구 매교동 158-17번지","category":"숙박업 - 여관/기타숙박업"}]},{"lat":"37.269567504","long":"127.01437043","items":[{"name":"카젠매교점","tel":"031-224-1433","addr":"경기도 수원시 팔달구 매교동 71-1번지 1층","category":"자동차정비 유지 - 자동차정비"}]},{"lat":"37.267603357","long":"127.01333293","items":[{"name":"케이투비","tel":"031-233-8147","addr":"경기도 수원시 팔달구 매교동 98-3","category":"용역 서비스 - 종합용역"}]},{"lat":"37.26873859","long":"127.01403208","items":[{"name":"태광우의","tel":"031-236-1356","addr":"경기도 수원시 팔달구 매교동 84-6번지","category":"신변잡화 - 기타잡화"}]},{"lat":"37.270153","long":"127.01602785","items":[{"name":"털보기계","tel":"031-232-5445","addr":"경기도 수원시 팔달구 매교동 34번지","category":"기타 - 기계공구"},{"name":"효성모터펌프","tel":"031-217-2030","addr":"경기도 수원시 팔달구 매교동 34번지","category":"건축자재 - 보일러·펌프·샷시"}]},{"lat":"37.269351213","long":"127.01481009","items":[{"name":"투데이","tel":"031-237-8650","addr":"경기도 수원시 팔달구 매교동 65-21번지 1층","category":"일반휴게음식 - 일반한식"}]},{"lat":"37.270297327","long":"127.01447201","items":[{"name":"티파니","tel":"031-267-3578","addr":"경기도 수원시 팔달구 매교동 74-18번지","category":"숙박업 - 여관/기타숙박업"}]},{"lat":"37.270486214","long":"127.01744848","items":[{"name":"평화공구","tel":"031-238-6661","addr":"경기도 수원시 팔달구 매교동 138-6번지","category":"기타 - 기계공구"}]},{"lat":"37.271180057","long":"127.01703146","items":[{"name":"포유25매교다리점","tel":"031-233-6685","addr":"경기도 수원시 팔달구 매교동 46-1번지","category":"유통업 영리 - 편 의 점"}]},{"lat":"37.268684404","long":"127.0152835","items":[{"name":"한국전기관리공단(주)","tel":"031-233-8302","addr":"경기도 수원시 팔달구 매교동 122-1번지","category":"용역 서비스 - 기타용역서비스"},{"name":"한국전기엔지니어링 주식회사","tel":"031-233-8302","addr":"경기도 수원시 팔달구 매교동 122-1번지 1층","category":"용역 서비스 - 종합용역"}]},{"lat":"37.268017738","long":"127.01433638","items":[{"name":"한솔문화사","tel":"031-221-1170","addr":"경기도 수원시 팔달구 매교동 120-4번지","category":"서적문구 - 출판 및 인쇄물"}]},{"lat":"37.270459327","long":"127.01623084","items":[{"name":"한신기계","tel":"031-221-9984","addr":"경기도 수원시 팔달구 매교동 38번지","category":"기타 - 기계공구"}]},{"lat":"37.268594366","long":"127.01464086","items":[{"name":"한신식당","tel":"031-232-9710","addr":"경기도 수원시 팔달구 매교동 89-4번지 1층","category":"일반휴게음식 - 일반한식"}]},{"lat":"37.270179874","long":"127.0173695","items":[{"name":"한일펌프","tel":"031-235-7648","addr":"경기도 수원시 팔달구 매교동 140-4번지 1층","category":"기타 - 기계공구"}]},{"lat":"37.26635095","long":"127.01306219","items":[{"name":"해드림하우스","tel":"031-293-0476","addr":"경기도 수원시 팔달구 매교동 111-64번지 203호","category":"건축자재 - 인테리어전문"}]},{"lat":"37.26490911","long":"127.01511378","items":[{"name":"현디자인 아트아크릴","tel":"031-225-8580","addr":"경기도 수원시 팔달구 매교동 167-13번지 201호","category":"건축자재 - 기타건축자재"}]},{"lat":"37.26954029","long":"127.01611794","items":[{"name":"형제정육식당","tel":"031-548-2919","addr":"경기도 수원시 팔달구 매교동 136-7번지 1층","category":"일반휴게음식 - 일반한식"},{"name":"형제정육점","tel":"031-232-7437","addr":"경기도 수원시 팔달구 매교동 136-7번지","category":"음료식품 - 정육점"}]},{"lat":"37.269819808","long":"127.01420136","items":[{"name":"홍진오토바이부속상사","tel":"031-236-7583","addr":"경기도 수원시 팔달구 매교동 77-29번지","category":"자동차판매 - 이륜차판매"}]},{"lat":"37.269873698","long":"127.01586996","items":[{"name":"화성사","tel":"031-234-6860","addr":"경기도 수원시 팔달구 매교동 30-5번지","category":"수리서비스 - 기타수리서비스"}]}]