[{"lat":"37.29742306","long":"126.88490988","items":[{"name":"(유)광덕주류","tel":"031-487-0337","addr":"경기도 안산시 상록구 팔곡이동 376-1번지","category":"음료식품 - 기타음료식품"}]},{"lat":"37.28751231","long":"126.88543282","items":[{"name":"(주)가스트론","tel":"031-490-0800","addr":"경기도 안산시 상록구 팔곡이동 75-10번지","category":"기타 - 기타 전문점"},{"name":"가스트론식당","tel":"031-502-3812","addr":"경기도 안산시 상록구 팔곡이동 75-10번지","category":"음료식품 - 기타음료식품"}]},{"lat":"37.296867049","long":"126.88757244","items":[{"name":"(주)고향미트","tel":"031-502-1544","addr":"경기도 안산시 상록구 팔곡이동 358-5번지","category":"음료식품 - 정육점"}]},{"lat":"37.293845075","long":"126.88399069","items":[{"name":"(주)고향유통안산지사","tel":"031-502-1525","addr":"경기도 안산시 상록구 팔곡이동 448-2번지 A동","category":"음료식품 - 정육점"},{"name":"(주)지엔에프앤씨","tel":"070-8852-1552","addr":"경기도 안산시 상록구 팔곡이동 448-2번지","category":"음료식품 - 정육점"}]},{"lat":"37.288512502","long":"126.88548765","items":[{"name":"(주)네오팜그린","tel":"031-493-0845","addr":"경기도 안산시 상록구 팔곡이동 68-26번지 2층","category":"신변잡화 - 기타잡화"}]},{"lat":"37.294815267","long":"126.88112455","items":[{"name":"(주)디에스콘","tel":"031-492-2546","addr":"경기도 안산시 상록구 팔곡이동 464번지","category":"기타 - 기계공구"}]},{"lat":"37.294314273","long":"126.88465535","items":[{"name":"(주)미젤로","tel":"031-415-8133","addr":"경기도 안산시 상록구 팔곡이동 419번지","category":"문화.취미 - 화방·표구점"}]},{"lat":"37.287513623","long":"126.88676349","items":[{"name":"(주)신대양모터스","tel":"031-437-6191","addr":"경기도 안산시 상록구 팔곡이동 50-18번지","category":"자동차정비 유지 - 자동차정비"},{"name":"성준테크","tel":"031-408-7233","addr":"경기도 안산시 상록구 팔곡이동 50-18번지","category":"기타 - 기계공구"},{"name":"세미인프라","tel":"031-438-0340","addr":"경기도 안산시 상록구 팔곡이동 50-18번지","category":"기타 - 기계공구"}]},{"lat":"37.287953341","long":"126.8849585","items":[{"name":"(주)신성프리시젼/원격지","tel":"031-502-0087","addr":"경기도 안산시 상록구 팔곡이동 75-1번지","category":"기타 - 기타 전문점"},{"name":"(주)포캠/원격지","tel":"031-502-1777","addr":"경기도 안산시 상록구 팔곡이동 75-1번지","category":"기타 - 기타 전문점"}]},{"lat":"37.285235461","long":"126.88823295","items":[{"name":"(주)아워홈 두산인프라코어안산점","tel":"031-400-2290","addr":"경기도 안산시 상록구 팔곡이동 85-1번지 2층","category":"일반휴게음식 - 위탁급식업"},{"name":"노송기업","tel":"031-438-1160","addr":"경기도 안산시 상록구 팔곡이동 85-1번지","category":"건축자재 - 기타건축자재"},{"name":"대우종합기계기술교육센터(주)","tel":"031-400-2120","addr":"경기도 안산시 상록구 팔곡이동 85-1번지","category":"학원 - 기타 교육기관"}]},{"lat":"37.297901397","long":"126.88570991","items":[{"name":"(주)아이펜","tel":"031-406-7388","addr":"경기도 안산시 상록구 팔곡이동 369-1번지","category":"기타 - 기계공구"},{"name":"(주)아이펜/원격지","tel":"031-406-7388","addr":"경기도 안산시 상록구 팔곡이동 369-1번지","category":"기타 - 기타 전문점"}]},{"lat":"37.297171981","long":"126.88612834","items":[{"name":"(주)육육푸드","tel":"031-502-6680","addr":"경기도 안산시 상록구 팔곡이동 365-1번지","category":"음료식품 - 정육점"}]},{"lat":"37.288567466","long":"126.88640101","items":[{"name":"(주)이피코리아/원격지","tel":"031-437-8539","addr":"경기도 안산시 상록구 팔곡이동 50-14번지","category":"기타 - 기타 전문점"}]},{"lat":"37.288538793","long":"126.88474332","items":[{"name":"(주)제이에스앤씨(JS&C)","tel":"031-413-5516","addr":"경기도 안산시 상록구 팔곡이동 68-9번지","category":"직물 - 카페트,커튼,천막,지물"},{"name":"아지푸드","tel":"","addr":"경기도 안산시 상록구 팔곡이동 68-9번지 1층","category":"음료식품 - 기타음료식품"},{"name":"제이에스(JS)글라스텍","tel":"031-365-3657","addr":"경기도 안산시 상록구 팔곡이동 68-9번지","category":"건축자재 - 유리"}]},{"lat":"37.297091078","long":"126.8863202","items":[{"name":"(주)제일상재","tel":"031-501-4077","addr":"경기도 안산시 상록구 팔곡이동 365-7번지","category":"직물 - 카페트,커튼,천막,지물"}]},{"lat":"37.29328577","long":"126.88332618","items":[{"name":"(주)호림","tel":"031-437-8356","addr":"경기도 안산시 상록구 팔곡이동 473-9번지","category":"자동차정비 유지 - 자동차부품"}]},{"lat":"37.297649601","long":"126.88620655","items":[{"name":"SR.pyxis(에스알팍시스)","tel":"031-407-7151","addr":"경기도 안산시 상록구 팔곡이동 364-1번지 2층","category":"자동차정비 유지 - 자동차시트·타이어"}]},{"lat":"37.2915622964","long":"126.8899375343","items":[{"name":"㈜세창산업","tel":"031-400-3007","addr":"경기도 안산시 상록구 팔곡이동 27번지","category":"제조업 - 설비기계보수"}]},{"lat":"37.2875136229","long":"126.8867634948","items":[{"name":"㈜신대양정비","tel":"031-437-6191","addr":"경기도 안산시 상록구 팔곡이동 50-18번지","category":"도매 및 소매업 - 특징차부품,자동차"}]},{"lat":"37.288041467","long":"126.87440309","items":[{"name":"가감렌탈","tel":"031-406-6005","addr":"경기도 안산시 상록구 팔곡이동 562-2","category":"직물 - 카페트,커튼,천막,지물"}]},{"lat":"37.2923746614","long":"126.8822675218","items":[{"name":"감골오리향","tel":"031-438-1868","addr":"경기도 안산시 상록구 팔곡이동 477번지","category":"숙박 및 음식점업 - 기타음식"}]},{"lat":"37.292374661","long":"126.88226752","items":[{"name":"감골오리향","tel":"031-438-1868","addr":"경기도 안산시 상록구 팔곡이동 477번지","category":"일반휴게음식 - 일반한식"}]},{"lat":"37.294288017","long":"126.88543357","items":[{"name":"경기급식특판","tel":"031-459-7000","addr":"경기도 안산시 상록구 팔곡이동 414-8번지 1층","category":"음료식품 - 기타음료식품"}]},{"lat":"37.29415201","long":"126.88457666","items":[{"name":"경인상사","tel":"031-0000-0000","addr":"경기도 안산시 상록구 팔곡이동 416번지 상록빌라 102호","category":"자동차정비 유지 - 자동차부품"}]},{"lat":"37.297316777","long":"126.88677098","items":[{"name":"고기나라","tel":"031-407-9233","addr":"경기도 안산시 상록구 팔곡이동 364-6번지 1호","category":"일반휴게음식 - 일반한식"},{"name":"장터치킨","tel":"031-502-8892","addr":"경기도 안산시 상록구 팔곡이동 364-6번지 4호","category":"일반휴게음식 - 주점"},{"name":"제이앤제이헤어클럽","tel":"031-419-8543","addr":"경기도 안산시 상록구 팔곡이동 364-6번지 1층 2호","category":"보건위생 - 미용원"},{"name":"친구네김치찌개","tel":"031-407-8768","addr":"경기도 안산시 상록구 팔곡이동 364-6번지 1층 3호","category":"일반휴게음식 - 일반한식"}]},{"lat":"37.2973167774","long":"126.8867709838","items":[{"name":"고기나라 팔곡점","tel":"031-407-9233","addr":"경기도 안산시 상록구 팔곡이동 364-6번지","category":"숙박 및 음식점업 - 한식"}]},{"lat":"37.297450718","long":"126.88554143","items":[{"name":"고려영수학학원","tel":"031-502-0901","addr":"경기도 안산시 상록구 팔곡이동 370번지 2층","category":"학원 - 보습학원"},{"name":"삼천리","tel":"031-437-8935","addr":"경기도 안산시 상록구 팔곡이동 370번지","category":"음료식품 - 정육점"},{"name":"삼천리하이퍼마켓","tel":"031-438-0214","addr":"경기도 안산시 상록구 팔곡이동 370번지","category":"유통업 영리 - 슈퍼마켓"},{"name":"유토피아미용실","tel":"031-437-1506","addr":"경기도 안산시 상록구 팔곡이동 370번지 1층","category":"보건위생 - 미용원"}]},{"lat":"37.297318097","long":"126.88812439","items":[{"name":"곤드레만드레","tel":"031-437-2214","addr":"경기도 안산시 상록구 팔곡이동 356-1번지","category":"일반휴게음식 - 주점"},{"name":"남해수산","tel":"031-501-6107","addr":"경기도 안산시 상록구 팔곡이동 356-1번지 1층 2호","category":"음료식품 - 농·축·수산품"},{"name":"럭셔리노래연습장","tel":"031-502-2591","addr":"경기도 안산시 상록구 팔곡이동 356-1번지","category":"레저업소 - 노 래 방"},{"name":"열린라이브","tel":"031-437-7173","addr":"경기도 안산시 상록구 팔곡이동 356-1번지 3층","category":"일반휴게음식 - 주점"},{"name":"열린라이브","tel":"","addr":"경기도 안산시 상록구 팔곡이동 356-1번지 3층","category":"일반휴게음식 - 주점"},{"name":"우묵골식당","tel":"031-437-1017","addr":"경기도 안산시 상록구 팔곡이동 356-1번지","category":"일반휴게음식 - 일반한식"}]},{"lat":"37.294341944","long":"126.88529815","items":[{"name":"굿디젤","tel":"031-486-8200","addr":"경기도 안산시 상록구 팔곡이동 421-5번지","category":"자동차정비 유지 - 자동차부품"}]},{"lat":"37.2961728543","long":"126.8871562013","items":[{"name":"기호이발관","tel":"031-502-8809","addr":"경기도 안산시 상록구 팔곡이동 406-2번지","category":"협회 및 단체, 수리 및 기타 개인서"},{"name":"명품구제","tel":"070-8840-0224","addr":"경기도 안산시 상록구 팔곡이동 406-2번지","category":"도매 및 소매업 - 의류판매, 재활용"}]},{"lat":"37.296117896","long":"126.88624275","items":[{"name":"꽃돼지순대국","tel":"031-405-5536","addr":"경기도 안산시 상록구 팔곡이동 408-1번지 1층","category":"일반휴게음식 - 일반한식"},{"name":"팔곡가든","tel":"031-407-6200","addr":"경기도 안산시 상록구 팔곡이동 408-1번지","category":"일반휴게음식 - 일반한식"}]},{"lat":"37.28698224","long":"126.88698985","items":[{"name":"노루묵매점","tel":"031-438-1117","addr":"경기도 안산시 상록구 팔곡이동 70-3번지","category":"음료식품 - 기타음료식품"}]},{"lat":"37.296894299","long":"126.88779796","items":[{"name":"다미 종합화장품","tel":"031-858-3595","addr":"경기도 안산시 상록구 팔곡이동 358-2번지 1층","category":"보건위생 - 화장품"},{"name":"아주산업","tel":"031-438-8404","addr":"경기도 안산시 상록구 팔곡이동 358-2번지 1층 3호","category":"전기제품 - 기타전기제품"},{"name":"진아 인테리어","tel":"031-437-0224","addr":"경기도 안산시 상록구 팔곡이동 358-2번지 1층","category":"건축자재 - 인테리어전문"},{"name":"팔곡노래연습장","tel":"031-437-9858","addr":"경기도 안산시 상록구 팔곡이동 358-2번지 B01호","category":"레저업소 - 노 래 방"},{"name":"행운떡방앗간","tel":"031-501-7782","addr":"경기도 안산시 상록구 팔곡이동 358-2번지 일부 1층","category":"음료식품 - 제과점"}]},{"lat":"37.297092711","long":"126.88798939","items":[{"name":"달달커피","tel":"031-415-8920","addr":"경기도 안산시 상록구 팔곡이동 356-7번지","category":"일반휴게음식 - 서양음식"},{"name":"태산특수인쇄","tel":"031-1588-2672","addr":"경기도 안산시 상록구 팔곡이동 356-7번지 2층","category":"서적문구 - 출판 및 인쇄물"},{"name":"팔곡 한의원","tel":"031-480-3078","addr":"경기도 안산시 상록구 팔곡이동 356-7번지 2층","category":"의원 - 한의원"},{"name":"행복을 주는 집","tel":"031-503-2431","addr":"경기도 안산시 상록구 팔곡이동 356-7번지 1층 2호","category":"신변잡화 - 기타잡화"}]},{"lat":"37.293872716","long":"126.88459965","items":[{"name":"담원골","tel":"031-437-2233","addr":"경기도 안산시 상록구 팔곡이동 442-5번지 1층","category":"일반휴게음식 - 일반한식"}]},{"lat":"37.2938729407","long":"126.8848252058","items":[{"name":"담원골","tel":"031-437-2233","addr":"경기도 안산시 상록구 팔곡이동 442-13번지","category":"숙박 및 음식점업 - 한식"}]},{"lat":"37.2971730996","long":"126.8872674525","items":[{"name":"담원축산","tel":"031-502-9282","addr":"경기도 안산시 상록구 팔곡이동 357-3번지","category":"도매 및 소매업 - 식육"},{"name":"동네감자탕","tel":"031-501-4642","addr":"경기도 안산시 상록구 팔곡이동 357-3번지","category":"숙박 및 음식점업 - 한식"},{"name":"또봉이통닭","tel":"031-501-9292","addr":"경기도 안산시 상록구 팔곡이동 357-3번지","category":"숙박 및 음식점업 - 치킨"},{"name":"현대한식뷔페","tel":"031-403-7100","addr":"경기도 안산시 상록구 팔곡이동 357-3번지","category":"숙박 및 음식점업 - 한식"}]},{"lat":"37.2971731","long":"126.88726745","items":[{"name":"담원축산","tel":"031-502-9282","addr":"경기도 안산시 상록구 팔곡이동 357-3번지 풍강빌딩 104호","category":"음료식품 - 정육점"},{"name":"예진미용실","tel":"031-502-9282","addr":"경기도 안산시 상록구 팔곡이동 357-3 풍강빌딩 104","category":"보건위생 - 미용원"},{"name":"장수식당","tel":"031-418-9580","addr":"경기도 안산시 상록구 팔곡이동 357-3번지","category":"일반휴게음식 - 일반한식"},{"name":"장수식당","tel":"031-418-9580","addr":"경기도 안산시 상록구 팔곡이동 357-3번지 풍강빌딩 105호","category":"일반휴게음식 - 일반한식"},{"name":"중화루","tel":"031-438-6668","addr":"경기도 안산시 상록구 팔곡이동 357-3번지 가동상가 1층","category":"일반휴게음식 - 중국식"},{"name":"플렉스(FLEX)헬스클럽","tel":"031-502-3533","addr":"경기도 안산시 상록구 팔곡이동 357-3번지","category":"레저업소 - 헬스클럽"},{"name":"현대한식뷔페","tel":"031-403-7100","addr":"경기도 안산시 상록구 팔곡이동 357-3번지 풍강빌딩 1층 101호","category":"일반휴게음식 - 일반한식"}]},{"lat":"37.296758188","long":"126.88681696","items":[{"name":"대림씽크","tel":"031-438-5351","addr":"경기도 안산시 상록구 팔곡이동 358-21번지 세영퍼스트빌","category":"주방용구 - 주방용구"}]},{"lat":"37.289846129","long":"126.88559835","items":[{"name":"대성산업/원격지","tel":"031-438-0388","addr":"경기도 안산시 상록구 팔곡이동 60-2번지 2층","category":"기타 - 기타 전문점"}]},{"lat":"37.287098029","long":"126.88562517","items":[{"name":"대일식당","tel":"070-4110-2699","addr":"경기도 안산시 상록구 팔곡이동 75-13번지 지층 대일강업","category":"일반휴게음식 - 위탁급식업"}]},{"lat":"37.293755695","long":"126.88471261","items":[{"name":"대한카센타","tel":"031-437-8473","addr":"경기도 안산시 상록구 팔곡이동 442-10번지","category":"자동차정비 유지 - 자동차정비"}]},{"lat":"37.297263059","long":"126.8871207","items":[{"name":"동네감자탕","tel":"031-501-4642","addr":"경기도 안산시 상록구 팔곡이동 357-3번지 풍강빌딩 나동 1층","category":"일반휴게음식 - 일반한식"}]},{"lat":"37.28743201","long":"126.88623361","items":[{"name":"동민산업개발주식회사","tel":"031-437-6579","addr":"경기도 안산시 상록구 팔곡이동 69-14번지","category":"용역 서비스 - 종합용역"}]},{"lat":"37.293736247","long":"126.88329163","items":[{"name":"두례갤러리","tel":"031-242-6019","addr":"경기도 안산시 상록구 팔곡이동 449-6번지","category":"일반휴게음식 - 일반한식"}]},{"lat":"37.296008533","long":"126.88499104","items":[{"name":"디바인동화","tel":"031-502-7866","addr":"경기도 안산시 상록구 팔곡이동 426번지 나동","category":"건축자재 - 기타건축자재"}]},{"lat":"37.297272322","long":"126.88738008","items":[{"name":"또봉이통닭(팔곡점)","tel":"031-501-9292","addr":"경기도 안산시 상록구 팔곡이동 357-3번지 풍강빌딩 가동 102호","category":"일반휴게음식 - 스넥"}]},{"lat":"37.293845763","long":"126.8940731","items":[{"name":"뜰안의행복야생화천국","tel":"02-1644-3306","addr":"경기도 안산시 상록구 팔곡이동 10-5","category":"문화.취미 - 화원"}]},{"lat":"37.2973180974","long":"126.8881243877","items":[{"name":"럭셔리노래연습장","tel":"070-8111-3573","addr":"경기도 안산시 상록구 팔곡이동 356-1번지","category":"협회 및 단체, 수리 및 기타 개인서"}]},{"lat":"37.295179592","long":"126.88499233","items":[{"name":"런던브릭스(주)","tel":"031-415-3388","addr":"경기도 안산시 상록구 팔곡이동 424-15번지","category":"음료식품 - 기타음료식품"}]},{"lat":"37.296479422","long":"126.8873813","items":[{"name":"로또복권방","tel":"031-438-3272","addr":"경기도 안산시 상록구 팔곡이동 358-6번지 108호","category":"문화.취미 - 문화취미기타"},{"name":"청담추어정","tel":"031-502-4200","addr":"경기도 안산시 상록구 팔곡이동 358-6번지 외1필지","category":"일반휴게음식 - 일반한식"},{"name":"청보산업(주)","tel":"031-502-2361","addr":"경기도 안산시 상록구 팔곡이동 358-6번지","category":"기타 - 기계공구"}]},{"lat":"37.290118353","long":"126.8875489","items":[{"name":"만리장성","tel":"031-438-0566","addr":"경기도 안산시 상록구 팔곡이동 51-1번지","category":"일반휴게음식 - 중국식"},{"name":"에스케이홈시스템주식회사","tel":"031-437-2010","addr":"경기도 안산시 상록구 팔곡이동 51-1번지","category":"전기제품 - 냉열기기"}]},{"lat":"37.2901183533","long":"126.8875489035","items":[{"name":"만리장성","tel":"031-438-0566","addr":"경기도 안산시 상록구 팔곡이동 51-1번지","category":"숙박 및 음식점업 - 중식"}]},{"lat":"37.293700036","long":"126.88312252","items":[{"name":"매직세븐 시원상사","tel":"031-237-7790","addr":"경기도 안산시 상록구 팔곡이동 450-5번지 은덕교회 102호","category":"주방용구 - 주방용구"}]},{"lat":"37.29564864","long":"126.8855104","items":[{"name":"명성공업사","tel":"031-483-5511","addr":"경기도 안산시 상록구 팔곡이동 412-4번지","category":"기타 - 기타 전문점"}]},{"lat":"37.296729822","long":"126.8854636","items":[{"name":"뮤즈음악학원","tel":"031-501-6995","addr":"경기도 안산시 상록구 팔곡이동 405번지 2층","category":"학원 - 예·체능계학원"},{"name":"올림픽태권도장","tel":"031-437-6981","addr":"경기도 안산시 상록구 팔곡이동 405번지 3층","category":"학원 - 예·체능계학원"}]},{"lat":"37.293096772","long":"126.88354075","items":[{"name":"미래상사","tel":"031-417-3695","addr":"경기도 안산시 상록구 팔곡이동 474-4번지","category":"자동차정비 유지 - 자동차부품"},{"name":"부자공업사","tel":"070-5103-2833","addr":"경기도 안산시 상록구 팔곡이동 474-4번지","category":"자동차정비 유지 - 자동차부품"},{"name":"안산센타","tel":"031-482-4370","addr":"경기도 안산시 상록구 팔곡이동 474-4번지","category":"수리서비스 - 기타수리서비스"},{"name":"안산타이어","tel":"031-502-3978","addr":"경기도 안산시 상록구 팔곡이동 474-4번지","category":"자동차정비 유지 - 자동차시트·타이어"}]},{"lat":"37.296172854","long":"126.8871562","items":[{"name":"빈티지멀티샵","tel":"070-8840-0224","addr":"경기도 안산시 상록구 팔곡이동 406-2번지 101호","category":"의류 - 정장"},{"name":"소망떡방앗간","tel":"031-437-8155","addr":"경기도 안산시 상록구 팔곡이동 406-2번지","category":"음료식품 - 제과점"}]},{"lat":"37.294311976","long":"126.88237721","items":[{"name":"산들토종닭","tel":"031-438-0001","addr":"경기도 안산시 상록구 팔곡이동 456-3번지 8(1층)","category":"일반휴게음식 - 일반한식"}]},{"lat":"37.286511949","long":"126.88520884","items":[{"name":"삼정케미칼","tel":"031-437-2295","addr":"경기도 안산시 상록구 팔곡이동 75-3번지","category":"기타 - 기타 전문점"},{"name":"이건물류보관창고","tel":"031-406-3308","addr":"경기도 안산시 상록구 팔곡이동 75-3번지","category":"용역 서비스 - 보관및 창고업"}]},{"lat":"37.2974507184","long":"126.8855414321","items":[{"name":"삼천리정육점","tel":"031-437-8935","addr":"경기도 안산시 상록구 팔곡이동 370번지","category":"도매 및 소매업 - 식육"}]},{"lat":"37.2979808249","long":"126.8840405707","items":[{"name":"삼천리하이퍼마켓","tel":"031-438-0214","addr":"경기도 안산시 상록구 팔곡이동 379번지","category":"도매 및 소매업 - 슈퍼담배"}]},{"lat":"37.2879268145","long":"126.8854660071","items":[{"name":"상록렌탈","tel":"031-409-6057","addr":"경기도 안산시 상록구 팔곡이동 68-3번지","category":"협회 및 단체, 수리 및 기타 개인서"}]},{"lat":"37.29472982","long":"126.88573738","items":[{"name":"상록웰가","tel":"031-408-8759","addr":"경기도 안산시 상록구 팔곡이동 414-3번지","category":"음료식품 - 기타음료식품"},{"name":"주식회사상록웰가","tel":"031-408-8759","addr":"경기도 안산시 상록구 팔곡이동 414-3번지","category":"유통업 영리 - 슈퍼마켓"}]},{"lat":"37.293485084","long":"126.88440853","items":[{"name":"색동면옥","tel":"031-501-4100","addr":"경기도 안산시 상록구 팔곡이동 444-4번지 1층","category":"일반휴게음식 - 일반한식"},{"name":"화수목중화요리","tel":"031-501-4100","addr":"경기도 안산시 상록구 팔곡이동 444-4번지","category":"일반휴게음식 - 중국식"}]},{"lat":"37.297316089","long":"126.88607173","items":[{"name":"서울우유팔곡고객센터","tel":"031-437-6553","addr":"경기도 안산시 상록구 팔곡이동 364-2번지 1층","category":"음료식품 - 기타음료식품"}]},{"lat":"37.296232921","long":"126.88412227","items":[{"name":"서원테크","tel":"031-409-6497","addr":"경기도 안산시 상록구 팔곡이동 404-18번지","category":"사무통신 - 기타 사무용품"}]},{"lat":"37.29609163","long":"126.88702099","items":[{"name":"선우상사","tel":"031-430-6510","addr":"경기도 안산시 상록구 팔곡이동 408-3번지","category":"자동차정비 유지 - 자동차부품"},{"name":"신원철물건재","tel":"031-437-7509","addr":"경기도 안산시 상록구 팔곡이동 408-3번지","category":"건축자재 - 목재·석재·철물"},{"name":"안산 카배터리","tel":"03-100-0000","addr":"경기도 안산시 상록구 팔곡이동 408-3번지 1층","category":"자동차정비 유지 - 자동차부품"},{"name":"장성수산","tel":"031-407-7197","addr":"경기도 안산시 상록구 팔곡이동 408-3번지 건물좌측2,3번칸전부","category":"음료식품 - 농·축·수산품"},{"name":"장어숲","tel":"","addr":"경기도 안산시 상록구 팔곡이동 408-3번지","category":"음료식품 - 농·축·수산품"}]},{"lat":"37.295234125","long":"126.88546593","items":[{"name":"세븐일레븐안산담원길점","tel":"031-1577-0711","addr":"경기도 안산시 상록구 팔곡이동 422-4번지 1층 101호","category":"유통업 영리 - 편 의 점"}]},{"lat":"37.297235486","long":"126.8865681","items":[{"name":"세븐일레븐안산팔곡중앙점","tel":"031-1577-0711","addr":"경기도 안산시 상록구 팔곡이동 364번지 1층 101호","category":"유통업 영리 - 편 의 점"},{"name":"채움어린이집[아이행복]","tel":"031-437-2670","addr":"경기도 안산시 상록구 팔곡이동 364번지 1층","category":"학원 - 유아원"}]},{"lat":"37.289619298","long":"126.88401989","items":[{"name":"소미","tel":"031-111-1111","addr":"경기도 안산시 상록구 팔곡이동 230-1번지","category":"문화.취미 - 화원"}]},{"lat":"37.2973692456","long":"126.8851580934","items":[{"name":"손커피연구소","tel":"070-8268-3357","addr":"경기도 안산시 상록구 팔곡이동 377-1번지","category":"숙박 및 음식점업 - 휴게음식점"}]},{"lat":"37.297369246","long":"126.88515809","items":[{"name":"손커피연구소","tel":"","addr":"경기도 안산시 상록구 팔곡이동 377-1번지 ,1-2층","category":"일반휴게음식 - 서양음식"},{"name":"손커피연구소","tel":"070-8268-3357","addr":"경기도 안산시 상록구 팔곡이동 377-1번지 ,1,2층","category":"일반휴게음식 - 서양음식"}]},{"lat":"37.29645248","long":"126.88747156","items":[{"name":"수성운반기계","tel":"031-438-5163","addr":"경기도 안산시 상록구 팔곡이동 358-6번지 나동 102호","category":"기타 - 기계공구"}]},{"lat":"37.296260538","long":"126.88470869","items":[{"name":"순식품","tel":"031-681-6075","addr":"경기도 안산시 상록구 팔곡이동 429-16번지 1층","category":"음료식품 - 기타음료식품"}]},{"lat":"37.291562296","long":"126.88993753","items":[{"name":"신동방구내매점","tel":"031-400-3027","addr":"경기도 안산시 상록구 팔곡이동 27번지","category":"음료식품 - 기타음료식품"}]},{"lat":"37.293259466","long":"126.884048","items":[{"name":"씨유SK팔곡주유소점","tel":"031-486-7547","addr":"경기도 안산시 상록구 팔곡이동 445-4번지","category":"유통업 영리 - 편 의 점"}]},{"lat":"37.293953582","long":"126.88437396","items":[{"name":"안산럭키상사","tel":"031-416-5884","addr":"경기도 안산시 상록구 팔곡이동 442-6번지","category":"직물 - 카페트,커튼,천막,지물"}]},{"lat":"37.28875677","long":"126.88649093","items":[{"name":"알파펌프(주)","tel":"031-438-0151","addr":"경기도 안산시 상록구 팔곡이동 50-13번지","category":"전기제품 - 기타전기제품"}]},{"lat":"37.294674738","long":"126.88471117","items":[{"name":"에스엠하우징","tel":"031-501-6530","addr":"경기도 안산시 상록구 팔곡이동 424-8번지","category":"건축자재 - 인테리어전문"},{"name":"오쇼비어","tel":"031-501-6530","addr":"경기도 안산시 상록구 팔곡이동 424-8번지 1층","category":"일반휴게음식 - 스넥"},{"name":"유명중기","tel":"031-502-3497","addr":"경기도 안산시 상록구 팔곡이동 424-8번지","category":"기타 - 기타 전문점"}]},{"lat":"37.297232727","long":"126.88379362","items":[{"name":"에이쓰리","tel":"031-505-3227","addr":"경기도 안산시 상록구 팔곡이동 383-2번지","category":"서적문구 - 과학기자재"},{"name":"에이쓰리/원격지","tel":"031-505-3227","addr":"경기도 안산시 상록구 팔곡이동 383-2","category":"기타 - 기타 전문점"}]},{"lat":"37.297313921","long":"126.883895","items":[{"name":"에이쓰리켐 주식회사","tel":"031-505-3227","addr":"경기도 안산시 상록구 팔곡이동 383-2번지 나동 1층","category":"신변잡화 - 기타잡화"}]},{"lat":"37.294538669","long":"126.88379787","items":[{"name":"엘리트도어","tel":"031-437-8875","addr":"경기도 안산시 상록구 팔곡이동 434-5번지 101호","category":"건축자재 - 기타건축자재"}]},{"lat":"37.289982273","long":"126.88660182","items":[{"name":"엘리트메탈","tel":"031-437-1476","addr":"경기도 안산시 상록구 팔곡이동 49-1번지","category":"기타 - 기타 전문점"}]},{"lat":"37.296729621","long":"126.88526059","items":[{"name":"열린마트","tel":"031-502-4064","addr":"경기도 안산시 상록구 팔곡이동 405-9번지 1층","category":"유통업 영리 - 슈퍼마켓"}]},{"lat":"37.289784048","long":"126.88660212","items":[{"name":"오뚜기식당","tel":"031-437-2560","addr":"경기도 안산시 상록구 팔곡이동 49-2번지","category":"일반휴게음식 - 일반한식"}]},{"lat":"37.2967298221","long":"126.8854636039","items":[{"name":"올림픽태권도장","tel":"031-437-6981","addr":"경기도 안산시 상록구 팔곡이동 405번지","category":"예술, 스포츠 및 여가관련 서비스업"}]},{"lat":"37.292396494","long":"126.88606805","items":[{"name":"왕왕수산","tel":"","addr":"경기도 안산시 상록구 팔곡이동 186번지","category":"음료식품 - 농·축·수산품"}]},{"lat":"37.294646258","long":"126.88326764","items":[{"name":"일해할인마트","tel":"031-502-0241","addr":"경기도 안산시 상록구 팔곡이동 438-9번지 그린타운3차 103호","category":"유통업 영리 - 슈퍼마켓"}]},{"lat":"37.294033528","long":"126.88323477","items":[{"name":"제일버스장식","tel":"031-416-5859","addr":"경기도 안산시 상록구 팔곡이동 451번지 2층","category":"자동차정비 유지 - 카인테리어"}]},{"lat":"37.296341551","long":"126.88462962","items":[{"name":"제일유통","tel":"031-487-9800","addr":"경기도 안산시 상록구 팔곡이동 산52-5번지","category":"유통업 영리 - 슈퍼마켓"},{"name":"주식회사  트리코페이퍼","tel":"031-502-1245","addr":"경기도 안산시 상록구 팔곡이동 산52-5번지","category":"유통업 영리 - 기타유통업"}]},{"lat":"37.292233897","long":"126.88565103","items":[{"name":"주식회사 글로벌신성","tel":"031-501-3348","addr":"경기도 안산시 상록구 팔곡이동 186-2번지","category":"음료식품 - 농·축·수산품"}]},{"lat":"37.2900099","long":"126.88721075","items":[{"name":"주식회사 디에스에이","tel":"031-416-6064","addr":"경기도 안산시 상록구 팔곡이동 51 디에스빌딩","category":"유통업 영리 - 기타유통업"}]},{"lat":"37.28706249","long":"126.88613268","items":[{"name":"주식회사 에스제이켐","tel":"031-437-2276","addr":"경기도 안산시 상록구 팔곡이동 75-5번지","category":"서적문구 - 과학기자재"}]},{"lat":"37.28764697","long":"126.88493643","items":[{"name":"주식회사 에이치디컴퍼니","tel":"031-405-8221","addr":"경기도 안산시 상록구 팔곡이동 75-9번지 1층 일부","category":"건축자재 - 기타건축자재"},{"name":"주식회사 엠씨엠코리아","tel":"031-487-2219","addr":"경기도 안산시 상록구 팔곡이동 75-9번지 2층","category":"용역 서비스 - 기타용역서비스"}]},{"lat":"37.297119577","long":"126.88782017","items":[{"name":"주식회사 유진투어네트워크","tel":"031-461-8500","addr":"경기도 안산시 상록구 팔곡이동 358-1번지 203호","category":"여행 - 관광여행"}]},{"lat":"37.294089152","long":"126.88479103","items":[{"name":"주식회사 하나미크론","tel":"031-502-4313","addr":"경기도 안산시 상록구 팔곡이동 416-1번지 1층","category":"기타 - 기계공구"},{"name":"하나실드웍스/원격지","tel":"031-409-2240","addr":"경기도 안산시 상록구 팔곡이동 416-1번지 1016동 103호","category":"기타 - 기타 전문점"}]},{"lat":"37.295341247","long":"126.88446201","items":[{"name":"주식회사부라보","tel":"0505-560-5000","addr":"경기도 안산시 상록구 팔곡이동 432-8번지 1층","category":"음료식품 - 정육점"}]},{"lat":"37.289207857","long":"126.88707665","items":[{"name":"주식회사써켐","tel":"031-437-1619","addr":"경기도 안산시 상록구 팔곡이동 50-8번지","category":"기타 - 기타 전문점"}]},{"lat":"37.295234259","long":"126.88560127","items":[{"name":"주식회사케이이에스","tel":"031-509-6977","addr":"경기도 안산시 상록구 팔곡이동 414-24번지 1층","category":"용역 서비스 - 사무서비스"}]},{"lat":"37.296701294","long":"126.88396364","items":[{"name":"주식회사희망리사이클링","tel":"031-407-0224","addr":"경기도 안산시 상록구 팔곡이동 399-1번지","category":"의류 - 기타의류"}]},{"lat":"37.293456759","long":"126.88312291","items":[{"name":"주신마트","tel":"031-438-8007","addr":"경기도 안산시 상록구 팔곡이동 472-4번지 1층 101호","category":"유통업 영리 - 슈퍼마켓"}]},{"lat":"37.287675319","long":"126.88626706","items":[{"name":"중앙상사","tel":"031-483-8014","addr":"경기도 안산시 상록구 팔곡이동 69-3번지","category":"자동차정비 유지 - 자동차부품"}]},{"lat":"37.294286156","long":"126.88357271","items":[{"name":"중앙할인마트","tel":"031-437-5702","addr":"경기도 안산시 상록구 팔곡이동 440-1번지 101호","category":"유통업 영리 - 슈퍼마켓"}]},{"lat":"37.294511888","long":"126.88404603","items":[{"name":"지암기업","tel":"031-502-4911","addr":"경기도 안산시 상록구 팔곡이동 417-1번지","category":"건축자재 - 건축용 요업제품"}]},{"lat":"37.294928535","long":"126.88623331","items":[{"name":"진흥종합설비","tel":"031-437-5999","addr":"경기도 안산시 상록구 팔곡이동 410-8번지 성은빌딩 1층 정면왼쪽에서첫번째점포","category":"용역 서비스 - 기타용역서비스"}]},{"lat":"37.2964794224","long":"126.8873812968","items":[{"name":"청담 추어정","tel":"","addr":"경기도 안산시 상록구 팔곡이동 358-6번지","category":"숙박 및 음식점업 - 음식"}]},{"lat":"37.2966224355","long":"126.8862081372","items":[{"name":"친구네김치찌개","tel":"","addr":"경기도 안산시 상록구 팔곡이동 405-5번지 다운주택","category":"숙박 및 음식점업 - 한식"}]},{"lat":"37.293276555","long":"126.88312319","items":[{"name":"콩콩스토리","tel":"","addr":"경기도 안산시 상록구 팔곡이동 473-2번지 신우빌라 A동 202호","category":"신변잡화 - 기타잡화"}]},{"lat":"37.293673404","long":"126.88351729","items":[{"name":"태극창호","tel":"031-502-5981","addr":"경기도 안산시 상록구 팔곡이동 449-12번지 1층","category":"직물 - 카페트,커튼,천막,지물"}]},{"lat":"37.297287287","long":"126.88428979","items":[{"name":"티휠(T Wheel)","tel":"031-503-4189","addr":"경기도 안산시 상록구 팔곡이동 382-3번지 1층","category":"자동차정비 유지 - 자동차부품"}]},{"lat":"37.297150712","long":"126.88288021","items":[{"name":"팔곡초등학교","tel":"031-4323-3505","addr":"경기도 안산시 상록구 팔곡이동 385번지","category":"학원 - 초중고교육기관"}]},{"lat":"37.294981142","long":"126.88476708","items":[{"name":"하이원공조테크","tel":"031-427-1385","addr":"경기도 안산시 상록구 팔곡이동 424-16번지","category":"용역 서비스 - 기타용역서비스"}]},{"lat":"37.294538329","long":"126.88345953","items":[{"name":"한국채널","tel":"031-419-6999","addr":"경기도 안산시 상록구 팔곡이동 438-3번지 1층","category":"건축자재 - 인테리어전문"}]},{"lat":"37.287313423","long":"126.88476779","items":[{"name":"한성기공구내식당","tel":"031-502-5002","addr":"경기도 안산시 상록구 팔곡이동 75-12번지","category":"일반휴게음식 - 위탁급식업"}]},{"lat":"37.293564688","long":"126.88293101","items":[{"name":"해움어린이집[아이행복]","tel":"031-422-1663","addr":"경기도 안산시 상록구 팔곡이동 472-3번지","category":"학원 - 유아원"}]},{"lat":"37.294512419","long":"126.88457609","items":[{"name":"현대에어컨","tel":"031-491-9896","addr":"경기도 안산시 상록구 팔곡이동 424-9번지 대성빌라 1층","category":"용역 서비스 - 기타용역서비스"}]}]