[{"lat":"37.695487504","long":"126.79712366","items":[{"name":"(주) 모터원 고양사고수리 전문센터","tel":"031-979-4134","addr":"경기도 고양시 일산동구 성석동 733-4번지","category":"자동차정비 유지 - 자동차부품"},{"name":"(주)하늘자동차","tel":"031-975-7786","addr":"경기도 고양시 일산동구 성석동 733-4번지","category":""}]},{"lat":"37.701624168","long":"126.80840068","items":[{"name":"(주) 모하니","tel":"070-8240-2247","addr":"경기도 고양시 일산동구 성석동 82번지","category":""},{"name":"(주) 모하니","tel":"070-8240-2247","addr":"경기도 고양시 일산동구 성석동 82번지","category":"문화.취미 - 티켓"}]},{"lat":"37.711763487","long":"126.78959368","items":[{"name":"(주)1급양지모터스","tel":"02-1833-9755","addr":"경기도 고양시 일산동구 성석동 1227-18번지","category":"자동차정비 유지 - 자동차정비"},{"name":"(주)1급양지모터스","tel":"02-1833-9755","addr":"경기도 고양시 일산동구 성석동 1227-18번지","category":"자동차정비 유지 - 자동차정비"},{"name":"(주)중산자동차정비검사소","tel":"031-977-4733","addr":"경기도 고양시 일산동구 성석동 1227-18번지","category":""},{"name":"1급 양지모터스","tel":"02-1833-9755","addr":"경기도 고양시 일산동구 성석동 1227-18번지","category":""},{"name":"1급양지모터스","tel":"031-1833-9755","addr":"경기도 고양시 일산동구 성석동 1227-18번지","category":""},{"name":"주식회사 탑클래스자동차","tel":"031-926-4055","addr":"경기도 고양시 일산동구 성석동 1227-18번지","category":""},{"name":"주식회사탑클래스자동차","tel":"031-926-4055","addr":"경기도 고양시 일산동구 성석동 1227-18번지","category":""}]},{"lat":"37.698516614","long":"126.79820382","items":[{"name":"(주)동양판넬산업","tel":"031-977-9643","addr":"경기도 고양시 일산동구 성석동 638번지","category":""},{"name":"(주)동양판넬산업","tel":"031-977-9643","addr":"경기도 고양시 일산동구 성석동 638번지","category":"건축자재 - 기타건축자재"},{"name":"신성종합물류","tel":"031-975-7228","addr":"경기도 고양시 일산동구 성석동 638번지","category":""},{"name":"신성종합물류","tel":"031-975-7228","addr":"경기도 고양시 일산동구 성석동 638번지","category":"음료식품 - 기타음료식품"}]},{"lat":"37.713540954","long":"126.79609841","items":[{"name":"(주)드림볼침대","tel":"031-907-3753","addr":"경기도 고양시 일산동구 성석동 1019-6번지","category":""},{"name":"(주)메디코스타","tel":"02-354-0717","addr":"경기도 고양시 일산동구 성석동 1019-6번지","category":""},{"name":"알앤피 코리아","tel":"031-962-2580","addr":"경기도 고양시 일산동구 성석동 1019-6번지","category":""}]},{"lat":"37.688736107","long":"126.80048684","items":[{"name":"(주)로페코다마거","tel":"031-977-0112","addr":"경기도 고양시 일산동구 성석동 816-3번지","category":""},{"name":"(주)좋은하루통상","tel":"031-0-0000","addr":"경기도 고양시 일산동구 성석동 816-3번지","category":""},{"name":"(주)코어스코리아","tel":"031-977-0112","addr":"경기도 고양시 일산동구 성석동 816-3번지","category":"건축자재 - 기타건축자재"}]},{"lat":"37.705902694","long":"126.80240199","items":[{"name":"(주)리더스엘앤에스","tel":"031-977-5726","addr":"경기도 고양시 일산동구 성석동 423-16번지","category":"주방용구 - 주방용구"},{"name":"(주)리더스엘앤에스","tel":"031-977-5726","addr":"경기도 고양시 일산동구 성석동 423-16번지","category":""},{"name":"리더스","tel":"02-977-5726","addr":"경기도 고양시 일산동구 성석동 423-16번지","category":"주방용구 - 주방용구"},{"name":"리더스","tel":"02-977-5726","addr":"경기도 고양시 일산동구 성석동 423-16번지","category":""}]},{"lat":"37.706425876","long":"126.78743169","items":[{"name":"(주)몽키넛","tel":"031-977-6893","addr":"경기도 고양시 일산동구 성석동 1281-1번지","category":""},{"name":"신명에이팩,박스싸다","tel":"031-977-2864","addr":"경기도 고양시 일산동구 성석동","category":"기타 - 기타 전문점"},{"name":"신명에이팩,박스싸다","tel":"031-977-2864","addr":"경기도 고양시 일산동구 성석동 1281-1","category":""},{"name":"에스컴퍼니(S Company)","tel":"031-976-2372","addr":"경기도 고양시 일산동구 성석동 1281-1번지","category":""},{"name":"주식회사 쓰리디지뷰아시아","tel":"031-977-2990","addr":"경기도 고양시 일산동구 성석동 1281-1","category":""},{"name":"주식회사 쓰리디지뷰아시아","tel":"031-977-2990","addr":"경기도 고양시 일산동구 성석동","category":"용역 서비스 - 사무서비스"},{"name":"청솔농원","tel":"031-977-8698","addr":"경기도 고양시 일산동구 성석동 1281-1번지","category":""},{"name":"청솔농원","tel":"031-977-8698","addr":"경기도 고양시 일산동구 성석동","category":"일반휴게음식 - 일반한식"}]},{"lat":"37.688151485","long":"126.79587415","items":[{"name":"(주)삼성카인드","tel":"031-508-2627","addr":"경기도 고양시 일산동구 성석동 873-6번지","category":"전기제품 - 냉열기기"},{"name":"(주)삼성카인드","tel":"031-508-2627","addr":"경기도 고양시 일산동구 성석동 873-6번지","category":""},{"name":"(주)삼성카인드","tel":"031-508-2627","addr":"경기도 고양시 일산동구 성석동 873-6번지","category":""},{"name":"굿슬리피","tel":"031-111-1111","addr":"경기도 고양시 일산동구 성석동 873-6번지","category":""},{"name":"솔라가드 일산성석점","tel":"031-975-8088","addr":"경기도 고양시 일산동구 성석동 873-6번지","category":""},{"name":"카 핏 일산점","tel":"031-975-8088","addr":"경기도 고양시 일산동구 성석동 873-6번지","category":""},{"name":"카 핏 일산점","tel":"031-975-8088","addr":"경기도 고양시 일산동구 성석동 873-6번지","category":"자동차정비 유지 - 카인테리어"}]},{"lat":"37.691351175","long":"126.80181759","items":[{"name":"(주)샤인로드","tel":"070-7726-9733","addr":"경기도 고양시 일산동구 성석동 807-1번지","category":""},{"name":"앤트사운드","tel":"031-975-8309","addr":"경기도 고양시 일산동구 성석동 807-1번지","category":""},{"name":"케이엠에스(KMS)","tel":"031-919-1255","addr":"경기도 고양시 일산동구 성석동 807-1번지","category":""}]},{"lat":"37.715290339","long":"126.79187454","items":[{"name":"(주)선스카이","tel":"031-975-6261","addr":"경기도 고양시 일산동구 성석동 1075-9번지","category":"신변잡화 - 기타잡화"},{"name":"(주)선스카이","tel":"031-975-6261","addr":"경기도 고양시 일산동구 성석동 1075-9번지","category":""},{"name":"수안상역","tel":"031-977-7110","addr":"경기도 고양시 일산동구 성석동 1075-9번지","category":""},{"name":"수안상역","tel":"031-977-7110","addr":"경기도 고양시 일산동구 성석동 1075-9번지","category":"서적문구 - 과학기자재"}]},{"lat":"37.69929093","long":"126.81409895","items":[{"name":"(주)세븐디쉬","tel":"070-4216-6774","addr":"경기도 고양시 일산동구 성석동 53-49번지","category":""}]},{"lat":"37.709651165","long":"126.80806217","items":[{"name":"(주)스팀젯","tel":"031-914-8233","addr":"경기도 고양시 일산동구 성석동 493-1번지","category":""},{"name":"둘레길웰빙한식부페","tel":"031-976-1788","addr":"경기도 고양시 일산동구 성석동 493-1번지","category":"일반휴게음식 - 일반한식"},{"name":"둘레길웰빙한식부페","tel":"031-976-1788","addr":"경기도 고양시 일산동구 성석동 493-1번지","category":""}]},{"lat":"37.709041789","long":"126.78423744","items":[{"name":"(주)신라씨에프티","tel":"031-975-9946","addr":"경기도 고양시 일산동구 성석동","category":"신변잡화 - 기타잡화"},{"name":"(주)신라씨에프티","tel":"031-975-9946","addr":"경기도 고양시 일산동구 성석동 2193","category":""},{"name":"신라","tel":"031-977-5747","addr":"경기도 고양시 일산동구 성석동 2193","category":""}]},{"lat":"37.71384694","long":"126.79590476","items":[{"name":"(주)아라통상","tel":"031-111-1111","addr":"경기도 고양시 일산동구 성석동 1019-7번지","category":"음료식품 - 농·축·수산품"},{"name":"랭귀지맘","tel":"070-4141-8868","addr":"경기도 고양시 일산동구 성석동 1019-7번지","category":"서적문구 - 일반서적"},{"name":"랭귀지맘","tel":"070-4141-8868","addr":"경기도 고양시 일산동구 성석동 1019-7번지","category":""},{"name":"북팡(Bookpang)","tel":"070-8237-0572","addr":"경기도 고양시 일산동구 성석동 1019-7번지","category":"회원제형태 - 서적"},{"name":"북팡(Bookpang)","tel":"070-8237-0572","addr":"경기도 고양시 일산동구 성석동 1019-7번지","category":""},{"name":"비전유통","tel":"070-8290-7290","addr":"경기도 고양시 일산동구 성석동 1019-7번지","category":""},{"name":"비전유통","tel":"070-8290-7290","addr":"경기도 고양시 일산동구 성석동 1019-7번지","category":"음료식품 - 농·축·수산품"}]},{"lat":"37.700991096","long":"126.81245045","items":[{"name":"(주)아워홈 동양인재개발원고양점","tel":"031-935-1410","addr":"경기도 고양시 일산동구 성석동 57-1번지","category":"일반휴게음식 - 위탁급식업"},{"name":"씨유동양인재개발원점","tel":"031-910-4558","addr":"경기도 고양시 일산동구 성석동 57-1번지","category":"유통업 영리 - 편 의 점"},{"name":"씨유동양인재개발원점","tel":"031-910-4558","addr":"경기도 고양시 일산동구 성석동 57-1번지","category":""},{"name":"인재개발원매점","tel":"031-977-9000","addr":"경기도 고양시 일산동구 성석동 57-1번지","category":"유통업 영리 - 복지매장"},{"name":"인재개발원매점","tel":"031-977-9000","addr":"경기도 고양시 일산동구 성석동 57-1번지","category":""}]},{"lat":"37.699739689","long":"126.80214645","items":[{"name":"(주)알펜코리아","tel":"031-975-6367","addr":"경기도 고양시 일산동구 성석동 687-3번지","category":""}]},{"lat":"37.70823934","long":"126.79384507","items":[{"name":"(주)양지자동차","tel":"031-922-0882","addr":"경기도 고양시 일산동구 성석동 984-19번지","category":""},{"name":"(주)에프.알.피상사","tel":"02-2635-8955","addr":"경기도 고양시 일산동구 성석동 984-19번지","category":"기타 - 기타 전문점"},{"name":"(주)에프.알.피상사","tel":"02-2635-8955","addr":"경기도 고양시 일산동구 성석동 984-19번지","category":""},{"name":"(주)오토플러스","tel":"031-977-7515","addr":"경기도 고양시 일산동구 성석동 984-19번지","category":""},{"name":"대림자동차매매상사","tel":"031-977-1230","addr":"경기도 고양시 일산동구 성석동 984-19번지","category":"자동차판매 - 중고자동차판매"},{"name":"대림자동차매매상사","tel":"031-977-1230","addr":"경기도 고양시 일산동구 성석동 984-19번지","category":""},{"name":"동성자동차","tel":"031-977-0891","addr":"경기도 고양시 일산동구 성석동 984-19번지","category":"자동차판매 - 중고자동차판매"},{"name":"동성자동차","tel":"031-977-0891","addr":"경기도 고양시 일산동구 성석동 984-19번지","category":""},{"name":"성현모터스주식회사","tel":"031-123-4567","addr":"경기도 고양시 일산동구 성석동 984-19번지","category":"자동차판매 - 중고자동차판매"},{"name":"성현모터스주식회사","tel":"031-123-4567","addr":"경기도 고양시 일산동구 성석동 984-19번지","category":""},{"name":"주식회사 고양현대모터스","tel":"031-123-4567","addr":"경기도 고양시 일산동구 성석동 984-19번지","category":""},{"name":"주식회사 고양현대모터스","tel":"031-123-4567","addr":"경기도 고양시 일산동구 성석동 984-19번지","category":"자동차판매 - 중고자동차판매"},{"name":"주식회사 대한모터스","tel":"070-4242-0348","addr":"경기도 고양시 일산동구 성석동 984-19번지","category":""},{"name":"주식회사 바른손","tel":"031-977-6141","addr":"경기도 고양시 일산동구 성석동 984-19번지","category":"자동차판매 - 중고자동차판매"},{"name":"주식회사 바른손","tel":"031-977-6141","addr":"경기도 고양시 일산동구 성석동 984-19번지","category":""},{"name":"화정중고자동차매매","tel":"031-977-9360","addr":"경기도 고양시 일산동구 성석동 984-19번지","category":""},{"name":"화정중고자동차매매","tel":"031-977-9360","addr":"경기도 고양시 일산동구 성석동 984-19번지","category":"자동차판매 - 중고자동차판매"}]},{"lat":"37.711818566","long":"126.80570893","items":[{"name":"(주)어메이징박스","tel":"031-977-0244","addr":"경기도 고양시 일산동구 성석동 521-57번지","category":""}]},{"lat":"37.686659011","long":"126.80829238","items":[{"name":"(주)엠피테크","tel":"031-975-9736","addr":"경기도 고양시 일산동구 성석동 179-3번지","category":"보건위생 - 의료용품"}]},{"lat":"37.695766899","long":"126.79717958","items":[{"name":"(주)와이케이","tel":"031-977-8065","addr":"경기도 고양시 일산동구 성석동 733-1번지","category":""},{"name":"MBJ모터스","tel":"031-976-6011","addr":"경기도 고양시 일산동구 성석동 733-1번지","category":""},{"name":"MBJ모터스","tel":"031-976-6011","addr":"경기도 고양시 일산동구 성석동 733-1번지","category":"자동차판매 - 중고자동차판매"},{"name":"인진자동차","tel":"031-1588-7797","addr":"경기도 고양시 일산동구 성석동 733-1번지","category":""},{"name":"주식회사 카맥스","tel":"031-911-4989","addr":"경기도 고양시 일산동구 성석동 733-1번지","category":""}]},{"lat":"37.691930741","long":"126.80895888","items":[{"name":"(주)윈첼코리아","tel":"031-977-0651","addr":"경기도 고양시 일산동구 성석동 143번지","category":""},{"name":"(주)윈첼코리아","tel":"031-977-0651","addr":"경기도 고양시 일산동구 성석동 143번지","category":""},{"name":"제이에스케이(JSK)","tel":"031-977-0651","addr":"경기도 고양시 일산동구 성석동 143번지","category":""},{"name":"제이에스케이(JSK)","tel":"031-977-0651","addr":"경기도 고양시 일산동구 성석동 143번지","category":"주방용구 - 주방용구"}]},{"lat":"37.711038468","long":"126.80795647","items":[{"name":"(주)윤기모터스","tel":"031-976-7517","addr":"경기도 고양시 일산동구 성석동 494-7번지","category":""},{"name":"(주)윤기모터스","tel":"031-976-7517","addr":"경기도 고양시 일산동구 성석동 494-7번지","category":"자동차정비 유지 - 자동차정비"},{"name":"(주)자동차마을","tel":"031-906-5050","addr":"경기도 고양시 일산동구 성석동 494-7번지","category":""},{"name":"(주)자동차마을","tel":"031-906-5050","addr":"경기도 고양시 일산동구 성석동 494-7번지","category":"자동차판매 - 중고자동차판매"}]},{"lat":"37.705208765","long":"126.80229046","items":[{"name":"(주)으뜸냉동","tel":"031-976-4150","addr":"경기도 고양시 일산동구 성석동 558-22번지 2동","category":""}]},{"lat":"37.69127327","long":"126.79842781","items":[{"name":"(주)이안종합조경","tel":"031-977-3936","addr":"경기도 고양시 일산동구 성석동 781-3번지","category":""},{"name":"(주)이안종합조경","tel":"031-977-3936","addr":"경기도 고양시 일산동구 성석동 781-3번지","category":"건축자재 - 기타건축자재"}]},{"lat":"37.703876094","long":"126.81364507","items":[{"name":"(주)이티퍼니처","tel":"031-977-9525","addr":"경기도 고양시 일산동구 성석동 13번지","category":"가구 - 일반가구"}]},{"lat":"37.710099659","long":"126.80151745","items":[{"name":"(주)지니덴탈","tel":"031-977-1866","addr":"경기도 고양시 일산동구 성석동 537-3번지","category":""},{"name":"(주)지니덴탈","tel":"031-977-1866","addr":"경기도 고양시 일산동구 성석동 537-3번지","category":"보건위생 - 의료용품"}]},{"lat":"37.708848636","long":"126.78698239","items":[{"name":"(주)카닥","tel":"02-2675-9767","addr":"경기도 고양시 일산동구 성석동 1263-2번지","category":""},{"name":"(주)카닥","tel":"02-2675-9767","addr":"경기도 고양시 일산동구 성석동 1263-2번지","category":"용역 서비스 - 종합용역"},{"name":"아트팩토리","tel":"03-111-1111","addr":"경기도 고양시 일산동구 성석동 1263-2번지","category":"일반휴게음식 - 서양음식"},{"name":"아트팩토리","tel":"03-111-1111","addr":"경기도 고양시 일산동구 성석동 1263-2번지","category":""}]},{"lat":"37.708456476","long":"126.79951465","items":[{"name":"(주)페로나","tel":"02-1644-7567","addr":"경기도 고양시 일산동구 성석동 544-33번지","category":"가구 - 일반가구"},{"name":"페로나","tel":"02-1644-7567","addr":"경기도 고양시 일산동구 성석동 544-33번지","category":"가구 - 일반가구"}]},{"lat":"37.711262182","long":"126.80168442","items":[{"name":"(주)퓨어라이프","tel":"02-6177-5151","addr":"경기도 고양시 일산동구 성석동 537-14번지","category":"보건위생 - 화장품"},{"name":"(주)퓨어라이프","tel":"02-6177-5151","addr":"경기도 고양시 일산동구 성석동 537-14번지","category":""}]},{"lat":"37.712539235","long":"126.80565032","items":[{"name":"(주)피티파워","tel":"031-977-0704","addr":"경기도 고양시 일산동구 성석동 521-96번지","category":""},{"name":"(주)피티파워","tel":"031-977-0704","addr":"경기도 고양시 일산동구 성석동 521-96번지","category":"보건위생 - 의료용품"},{"name":"프로젝트312 스튜디오","tel":"","addr":"경기도 고양시 일산동구 성석동 521-96번지","category":"용역 서비스 - 사무서비스"}]},{"lat":"37.70903879","long":"126.80284716","items":[{"name":"(주)픽플러스","tel":"031-904-6005","addr":"경기도 고양시 일산동구 성석동 536-7번지","category":"자동차판매 - 중고자동차판매"},{"name":"JS Pit-in모터스","tel":"031-976-7726","addr":"경기도 고양시 일산동구 성석동 536-7번지","category":""}]},{"lat":"37.689127097","long":"126.79734531","items":[{"name":"(주)헬리캠","tel":"031-977-1734","addr":"경기도 고양시 일산동구 성석동 829번지","category":"기타 - 기타 전문점"}]},{"lat":"37.712234609","long":"126.79612472","items":[{"name":"(주)효성로지스틱","tel":"031-997-5966","addr":"경기도 고양시 일산동구 성석동 1012-2번지","category":""}]},{"lat":"37.715872022","long":"126.78968398","items":[{"name":"0DP","tel":"031-977-6321","addr":"경기도 고양시 일산동구 성석동 1082-82번지","category":""}]},{"lat":"37.700768109","long":"126.80292608","items":[{"name":"2012오토랜드","tel":"031-976-2092","addr":"경기도 고양시 일산동구 성석동 346-2번지","category":""},{"name":"2012오토랜드","tel":"031-976-2092","addr":"경기도 고양시 일산동구 성석동 346-2번지","category":"자동차정비 유지 - 자동차정비"}]},{"lat":"37.710656358","long":"126.79017523","items":[{"name":"36.5매점","tel":"031-123-4567","addr":"경기도 고양시 일산동구 성석동 1227-160번지","category":"음료식품 - 기타음료식품"},{"name":"36.5매점","tel":"031-123-4567","addr":"경기도 고양시 일산동구 성석동 1227-160번지","category":""}]},{"lat":"37.713208673","long":"126.79671175","items":[{"name":"4DART","tel":"070-7718-5194","addr":"경기도 고양시 일산동구 성석동 1019-5번지","category":"건축자재 - 인테리어전문"},{"name":"4DART","tel":"070-7718-5194","addr":"경기도 고양시 일산동구 성석동 1019-5번지","category":""}]},{"lat":"37.691039158","long":"126.79850782","items":[{"name":"93워시(wash)","tel":"031-969-2412","addr":"경기도 고양시 일산동구 성석동 781-3번지","category":""},{"name":"93워시(wash)","tel":"031-969-2412","addr":"경기도 고양시 일산동구 성석동 781-3번지","category":"자동차정비 유지 - 세차장"},{"name":"매드 매닉스(MAD MENICS)","tel":"031-977-0311","addr":"경기도 고양시 일산동구 성석동 781-3번지","category":""}]},{"lat":"37.71376231","long":"126.78887346","items":[{"name":"Any Pet","tel":"031-976-5885","addr":"경기도 고양시 일산동구 성석동 1220-1번지","category":""},{"name":"Any Pet","tel":"031-976-5885","addr":"경기도 고양시 일산동구 성석동 1220-1번지","category":"문화.취미 - 애완동물"},{"name":"아카데미당구장","tel":"031-975-5323","addr":"경기도 고양시 일산동구 성석동 1220-1번지","category":""},{"name":"주식회사네오에스아이","tel":"031-975-5230","addr":"경기도 고양시 일산동구 성석동 1220-1번지","category":""},{"name":"팡팡 노래연습장","tel":"031-975-5757","addr":"경기도 고양시 일산동구 성석동 1220-1번지","category":"레저업소 - 노 래 방"},{"name":"팡팡 노래연습장","tel":"031-975-5757","addr":"경기도 고양시 일산동구 성석동 1220-1번지","category":""}]},{"lat":"37.687519755","long":"126.80045613","items":[{"name":"BLUE WAVE","tel":"031-976-4222","addr":"경기도 고양시 일산동구 성석동 850-1번지","category":""},{"name":"BLUE WAVE","tel":"031-976-4222","addr":"경기도 고양시 일산동구 성석동 850-1번지","category":"전기제품 - 가전제품"}]},{"lat":"37.708931292","long":"126.79795971","items":[{"name":"BON-Racing","tel":"031-977-7911","addr":"경기도 고양시 일산동구 성석동 542번지","category":""}]},{"lat":"37.712120419","long":"126.79268874","items":[{"name":"Deer;B디자인 스튜디오","tel":"","addr":"경기도 고양시 일산동구 성석동 1005-41번지 화이트케슬","category":"용역 서비스 - 사무서비스"},{"name":"Deer;B디자인 스튜디오","tel":"","addr":"경기도 고양시 일산동구 성석동 1005-41번지 화이트케슬","category":""}]},{"lat":"37.710042016","long":"126.78432523","items":[{"name":"Discovery Motors(디스커버리모터스)","tel":"031-977-4116","addr":"경기도 고양시 일산동구 성석동 1364번지","category":""},{"name":"Discovery Motors(디스커버리모터스)","tel":"031-977-4116","addr":"경기도 고양시 일산동구 성석동 1364번지","category":""},{"name":"디스커버리 모터스","tel":"031-111-1111","addr":"경기도 고양시 일산동구 성석동 1364번지","category":"자동차정비 유지 - 자동차정비"},{"name":"디스커버리 모터스","tel":"031-111-1111","addr":"경기도 고양시 일산동구 성석동 1364번지","category":""},{"name":"디스커버리 모터스 (DISCOVERY MOTERS)","tel":"031-976-8774","addr":"경기도 고양시 일산동구 성석동 1364번지","category":""}]},{"lat":"37.709212177","long":"126.80415085","items":[{"name":"ENS","tel":"031-977-6691","addr":"경기도 고양시 일산동구 성석동 523-56번지","category":""},{"name":"베스트 건재","tel":"031-976-5066","addr":"경기도 고양시 일산동구 성석동 523-56번지","category":""},{"name":"베스트 건재","tel":"031-976-5066","addr":"경기도 고양시 일산동구 성석동 523-56번지","category":"건축자재 - 기타건축자재"}]},{"lat":"37.704961837","long":"126.80545494","items":[{"name":"GOP산업","tel":"031-969-2731","addr":"경기도 고양시 일산동구 성석동 419-2번지","category":"건축자재 - 기타건축자재"},{"name":"GOP산업","tel":"031-969-2731","addr":"경기도 고양시 일산동구 성석동 419-2번지","category":""},{"name":"제이스톤","tel":"","addr":"경기도 고양시 일산동구 성석동 419-2번지","category":""},{"name":"제이스톤","tel":"","addr":"경기도 고양시 일산동구 성석동 419-2번지","category":"신변잡화 - 기타잡화"},{"name":"주식회사 웰진코리아","tel":"02-776-2720","addr":"경기도 고양시 일산동구 성석동 419-2번지","category":""},{"name":"주식회사 웰진코리아","tel":"02-776-2720","addr":"경기도 고양시 일산동구 성석동 419-2번지","category":"주방용구 - 주방용구"}]},{"lat":"37.688767287","long":"126.79767509","items":[{"name":"GS25고양고봉점","tel":"","addr":"경기도 고양시 일산동구 성석동 833-4번지","category":""},{"name":"GS25고양고봉점","tel":"","addr":"경기도 고양시 일산동구 성석동 833-4번지","category":""},{"name":"플러스마트","tel":"031-976-7798","addr":"경기도 고양시 일산동구 성석동 833-4번지","category":"유통업 영리 - 슈퍼마켓"},{"name":"플러스마트","tel":"031-946-7798","addr":"경기도 고양시 일산동구 성석동 833-4번지","category":""},{"name":"한국유통","tel":"031-977-8836","addr":"경기도 고양시 일산동구 성석동 833-4번지","category":""}]},{"lat":"37.708849876","long":"126.80840448","items":[{"name":"GS25고양성석점","tel":"","addr":"경기도 고양시 일산동구 성석동 491-2번지","category":""},{"name":"GS25고양성석점","tel":"","addr":"경기도 고양시 일산동구 성석동 491-2번지","category":""},{"name":"GS25고양성석점","tel":"","addr":"경기도 고양시 일산동구 성석동 491-2번지","category":"유통업 영리 - 편 의 점"},{"name":"화니카크리닉","tel":"031-977-0425","addr":"경기도 고양시 일산동구 성석동 491-2번지","category":""},{"name":"화니카크리닉","tel":"031-977-0425","addr":"경기도 고양시 일산동구 성석동 491-2번지","category":"자동차정비 유지 - 자동차정비"}]},{"lat":"37.705569013","long":"126.7820477","items":[{"name":"GS25성석누리점","tel":"","addr":"경기도 고양시 일산동구 성석동 2176번지","category":""},{"name":"GS25성석누리점","tel":"","addr":"경기도 고양시 일산동구 성석동 2176번지","category":"유통업 영리 - 편 의 점"},{"name":"GS25성석누리점","tel":"","addr":"경기도 고양시 일산동구 성석동 2176번지","category":""},{"name":"JK골프피팅","tel":"070-4118-6100","addr":"경기도 고양시 일산동구 성석동 2176번지","category":"레져용품 - 골프용품 전문점"},{"name":"JK골프피팅","tel":"070-4118-6100","addr":"경기도 고양시 일산동구 성석동 2176번지","category":""},{"name":"중소기업가구","tel":"031-977-2865","addr":"경기도 고양시 일산동구 성석동 2176번지","category":"가구 - 일반가구"},{"name":"중소기업가구","tel":"031-977-2865","addr":"경기도 고양시 일산동구 성석동 2176번지","category":""},{"name":"포시즌마트","tel":"031-977-8110","addr":"경기도 고양시 일산동구 성석동 2176번지","category":""}]},{"lat":"37.712570289","long":"126.79234723","items":[{"name":"GS25성석중앙점","tel":"","addr":"경기도 고양시 일산동구 성석동 1227-166번지","category":"유통업 영리 - 편 의 점"},{"name":"GS25성석중앙점","tel":"","addr":"경기도 고양시 일산동구 성석동 1227-166번지","category":""},{"name":"GS25성석중앙점","tel":"","addr":"경기도 고양시 일산동구 성석동 1227-166번지","category":""},{"name":"공드린테리어","tel":"02-6269-9000","addr":"경기도 고양시 일산동구 성석동 1227-166번지","category":""},{"name":"공드린테리어","tel":"02-6269-9000","addr":"경기도 고양시 일산동구 성석동 1227-166번지","category":"용역 서비스 - 종합용역"},{"name":"알진의료소비자생활협동조합","tel":"031-977-1000","addr":"경기도 고양시 일산동구 성석동 1227-166번지","category":"의원 - 한의원"},{"name":"알진의료소비자생활협동조합","tel":"031-977-1000","addr":"경기도 고양시 일산동구 성석동 1227-166번지","category":""},{"name":"약(藥)차","tel":"031-977-1000","addr":"경기도 고양시 일산동구 성석동 1227-166번지","category":""},{"name":"연세미래수학교습소","tel":"03-975-5757","addr":"경기도 고양시 일산동구 성석동 1227-166번지 1동","category":""},{"name":"연세미래수학교습소","tel":"03-975-5757","addr":"경기도 고양시 일산동구 성석동 1227-166번지","category":"학원 - 보습학원"},{"name":"힐링몰","tel":"031-977-1000","addr":"경기도 고양시 일산동구 성석동 1227-166번지","category":""}]},{"lat":"37.714180314","long":"126.79084563","items":[{"name":"Golden Box","tel":"031-977-7303","addr":"경기도 고양시 일산동구 성석동 1082-66번지 갤러리하우스","category":"회원제형태 - 기타4"},{"name":"Golden Box","tel":"031-977-7303","addr":"경기도 고양시 일산동구 성석동 1082-66번지 갤러리하우스","category":""}]},{"lat":"37.687989669","long":"126.80662233","items":[{"name":"Gooh's Outdoor(구스아웃도어)","tel":"070-4116-3232","addr":"경기도 고양시 일산동구 성석동 190번지","category":""},{"name":"Gooh's Outdoor(구스아웃도어)","tel":"070-4116-3232","addr":"경기도 고양시 일산동구 성석동 190번지","category":"레져용품 - 스포츠·레져용품"},{"name":"경문사","tel":"031-977-1950","addr":"경기도 고양시 일산동구 성석동 190번지","category":"서적문구 - 일반서적"},{"name":"경문사","tel":"031-977-1950","addr":"경기도 고양시 일산동구 성석동 190번지","category":""}]},{"lat":"37.710845439","long":"126.80565481","items":[{"name":"HM시스템","tel":"031-975-8680","addr":"경기도 고양시 일산동구 성석동 520-1번지","category":""},{"name":"광진자동차공업사","tel":"031-977-7488","addr":"경기도 고양시 일산동구 성석동 520-1번지","category":"자동차정비 유지 - 자동차정비"},{"name":"광진자동차공업사","tel":"031-977-7488","addr":"경기도 고양시 일산동구 성석동 520-1번지","category":""}]},{"lat":"37.713898498","long":"126.79964722","items":[{"name":"JU ART","tel":"0505-979-7066","addr":"경기도 고양시 일산동구 성석동 1043-34번지","category":"가구 - 기타가구"},{"name":"JU ART","tel":"0505-979-7066","addr":"경기도 고양시 일산동구 성석동 1043-34번지","category":""}]},{"lat":"37.691679515","long":"126.80959445","items":[{"name":"K-furniture(케이 퍼니처)","tel":"","addr":"경기도 고양시 일산동구 성석동 143-1번지","category":""},{"name":"K-furniture(케이 퍼니처)","tel":"","addr":"경기도 고양시 일산동구 성석동 143-1번지","category":"가구 - 일반가구"}]},{"lat":"37.70860092","long":"126.80498033","items":[{"name":"K3 Motors","tel":"031-975-4628","addr":"경기도 고양시 일산동구 성석동 428-62번지","category":""}]},{"lat":"37.708955582","long":"126.80159993","items":[{"name":"KLARHAUS","tel":"031-975-4838","addr":"경기도 고양시 일산동구 성석동 537-15번지","category":"가구 - 기타가구"},{"name":"KLARHAUS","tel":"031-975-4838","addr":"경기도 고양시 일산동구 성석동 537-15번지","category":""},{"name":"머리할래?","tel":"031-975-9010","addr":"경기도 고양시 일산동구 성석동 537-15번지","category":"보건위생 - 미용원"},{"name":"머리할래?","tel":"031-975-9010","addr":"경기도 고양시 일산동구 성석동 537-15번지","category":""},{"name":"박씨네 민물매운탕","tel":"031-977-2778","addr":"경기도 고양시 일산동구 성석동 537-15번지","category":"일반휴게음식 - 일반한식"},{"name":"박씨네 민물매운탕","tel":"031-977-2778","addr":"경기도 고양시 일산동구 성석동 537-15번지","category":""},{"name":"백암토종순대","tel":"031-976-3892","addr":"경기도 고양시 일산동구 성석동 537-15번지","category":""},{"name":"백합전문일키로칼국수","tel":"031-975-4878","addr":"경기도 고양시 일산동구 성석동 537-15번지","category":""},{"name":"잉크맨","tel":"070-8899-1125","addr":"경기도 고양시 일산동구 성석동 537-15번지","category":""},{"name":"잉크맨","tel":"070-8899-1125","addr":"경기도 고양시 일산동구 성석동 537-15번지","category":"사무통신 - 기타 사무용품"},{"name":"조은교육","tel":"031-977-8114","addr":"경기도 고양시 일산동구 성석동 537-15번지","category":""},{"name":"종이울타리","tel":"031-977-1420","addr":"경기도 고양시 일산동구 성석동 537-15번지","category":""},{"name":"종이울타리","tel":"031-977-1420","addr":"경기도 고양시 일산동구 성석동 537-15번지","category":"서적문구 - 문구용품"}]},{"lat":"37.713885885","long":"126.79245692","items":[{"name":"KORONA","tel":"031-1899-2823","addr":"경기도 고양시 일산동구 성석동 1077번지 청원네이처빌아파트","category":"신변잡화 - 액세서리"}]},{"lat":"37.700378788","long":"126.78167756","items":[{"name":"K모터스","tel":"031-976-5182","addr":"경기도 고양시 일산동구 성석동 1305-5번지","category":""},{"name":"K모터스","tel":"031-976-5182","addr":"경기도 고양시 일산동구 성석동 1305-5번지","category":"자동차정비 유지 - 자동차정비"},{"name":"K모터스","tel":"031-976-5182","addr":"경기도 고양시 일산동구 성석동 1305-5번지","category":""},{"name":"고양미터","tel":"031-966-3586","addr":"경기도 고양시 일산동구 성석동 1305-5번지","category":"수리서비스 - 기타수리서비스"},{"name":"고양미터","tel":"031-966-3586","addr":"경기도 고양시 일산동구 성석동 1305-5번지","category":""},{"name":"신우일산콜주식회사","tel":"031-917-1325","addr":"경기도 고양시 일산동구 성석동 1305-5번지","category":""},{"name":"신우일산콜주식회사","tel":"031-917-1325","addr":"경기도 고양시 일산동구 성석동 1305-5번지","category":"사무통신 - 통신기기"}]},{"lat":"37.712040814","long":"126.80392782","items":[{"name":"L&G기업","tel":"031-902-0633","addr":"경기도 고양시 일산동구 성석동 517-1번지","category":""},{"name":"L&G기업","tel":"031-902-0633","addr":"경기도 고양시 일산동구 성석동 517-1번지","category":"건축자재 - 인테리어전문"}]},{"lat":"37.708929865","long":"126.79204","items":[{"name":"LS정보통신","tel":"031-916-8544","addr":"경기도 고양시 일산동구 성석동 984-131번지","category":""},{"name":"LS정보통신","tel":"031-916-8544","addr":"경기도 고양시 일산동구 성석동 984-131번지","category":"용역 서비스 - 기타용역서비스"},{"name":"고양세기","tel":"031-977-6826","addr":"경기도 고양시 일산동구 성석동","category":"전기제품 - 냉열기기"},{"name":"고양세기","tel":"031-977-6826","addr":"경기도 고양시 일산동구 성석동 984-131번지","category":""},{"name":"고양센추리공조","tel":"031-977-6826","addr":"경기도 고양시 일산동구 성석동 984-131번지","category":""},{"name":"전주식당","tel":"031-000-0000","addr":"경기도 고양시 일산동구 성석동 984-131번지","category":"일반휴게음식 - 일반한식"}]},{"lat":"37.70846108","long":"126.78690414","items":[{"name":"MBT","tel":"031-976-6448","addr":"경기도 고양시 일산동구 성석동 1275번지","category":""},{"name":"MBT","tel":"031-976-6448","addr":"경기도 고양시 일산동구 성석동 1275번지","category":"자동차정비 유지 - 자동차정비"}]},{"lat":"37.713508695","long":"126.79826466","items":[{"name":"MK Motors (엠케이모터스)","tel":"070-4497-6735","addr":"경기도 고양시 일산동구 성석동 1043-21번지","category":"자동차정비 유지 - 자동차부품"},{"name":"MK Motors (엠케이모터스)","tel":"070-4497-6735","addr":"경기도 고양시 일산동구 성석동 1043-21번지","category":""},{"name":"호명자동차공업사","tel":"031-977-4145","addr":"경기도 고양시 일산동구 성석동 1043-21번지","category":""}]},{"lat":"37.712374309","long":"126.78368328","items":[{"name":"MK채널","tel":"031-975-6489","addr":"경기도 고양시 일산동구 성석동 1196-2번지","category":""},{"name":"MK채널","tel":"031-975-6489","addr":"경기도 고양시 일산동구 성석동 1196-2번지","category":"건축자재 - 인테리어전문"}]},{"lat":"37.703873241","long":"126.81187609","items":[{"name":"NC주방","tel":"031-986-1533","addr":"경기도 고양시 일산동구 성석동 454-1번지","category":"주방용구 - 주방용구"},{"name":"마이펫","tel":"02-963-2573","addr":"경기도 고양시 일산동구 성석동 454-1번지","category":""},{"name":"마이펫","tel":"02-963-2573","addr":"경기도 고양시 일산동구 성석동 454-1번지","category":"문화.취미 - 애완동물"}]},{"lat":"37.709428555","long":"126.7887952","items":[{"name":"NEXGARD일산","tel":"031-976-4560","addr":"경기도 고양시 일산동구 성석동 1254번지","category":""},{"name":"NEXGARD일산","tel":"031-976-4560","addr":"경기도 고양시 일산동구 성석동 1254번지","category":"자동차정비 유지 - 카인테리어"}]},{"lat":"37.710932387","long":"126.78837126","items":[{"name":"OK마트","tel":"031-975-1877","addr":"경기도 고양시 일산동구 성석동 1246-80번지","category":""},{"name":"OK마트","tel":"031-975-1877","addr":"경기도 고양시 일산동구 성석동 1246-80번지","category":"유통업 영리 - 슈퍼마켓"},{"name":"태영상사","tel":"031-977-8981","addr":"경기도 고양시 일산동구 성석동 1246-80번지","category":""},{"name":"태영상사","tel":"031-977-8981","addr":"경기도 고양시 일산동구 성석동 1246-80번지","category":"자동차정비 유지 - 자동차정비"}]},{"lat":"37.715217613","long":"126.79151182","items":[{"name":"Opening j(오프닝 제이)","tel":"031-111-1111","addr":"경기도 고양시 일산동구 성석동 1075-2번지 일산I하우스","category":""},{"name":"Opening j(오프닝 제이)","tel":"031-111-1111","addr":"경기도 고양시 일산동구 성석동 1075-2번지 일산I하우스","category":"의류 - 정장"}]},{"lat":"37.692515351","long":"126.79771011","items":[{"name":"RF motors","tel":"031-977-3740","addr":"경기도 고양시 일산동구 성석동 769-1번지","category":""},{"name":"카제트모터스","tel":"031-976-0314","addr":"경기도 고양시 일산동구 성석동 769-1번지","category":""}]},{"lat":"37.706349233","long":"126.8054059","items":[{"name":"SH코퍼레이션","tel":"031-909-1711","addr":"경기도 고양시 일산동구 성석동 428-69번지","category":""},{"name":"SH코퍼레이션","tel":"031-909-1711","addr":"경기도 고양시 일산동구 성석동 428-69번지","category":"주방용구 - 주방용식기"}]},{"lat":"37.691601057","long":"126.8057398","items":[{"name":"SK물산","tel":"031-977-0875","addr":"경기도 고양시 일산동구 성석동 250번지","category":""}]},{"lat":"37.706847671","long":"126.80715096","items":[{"name":"coffee haus","tel":"031-977-7884","addr":"경기도 고양시 일산동구 성석동 434번지","category":"주방용구 - 주방용구"},{"name":"두배로성석점","tel":"031-966-1019","addr":"경기도 고양시 일산동구 성석동 434번지","category":"유통업 영리 - 슈퍼마켓"},{"name":"두배로성석점","tel":"031-966-1019","addr":"경기도 고양시 일산동구 성석동 434번지","category":""},{"name":"주식회사 프롬벨","tel":"031-1600-4496","addr":"경기도 고양시 일산동구 성석동 434번지 나동","category":"일반휴게음식 - 서양음식"},{"name":"주식회사 프롬벨","tel":"031-1600-4496","addr":"경기도 고양시 일산동구 성석동 434번지","category":""}]},{"lat":"37.712210058","long":"126.79754241","items":[{"name":"e 산지","tel":"031-816-1860","addr":"경기도 고양시 일산동구 성석동 1029-6번지","category":""},{"name":"크린파워","tel":"070-4401-3782","addr":"경기도 고양시 일산동구 성석동 1029-6번지","category":""}]},{"lat":"37.714266947","long":"126.78892871","items":[{"name":"e-모터스","tel":"031-975-5118","addr":"경기도 고양시 일산동구 성석동 1221-10번지","category":""},{"name":"e-모터스","tel":"031-975-5118","addr":"경기도 고양시 일산동구 성석동 1221-10번지","category":"자동차정비 유지 - 자동차정비"},{"name":"일산닭한마리","tel":"031-977-9193","addr":"경기도 고양시 일산동구 성석동 1221-10번지","category":""},{"name":"진맛","tel":"031-977-9193","addr":"경기도 고양시 일산동구 성석동 1221-10번지","category":""}]},{"lat":"37.707648466","long":"126.8065138","items":[{"name":"horse valley golf club","tel":"031-977-8500","addr":"경기도 고양시 일산동구 성석동 532-1번지","category":"레저업소 - 골프연습장"},{"name":"horse valley golf club","tel":"031-977-8500","addr":"경기도 고양시 일산동구 성석동 532-1번지","category":""},{"name":"빅토리아","tel":"031-971-1111","addr":"경기도 고양시 일산동구 성석동 532-1번지","category":"일반휴게음식 - 서양음식"},{"name":"빅토리아 골프클럽","tel":"031-977-8500","addr":"경기도 고양시 일산동구 성석동 532-1번지","category":""},{"name":"빅토리아 골프클럽","tel":"031-977-8500","addr":"경기도 고양시 일산동구 성석동 532-1번지","category":"레저업소 - 골프연습장"},{"name":"세기사","tel":"031-977-8500","addr":"경기도 고양시 일산동구 성석동 532-1번지","category":"레저업소 - 골프연습장"},{"name":"세기사","tel":"031-977-8500","addr":"경기도 고양시 일산동구 성석동 532-1번지","category":""},{"name":"세기사","tel":"031-977-8500","addr":"경기도 고양시 일산동구 성석동 532-1번지","category":""},{"name":"파온필드존 골프아카데미","tel":"031-977-5850","addr":"경기도 고양시 일산동구 성석동 532-1번지","category":"레저업소 - 골프연습장"},{"name":"파온필드존골프아카데미","tel":"031-977-5850","addr":"경기도 고양시 일산동구 성석동 532-1번지","category":""}]},{"lat":"37.712762807","long":"126.78918254","items":[{"name":"가가쇼파","tel":"031-977-0598","addr":"경기도 고양시 일산동구 성석동 1232-1번지","category":"가구 - 일반가구"},{"name":"가가쇼파","tel":"031-977-0598","addr":"경기도 고양시 일산동구 성석동 1232-1번지","category":""}]},{"lat":"37.715457128","long":"126.78451347","items":[{"name":"가구대통령(구.퍼니랜드)","tel":"031-963-6422","addr":"경기도 고양시 일산동구 성석동 1099-37번지","category":"가구 - 일반가구"},{"name":"가구대통령(구.퍼니랜드)","tel":"031-963-6422","addr":"경기도 고양시 일산동구 성석동 1099-37번지","category":""}]},{"lat":"37.707927022","long":"126.78071388","items":[{"name":"가구만들기","tel":"031-977-0330","addr":"경기도 고양시 일산동구 성석동 1410-1번지","category":""},{"name":"가구만들기","tel":"031-977-0330","addr":"경기도 고양시 일산동구 성석동","category":"가구 - 일반가구"}]},{"lat":"37.694289705","long":"126.79739909","items":[{"name":"가야축산","tel":"031-977-6055","addr":"경기도 고양시 일산동구 성석동 758-3번지","category":""},{"name":"가야축산","tel":"031-977-6055","addr":"경기도 고양시 일산동구 성석동 758-3번지","category":"음료식품 - 정육점"},{"name":"유성","tel":"031-977-4005","addr":"경기도 고양시 일산동구 성석동 758-3번지","category":"일반휴게음식 - 일반한식"},{"name":"유성","tel":"031-977-4005","addr":"경기도 고양시 일산동구 성석동 758-3번지","category":""},{"name":"유성","tel":"031-977-4005","addr":"경기도 고양시 일산동구 성석동 758-3번지","category":"일반휴게음식 - 일반한식"},{"name":"유성농원","tel":"031-977-4005","addr":"경기도 고양시 일산동구 성석동 758-3번지","category":""},{"name":"풍산광고기획","tel":"031-921-6945","addr":"경기도 고양시 일산동구 성석동 758-3번지","category":"용역 서비스 - 종합용역"},{"name":"풍산광고기획","tel":"031-921-6945","addr":"경기도 고양시 일산동구 성석동 758-3번지","category":""}]},{"lat":"37.709650629","long":"126.79203796","items":[{"name":"가온베베일산","tel":"031-975-5098","addr":"경기도 고양시 일산동구 성석동 984-117번지","category":"광학제품 - 사진관"},{"name":"가온베베일산","tel":"031-975-5098","addr":"경기도 고양시 일산동구 성석동 984-117번지","category":""}]},{"lat":"37.712623764","long":"126.80234986","items":[{"name":"가온유통","tel":"070-7818-1885","addr":"경기도 고양시 일산동구 성석동 1042-54번지","category":"신변잡화 - 기타잡화"},{"name":"뉴트리언스코리아","tel":"","addr":"경기도 고양시 일산동구 성석동 1042-54번지","category":""},{"name":"뉴트리언스코리아","tel":"","addr":"경기도 고양시 일산동구 성석동 1042-54번지","category":"문화.취미 - 애완동물"}]},{"lat":"37.687237635","long":"126.79367729","items":[{"name":"갈비명가","tel":"031-977-5392","addr":"경기도 고양시 일산동구 성석동 879-16번지","category":""},{"name":"고봉산두부마을","tel":"031-975-7767","addr":"경기도 고양시 일산동구 성석동 879-16번지","category":""},{"name":"핸더랜드","tel":"031-977-1208","addr":"경기도 고양시 일산동구 성석동 879-16번지","category":"일반휴게음식 - 서양음식"},{"name":"핸더랜드","tel":"031-977-1208","addr":"경기도 고양시 일산동구 성석동 879-16번지","category":""}]},{"lat":"37.716904078","long":"126.78745805","items":[{"name":"감내농장","tel":"031-977-2581","addr":"경기도 고양시 일산동구 성석동","category":"음료식품 - 정육점"},{"name":"감내농장","tel":"031-977-2581","addr":"경기도 고양시 일산동구 성석동 1813-1","category":""}]},{"lat":"37.711404487","long":"126.80592551","items":[{"name":"갑을솔루션","tel":"031-976-5660","addr":"경기도 고양시 일산동구 성석동 518-1번지","category":""},{"name":"태성자동차공업사","tel":"031-912-9488","addr":"경기도 고양시 일산동구 성석동 518-1번지","category":""},{"name":"태성자동차공업사","tel":"031-912-9488","addr":"경기도 고양시 일산동구 성석동 518-1번지","category":"자동차정비 유지 - 자동차정비"},{"name":"한샘자동차공업사","tel":"031-977-5556","addr":"경기도 고양시 일산동구 성석동 518-1번지","category":""}]},{"lat":"37.706293959","long":"126.77948269","items":[{"name":"강릉처갓집쌈닭","tel":"031-975-5938","addr":"경기도 고양시 일산동구 성석동 1457-5번지","category":""},{"name":"강릉처갓집쌈닭","tel":"031-975-5938","addr":"경기도 고양시 일산동구 성석동 1457-5번지","category":"일반휴게음식 - 일반한식"}]},{"lat":"37.70862112","long":"126.80628443","items":[{"name":"강림산업","tel":"031-965-5272","addr":"경기도 고양시 일산동구 성석동 523-3 4필지 마","category":""},{"name":"강림산업","tel":"031-965-5272","addr":"경기도 고양시 일산동구 성석동","category":"건축자재 - 기타건축자재"},{"name":"맛나식당","tel":"031-977-8223","addr":"경기도 고양시 일산동구 성석동 523-3 외4필지나동일부","category":""},{"name":"맛나식당","tel":"031-977-8223","addr":"경기도 고양시 일산동구 성석동","category":"일반휴게음식 - 일반한식"}]},{"lat":"37.713375394","long":"126.78914676","items":[{"name":"강정구의피자생각 일산성석점","tel":"","addr":"경기도 고양시 일산동구 성석동 1230-1번지","category":""},{"name":"크래프트9zero강정구의피자생각일산성석점","tel":"031-111-1111","addr":"경기도 고양시 일산동구 성석동 1230-1번지","category":"일반휴게음식 - 서양음식"}]},{"lat":"37.700294439","long":"126.7998998","items":[{"name":"개스타하우스","tel":"031-906-1198","addr":"경기도 고양시 일산동구 성석동 590-1번지","category":"문화.취미 - 애완동물"},{"name":"개스타하우스","tel":"031-906-1198","addr":"경기도 고양시 일산동구 성석동 590-1번지","category":""}]},{"lat":"37.712374182","long":"126.78851454","items":[{"name":"건영방화문","tel":"031-977-1488","addr":"경기도 고양시 일산동구 성석동 1236-2번지","category":""}]},{"lat":"37.705009826","long":"126.78173184","items":[{"name":"건평공구","tel":"031-976-0970","addr":"경기도 고양시 일산동구 성석동 2172번지","category":"기타 - 기계공구"},{"name":"건평공구","tel":"031-976-0970","addr":"경기도 고양시 일산동구 성석동 2172번지","category":""},{"name":"대륙전기온돌판넬","tel":"031-977-8210","addr":"경기도 고양시 일산동구 성석동 2172번지","category":""}]},{"lat":"37.708067452","long":"126.7835372","items":[{"name":"경기미터기상사","tel":"031-923-5252","addr":"경기도 고양시 일산동구 성석동 2189번지","category":""},{"name":"맥심슬립","tel":"031-976-9550","addr":"경기도 고양시 일산동구 성석동 2189번지","category":""},{"name":"몬스터 카 매니아","tel":"031-977-4104","addr":"경기도 고양시 일산동구 성석동 2189번지","category":""},{"name":"몬스터카매니아","tel":"031-977-4104","addr":"경기도 고양시 일산동구 성석동 2189번지","category":"자동차정비 유지 - 자동차부품"},{"name":"몬스터카매니아","tel":"031-977-4104","addr":"경기도 고양시 일산동구 성석동 2189번지","category":""},{"name":"성석건강원","tel":"031-977-7706","addr":"경기도 고양시 일산동구 성석동 2189번지","category":""},{"name":"성석건강원","tel":"031-977-7706","addr":"경기도 고양시 일산동구 성석동 2189번지","category":"건강식품 - 기타건강식품"},{"name":"아우토반키즈카","tel":"070-4154-2616","addr":"경기도 고양시 일산동구 성석동 2189번지","category":""},{"name":"착한남자의가구이야기","tel":"031-965-0647","addr":"경기도 고양시 일산동구 성석동 2189번지","category":""}]},{"lat":"37.718151964","long":"126.78503863","items":[{"name":"경기종합상사","tel":"031-976-7223","addr":"경기도 고양시 일산동구 성석동 1111-3번지","category":""},{"name":"경기종합상사","tel":"031-976-7223","addr":"경기도 고양시 일산동구 성석동 1111-3번지","category":"신변잡화 - 기타잡화"}]},{"lat":"37.712372383","long":"126.80287222","items":[{"name":"경풍하우징","tel":"031-965-0553","addr":"경기도 고양시 일산동구 성석동 157-9번지","category":""}]},{"lat":"37.687762117","long":"126.79476419","items":[{"name":"고가공방","tel":"031-976-9025","addr":"경기도 고양시 일산동구 성석동 877-12번지","category":"문화.취미 - 문화취미기타"}]},{"lat":"37.702177675","long":"126.81640487","items":[{"name":"고봉골프연습장","tel":"031-977-1641","addr":"경기도 고양시 일산동구 성석동 37-2번지","category":""},{"name":"고봉골프연습장","tel":"031-977-1641","addr":"경기도 고양시 일산동구 성석동 37-2번지","category":"레저업소 - 골프연습장"},{"name":"고봉식당","tel":"031-977-9137","addr":"경기도 고양시 일산동구 성석동 37-2번지","category":""}]},{"lat":"37.701846709","long":"126.80142639","items":[{"name":"고봉산만신","tel":"031-967-1897","addr":"경기도 고양시 일산동구 성석동 573번지","category":""},{"name":"고봉산만신","tel":"031-967-1897","addr":"경기도 고양시 일산동구 성석동 573번지","category":"보건위생 - 기타대인서비스"},{"name":"대신암","tel":"031-976-1897","addr":"경기도 고양시 일산동구 성석동 573번지","category":""}]},{"lat":"37.688573919","long":"126.79529477","items":[{"name":"고봉산장","tel":"031-976-0072","addr":"경기도 고양시 일산동구 성석동 876-1번지","category":""},{"name":"전복이랑","tel":"031-976-0072","addr":"경기도 고양시 일산동구 성석동 876-1번지","category":""},{"name":"피스피스","tel":"070-7785-1231","addr":"경기도 고양시 일산동구 성석동 876-1번지","category":""},{"name":"피스피스","tel":"070-7785-1231","addr":"경기도 고양시 일산동구 성석동 876-1번지","category":"일반휴게음식 - 서양음식"}]},{"lat":"37.689707406","long":"126.79431659","items":[{"name":"고봉원","tel":"031-904-8009","addr":"경기도 고양시 일산동구 성석동 898번지","category":""}]},{"lat":"37.688378793","long":"126.807653","items":[{"name":"고양시도시생태농업연구회","tel":"031-975-7789","addr":"경기도 고양시 일산동구 성석동 187-1번지","category":"음료식품 - 농·축·수산품"},{"name":"고양시도시생태농업연구회","tel":"031-975-7789","addr":"경기도 고양시 일산동구 성석동 187-1번지","category":""}]},{"lat":"37.709154556","long":"126.79173317","items":[{"name":"고양시재활용","tel":"031-977-8377","addr":"경기도 고양시 일산동구 성석동 984-2번지","category":""},{"name":"고양시재활용","tel":"031-977-8377","addr":"경기도 고양시 일산동구 성석동 984-2번지","category":"기타 - 기타 전문점"}]},{"lat":"37.713095089","long":"126.78859185","items":[{"name":"고양전자","tel":"031-975-8490","addr":"경기도 고양시 일산동구 성석동 1234-3번지","category":""},{"name":"고양전자","tel":"031-975-8490","addr":"경기도 고양시 일산동구 성석동 1234-3번지","category":"수리서비스 - 기타수리서비스"},{"name":"두리푸드","tel":"031-964-9905","addr":"경기도 고양시 일산동구 성석동 1234-3번지","category":""},{"name":"성광무역","tel":"031-975-1530","addr":"경기도 고양시 일산동구 성석동 1234-3번지","category":""}]},{"lat":"37.716430203","long":"126.78945555","items":[{"name":"고향굼터","tel":"","addr":"경기도 고양시 일산동구 성석동 1082-72번지","category":"일반휴게음식 - 일반한식"},{"name":"고향축산물할인백화점","tel":"031-976-5504","addr":"경기도 고양시 일산동구 성석동 1082-72번지","category":"음료식품 - 정육점"},{"name":"고향축산물할인백화점","tel":"031-976-5504","addr":"경기도 고양시 일산동구 성석동 1082-72번지","category":""}]},{"lat":"37.701956162","long":"126.81309432","items":[{"name":"고향집","tel":"031-977-8720","addr":"경기도 고양시 일산동구 성석동 55번지","category":"일반휴게음식 - 일반한식"},{"name":"고향집","tel":"031-977-8720","addr":"경기도 고양시 일산동구 성석동 55번지","category":""}]},{"lat":"37.699407891","long":"126.79781584","items":[{"name":"골드크라운통상(Gold Crown Trading Compan","tel":"02-6903-6262","addr":"경기도 고양시 일산동구 성석동 1914번지","category":""},{"name":"청명산업","tel":"031-919-2890","addr":"경기도 고양시 일산동구 성석동 1914번지","category":"수리서비스 - 세탁소"}]},{"lat":"37.714454828","long":"126.78820233","items":[{"name":"공간","tel":"031-8070-1994","addr":"경기도 고양시 일산동구 성석동 1079-1번지","category":""},{"name":"종국이두마리치킨","tel":"031-977-5555","addr":"경기도 고양시 일산동구 성석동 1079-1번지","category":""},{"name":"천안당호두과자","tel":"031-975-9292","addr":"경기도 고양시 일산동구 성석동 1079-1번지","category":""},{"name":"파인애플","tel":"031-977-4754","addr":"경기도 고양시 일산동구 성석동 1079-1번지","category":"서적문구 - 출판 및 인쇄물"},{"name":"파인애플","tel":"031-977-4754","addr":"경기도 고양시 일산동구 성석동 1079-1번지","category":""},{"name":"현대상사","tel":"031-977-0996","addr":"경기도 고양시 일산동구 성석동 1079-1번지","category":""},{"name":"현대상사","tel":"031-977-0996","addr":"경기도 고양시 일산동구 성석동 1079-1번지","category":"신변잡화 - 기타잡화"},{"name":"현대상사","tel":"031-977-0996","addr":"경기도 고양시 일산동구 성석동 1079-1번지","category":""},{"name":"황가네","tel":"031-977-7844","addr":"경기도 고양시 일산동구 성석동 1079-1번지","category":""},{"name":"황가네","tel":"031-977-7844","addr":"경기도 고양시 일산동구 성석동 1079-1번지","category":"일반휴게음식 - 스넥"},{"name":"황가네해장국","tel":"031-977-8044","addr":"경기도 고양시 일산동구 성석동 1079-1번지","category":""},{"name":"황가네해장국","tel":"031-977-8044","addr":"경기도 고양시 일산동구 성석동 1079-1번지","category":"일반휴게음식 - 일반한식"}]},{"lat":"37.712536456","long":"126.78857078","items":[{"name":"공간건영","tel":"031-8070-1994","addr":"경기도 고양시 일산동구 성석동 1233번지","category":"건축자재 - 인테리어전문"},{"name":"남양모타공구수리","tel":"031-977-8087","addr":"경기도 고양시 일산동구 성석동 1233번지","category":""},{"name":"민하네집밥","tel":"","addr":"경기도 고양시 일산동구 성석동 1233번지","category":"일반휴게음식 - 일반한식"},{"name":"잉카가구장식","tel":"031-977-8472","addr":"경기도 고양시 일산동구 성석동 1233번지","category":""},{"name":"잉카가구장식","tel":"031-977-8472","addr":"경기도 고양시 일산동구 성석동 1233번지","category":"기타 - 기타 전문점"},{"name":"족발상회","tel":"","addr":"경기도 고양시 일산동구 성석동 1233번지","category":"일반휴게음식 - 일반한식"},{"name":"족발상회","tel":"","addr":"경기도 고양시 일산동구 성석동 1233번지","category":""}]},{"lat":"37.70093109","long":"126.81435559","items":[{"name":"공간장식","tel":"","addr":"경기도 고양시 일산동구 성석동 53-17번지","category":"직물 - 카페트,커튼,천막,지물"}]},{"lat":"37.700317111","long":"126.80262114","items":[{"name":"관성E.N.G","tel":"031-914-1224","addr":"경기도 고양시 일산동구 성석동 344번지","category":"용역 서비스 - 기타용역서비스"},{"name":"관성E.N.G","tel":"031-914-1224","addr":"경기도 고양시 일산동구 성석동 344번지","category":""},{"name":"비앤비모터스","tel":"031-975-0964","addr":"경기도 고양시 일산동구 성석동 344번지","category":""},{"name":"비앤비모터스","tel":"031-975-0965","addr":"경기도 고양시 일산동구 성석동 344번지","category":""}]},{"lat":"37.705406629","long":"126.78193478","items":[{"name":"광영도배기술학원","tel":"031-923-0110","addr":"경기도 고양시 일산동구 성석동 2175번지","category":""},{"name":"대륙전기온돌판넬","tel":"031-977-8210","addr":"경기도 고양시 일산동구 성석동 2175번지","category":""},{"name":"대륙전기온돌판넬","tel":"031-977-8210","addr":"경기도 고양시 일산동구 성석동 2175번지","category":"전기제품 - 냉열기기"},{"name":"주식회사호반","tel":"070-5089-5660","addr":"경기도 고양시 일산동구 성석동 2175번지","category":"건축자재 - 기타건축자재"},{"name":"칸막이 천정공사","tel":"031-977-2444","addr":"경기도 고양시 일산동구 성석동 2175번지","category":""},{"name":"칸막이 천정공사","tel":"031-977-2444","addr":"경기도 고양시 일산동구 성석동 2175번지","category":"건축자재 - 인테리어전문"},{"name":"한신종합상사","tel":"031-976-7857","addr":"경기도 고양시 일산동구 성석동 2175번지","category":"건축자재 - 페인트"},{"name":"한신종합상사","tel":"031-976-7857","addr":"경기도 고양시 일산동구 성석동 2175번지","category":""}]},{"lat":"37.709706957","long":"126.78340763","items":[{"name":"광진유통","tel":"031-977-1995","addr":"경기도 고양시 일산동구 성석동 1370-1번지","category":""}]},{"lat":"37.700545792","long":"126.81568325","items":[{"name":"국제 싸이엔","tel":"031-975-1290","addr":"경기도 고양시 일산동구 성석동 37-30번지","category":""},{"name":"국제 싸이엔","tel":"031-975-1290","addr":"경기도 고양시 일산동구 성석동 37-30번지","category":"서적문구 - 과학기자재"}]},{"lat":"37.70471232","long":"126.78163066","items":[{"name":"국제타이어","tel":"031-975-5775","addr":"경기도 고양시 일산동구 성석동 2171번지","category":"자동차정비 유지 - 자동차시트·타이어"},{"name":"국제타이어","tel":"031-975-5775","addr":"경기도 고양시 일산동구 성석동 2171번지","category":""}]},{"lat":"37.699651577","long":"126.80871199","items":[{"name":"국제해운항공(주)","tel":"031-566-3900","addr":"경기도 고양시 일산동구 성석동 91-1번지","category":""}]},{"lat":"37.71415612","long":"126.79753704","items":[{"name":"그린공사","tel":"070-8232-7929","addr":"경기도 고양시 일산동구 성석동 1065-17번지","category":"직물 - 카페트,커튼,천막,지물"},{"name":"그린공사","tel":"070-8232-7929","addr":"경기도 고양시 일산동구 성석동 1065-17번지","category":""}]},{"lat":"37.710841843","long":"126.78323417","items":[{"name":"그린라이스","tel":"031-977-9322","addr":"경기도 고양시 일산동구 성석동 1185번지","category":""}]},{"lat":"37.703176983","long":"126.81592611","items":[{"name":"그린케미칼","tel":"031-977-6602","addr":"경기도 고양시 일산동구 성석동 18-4번지","category":"서적문구 - 과학기자재"},{"name":"그린케미칼","tel":"031-977-6602","addr":"경기도 고양시 일산동구 성석동 18-4번지","category":""},{"name":"오성공업사","tel":"031-975-7235","addr":"경기도 고양시 일산동구 성석동 18-4번지","category":""},{"name":"오성공업사","tel":"031-975-7235","addr":"경기도 고양시 일산동구 성석동 18-4번지","category":"기타 - 기계공구"}]},{"lat":"37.70809416","long":"126.79326712","items":[{"name":"금강매직카","tel":"031-977-0309","addr":"경기도 고양시 일산동구 성석동 984-103번지","category":"자동차정비 유지 - 자동차정비"},{"name":"금강매직카","tel":"031-977-0309","addr":"경기도 고양시 일산동구 성석동 984-103번지","category":""},{"name":"세경상사","tel":"031-975-7378","addr":"경기도 고양시 일산동구 성석동 984-103번지","category":"유통업 영리 - 기타유통업"},{"name":"세경상사","tel":"031-975-7378","addr":"경기도 고양시 일산동구 성석동 984-103번지","category":""}]},{"lat":"37.707849468","long":"126.79246265","items":[{"name":"금강자동차유리","tel":"031-915-2411","addr":"경기도 고양시 일산동구 성석동","category":"자동차정비 유지 - 자동차부품"},{"name":"금강자동차유리","tel":"031-915-2411","addr":"경기도 고양시 일산동구 성석동 990-1번지","category":""},{"name":"성일자동차공업사","tel":"031-977-4992","addr":"경기도 고양시 일산동구 성석동 990-1번지","category":"자동차정비 유지 - 자동차정비"},{"name":"성일자동차공업사","tel":"031-977-4992","addr":"경기도 고양시 일산동구 성석동 990-1번지","category":""}]},{"lat":"37.706957883","long":"126.78279202","items":[{"name":"금성종합사료","tel":"031-911-7443","addr":"경기도 고양시 일산동구 성석동 2185-2번지","category":""},{"name":"신화공조","tel":"031-911-5687","addr":"경기도 고양시 일산동구 성석동 2185-2번지","category":""},{"name":"신화공조","tel":"031-911-5687","addr":"경기도 고양시 일산동구 성석동 2185-2번지","category":""},{"name":"신화공조","tel":"031-911-5687","addr":"경기도 고양시 일산동구 성석동 2185-2번지","category":"용역 서비스 - 기타용역서비스"},{"name":"은아애견농장 직영점","tel":"031-977-1644","addr":"경기도 고양시 일산동구 성석동 2185-2번지","category":""},{"name":"지앤미미용재료","tel":"031-976-3566","addr":"경기도 고양시 일산동구 성석동 2185-2번지","category":""}]},{"lat":"37.713564675","long":"126.79937594","items":[{"name":"금화","tel":"032-502-2800","addr":"경기도 고양시 일산동구 성석동 1043-29번지 1동","category":""},{"name":"금화","tel":"031-925-5035","addr":"경기도 고양시 일산동구 성석동 1043-29번지 1동","category":""},{"name":"휴나에듀","tel":"02-1800-1105","addr":"경기도 고양시 일산동구 성석동 1043-29번지","category":"서적문구 - 출판 및 인쇄물"}]},{"lat":"37.70987062","long":"126.7891228","items":[{"name":"기린광고","tel":"031-919-6928","addr":"경기도 고양시 일산동구 성석동 1246-43번지","category":""},{"name":"기린광고","tel":"031-919-6928","addr":"경기도 고양시 일산동구 성석동 1246-43번지","category":"건축자재 - 인테리어전문"},{"name":"올케어팜","tel":"031-965-6348","addr":"경기도 고양시 일산동구 성석동 1246-43번지","category":""}]},{"lat":"37.713628134","long":"126.78940688","items":[{"name":"김호정","tel":"031-455-9797","addr":"경기도 고양시 일산동구 성석동 1224번지 건영리츠빌","category":"레저업소 - 골프연습장"},{"name":"나이스정보","tel":"02-1661-5687","addr":"경기도 고양시 일산동구 성석동 1224번지 건영리츠빌","category":""},{"name":"나이스정보","tel":"02-1661-5687","addr":"경기도 고양시 일산동구 성석동 1224번지 건영리츠빌","category":"사무통신 - 통신기기"}]},{"lat":"37.700679126","long":"126.79832261","items":[{"name":"까사앤데코","tel":"031-975-9956","addr":"경기도 고양시 일산동구 성석동 595-6번지","category":""},{"name":"영미식당","tel":"031-977-9909","addr":"경기도 고양시 일산동구 성석동 595-6번지","category":"일반휴게음식 - 일반한식"},{"name":"영미식당","tel":"031-977-9909","addr":"경기도 고양시 일산동구 성석동 595-6번지","category":""}]},{"lat":"37.699260343","long":"126.80107054","items":[{"name":"꼬까밥","tel":"070-4100-9090","addr":"경기도 고양시 일산동구 성석동 686-5번지","category":"문화.취미 - 애완동물"},{"name":"우드스튜디오새늘","tel":"031-976-5994","addr":"경기도 고양시 일산동구 성석동 686-5번지","category":""},{"name":"우드스튜디오새늘","tel":"031-976-5994","addr":"경기도 고양시 일산동구 성석동 686-5번지","category":"일반휴게음식 - 서양음식"}]},{"lat":"37.716069266","long":"126.78915036","items":[{"name":"꼬망스페리미츠일산성석점","tel":"070-8879-3750","addr":"경기도 고양시 일산동구 성석동 1082-4번지","category":""},{"name":"월드패션몰(메이폴)","tel":"031-995-6682","addr":"경기도 고양시 일산동구 성석동 1082-4번지","category":""},{"name":"월드패션몰(엘레강스)","tel":"031-975-1765","addr":"경기도 고양시 일산동구 성석동 1082-4번지","category":""},{"name":"프로월드컵노스랜드 성석점","tel":"031-977-1264","addr":"경기도 고양시 일산동구 성석동 1082-4번지","category":""}]},{"lat":"37.706179972","long":"126.7960168","items":[{"name":"꽃피는언덕","tel":"031-907-1917","addr":"경기도 고양시 일산동구 성석동 967-2번지","category":"일반휴게음식 - 일반한식"},{"name":"꽃피는언덕","tel":"031-907-1917","addr":"경기도 고양시 일산동구 성석동 967-2번지","category":""},{"name":"농부의집","tel":"031-977-9324","addr":"경기도 고양시 일산동구 성석동 967-2번지","category":""},{"name":"럽스크랩","tel":"031-111-1111","addr":"경기도 고양시 일산동구 성석동 967-2번지","category":""},{"name":"산내뜰","tel":"031-977-3242","addr":"경기도 고양시 일산동구 성석동 967-2번지","category":""},{"name":"산내뜰","tel":"031-977-3242","addr":"경기도 고양시 일산동구 성석동 967-2번지","category":""},{"name":"황제능이해신탕백숙","tel":"031-976-5289","addr":"경기도 고양시 일산동구 성석동 967-2번지","category":""},{"name":"황제능이해신탕백숙","tel":"031-976-5289","addr":"경기도 고양시 일산동구 성석동 967-2번지","category":"일반휴게음식 - 일반한식"}]},{"lat":"37.705235065","long":"126.78173117","items":[{"name":"꿈에 그린창","tel":"031-907-9100","addr":"경기도 고양시 일산동구 성석동 2174번지","category":"직물 - 카페트,커튼,천막,지물"},{"name":"꿈에 그린창","tel":"031-907-9100","addr":"경기도 고양시 일산동구 성석동 2174번지","category":""},{"name":"대통순순대국","tel":"031-977-5502","addr":"경기도 고양시 일산동구 성석동 2174번지","category":"일반휴게음식 - 일반한식"},{"name":"대통순순대국","tel":"031-977-5502","addr":"경기도 고양시 일산동구 성석동 2174번지","category":""},{"name":"이엔에이렌탈 주식회사","tel":"031-975-5484","addr":"경기도 고양시 일산동구 성석동 2174번지","category":"여행 - 렌터카"},{"name":"이엔에이렌탈 주식회사","tel":"031-975-5484","addr":"경기도 고양시 일산동구 성석동 2174번지","category":""}]},{"lat":"37.708649194","long":"126.78146019","items":[{"name":"나노유황축산","tel":"070-4122-9779","addr":"경기도 고양시 일산동구 성석동 1401-6번지","category":""},{"name":"정직한소고기국밥","tel":"070-4122-9779","addr":"경기도 고양시 일산동구 성석동 1401-6번지","category":""}]},{"lat":"37.70743343","long":"126.78660093","items":[{"name":"나아감","tel":"031-0-0000","addr":"경기도 고양시 일산동구 성석동 1273-13번지","category":""},{"name":"나아감","tel":"031-0000-0000","addr":"경기도 고양시 일산동구 성석동 1273-13번지","category":"문화.취미 - 애완동물"}]},{"lat":"37.708462006","long":"126.79750739","items":[{"name":"나인커뮤니케이션","tel":"070-4233-8281","addr":"경기도 고양시 일산동구 성석동 543번지","category":"용역 서비스 - 종합용역"},{"name":"나인커뮤니케이션","tel":"070-4233-8281","addr":"경기도 고양시 일산동구 성석동 543번지","category":""},{"name":"조이커뮤니케이션","tel":"070-4233-8281","addr":"경기도 고양시 일산동구 성석동 543번지","category":""}]},{"lat":"37.707127048","long":"126.79662654","items":[{"name":"남경","tel":"031-977-2666","addr":"경기도 고양시 일산동구 성석동 988-7번지","category":"일반휴게음식 - 중국식"},{"name":"남경","tel":"031-977-2666","addr":"경기도 고양시 일산동구 성석동 988-7번지","category":""}]},{"lat":"37.693325107","long":"126.79707295","items":[{"name":"남광디앤피","tel":"031-977-4541","addr":"경기도 고양시 일산동구 성석동 765-3번지","category":"서적문구 - 출판 및 인쇄물"},{"name":"남광디앤피","tel":"031-977-4541","addr":"경기도 고양시 일산동구 성석동 765-3번지","category":""},{"name":"더 워커스","tel":"031-977-1897","addr":"경기도 고양시 일산동구 성석동 765-3번지","category":"레져용품 - 스포츠·레져용품"},{"name":"더 워커스","tel":"031-977-1897","addr":"경기도 고양시 일산동구 성석동 765-3번지","category":""},{"name":"영지스포츠","tel":"031-977-1858","addr":"경기도 고양시 일산동구 성석동 765-3번지","category":""},{"name":"영지스포츠","tel":"031-977-1858","addr":"경기도 고양시 일산동구 성석동 765-3번지","category":"신변잡화 - 기타잡화"},{"name":"주식회사워커스","tel":"031-7977-1858","addr":"경기도 고양시 일산동구 성석동 765-3번지","category":""},{"name":"진로마트","tel":"031-977-7677","addr":"경기도 고양시 일산동구 성석동 765-3번지","category":""}]},{"lat":"37.712375065","long":"126.80445995","items":[{"name":"남광문화사","tel":"031-977-4368","addr":"경기도 고양시 일산동구 성석동 517-3번지","category":"서적문구 - 출판 및 인쇄물"},{"name":"남광문화사","tel":"031-977-4368","addr":"경기도 고양시 일산동구 성석동 517-3번지","category":""}]},{"lat":"37.707095066","long":"126.79381427","items":[{"name":"남선알미늄","tel":"031-977-3838","addr":"경기도 고양시 일산동구 성석동 984-81번지","category":""},{"name":"남선알미늄","tel":"031-977-3838","addr":"경기도 고양시 일산동구 성석동 984-81번지","category":"건축자재 - 보일러·펌프·샷시"}]},{"lat":"37.691957042","long":"126.80851664","items":[{"name":"내가디자인하고내가만드는가구","tel":"031-976-7893","addr":"경기도 고양시 일산동구 성석동 137-2번지","category":"회원제형태 - 학원"},{"name":"내가디자인하고내가만드는가구","tel":"031-976-7893","addr":"경기도 고양시 일산동구 성석동 137-2번지","category":""}]},{"lat":"37.710427604","long":"126.78823663","items":[{"name":"네네치킨성석점","tel":"031-977-4412","addr":"경기도 고양시 일산동구 성석동 1246-65번지","category":""},{"name":"네네치킨성석점","tel":"031-977-4412","addr":"경기도 고양시 일산동구 성석동 1246-65번지","category":"일반휴게음식 - 스넥"},{"name":"두레비밤국수","tel":"031-976-4338","addr":"경기도 고양시 일산동구 성석동 1246-65번지","category":""},{"name":"바이셀프 (Byself)","tel":"02-1111-1111","addr":"경기도 고양시 일산동구 성석동 1246-65번지","category":"레져용품 - 골프용품 전문점"},{"name":"스카이텍","tel":"031-976-7065","addr":"경기도 고양시 일산동구 성석동 1246-65번지","category":""},{"name":"스카이텍","tel":"031-976-7065","addr":"경기도 고양시 일산동구 성석동 1246-65번지","category":"사무통신 - 사무용 OA기기"},{"name":"오미산 스크린골프","tel":"031-906-0114","addr":"경기도 고양시 일산동구 성석동 1246-65번지","category":""},{"name":"오미산 스크린골프","tel":"031-906-0114","addr":"경기도 고양시 일산동구 성석동 1246-65번지","category":"레저업소 - 스크린골프"},{"name":"오미산 스크린골프","tel":"031-906-0114","addr":"경기도 고양시 일산동구 성석동 1246-65번지","category":""},{"name":"오미산 스크린골프","tel":"031-906-0114","addr":"경기도 고양시 일산동구 성석동 1246-65번지","category":""},{"name":"전주가마골","tel":"031-976-5587","addr":"경기도 고양시 일산동구 성석동 1246-65번지","category":"일반휴게음식 - 일반한식"},{"name":"코오롱벽지","tel":"031-914-6106","addr":"경기도 고양시 일산동구 성석동 1246-65번지","category":""},{"name":"코오롱벽지","tel":"031-914-6106","addr":"경기도 고양시 일산동구 성석동","category":"직물 - 카페트,커튼,천막,지물"}]},{"lat":"37.711148781","long":"126.78846137","items":[{"name":"네비원","tel":"031-975-9855","addr":"경기도 고양시 일산동구 성석동 1238-14번지","category":""},{"name":"네비원성석점","tel":"031-975-9855","addr":"경기도 고양시 일산동구 성석동 1238-14번지","category":"자동차정비 유지 - 자동차부품"},{"name":"네비원성석점","tel":"031-975-9855","addr":"경기도 고양시 일산동구 성석동 1238-14번지","category":""},{"name":"덕운상사","tel":"031-977-7468","addr":"경기도 고양시 일산동구 성석동 1238-14번지","category":""},{"name":"덕운상사","tel":"031-977-7468","addr":"경기도 고양시 일산동구 성석동 1238-14번지","category":"건축자재 - 기타건축자재"},{"name":"성석점센터","tel":"031-975-9855","addr":"경기도 고양시 일산동구 성석동 1238-14번지","category":""},{"name":"싸인월드","tel":"031-975-0667","addr":"경기도 고양시 일산동구 성석동 1238-14번지","category":"건축자재 - 인테리어전문"},{"name":"싸인월드","tel":"031-975-0667","addr":"경기도 고양시 일산동구 성석동 1238-14번지","category":""},{"name":"우리집밥","tel":"031-906-4392","addr":"경기도 고양시 일산동구 성석동 1238-14번지","category":"일반휴게음식 - 일반한식"},{"name":"우리집밥","tel":"031-906-4392","addr":"경기도 고양시 일산동구 성석동 1238-14번지","category":""},{"name":"천지향","tel":"031-977-0740","addr":"경기도 고양시 일산동구 성석동 1238-14번지","category":""},{"name":"청계공구마트","tel":"031-975-9855","addr":"경기도 고양시 일산동구 성석동 1238-14번지","category":""},{"name":"청계공구마트","tel":"031-975-9855","addr":"경기도 고양시 일산동구 성석동 1238-14번지","category":"자동차정비 유지 - 자동차부품"}]},{"lat":"37.715875498","long":"126.79670436","items":[{"name":"농업회사법인(주)해솔푸드","tel":"031-976-9870","addr":"경기도 고양시 일산동구 성석동 1061-14번지","category":""}]},{"lat":"37.709929187","long":"126.7817966","items":[{"name":"농협회사법인 (주)달나유","tel":"02-1111-1111","addr":"경기도 고양시 일산동구 성석동 1389번지","category":"문화.취미 - 화원"},{"name":"농협회사법인 (주)달나유","tel":"","addr":"경기도 고양시 일산동구 성석동 1389번지","category":""},{"name":"달나유(달콤한나의유림뜰)","tel":"031-969-9779","addr":"경기도 고양시 일산동구 성석동 1389번지","category":""}]},{"lat":"37.704822759","long":"126.80311931","items":[{"name":"누리요양원","tel":"031-976-8806","addr":"경기도 고양시 일산동구 성석동 558-18번지","category":""},{"name":"펠리스 요양원","tel":"031-926-2301","addr":"경기도 고양시 일산동구 성석동 558-18번지","category":""}]},{"lat":"37.699706663","long":"126.79865411","items":[{"name":"느린커피","tel":"","addr":"경기도 고양시 일산동구 성석동 1912번지","category":"일반휴게음식 - 서양음식"},{"name":"일산시멘트","tel":"031-977-3330","addr":"경기도 고양시 일산동구 성석동 1912번지","category":""},{"name":"일산시멘트","tel":"031-977-3330","addr":"경기도 고양시 일산동구 성석동 1912번지","category":"건축자재 - 기타건축자재"},{"name":"태양상사","tel":"031-975-1746","addr":"경기도 고양시 일산동구 성석동 1912번지","category":""},{"name":"태양상사","tel":"031-975-1746","addr":"경기도 고양시 일산동구 성석동 1912번지","category":"음료식품 - 기타음료식품"}]},{"lat":"37.709955064","long":"126.80659844","items":[{"name":"늘푸른실버타운","tel":"031-977-0421","addr":"경기도 고양시 일산동구 성석동 524-28번지","category":"기타의료기관 - 기타의료기관 및 기타"}]},{"lat":"37.701349052","long":"126.81095274","items":[{"name":"늘품","tel":"","addr":"경기도 고양시 일산동구 성석동 59번지","category":"용역 서비스 - 종합용역"}]},{"lat":"37.703432005","long":"126.78112419","items":[{"name":"다울 일산허브랜드","tel":"031-949-1474","addr":"경기도 고양시 일산동구 성석동 2167번지","category":""}]},{"lat":"37.703648447","long":"126.78123694","items":[{"name":"다흰야생화","tel":"031-975-9754","addr":"경기도 고양시 일산동구 성석동 2167번지","category":""}]},{"lat":"37.708425867","long":"126.78248149","items":[{"name":"달나유(달콤한나의유림뜰)","tel":"031-918-9777","addr":"경기도 고양시 일산동구 성석동 2120","category":""}]},{"lat":"37.686845376","long":"126.80124023","items":[{"name":"달리는새참","tel":"031-975-3733","addr":"경기도 고양시 일산동구 성석동 848-10번지","category":""},{"name":"달리는새참","tel":"031-975-3733","addr":"경기도 고양시 일산동구 성석동 848-10번지","category":"음료식품 - 기타음료식품"},{"name":"올크린","tel":"031-977-2290","addr":"경기도 고양시 일산동구 성석동 848-10번지","category":""},{"name":"중앙특판","tel":"070-8827-7870","addr":"경기도 고양시 일산동구 성석동 848-10번지","category":""}]},{"lat":"37.708482418","long":"126.78381949","items":[{"name":"달인손세차","tel":"031-977-6863","addr":"경기도 고양시 일산동구 성석동 2191번지","category":""},{"name":"달인손세차","tel":"031-977-6863","addr":"경기도 고양시 일산동구 성석동 2191번지","category":"자동차정비 유지 - 세차장"},{"name":"바디스톤","tel":"031-912-3562","addr":"경기도 고양시 일산동구 성석동 2191번지","category":"레져용품 - 스포츠·레져용품"},{"name":"바디스톤","tel":"031-912-3562","addr":"경기도 고양시 일산동구 성석동 2191번지","category":""},{"name":"인디캠핑","tel":"031-944-9997","addr":"경기도 고양시 일산동구 성석동 2191번지","category":""},{"name":"인디캠핑","tel":"031-944-9997","addr":"경기도 고양시 일산동구 성석동 2191번지","category":"레져용품 - 스포츠·레져용품"}]},{"lat":"37.710903725","long":"126.7825989","items":[{"name":"달품책방","tel":"070-4177-7035","addr":"경기도 고양시 일산동구 성석동 1180-1번지","category":""},{"name":"쇼빅(Showbig)","tel":"","addr":"경기도 고양시 일산동구 성석동 1180-1번지","category":"전기제품 - 가전제품"}]},{"lat":"37.707122472","long":"126.77928742","items":[{"name":"당금애기신당","tel":"","addr":"경기도 고양시 일산동구 성석동 1419-3번지","category":""},{"name":"당금애기신당","tel":"","addr":"경기도 고양시 일산동구 성석동 1419-3번지","category":"보건위생 - 기타대인서비스"}]},{"lat":"37.708568113","long":"126.78631413","items":[{"name":"대갓집 동태전문점","tel":"031-977-0582","addr":"경기도 고양시 일산동구 성석동 1276-2번지","category":""},{"name":"야베스","tel":"031-977-0582","addr":"경기도 고양시 일산동구 성석동 1276-2번지","category":""}]},{"lat":"37.701290074","long":"126.81348156","items":[{"name":"대경엔텍","tel":"031-966-3833","addr":"경기도 고양시 일산동구 성석동 53번지","category":"기타 - 기계공구"},{"name":"대경엔텍","tel":"031-966-3833","addr":"경기도 고양시 일산동구 성석동 53번지","category":""},{"name":"주은단조","tel":"031-902-4574","addr":"경기도 고양시 일산동구 성석동 53번지","category":"건축자재 - 기타건축자재"},{"name":"주은단조","tel":"031-902-4574","addr":"경기도 고양시 일산동구 성석동 53번지","category":""}]},{"lat":"37.707816143","long":"126.8098474","items":[{"name":"대길종합건재","tel":"031-977-7005","addr":"경기도 고양시 일산동구 성석동 1566번지","category":""},{"name":"대길종합건재","tel":"031-977-7005","addr":"경기도 고양시 일산동구 성석동 1566번지","category":"기타 - 기계공구"}]},{"lat":"37.710041448","long":"126.78401903","items":[{"name":"대룡유통","tel":"031-913-5755","addr":"경기도 고양시 일산동구 성석동 1365번지","category":""},{"name":"대룡유통","tel":"031-913-5755","addr":"경기도 고양시 일산동구 성석동 1365번지","category":"유통업 영리 - 기타유통업"},{"name":"디스커버리모터스","tel":"031-977-4116","addr":"경기도 고양시 일산동구 성석동 1365번지","category":"자동차정비 유지 - 카인테리어"},{"name":"디스커버리모터스","tel":"031-977-4116","addr":"경기도 고양시 일산동구 성석동 1365번지","category":""},{"name":"주문진동태전문점","tel":"031-977-0803","addr":"경기도 고양시 일산동구 성석동 1365번지","category":""},{"name":"주문진동태전문점","tel":"031-977-0803","addr":"경기도 고양시 일산동구 성석동 1365번지","category":"일반휴게음식 - 일반한식"}]},{"lat":"37.706181334","long":"126.80201568","items":[{"name":"대륭산업","tel":"031-911-0927","addr":"경기도 고양시 일산동구 성석동 563번지","category":"직물 - 옷감·직물"},{"name":"대륭산업","tel":"031-911-0927","addr":"경기도 고양시 일산동구 성석동 563번지","category":""}]},{"lat":"37.711208196","long":"126.79651316","items":[{"name":"대림가설","tel":"031-977-9720","addr":"경기도 고양시 일산동구 성석동 1028-1번지","category":"건축자재 - 기타건축자재"},{"name":"대림가설","tel":"031-977-9720","addr":"경기도 고양시 일산동구 성석동 1028-1번지","category":""}]},{"lat":"37.700209664","long":"126.79776828","items":[{"name":"대민창호","tel":"031-932-7768","addr":"경기도 고양시 일산동구 성석동 1908-2번지","category":""},{"name":"대민창호","tel":"031-932-7768","addr":"경기도 고양시 일산동구 성석동 1908-2번지","category":"건축자재 - 보일러·펌프·샷시"},{"name":"브이앤피(VNP)","tel":"070-8600-4437","addr":"경기도 고양시 일산동구 성석동 1908-2번지","category":"기타 - 기계공구"},{"name":"브이앤피(VNP)","tel":"070-8600-4437","addr":"경기도 고양시 일산동구 성석동 1908-2번지","category":""},{"name":"우림건재","tel":"031-977-6585","addr":"경기도 고양시 일산동구 성석동 1908-2번지","category":""},{"name":"우림건재","tel":"031-977-6585","addr":"경기도 고양시 일산동구 성석동 1908-2번지","category":"건축자재 - 기타건축자재"}]},{"lat":"37.700454457","long":"126.79865206","items":[{"name":"대박감자탕","tel":"031-975-1002","addr":"경기도 고양시 일산동구 성석동 595-5번지","category":"일반휴게음식 - 일반한식"},{"name":"한라산","tel":"031-977-4600","addr":"경기도 고양시 일산동구 성석동 595-5번지","category":""}]},{"lat":"37.716564796","long":"126.78423802","items":[{"name":"대성도서","tel":"031-977-7817","addr":"경기도 고양시 일산동구 성석동 1132-1번지","category":"서적문구 - 일반서적"},{"name":"대성도서","tel":"031-977-7817","addr":"경기도 고양시 일산동구 성석동 1132-1번지 2동","category":""}]},{"lat":"37.690845263","long":"126.80101398","items":[{"name":"대성산업","tel":"02-2614-1049","addr":"경기도 고양시 일산동구 성석동 806-4번지","category":""}]},{"lat":"37.695904074","long":"126.79834706","items":[{"name":"대성오토 주식회사","tel":"031-921-8801","addr":"경기도 고양시 일산동구 성석동 729-3번지","category":""},{"name":"대성오토 주식회사","tel":"031-921-8801","addr":"경기도 고양시 일산동구 성석동 729-3번지","category":"자동차정비 유지 - 자동차부품"}]},{"lat":"37.692487058","long":"126.79698456","items":[{"name":"대신비나코리아","tel":"070-4313-5525","addr":"경기도 고양시 일산동구 성석동 768-5번지","category":""}]},{"lat":"37.709098268","long":"126.8060677","items":[{"name":"대신포장상사","tel":"031-977-1461","addr":"경기도 고양시 일산동구 성석동 522-1번지","category":""},{"name":"대신포장상사","tel":"031-977-1461","addr":"경기도 고양시 일산동구 성석동 522-1번지","category":""},{"name":"새한익스프레스","tel":"031-965-2244","addr":"경기도 고양시 일산동구 성석동 522-1번지","category":""}]},{"lat":"37.7061243","long":"126.79509841","items":[{"name":"대신환경","tel":"031-976-6671","addr":"경기도 고양시 일산동구 성석동 970-6번지","category":""}]},{"lat":"37.707680085","long":"126.78846002","items":[{"name":"대영가구","tel":"031-977-7325","addr":"경기도 고양시 일산동구 성석동 1268-3번지","category":""},{"name":"대영가구","tel":"031-977-7325","addr":"경기도 고양시 일산동구 성석동 1268-3번지","category":"가구 - 일반가구"}]},{"lat":"37.706425642","long":"126.78243072","items":[{"name":"대한종합상사","tel":"031-913-0160","addr":"경기도 고양시 일산동구 성석동 2181번지","category":""},{"name":"대한종합상사","tel":"031-913-0160","addr":"경기도 고양시 일산동구 성석동 2181번지","category":"신변잡화 - 기타잡화"}]},{"lat":"37.709678489","long":"126.78751299","items":[{"name":"대흥타일","tel":"031-976-7051","addr":"경기도 고양시 일산동구 성석동","category":"건축자재 - 기타건축자재"},{"name":"대흥타일","tel":"031-976-7051","addr":"경기도 고양시 일산동구 성석동 1256-3번지","category":""},{"name":"무그수오미산점","tel":"031-976-2278","addr":"경기도 고양시 일산동구 성석동 1256-3번지","category":"일반휴게음식 - 일반한식"},{"name":"예손서비스","tel":"031-1599-9591","addr":"경기도 고양시 일산동구 성석동 1256-3번지","category":""},{"name":"예손서비스","tel":"031-1599-9591","addr":"경기도 고양시 일산동구 성석동 1256-3번지","category":"수리서비스 - 기타수리서비스"},{"name":"예손카스토리","tel":"031-1599-9591","addr":"경기도 고양시 일산동구 성석동 1256-3번지","category":"자동차정비 유지 - 세차장"},{"name":"창호종합전시장","tel":"031-977-2738","addr":"경기도 고양시 일산동구 성석동 1256-3번지","category":"건축자재 - 기타건축자재"}]},{"lat":"37.705069455","long":"126.77990594","items":[{"name":"더맑음","tel":"","addr":"경기도 고양시 일산동구 성석동 1336-75번지","category":"의류 - 아동의류"}]},{"lat":"37.714041297","long":"126.78870254","items":[{"name":"더브러24시편의점","tel":"031-977-7237","addr":"경기도 고양시 일산동구 성석동 1079-4번지","category":""},{"name":"더브러24시편의점","tel":"031-977-7237","addr":"경기도 고양시 일산동구 성석동 1079-4번지","category":"유통업 영리 - 편 의 점"}]},{"lat":"37.710150326","long":"126.78934881","items":[{"name":"더슬립 일산파주지점","tel":"031-977-0509","addr":"경기도 고양시 일산동구 성석동 1246-9번지","category":"가구 - 일반가구"}]},{"lat":"37.714765445","long":"126.79057177","items":[{"name":"더조은에어컨","tel":"070-8223-0107","addr":"경기도 고양시 일산동구 성석동 1082-65번지 지오빌","category":"용역 서비스 - 기타용역서비스"},{"name":"더조은에어컨","tel":"070-8223-0107","addr":"경기도 고양시 일산동구 성석동 1082-65번지 지오빌","category":""}]},{"lat":"37.702510059","long":"126.81579171","items":[{"name":"더존토너","tel":"","addr":"경기도 고양시 일산동구 성석동 35-2번지","category":""},{"name":"더존토너","tel":"","addr":"경기도 고양시 일산동구 성석동 35-2번지","category":"사무통신 - 기타 사무용품"},{"name":"엘케이디","tel":"031-919-4549","addr":"경기도 고양시 일산동구 성석동 35-2번지","category":"사무통신 - 기타 사무용품"},{"name":"엘케이디","tel":"031-919-4549","addr":"경기도 고양시 일산동구 성석동 35-2번지","category":""}]},{"lat":"37.715072238","long":"126.79083175","items":[{"name":"더쿡","tel":"031-975-9847","addr":"경기도 고양시 일산동구 성석동 1078번지 거영블루힐","category":""}]},{"lat":"37.708787482","long":"126.8088129","items":[{"name":"동남카서비스","tel":"031-975-7999","addr":"경기도 고양시 일산동구 성석동 498-3번지","category":""}]},{"lat":"37.708792525","long":"126.79081562","items":[{"name":"동방시스템공조","tel":"031-971-7709","addr":"경기도 고양시 일산동구 성석동 981-2번지","category":"전기제품 - 기타전기제품"},{"name":"동방시스템공조","tel":"031-971-7709","addr":"경기도 고양시 일산동구 성석동 981-2번지","category":""},{"name":"동원공조닥트","tel":"031-976-5945","addr":"경기도 고양시 일산동구 성석동 981-2번지","category":""},{"name":"아이카","tel":"","addr":"경기도 고양시 일산동구 성석동 981-2번지","category":""},{"name":"아이카","tel":"","addr":"경기도 고양시 일산동구 성석동 981-2번지","category":"자동차정비 유지 - 자동차부품"},{"name":"영광폴리텍","tel":"031-977-6061","addr":"경기도 고양시 일산동구 성석동 981-2번지","category":""},{"name":"영광폴리텍","tel":"031-977-6061","addr":"경기도 고양시 일산동구 성석동 981-2번지","category":"건축자재 - 기타건축자재"},{"name":"오일뱅크정비센타","tel":"031-977-7736","addr":"경기도 고양시 일산동구 성석동 981-2번지","category":""},{"name":"오일뱅크정비센타","tel":"031-977-7736","addr":"경기도 고양시 일산동구 성석동 981-2번지","category":"자동차정비 유지 - 자동차정비"}]},{"lat":"37.701573852","long":"126.7947596","items":[{"name":"동부트랜스","tel":"031-975-2404","addr":"경기도 고양시 일산동구 성석동 943","category":""}]},{"lat":"37.695705569","long":"126.79817753","items":[{"name":"동서부페","tel":"031-967-9678","addr":"경기도 고양시 일산동구 성석동 744번지","category":""}]},{"lat":"37.695597788","long":"126.79837058","items":[{"name":"동서부페","tel":"031-967-9678","addr":"경기도 고양시 일산동구 성석동 744번지","category":"일반휴게음식 - 일반한식"}]},{"lat":"37.705432509","long":"126.78132235","items":[{"name":"동양공업사","tel":"031-976-0951","addr":"경기도 고양시 일산동구 성석동 2142번지","category":"자동차정비 유지 - 자동차정비"},{"name":"동양공업사","tel":"031-976-0951","addr":"경기도 고양시 일산동구 성석동 2142번지","category":""}]},{"lat":"37.712122018","long":"126.78857197","items":[{"name":"동양모타콤푸상사","tel":"031-977-9434","addr":"경기도 고양시 일산동구 성석동 1238번지","category":""},{"name":"동양모타콤푸상사","tel":"031-977-9434","addr":"경기도 고양시 일산동구 성석동 1238번지","category":"기타 - 기계공구"}]},{"lat":"37.712564144","long":"126.78893361","items":[{"name":"동양셰프 경기북부대리점","tel":"02-1111-1111","addr":"경기도 고양시 일산동구 성석동 1232-5번지","category":"주방용구 - 주방용구"}]},{"lat":"37.71606986","long":"126.79451491","items":[{"name":"동양창호시스템","tel":"031-932-1134","addr":"경기도 고양시 일산동구 성석동 1061-65번지","category":"건축자재 - 보일러·펌프·샷시"},{"name":"동양창호시스템","tel":"031-932-1134","addr":"경기도 고양시 일산동구 성석동 1061-65번지","category":""}]},{"lat":"37.713097312","long":"126.800035","items":[{"name":"동주모터스","tel":"031-977-5109","addr":"경기도 고양시 일산동구 성석동 1043-5번지","category":""},{"name":"동주모터스","tel":"031-977-5109","addr":"경기도 고양시 일산동구 성석동 1043-5번지","category":"자동차정비 유지 - 자동차정비"}]},{"lat":"37.711822786","long":"126.79762286","items":[{"name":"동하페인트동하아트","tel":"031-975-7775","addr":"경기도 고양시 일산동구 성석동 1029-8번지","category":""},{"name":"동하페인트동하아트","tel":"031-975-7775","addr":"경기도 고양시 일산동구 성석동 1029-8번지","category":"건축자재 - 페인트"}]},{"lat":"37.703041965","long":"126.81600582","items":[{"name":"동화속간식상자","tel":"031-963-6085","addr":"경기도 고양시 일산동구 성석동 43-4번지","category":""},{"name":"동화속간식상자","tel":"031-963-6085","addr":"경기도 고양시 일산동구 성석동 43-4번지","category":"음료식품 - 제과점"}]},{"lat":"37.693821878","long":"126.79778588","items":[{"name":"두레공방","tel":"031-975-0209","addr":"경기도 고양시 일산동구 성석동 757-5번지","category":""},{"name":"두레공방","tel":"031-975-0209","addr":"경기도 고양시 일산동구 성석동 757-5번지","category":"가구 - 기타가구"}]},{"lat":"37.717426756","long":"126.78264764","items":[{"name":"두원bnc","tel":"031-977-6908","addr":"경기도 고양시 일산동구 성석동 산188번지","category":""}]},{"lat":"37.711541946","long":"126.79673905","items":[{"name":"두호통상","tel":"031-977-3463","addr":"경기도 고양시 일산동구 성석동 1027번지","category":"회원제형태 - 기타4"},{"name":"두호통상","tel":"031-977-3463","addr":"경기도 고양시 일산동구 성석동 1027번지","category":""}]},{"lat":"37.717845996","long":"126.78523233","items":[{"name":"드림디포 성석점","tel":"031-975-8307","addr":"경기도 고양시 일산동구 성석동 1110-2번지","category":""},{"name":"드림디포 성석점","tel":"031-975-8307","addr":"경기도 고양시 일산동구 성석동 1110-2번지","category":"서적문구 - 문구용품"}]},{"lat":"37.713013268","long":"126.7832958","items":[{"name":"드림통상","tel":"031-977-6100","addr":"경기도 고양시 일산동구 성석동 1161번지","category":""}]},{"lat":"37.708208208","long":"126.79154307","items":[{"name":"든든애드","tel":"031-977-2285","addr":"경기도 고양시 일산동구 성석동 981번지","category":""},{"name":"든든애드","tel":"031-977-2285","addr":"경기도 고양시 일산동구 성석동 981번지","category":"용역 서비스 - 종합용역"}]},{"lat":"37.700625442","long":"126.7985382","items":[{"name":"뚱보통고기","tel":"031-977-7552","addr":"경기도 고양시 일산동구 성석동 595-2번지","category":""},{"name":"뚱보통고기","tel":"031-977-7552","addr":"경기도 고양시 일산동구 성석동 595-2번지","category":""}]},{"lat":"37.711456916","long":"126.78945847","items":[{"name":"라라비","tel":"031-975-2065","addr":"경기도 고양시 일산동구 성석동 1227-102번지","category":""},{"name":"라라비","tel":"031-975-2065","addr":"경기도 고양시 일산동구 성석동 1227-102번지","category":"광학제품 - 사진관"}]},{"lat":"37.707712018","long":"126.77662069","items":[{"name":"라미스","tel":"0505-333-4654","addr":"경기도 고양시 일산동구 성석동 1447번지","category":"가구 - 일반가구"},{"name":"라미스","tel":"0505-333-4654","addr":"경기도 고양시 일산동구 성석동 1447번지","category":""},{"name":"로자비도자기","tel":"031-901-3970","addr":"경기도 고양시 일산동구 성석동 1447번지","category":"문화.취미 - 민예·공예품"},{"name":"로자비도자기","tel":"031-901-3970","addr":"경기도 고양시 일산동구 성석동 1447번지","category":""}]},{"lat":"37.69034606","long":"126.80415586","items":[{"name":"라바코(LAVACO)","tel":"031-977-8538","addr":"경기도 고양시 일산동구 성석동 221-2번지","category":"문화.취미 - 애완동물"},{"name":"라바코(LAVACO)","tel":"031-977-8538","addr":"경기도 고양시 일산동구 성석동 221-2번지 1동","category":""}]},{"lat":"37.711931542","long":"126.79287072","items":[{"name":"라빈","tel":"070-884-8911","addr":"경기도 고양시 일산동구 성석동 1005-10번지 화이트케슬","category":""}]},{"lat":"37.70217867","long":"126.81140418","items":[{"name":"로드힐 골프클럽","tel":"031-976-4747","addr":"경기도 고양시 일산동구 성석동 62","category":""}]},{"lat":"37.712874929","long":"126.79140506","items":[{"name":"루나텍스(LUNA TEX)","tel":"070-8836-1090","addr":"경기도 고양시 일산동구 성석동 1227-151번지","category":""}]},{"lat":"37.71279119","long":"126.78993097","items":[{"name":"루미노사","tel":"031-975-4611","addr":"경기도 고양시 일산동구 성석동 1225-3번지","category":""}]},{"lat":"37.709093309","long":"126.80311918","items":[{"name":"리플렉션(러스터LUSTER)","tel":"031-906-0588","addr":"경기도 고양시 일산동구 성석동 536-9번지","category":"자동차정비 유지 - 자동차정비"},{"name":"리플렉션(러스터LUSTER)","tel":"031-906-0588","addr":"경기도 고양시 일산동구 성석동 536-9번지","category":""}]},{"lat":"37.711736692","long":"126.78479657","items":[{"name":"마이퍼니처(MAI)","tel":"031-975-0913","addr":"경기도 고양시 일산동구 성석동 1195-9번지","category":""}]},{"lat":"37.689985136","long":"126.7985674","items":[{"name":"맛다정대박칼국수","tel":"031-915-9233","addr":"경기도 고양시 일산동구 성석동 777-1번지","category":""}]},{"lat":"37.711259124","long":"126.78476394","items":[{"name":"명가설곰탕","tel":"031-976-5770","addr":"경기도 고양시 일산동구 성석동 1193-1번지","category":""},{"name":"바우숯불갈비","tel":"031-975-9244","addr":"경기도 고양시 일산동구 성석동 1193-1번지","category":""},{"name":"바우숯불갈비","tel":"031-977-1588","addr":"경기도 고양시 일산동구 성석동 1193-1번지","category":""},{"name":"우남바베큐파티","tel":"031-975-3896","addr":"경기도 고양시 일산동구 성석동 1193-1번지","category":""},{"name":"우진갈비마을","tel":"031-977-1588","addr":"경기도 고양시 일산동구 성석동 1193-1번지","category":"일반휴게음식 - 일반한식"}]},{"lat":"37.701016762","long":"126.78076853","items":[{"name":"명가쌈밥","tel":"031-977-9751","addr":"경기도 고양시 일산동구 성석동","category":"일반휴게음식 - 일반한식"},{"name":"명가쌈밥","tel":"031-977-9751","addr":"경기도 고양시 일산동구 성석동 1305-4번지","category":""}]},{"lat":"37.688353004","long":"126.79776693","items":[{"name":"명성합판목재","tel":"031-975-0826","addr":"경기도 고양시 일산동구 성석동 833-2번지","category":""},{"name":"명성합판목재","tel":"031-975-0826","addr":"경기도 고양시 일산동구 성석동 833-2번지","category":"건축자재 - 목재·석재·철물"}]},{"lat":"37.715900749","long":"126.79062524","items":[{"name":"명품갤러리","tel":"031-975-0678","addr":"경기도 고양시 일산동구 성석동 1076번지","category":"가구 - 일반가구"},{"name":"명품갤러리","tel":"031-975-0678","addr":"경기도 고양시 일산동구 성석동 1076번지","category":""}]},{"lat":"37.688100203","long":"126.79746152","items":[{"name":"모글인터내셔날","tel":"031-976-6117","addr":"경기도 고양시 일산동구 성석동 865-4번지","category":""},{"name":"모글인터내셔날","tel":"031-976-6117","addr":"경기도 고양시 일산동구 성석동 865-4번지","category":"의류 - 정장"}]},{"lat":"37.700927652","long":"126.79109883","items":[{"name":"모든i","tel":"031-976-9883","addr":"경기도 고양시 일산동구 성석동 934번지","category":""}]},{"lat":"37.71409833","long":"126.79034685","items":[{"name":"모아드림공인중개사 사무소","tel":"031-975-4955","addr":"경기도 고양시 일산동구 성석동 1223-32번지","category":""},{"name":"모아드림공인중개사 사무소","tel":"031-975-4955","addr":"경기도 고양시 일산동구 성석동 1223-32번지","category":"용역 서비스 - 부동산 중개·임대"}]},{"lat":"37.715481881","long":"126.78328852","items":[{"name":"몬스터 클로짓","tel":"031-977-5986","addr":"경기도 고양시 일산동구 성석동 1141-2번지","category":""},{"name":"몬스터 클로짓","tel":"031-977-5986","addr":"경기도 고양시 일산동구 성석동 1141-2번지","category":"의류 - 정장"},{"name":"제니덴탈","tel":"031-977-6866","addr":"경기도 고양시 일산동구 성석동 1141-2번지","category":""}]},{"lat":"37.712759601","long":"126.79751821","items":[{"name":"몬스터클린(출장스팀세차)","tel":"031-939-7888","addr":"경기도 고양시 일산동구 성석동 1043-53번지","category":""}]},{"lat":"37.689206701","long":"126.80171001","items":[{"name":"몽 하우스 스튜디오","tel":"031-905-8337","addr":"경기도 고양시 일산동구 성석동 814-17번지","category":""},{"name":"몽 하우스 스튜디오","tel":"031-905-8337","addr":"경기도 고양시 일산동구 성석동 814-17번지","category":"광학제품 - 사진관"},{"name":"청안건축사사무소","tel":"031-975-1800","addr":"경기도 고양시 일산동구 성석동 814-17번지","category":""}]},{"lat":"37.708265936","long":"126.78368404","items":[{"name":"무광감","tel":"031-822-7852","addr":"경기도 고양시 일산동구 성석동","category":"자동차정비 유지 - 카인테리어"},{"name":"일산 밧데리","tel":"031-971-4724","addr":"경기도 고양시 일산동구 성석동 2190번지","category":""},{"name":"일산 밧데리","tel":"031-971-4724","addr":"경기도 고양시 일산동구 성석동 2190번지","category":"자동차정비 유지 - 자동차부품"}]},{"lat":"37.712294002","long":"126.78901377","items":[{"name":"문평","tel":"02-2672-5757","addr":"경기도 고양시 일산동구 성석동 1229-5번지","category":"기타 - 기계공구"},{"name":"문평","tel":"02-2672-5757","addr":"경기도 고양시 일산동구 성석동 1229-5번지","category":""}]},{"lat":"37.699404078","long":"126.79057023","items":[{"name":"미니멜츠일산지사 덕양유통","tel":"","addr":"경기도 고양시 일산동구 성석동 1288번지","category":"음료식품 - 기타음료식품"},{"name":"미니멜츠일산지사 덕양유통","tel":"","addr":"경기도 고양시 일산동구 성석동 1288번지","category":""}]},{"lat":"37.713844362","long":"126.78940626","items":[{"name":"미니스톱 성석타운점","tel":"","addr":"경기도 고양시 일산동구 성석동 1221-2번지","category":"유통업 영리 - 편 의 점"},{"name":"미니스톱 성석타운점","tel":"","addr":"경기도 고양시 일산동구 성석동 1221-2번지","category":""},{"name":"지제이에어컨","tel":"","addr":"경기도 고양시 일산동구 성석동 1221-2번지","category":""},{"name":"지제이에어컨","tel":"","addr":"경기도 고양시 일산동구 성석동 1221-2번지","category":"용역 서비스 - 기타용역서비스"},{"name":"플러스 25시","tel":"031-976-6630","addr":"경기도 고양시 일산동구 성석동 1221-2번지","category":""}]},{"lat":"37.689572342","long":"126.8048155","items":[{"name":"미니스톱 일산성석본점","tel":"031-1577-9621","addr":"경기도 고양시 일산동구 성석동 195-43번지","category":"유통업 영리 - 편 의 점"}]},{"lat":"37.716099317","long":"126.78587257","items":[{"name":"미니스톱고양성석점","tel":"031-975-0210","addr":"경기도 고양시 일산동구 성석동 1104-2번지","category":""},{"name":"인더라인25성석점","tel":"070-4230-0210","addr":"경기도 고양시 일산동구 성석동 1104-2번지","category":"유통업 영리 - 편 의 점"},{"name":"인더라인25성석점","tel":"070-4230-0210","addr":"경기도 고양시 일산동구 성석동 1104-2번지","category":""}]},{"lat":"37.70498683","long":"126.79382019","items":[{"name":"미니스톱성석로드점","tel":"031-1577-9621","addr":"경기도 고양시 일산동구 성석동 973-16번지","category":""},{"name":"미니스톱성석로드점","tel":"031-1577-9621","addr":"경기도 고양시 일산동구 성석동 973-16번지","category":"유통업 영리 - 편 의 점"},{"name":"주식회사 모든교육","tel":"031-976-9883","addr":"경기도 고양시 일산동구 성석동 973-16번지","category":""}]},{"lat":"37.706182549","long":"126.8027301","items":[{"name":"미듬가공포장(미듬P&P)","tel":"031-918-0848","addr":"경기도 고양시 일산동구 성석동 423-13번지","category":"기타 - 기타 전문점"},{"name":"미듬가공포장(미듬P&P)","tel":"031-918-0848","addr":"경기도 고양시 일산동구 성석동 423-13번지","category":""}]},{"lat":"37.692400783","long":"126.80989871","items":[{"name":"미래유통","tel":"031-977-1116","addr":"경기도 고양시 일산동구 성석동 144-1번지","category":""},{"name":"미래유통","tel":"031-977-1116","addr":"경기도 고양시 일산동구 성석동","category":"유통업 영리 - 기타유통업"}]},{"lat":"37.694713155","long":"126.79739792","items":[{"name":"미로청국장","tel":"031-977-6734","addr":"경기도 고양시 일산동구 성석동 737-1번지","category":"일반휴게음식 - 일반한식"},{"name":"미로청국장","tel":"031-977-6734","addr":"경기도 고양시 일산동구 성석동 737-1번지","category":""}]},{"lat":"37.691956668","long":"126.80828988","items":[{"name":"미지아트","tel":"031-906-3400","addr":"경기도 고양시 일산동구 성석동","category":"건축자재 - 인테리어전문"},{"name":"미지아트","tel":"031-906-3400","addr":"경기도 고양시 일산동구 성석동 137-4번지","category":""}]},{"lat":"37.691128104","long":"126.80848479","items":[{"name":"미호상사","tel":"031-000-0000","addr":"경기도 고양시 일산동구 성석동 155-3번지","category":"신변잡화 - 기타잡화"},{"name":"미호상사","tel":"031-0-0000","addr":"경기도 고양시 일산동구 성석동 155-3번지","category":""}]},{"lat":"37.692210541","long":"126.80926428","items":[{"name":"민성ENG","tel":"031-977-5104","addr":"경기도 고양시 일산동구 성석동 142-2번지","category":"수리서비스 - 가정용품수리"},{"name":"민성ENG","tel":"031-977-5104","addr":"경기도 고양시 일산동구 성석동 142-2번지","category":""}]},{"lat":"37.686713573","long":"126.80859834","items":[{"name":"민지","tel":"03-100-0000","addr":"경기도 고양시 일산동구 성석동 179-4번지","category":"직물 - 기타직물"},{"name":"민지","tel":"03-100-0000","addr":"경기도 고양시 일산동구 성석동 179-4번지","category":""}]},{"lat":"37.687407387","long":"126.79287187","items":[{"name":"바다맛손칼국수","tel":"031-977-2066","addr":"경기도 고양시 일산동구 성석동 886번지","category":""},{"name":"바다맛손칼국수","tel":"031-977-2066","addr":"경기도 고양시 일산동구 성석동 886번지","category":"일반휴게음식 - 일반한식"}]},{"lat":"37.700735909","long":"126.81626107","items":[{"name":"바로스포츠","tel":"031-975-4723","addr":"경기도 고양시 일산동구 성석동 37-32번지","category":""},{"name":"바로스포츠","tel":"031-975-4723","addr":"경기도 고양시 일산동구 성석동 37-32번지","category":"레져용품 - 스포츠·레져용품"}]},{"lat":"37.702620676","long":"126.78087714","items":[{"name":"바스업","tel":"031-923-8982","addr":"경기도 고양시 일산동구 성석동 2162번지","category":""},{"name":"주식회사이든혜윰","tel":"031-977-7935","addr":"경기도 고양시 일산동구 성석동 2162번지","category":""}]},{"lat":"37.695871772","long":"126.8005128","items":[{"name":"바스토","tel":"031-975-4123","addr":"경기도 고양시 일산동구 성석동 725-7번지","category":""},{"name":"바스토","tel":"031-975-4123","addr":"경기도 고양시 일산동구 성석동 725-7번지","category":"전기제품 - 기타전기제품"}]},{"lat":"37.704348586","long":"126.81614996","items":[{"name":"바오코리아","tel":"070-4236-2244","addr":"경기도 고양시 일산동구 성석동 1683번지","category":""}]},{"lat":"37.712953156","long":"126.78981709","items":[{"name":"바이블랜드","tel":"070-8702-6822","addr":"경기도 고양시 일산동구 성석동 1224-1번지","category":""},{"name":"바이블랜드","tel":"070-8702-6822","addr":"경기도 고양시 일산동구 성석동 1224-1번지","category":"보건위생 - 기타대인서비스"}]},{"lat":"37.689817977","long":"126.80090339","items":[{"name":"백마맛집","tel":"031-975-3266","addr":"경기도 고양시 일산동구 성석동 812번지","category":""},{"name":"한마음한식뷔페","tel":"031-923-8382","addr":"경기도 고양시 일산동구 성석동 812번지","category":""}]},{"lat":"37.687546427","long":"126.79507089","items":[{"name":"백마상사","tel":"031-977-8006","addr":"경기도 고양시 일산동구 성석동 879-6번지","category":""},{"name":"백마상사","tel":"031-977-8006","addr":"경기도 고양시 일산동구 성석동 879-6번지","category":"자동차정비 유지 - 자동차정비"}]},{"lat":"37.714980467","long":"126.78990202","items":[{"name":"백산환경개발(주)","tel":"031-908-7340","addr":"경기도 고양시 일산동구 성석동 1082-13번지","category":""},{"name":"백산환경개발(주)","tel":"031-908-7340","addr":"경기도 고양시 일산동구 성석동 1082-13번지","category":"용역 서비스 - 종합용역"},{"name":"토마토어린이집[아이행복]","tel":"031-976-2300","addr":"경기도 고양시 일산동구 성석동 1082-13번지","category":"학원 - 유아원"}]},{"lat":"37.713065929","long":"126.78254714","items":[{"name":"백용낚시터가든","tel":"031-977-6100","addr":"경기도 고양시 일산동구 성석동 1171-2번지","category":""},{"name":"주식회사제이피아카데미","tel":"031-975-9823","addr":"경기도 고양시 일산동구 성석동 1171-2번지","category":""}]},{"lat":"37.711148841","long":"126.79350802","items":[{"name":"뱅크북에듀","tel":"031-977-5953","addr":"경기도 고양시 일산동구 성석동 1005-9번지","category":""},{"name":"뱅크북에듀","tel":"031-977-5953","addr":"경기도 고양시 일산동구 성석동 1005-9번지","category":"회원제형태 - 서적"},{"name":"예인북","tel":"031-975-2739","addr":"경기도 고양시 일산동구 성석동 1005-9번지","category":""},{"name":"예인북","tel":"031-975-2739","addr":"경기도 고양시 일산동구 성석동 1005-9번지","category":"서적문구 - 일반서적"},{"name":"주식회사뱅크북","tel":"031-977-5953","addr":"경기도 고양시 일산동구 성석동 1005-9번지","category":""},{"name":"주식회사뱅크북","tel":"031-977-5953","addr":"경기도 고양시 일산동구 성석동 1005-9번지","category":"용역 서비스 - 보관및 창고업"}]},{"lat":"37.707594978","long":"126.78626026","items":[{"name":"버블프리","tel":"031-976-1202","addr":"경기도 고양시 일산동구 성석동 1279-8번지","category":""},{"name":"버블프리","tel":"031-976-1202","addr":"경기도 고양시 일산동구 성석동 1279-8번지","category":"보건위생 - 화장품"}]},{"lat":"37.712819653","long":"126.79579421","items":[{"name":"범양냉방고양공조","tel":"031-905-4118","addr":"경기도 고양시 일산동구 성석동 1014-4번지","category":""},{"name":"범양냉방고양공조","tel":"031-905-4118","addr":"경기도 고양시 일산동구 성석동 1014-4번지","category":"전기제품 - 냉열기기"}]},{"lat":"37.710015573","long":"126.78956467","items":[{"name":"베니시모","tel":"031-977-6606","addr":"경기도 고양시 일산동구 성석동 1246-25번지","category":"가구 - 일반가구"},{"name":"베니시모(BENISSIMO)","tel":"031-977-6606","addr":"경기도 고양시 일산동구 성석동 1246-25번지","category":""},{"name":"베니시모(BENISSIMO)","tel":"031-977-6606","addr":"경기도 고양시 일산동구 성석동 1246-25번지","category":"가구 - 일반가구"}]},{"lat":"37.690289057","long":"126.79718337","items":[{"name":"베드보이즈","tel":"","addr":"경기도 고양시 일산동구 성석동 774-6번지","category":""},{"name":"베드보이즈","tel":"","addr":"경기도 고양시 일산동구 성석동 774-6번지","category":"직물 - 침구·수예점"}]},{"lat":"37.701344841","long":"126.81392365","items":[{"name":"베르팜","tel":"070-8159-2916","addr":"경기도 고양시 일산동구 성석동 53-57번지","category":""},{"name":"주식회사 맵포비","tel":"050-6050-6161","addr":"경기도 고양시 일산동구 성석동 53-57번지","category":""},{"name":"주식회사 맵포비","tel":"050-6050-6161","addr":"경기도 고양시 일산동구 성석동 53-57번지","category":"자동차정비 유지 - 자동차부품"}]},{"lat":"37.690539948","long":"126.80695574","items":[{"name":"벧엘종합주방","tel":"031-975-1657","addr":"경기도 고양시 일산동구 성석동 233번지","category":"주방용구 - 주방용구"},{"name":"벧엘종합주방","tel":"031-975-1657","addr":"경기도 고양시 일산동구 성석동 233번지","category":""}]},{"lat":"37.68765302","long":"126.79420897","items":[{"name":"벼리네 홈퍼니처","tel":"031-8076-0802","addr":"경기도 고양시 일산동구 성석동 877-6번지 2동","category":""},{"name":"송정근가구갤러리","tel":"031-968-5901","addr":"경기도 고양시 일산동구 성석동 877-6번지","category":"가구 - 일반가구"},{"name":"송정근가구갤러리","tel":"031-968-5901","addr":"경기도 고양시 일산동구 성석동 877-6번지","category":""}]},{"lat":"37.705510393","long":"126.80484113","items":[{"name":"벽산개발","tel":"031-964-7400","addr":"경기도 고양시 일산동구 성석동 421-7번지","category":""}]},{"lat":"37.70898487","long":"126.80831341","items":[{"name":"벽제공동화물","tel":"031-977-1234","addr":"경기도 고양시 일산동구 성석동 491-1번지","category":""},{"name":"심봤다두루치기일산점","tel":"031-977-8863","addr":"경기도 고양시 일산동구 성석동 491-1번지","category":"일반휴게음식 - 일반한식"},{"name":"심봤다두루치기일산점","tel":"031-977-8863","addr":"경기도 고양시 일산동구 성석동 491-1번지","category":""}]},{"lat":"37.689265826","long":"126.80470294","items":[{"name":"블루박스","tel":"","addr":"경기도 고양시 일산동구 성석동 195-45번지 은하팰리스","category":"건축자재 - 인테리어전문"}]},{"lat":"37.702288275","long":"126.80148189","items":[{"name":"비비북스","tel":"031-975-3660","addr":"경기도 고양시 일산동구 성석동 567번지","category":""},{"name":"비앤북스","tel":"031-975-3660","addr":"경기도 고양시 일산동구 성석동 567번지","category":"서적문구 - 출판 및 인쇄물"}]},{"lat":"37.709045684","long":"126.80695239","items":[{"name":"뽕나무집","tel":"031-976-3122","addr":"경기도 고양시 일산동구 성석동 527-1번지","category":"일반휴게음식 - 일반한식"},{"name":"뽕나무집","tel":"031-976-3122","addr":"경기도 고양시 일산동구 성석동 527-1번지","category":""},{"name":"서아마트","tel":"","addr":"경기도 고양시 일산동구 성석동 527-1번지","category":"유통업 영리 - 슈퍼마켓"},{"name":"서아마트","tel":"","addr":"경기도 고양시 일산동구 성석동 527-1번지","category":""},{"name":"파주된장국밥성석점","tel":"031-977-0778","addr":"경기도 고양시 일산동구 성석동 527-1번지","category":""},{"name":"파주된장국밥성석점","tel":"031-977-0778","addr":"경기도 고양시 일산동구 성석동 527-1번지","category":"일반휴게음식 - 일반한식"}]},{"lat":"37.700038895","long":"126.80865429","items":[{"name":"사운드뷰카오디오","tel":"031-976-9253","addr":"경기도 고양시 일산동구 성석동 88번지","category":""},{"name":"사운드뷰카오디오","tel":"031-976-9253","addr":"경기도 고양시 일산동구 성석동 88번지","category":"자동차정비 유지 - 카인테리어"}]},{"lat":"37.69309967","long":"126.79696019","items":[{"name":"사인 오토모티브","tel":"","addr":"경기도 고양시 일산동구 성석동 766-4번지","category":""},{"name":"사인 오토모티브","tel":"","addr":"경기도 고양시 일산동구 성석동 766-4번지","category":"자동차정비 유지 - 자동차정비"},{"name":"온 detailing","tel":"","addr":"경기도 고양시 일산동구 성석동 766-4번지","category":"자동차정비 유지 - 카인테리어"}]},{"lat":"37.692740295","long":"126.79753942","items":[{"name":"산넘어할매집","tel":"031-977-0724","addr":"경기도 고양시 일산동구 성석동 713-2번지","category":""}]},{"lat":"37.688682572","long":"126.79560058","items":[{"name":"산자락","tel":"032-976-0177","addr":"경기도 고양시 일산동구 성석동 875-1번지","category":""},{"name":"성미네","tel":"031-977-0252","addr":"경기도 고양시 일산동구 성석동 875-1번지","category":"일반휴게음식 - 일반한식"},{"name":"성미네","tel":"031-977-0252","addr":"경기도 고양시 일산동구 성석동 875-1번지","category":""},{"name":"예원","tel":"031-979-9795","addr":"경기도 고양시 일산동구 성석동 875-1번지","category":""}]},{"lat":"37.711293191","long":"126.79875841","items":[{"name":"삼마모터스","tel":"031-977-9133","addr":"경기도 고양시 일산동구 성석동 1035-2번지","category":""},{"name":"삼마모터스","tel":"031-977-9133","addr":"경기도 고양시 일산동구 성석동 1035-2번지","category":"자동차정비 유지 - 자동차정비"}]},{"lat":"37.705344617","long":"126.81361866","items":[{"name":"삼성목재","tel":"031-975-8832","addr":"경기도 고양시 일산동구 성석동 1666번지","category":"건축자재 - 목재·석재·철물"},{"name":"삼성목재","tel":"031-975-8832","addr":"경기도 고양시 일산동구 성석동 1666번지","category":""}]},{"lat":"37.707426965","long":"126.77832259","items":[{"name":"삼성전기종합설비공사","tel":"031-977-5426","addr":"경기도 고양시 일산동구 성석동 1455-8번지","category":""}]},{"lat":"37.69073644","long":"126.80592349","items":[{"name":"삼성하이쿨","tel":"","addr":"경기도 고양시 일산동구 성석동 234-10번지","category":"수리서비스 - 가정용품수리"},{"name":"삼성하이쿨","tel":"","addr":"경기도 고양시 일산동구 성석동 234-10번지","category":""}]},{"lat":"37.716313558","long":"126.79476374","items":[{"name":"삼인디지텍","tel":"070-8871-8073","addr":"경기도 고양시 일산동구 성석동 1061-62번지","category":""}]},{"lat":"37.713564244","long":"126.78895342","items":[{"name":"삼일합판","tel":"031-977-3138","addr":"경기도 고양시 일산동구 성석동 1220-7번지","category":"건축자재 - 건축용 요업제품"},{"name":"삼일합판","tel":"031-977-3138","addr":"경기도 고양시 일산동구 성석동 1220-7번지","category":""}]},{"lat":"37.709071853","long":"126.78103934","items":[{"name":"삼정식품","tel":"031-977-3358","addr":"경기도 고양시 일산동구 성석동 1403-1번지","category":""},{"name":"삼정식품","tel":"031-977-3358","addr":"경기도 고양시 일산동구 성석동 1403-1번지","category":"음료식품 - 기타음료식품"}]},{"lat":"37.706263258","long":"126.7823178","items":[{"name":"삼화종합건재","tel":"031-977-6980","addr":"경기도 고양시 일산동구 성석동 2180번지","category":""},{"name":"삼화종합건재","tel":"031-977-6980","addr":"경기도 고양시 일산동구 성석동 2180번지","category":""},{"name":"삼화종합건재","tel":"031-977-6980","addr":"경기도 고양시 일산동구 성석동","category":"건축자재 - 기타건축자재"},{"name":"삼화종합건재","tel":"031-977-6980","addr":"경기도 고양시 일산동구 성석동 2180번지","category":"건축자재 - 기타건축자재"}]},{"lat":"37.712820776","long":"126.80164618","items":[{"name":"상아렌탈","tel":"031-990-3900","addr":"경기도 고양시 일산동구 성석동 1042-21번지","category":""},{"name":"상아렌탈","tel":"031-990-3900","addr":"경기도 고양시 일산동구 성석동 1042-21번지","category":"건축자재 - 기타건축자재"},{"name":"상아렌탈 유한회사","tel":"031-990-3900","addr":"경기도 고양시 일산동구 성석동 1042-21번지","category":"가구 - 일반가구"}]},{"lat":"37.699540793","long":"126.78162336","items":[{"name":"상진휠얼라이먼트","tel":"031-977-8145","addr":"경기도 고양시 일산동구 성석동 1305-9번지","category":"자동차정비 유지 - 자동차시트·타이어"},{"name":"상진휠얼라이먼트","tel":"031-977-8145","addr":"경기도 고양시 일산동구 성석동 1305-9번지","category":""}]},{"lat":"37.692875675","long":"126.7976751","items":[{"name":"새봄","tel":"02-1599-6225","addr":"경기도 고양시 일산동구 성석동 714번지","category":""}]},{"lat":"37.69295755","long":"126.7981284","items":[{"name":"새봄","tel":"02-1599-6225","addr":"경기도 고양시 일산동구 성석동 714번지","category":"의류 - 아동의류"}]},{"lat":"37.68756838","long":"126.7973156","items":[{"name":"서구대리점","tel":"","addr":"경기도 고양시 일산동구 성석동 869번지","category":"음료식품 - 기타음료식품"},{"name":"서구대리점","tel":"","addr":"경기도 고양시 일산동구 성석동 869번지","category":""}]},{"lat":"37.712235881","long":"126.79175845","items":[{"name":"서영패션","tel":"070-4353-5499","addr":"경기도 고양시 일산동구 성석동 1227-181번지 명진쉐르빌","category":""}]},{"lat":"37.700129051","long":"126.79804064","items":[{"name":"서울밥상","tel":"031-915-7515","addr":"경기도 고양시 일산동구 성석동 1909번지","category":""},{"name":"서울밥상","tel":"031-915-7515","addr":"경기도 고양시 일산동구 성석동 1909번지","category":"일반휴게음식 - 일반한식"},{"name":"서울밥상","tel":"031-915-7515","addr":"경기도 고양시 일산동구 성석동 1909번지","category":""}]},{"lat":"37.716430982","long":"126.79493354","items":[{"name":"서울특수정밀","tel":"031-977-0203","addr":"경기도 고양시 일산동구 성석동 1061-9번지","category":"수리서비스 - 기타수리서비스"},{"name":"서울특수정밀","tel":"031-977-0203","addr":"경기도 고양시 일산동구 성석동 1061-9번지","category":""}]},{"lat":"37.71498604","long":"126.78800799","items":[{"name":"서진플라워","tel":"031-976-7661","addr":"경기도 고양시 일산동구 성석동 1833-2 일부","category":""},{"name":"서진플라워","tel":"031-976-7661","addr":"경기도 고양시 일산동구 성석동","category":"문화.취미 - 화원"}]},{"lat":"37.715819102","long":"126.78537436","items":[{"name":"서천영양탕","tel":"031-975-1442","addr":"경기도 고양시 일산동구 성석동 1099-1번지","category":"일반휴게음식 - 일반한식"},{"name":"서천영양탕","tel":"031-975-1442","addr":"경기도 고양시 일산동구 성석동 1099-1번지","category":""}]},{"lat":"37.712202856","long":"126.78843565","items":[{"name":"설봉순대국","tel":"031-977-0828","addr":"경기도 고양시 일산동구 성석동 1236번지","category":"일반휴게음식 - 일반한식"},{"name":"설봉순대국","tel":"031-977-0828","addr":"경기도 고양시 일산동구 성석동 1236번지","category":""}]},{"lat":"37.701265613","long":"126.79881992","items":[{"name":"성불사","tel":"","addr":"경기도 고양시 일산동구 성석동 산80-2번지","category":"보건위생 - 기타대인서비스"},{"name":"성불사","tel":"","addr":"경기도 고양시 일산동구 성석동 산80-2번지","category":""}]},{"lat":"37.708484793","long":"126.80026304","items":[{"name":"성석","tel":"031-977-9966","addr":"경기도 고양시 일산동구 성석동 1035-83번지","category":""},{"name":"수연뷰티","tel":"031-977-0816","addr":"경기도 고양시 일산동구 성석동 1035-83번지","category":""},{"name":"오일뱅크정비센타","tel":"031-977-7736","addr":"경기도 고양시 일산동구 성석동 1035-83번지","category":""}]},{"lat":"37.704735346","long":"126.79426315","items":[{"name":"성석동부점현대자동차","tel":"031-977-0809","addr":"경기도 고양시 일산동구 성석동 973-12번지","category":"자동차정비 유지 - 자동차정비"},{"name":"성석동부점현대자동차","tel":"031-977-0809","addr":"경기도 고양시 일산동구 성석동 973-12번지","category":""}]},{"lat":"37.703240725","long":"126.80528941","items":[{"name":"성석동소머리국밥","tel":"031-977-0847","addr":"경기도 고양시 일산동구 성석동 419-6번지","category":""}]},{"lat":"37.709120722","long":"126.80334592","items":[{"name":"성석방화문","tel":"031-976-7282","addr":"경기도 고양시 일산동구 성석동 523-48번지","category":"건축자재 - 기타건축자재"},{"name":"성석방화문","tel":"031-976-7282","addr":"경기도 고양시 일산동구 성석동 523-48번지","category":""}]},{"lat":"37.700848502","long":"126.80251765","items":[{"name":"성석불한증나라","tel":"031-977-8588","addr":"경기도 고양시 일산동구 성석동 346번지","category":""},{"name":"성석불한증나라","tel":"031-977-8588","addr":"경기도 고양시 일산동구 성석동 346번지","category":"보건위생 - 사우나"},{"name":"성석토탈패션","tel":"031-1111-1111","addr":"경기도 고양시 일산동구 성석동 346번지","category":"의류 - 정장"},{"name":"성석화장품","tel":"031-977-8588","addr":"경기도 고양시 일산동구 성석동 346번지","category":""},{"name":"화장품","tel":"031-977-8588","addr":"경기도 고양시 일산동구 성석동 346번지","category":"보건위생 - 화장품"},{"name":"화장품","tel":"031-977-8588","addr":"경기도 고양시 일산동구 성석동 346번지","category":""}]},{"lat":"37.687318239","long":"126.79340497","items":[{"name":"성석생대구탕전문점","tel":"031-977-7783","addr":"경기도 고양시 일산동구 성석동 880-2번지","category":""},{"name":"성석생대구탕전문점","tel":"031-977-7783","addr":"경기도 고양시 일산동구 성석동 880-2번지","category":"일반휴게음식 - 일반한식"}]},{"lat":"37.689208776","long":"126.79768521","items":[{"name":"성석식당","tel":"031-975-7025","addr":"경기도 고양시 일산동구 성석동 828-2번지","category":"일반휴게음식 - 일반한식"},{"name":"성석식당","tel":"031-975-7025","addr":"경기도 고양시 일산동구 성석동 828-2번지","category":""},{"name":"오천식당","tel":"031-977-2031","addr":"경기도 고양시 일산동구 성석동 828-2번지","category":""}]},{"lat":"37.710069479","long":"126.79968035","items":[{"name":"성석자동차서비스","tel":"031-976-3238","addr":"경기도 고양시 일산동구 성석동 1035-9번지","category":"자동차정비 유지 - 자동차정비"},{"name":"성석자동차서비스","tel":"031-976-3238","addr":"경기도 고양시 일산동구 성석동 1035-9번지","category":""}]},{"lat":"37.699289984","long":"126.81350933","items":[{"name":"성원산업","tel":"031-907-2004","addr":"경기도 고양시 일산동구 성석동","category":"건축자재 - 기타건축자재"},{"name":"성원산업","tel":"031-907-2004","addr":"경기도 고양시 일산동구 성석동 53-23번지","category":""}]},{"lat":"37.708267549","long":"126.79967393","items":[{"name":"성원유통","tel":"031-953-3222","addr":"경기도 고양시 일산동구 성석동 544-25번지","category":"음료식품 - 기타음료식품"},{"name":"성원유통","tel":"031-977-3222","addr":"경기도 고양시 일산동구 성석동 544-25번지","category":"음료식품 - 기타음료식품"},{"name":"신원부품센타","tel":"031-975-2623","addr":"경기도 고양시 일산동구 성석동 544-25번지","category":""},{"name":"신원중공업","tel":"031-975-2623","addr":"경기도 고양시 일산동구 성석동 544-25번지","category":"기타 - 기계공구"},{"name":"신원중공업","tel":"031-975-2623","addr":"경기도 고양시 일산동구 성석동 544-25번지","category":""},{"name":"영림창호","tel":"031-964-0777","addr":"경기도 고양시 일산동구 성석동 544-25번지","category":""},{"name":"영림창호","tel":"031-964-0777","addr":"경기도 고양시 일산동구 성석동 544-25번지","category":"용역 서비스 - 기타용역서비스"}]},{"lat":"37.687401193","long":"126.79445909","items":[{"name":"성원카","tel":"031-975-7654","addr":"경기도 고양시 일산동구 성석동 877-10번지","category":""},{"name":"성원카","tel":"031-975-7654","addr":"경기도 고양시 일산동구 성석동 877-10번지","category":"자동차정비 유지 - 자동차시트·타이어"},{"name":"오주","tel":"031-977-2111","addr":"경기도 고양시 일산동구 성석동 877-10번지","category":""},{"name":"오주","tel":"031-977-2111","addr":"경기도 고양시 일산동구 성석동","category":"의류 - 아동의류"}]},{"lat":"37.715118264","long":"126.79137601","items":[{"name":"성지","tel":"031-813-1000","addr":"경기도 고양시 일산동구 성석동 1074-7번지 거영블루힐","category":"용역 서비스 - 기타용역서비스"},{"name":"성지","tel":"031-813-1000","addr":"경기도 고양시 일산동구 성석동 1074-7번지 거영블루힐","category":""}]},{"lat":"37.712317302","long":"126.79704311","items":[{"name":"성지모터스","tel":"031-976-4982","addr":"경기도 고양시 일산동구 성석동 1024번지","category":""},{"name":"성지모터스","tel":"031-976-4982","addr":"경기도 고양시 일산동구 성석동 1024번지","category":"자동차정비 유지 - 자동차정비"}]},{"lat":"37.704540243","long":"126.80656736","items":[{"name":"성호앤아이","tel":"031-975-8126","addr":"경기도 고양시 일산동구 성석동 1586-2번지","category":""}]},{"lat":"37.708264999","long":"126.79307386","items":[{"name":"세성초경","tel":"031-977-5627","addr":"경기도 고양시 일산동구 성석동 984-88번지","category":"기타 - 기계공구"},{"name":"세성초경","tel":"031-977-5627","addr":"경기도 고양시 일산동구 성석동 984-88번지","category":""},{"name":"일산소파","tel":"031-977-3254","addr":"경기도 고양시 일산동구 성석동 984-88번지","category":""}]},{"lat":"37.715711197","long":"126.78548809","items":[{"name":"세진정보","tel":"","addr":"경기도 고양시 일산동구 성석동 1099-10번지","category":"사무통신 - 사무용 OA기기"}]},{"lat":"37.708820244","long":"126.80148689","items":[{"name":"솔리드","tel":"","addr":"경기도 고양시 일산동구 성석동 1035-44번지","category":""},{"name":"하엽공구철물백화점","tel":"031-922-0989","addr":"경기도 고양시 일산동구 성석동 1035-44번지","category":""},{"name":"하엽공구철물백화점","tel":"031-922-0989","addr":"경기도 고양시 일산동구 성석동 1035-44번지","category":"기타 - 기계공구"}]},{"lat":"37.705954375","long":"126.79581331","items":[{"name":"솔치골","tel":"031-977-1478","addr":"경기도 고양시 일산동구 성석동 965-4번지","category":""},{"name":"솔치국수","tel":"031-977-1478","addr":"경기도 고양시 일산동구 성석동 965-4번지","category":""},{"name":"아트센터조이","tel":"031-906-9160","addr":"경기도 고양시 일산동구 성석동 965-4번지","category":""}]},{"lat":"37.693686063","long":"126.79740075","items":[{"name":"송가네우렁쌈밥집","tel":"031-976-9789","addr":"경기도 고양시 일산동구 성석동 764-3번지","category":""},{"name":"송가네우렁쌈밥집","tel":"031-976-9789","addr":"경기도 고양시 일산동구 성석동 764-3번지","category":"일반휴게음식 - 일반한식"}]},{"lat":"37.706459745","long":"126.79628819","items":[{"name":"송탄부대찌개","tel":"031-975-9712","addr":"경기도 고양시 일산동구 성석동 965-21번지","category":""},{"name":"송탄부대찌개","tel":"031-975-9712","addr":"경기도 고양시 일산동구 성석동 965-21번지","category":"일반휴게음식 - 일반한식"}]},{"lat":"37.714014886","long":"126.78904285","items":[{"name":"수빈헤어","tel":"031-111-1111","addr":"경기도 고양시 일산동구 성석동 1221-1번지","category":"보건위생 - 미용원"},{"name":"수빈헤어","tel":"031-111-1111","addr":"경기도 고양시 일산동구 성석동 1221-1번지","category":""},{"name":"장원백반집","tel":"031-977-3000","addr":"경기도 고양시 일산동구 성석동 1221-1번지","category":""},{"name":"장원백반집","tel":"031-977-3000","addr":"경기도 고양시 일산동구 성석동 1221-1번지","category":"일반휴게음식 - 일반한식"},{"name":"장원백반집","tel":"031-977-3000","addr":"경기도 고양시 일산동구 성석동 1221-1번지","category":""},{"name":"팡팡치킨호프","tel":"031-975-5282","addr":"경기도 고양시 일산동구 성석동 1221-1번지","category":""},{"name":"팡팡치킨호프","tel":"031-975-5282","addr":"경기도 고양시 일산동구 성석동 1221-1번지","category":""},{"name":"팡팡치킨호프","tel":"031-975-5282","addr":"경기도 고양시 일산동구 성석동 1221-1번지","category":"일반휴게음식 - 일반한식"},{"name":"형제떡방앗간","tel":"031-977-2929","addr":"경기도 고양시 일산동구 성석동 1221-1번지","category":""}]},{"lat":"37.699261922","long":"126.78185096","items":[{"name":"순두부마을","tel":"031-977-5924","addr":"경기도 고양시 일산동구 성석동 1305-14번지","category":"일반휴게음식 - 일반한식"},{"name":"순두부마을","tel":"031-977-5924","addr":"경기도 고양시 일산동구 성석동 1305-14번지","category":""}]},{"lat":"37.689518104","long":"126.79426043","items":[{"name":"숲속원두막","tel":"031-977-3349","addr":"경기도 고양시 일산동구 성석동 899번지","category":"신변잡화 - 가방"},{"name":"숲속원두막","tel":"031-977-3349","addr":"경기도 고양시 일산동구 성석동 899번지","category":""},{"name":"숲속원두막","tel":"031-977-3349","addr":"경기도 고양시 일산동구 성석동 899번지","category":""}]},{"lat":"37.689100666","long":"126.80832002","items":[{"name":"숲에서 길을 잃다","tel":"","addr":"경기도 고양시 일산동구 성석동 163번지","category":"신변잡화 - 기타잡화"},{"name":"숲에서 길을 잃다","tel":"","addr":"경기도 고양시 일산동구 성석동 163번지","category":""},{"name":"숲에서길을잃다","tel":"","addr":"경기도 고양시 일산동구 성석동 163번지","category":""}]},{"lat":"37.709902668","long":"126.78206886","items":[{"name":"슈가파머스","tel":"","addr":"경기도 고양시 일산동구 성석동 1384번지","category":""},{"name":"슈가파머스","tel":"","addr":"경기도 고양시 일산동구 성석동 1384번지","category":"일반휴게음식 - 서양음식"}]},{"lat":"37.688516043","long":"126.79826532","items":[{"name":"슈텍알앤에스","tel":"031-976-7135","addr":"경기도 고양시 일산동구 성석동 834번지","category":""},{"name":"슈텍알앤에스","tel":"031-976-7135","addr":"경기도 고양시 일산동구 성석동 834번지","category":"의류 - 기타의류"}]},{"lat":"37.712179232","long":"126.80587809","items":[{"name":"스마트그린","tel":"031-904-9205","addr":"경기도 고양시 일산동구 성석동 521-61번지","category":""},{"name":"친환경테크","tel":"031-932-1941","addr":"경기도 고양시 일산동구 성석동 521-61번지","category":""},{"name":"프라임카페트","tel":"","addr":"경기도 고양시 일산동구 성석동 521-61번지","category":"직물 - 카페트,커튼,천막,지물"},{"name":"힐링엔젤스","tel":"02-400-1185","addr":"경기도 고양시 일산동구 성석동 521-61번지","category":"보건위생 - 화장품"}]},{"lat":"37.712231692","long":"126.78451159","items":[{"name":"스마트북","tel":"070-4126-5997","addr":"경기도 고양시 일산동구 성석동 1196-3번지","category":""}]},{"lat":"37.690706795","long":"126.80978972","items":[{"name":"스케치Furniture","tel":"031-913-0409","addr":"경기도 고양시 일산동구 성석동 154번지","category":"가구 - 일반가구"},{"name":"스케치Furniture","tel":"031-913-0409","addr":"경기도 고양시 일산동구 성석동 154번지","category":""}]},{"lat":"37.700566434","long":"126.78084924","items":[{"name":"스피디메이트 일산제일점","tel":"031-975-0605","addr":"경기도 고양시 일산동구 성석동 1305-24번지","category":""},{"name":"스피디메이트 일산제일점","tel":"031-975-0605","addr":"경기도 고양시 일산동구 성석동 1305-24번지","category":"자동차정비 유지 - 자동차부품"}]},{"lat":"37.708403278","long":"126.80001377","items":[{"name":"슬립웨이(SLEEPWAY)","tel":"031-975-9366","addr":"경기도 고양시 일산동구 성석동 1035-54번지","category":"가구 - 일반가구"}]},{"lat":"37.700848415","long":"126.77751467","items":[{"name":"승명푸드","tel":"031-996-2020","addr":"경기도 고양시 일산동구 성석동 1306-9번지","category":""},{"name":"우노힐일산요양병원","tel":"031-975-1275","addr":"경기도 고양시 일산동구 성석동 1306-9번지","category":"병원 - 병원"},{"name":"일산푸드","tel":"031-976-2221","addr":"경기도 고양시 일산동구 성석동 1306-9번지","category":""},{"name":"중산골프","tel":"031-977-7425","addr":"경기도 고양시 일산동구 성석동 1306-9번지","category":"레져용품 - 골프용품 전문점"},{"name":"중산골프","tel":"031-977-7425","addr":"경기도 고양시 일산동구 성석동 1306-9번지","category":""},{"name":"케어웰페어","tel":"00-000-000","addr":"경기도 고양시 일산동구 성석동 1306-9번지","category":"일반휴게음식 - 일반한식"},{"name":"케어웰페어","tel":"","addr":"경기도 고양시 일산동구 성석동 1306-9번지","category":""}]},{"lat":"37.7084289","long":"126.80448181","items":[{"name":"시조유통","tel":"031-977-9864","addr":"경기도 고양시 일산동구 성석동 428-64,65","category":""}]},{"lat":"37.713513506","long":"126.79079083","items":[{"name":"신도시참숯갈비","tel":"031-918-0040","addr":"경기도 고양시 일산동구 성석동 1227-2번지","category":"일반휴게음식 - 일반한식"},{"name":"신도시참숯갈비","tel":"031-918-0040","addr":"경기도 고양시 일산동구 성석동 1227-2번지","category":""},{"name":"신도시축산유통","tel":"031-977-0900","addr":"경기도 고양시 일산동구 성석동 1227-2번지","category":""},{"name":"신도시축산유통","tel":"031-977-0900","addr":"경기도 고양시 일산동구 성석동","category":"음료식품 - 정육점"}]},{"lat":"37.709822982","long":"126.78281757","items":[{"name":"신라엔지니어링","tel":"031-977-8586","addr":"경기도 고양시 일산동구 성석동 1376번지","category":""},{"name":"신라엔지니어링","tel":"031-977-8586","addr":"경기도 고양시 일산동구 성석동 1376번지","category":""}]},{"lat":"37.701878896","long":"126.80989682","items":[{"name":"신성냉동엔지니어링","tel":"031-907-2237","addr":"경기도 고양시 일산동구 성석동 80-3번지","category":"수리서비스 - 기타수리서비스"},{"name":"신성냉동엔지니어링","tel":"031-907-2237","addr":"경기도 고양시 일산동구 성석동 80-3번지","category":""}]},{"lat":"37.714037017","long":"126.79132237","items":[{"name":"신세계마트","tel":"031-977-5252","addr":"경기도 고양시 일산동구 성석동 1082-16번지","category":"유통업 영리 - 슈퍼마켓"},{"name":"신세계마트","tel":"031-977-5252","addr":"경기도 고양시 일산동구 성석동 1082-16번지","category":""},{"name":"우리마트","tel":"031-977-5252","addr":"경기도 고양시 일산동구 성석동 1082-16번지","category":"유통업 영리 - 슈퍼마켓"}]},{"lat":"37.711016886","long":"126.80581312","items":[{"name":"신영산업","tel":"031-977-2856","addr":"경기도 고양시 일산동구 성석동 521-7번지","category":""}]},{"lat":"37.709488356","long":"126.80767702","items":[{"name":"신원종합건설(주)","tel":"02-381-4000","addr":"경기도 고양시 일산동구 성석동 493-4번지","category":""}]},{"lat":"37.699876062","long":"126.81379131","items":[{"name":"신일합판목재","tel":"031-977-1985","addr":"경기도 고양시 일산동구 성석동 53-20번지","category":"건축자재 - 기타건축자재"},{"name":"신일합판목재","tel":"031-977-1985","addr":"경기도 고양시 일산동구 성석동 53-20번지","category":""}]},{"lat":"37.709016927","long":"126.79035002","items":[{"name":"싸다중고타이어","tel":"070-7745-9764","addr":"경기도 고양시 일산동구 성석동 1245번지","category":""},{"name":"싸다중고타이어","tel":"070-7745-9764","addr":"경기도 고양시 일산동구 성석동 1245번지","category":"자동차정비 유지 - 자동차시트·타이어"},{"name":"싸다중고타이어","tel":"070-7745-9764","addr":"경기도 고양시 일산동구 성석동 1245번지","category":""}]},{"lat":"37.69171028","long":"126.80106833","items":[{"name":"싸운드브릿지","tel":"031-905-4331","addr":"경기도 고양시 일산동구 성석동 2037번지","category":"전기제품 - 가전제품"},{"name":"싸운드브릿지","tel":"031-905-4331","addr":"경기도 고양시 일산동구 성석동 2037번지","category":""}]},{"lat":"37.710013104","long":"126.7882038","items":[{"name":"쌍용중장비운전학원","tel":"031-976-7060","addr":"경기도 고양시 일산동구 성석동 1256-14번지","category":""},{"name":"쌍용중장비운전학원","tel":"031-976-7060","addr":"경기도 고양시 일산동구 성석동 1256-14번지","category":""}]},{"lat":"37.707120267","long":"126.78290495","items":[{"name":"쌍용중장비운전학원","tel":"031-976-7060","addr":"경기도 고양시 일산동구 성석동 2185번지","category":"학원 - 기능학원"},{"name":"에스제이네비앤카(SJ-NAVI&CAR)","tel":"070-4242-7745","addr":"경기도 고양시 일산동구 성석동 2185번지","category":""},{"name":"에스제이네비앤카(SJ-NAVI&CAR)","tel":"070-4242-7745","addr":"경기도 고양시 일산동구 성석동 2185번지","category":"자동차정비 유지 - 자동차부품"}]},{"lat":"37.692039379","long":"126.79859578","items":[{"name":"썬나노","tel":"031-975-8303","addr":"경기도 고양시 일산동구 성석동 784번지","category":""}]},{"lat":"37.690434651","long":"126.79801062","items":[{"name":"썬베이(SUNBAY)","tel":"031-917-6913","addr":"경기도 고양시 일산동구 성석동 774-2번지","category":"자동차정비 유지 - 자동차시트·타이어"},{"name":"썬베이(SUNBAY)","tel":"031-917-6913","addr":"경기도 고양시 일산동구 성석동 774-2번지 2동","category":""},{"name":"주식회사 썬베이","tel":"031-917-6913","addr":"경기도 고양시 일산동구 성석동 774-2번지","category":"자동차정비 유지 - 자동차시트·타이어"}]},{"lat":"37.689458253","long":"126.80128984","items":[{"name":"썬플라워","tel":"02-529-1811","addr":"경기도 고양시 일산동구 성석동 814-10번지","category":""},{"name":"썬플라워","tel":"02-529-1811","addr":"경기도 고양시 일산동구 성석동 814-10번지","category":"문화.취미 - 화원"}]},{"lat":"37.711428393","long":"126.79879206","items":[{"name":"씨엔미(C&  )","tel":"031-977-7275","addr":"경기도 고양시 일산동구 성석동 1036-1번지","category":"직물 - 옷감·직물"},{"name":"씨엔미(C&美)","tel":"031-977-7275","addr":"경기도 고양시 일산동구 성석동 1036-1번지","category":""}]},{"lat":"37.706400869","long":"126.77884733","items":[{"name":"씨유고양성석시티점","tel":"031-977-4401","addr":"경기도 고양시 일산동구 성석동 1457-69번지","category":"유통업 영리 - 편 의 점"},{"name":"씨유고양성석시티점","tel":"031-977-4401","addr":"경기도 고양시 일산동구 성석동 1457-69번지","category":""}]},{"lat":"37.695543101","long":"126.7980079","items":[{"name":"씨유일산성석모던빌점","tel":"031-976-1227","addr":"경기도 고양시 일산동구 성석동 743-2번지","category":"유통업 영리 - 편 의 점"},{"name":"씨유일산성석모던빌점","tel":"031-976-1227","addr":"경기도 고양시 일산동구 성석동 743-2번지","category":""}]},{"lat":"37.715678906","long":"126.78265281","items":[{"name":"씨코리아(주)","tel":"031-967-7204","addr":"경기도 고양시 일산동구 성석동 1148-4번지","category":"신변잡화 - 기타잡화"},{"name":"씨코리아(주)","tel":"031-967-7204","addr":"경기도 고양시 일산동구 성석동 1148-4번지","category":""}]},{"lat":"37.707345759","long":"126.78304036","items":[{"name":"아담호","tel":"031-976-3392","addr":"경기도 고양시 일산동구 성석동 2186번지","category":"직물 - 카페트,커튼,천막,지물"},{"name":"아담호","tel":"031-976-3392","addr":"경기도 고양시 일산동구 성석동 2186번지","category":""},{"name":"에스티코봉일천상설점","tel":"031-977-6318","addr":"경기도 고양시 일산동구 성석동 2186번지","category":""},{"name":"장보는 강양이 일산성석점","tel":"031-7177-4286","addr":"경기도 고양시 일산동구 성석동 2186번지","category":"문화.취미 - 애완동물"},{"name":"장보는 강양이 일산성석점","tel":"031-7177-4286","addr":"경기도 고양시 일산동구 성석동 2186번지","category":""}]},{"lat":"37.715149983","long":"126.78407206","items":[{"name":"아도코리아","tel":"","addr":"경기도 고양시 일산동구 성석동 1099-8번지 2동","category":""},{"name":"아도코리아","tel":"","addr":"경기도 고양시 일산동구 성석동 1099-8번지","category":"의류 - 정장"}]},{"lat":"37.711873684","long":"126.80634388","items":[{"name":"아르스갤러리","tel":"","addr":"경기도 고양시 일산동구 성석동 521-47번지","category":"가구 - 일반가구"}]},{"lat":"37.711208204","long":"126.79143248","items":[{"name":"아모르파티","tel":"031-968-0205","addr":"경기도 고양시 일산동구 성석동 1227-39번지","category":""}]},{"lat":"37.706481696","long":"126.778711","items":[{"name":"아우라뷰티","tel":"02-5464-8767","addr":"경기도 고양시 일산동구 성석동 1457-54번지","category":"보건위생 - 화장품"}]},{"lat":"37.687736705","long":"126.79568257","items":[{"name":"아우라코스메틱(Aura cosmetics)","tel":"070-7758-1202","addr":"경기도 고양시 일산동구 성석동 879-2번지","category":""},{"name":"위드 (WITH)","tel":"031-976-6449","addr":"경기도 고양시 일산동구 성석동 879-2번지","category":"보건위생 - 미용재료"},{"name":"위드 (WITH)","tel":"031-976-6449","addr":"경기도 고양시 일산동구 성석동 879-2번지","category":""}]},{"lat":"37.705763037","long":"126.79460046","items":[{"name":"아이굿즈","tel":"031-1544-1798","addr":"경기도 고양시 일산동구 성석동 973번지","category":""}]},{"lat":"37.715676713","long":"126.79129503","items":[{"name":"아트텍연구소","tel":"031-976-3573","addr":"경기도 고양시 일산동구 성석동 1075번지","category":""},{"name":"아트텍연구소","tel":"031-976-3573","addr":"경기도 고양시 일산동구 성석동 1075번지","category":"자동차정비 유지 - 자동차부품"},{"name":"정철민아트테크연구소","tel":"031-976-3573","addr":"경기도 고양시 일산동구 성석동 1075번지","category":""}]},{"lat":"37.707040137","long":"126.77862994","items":[{"name":"안심","tel":"","addr":"경기도 고양시 일산동구 성석동 1456-5번지","category":"의류 - 아동의류"}]},{"lat":"37.716122971","long":"126.78404651","items":[{"name":"알지오","tel":"031-977-4330","addr":"경기도 고양시 일산동구 성석동 1134-7번지 포란채빌","category":""}]},{"lat":"37.704539354","long":"126.80603439","items":[{"name":"알토코리아","tel":"","addr":"경기도 고양시 일산동구 성석동 418번지","category":"기타 - 기계공구"},{"name":"오성산업","tel":"02-434-4012","addr":"경기도 고양시 일산동구 성석동 418번지","category":"기타 - 기타 전문점"},{"name":"오성산업","tel":"02-434-4012","addr":"경기도 고양시 일산동구 성석동 418번지","category":""}]},{"lat":"37.699955233","long":"126.78162212","items":[{"name":"알투서비스","tel":"031-976-7667","addr":"경기도 고양시 일산동구 성석동 1305-55,60 2필지","category":""}]},{"lat":"37.714236731","long":"126.79726463","items":[{"name":"알파가스","tel":"031-976-8938","addr":"경기도 고양시 일산동구 성석동 1065-15번지","category":""}]},{"lat":"37.708822398","long":"126.7924032","items":[{"name":"앤(Ann)","tel":"031-977-7768","addr":"경기도 고양시 일산동구 성석동 984-145번지","category":""},{"name":"앤까페(Ann Cafe)","tel":"031-905-6100","addr":"경기도 고양시 일산동구 성석동 984-145번지","category":""},{"name":"전주가마솥곰탕","tel":"031-975-8600","addr":"경기도 고양시 일산동구 성석동 984-145번지","category":"일반휴게음식 - 일반한식"},{"name":"전주팔미콩나물국밥(성석점)","tel":"031-976-1233","addr":"경기도 고양시 일산동구 성석동 984-145번지","category":""},{"name":"참마루","tel":"031-977-7440","addr":"경기도 고양시 일산동구 성석동 984-145번지","category":"음료식품 - 기타음료식품"},{"name":"참마루","tel":"031-977-7440","addr":"경기도 고양시 일산동구 성석동 984-145번지","category":""},{"name":"참마루 한식 보리밥 부페","tel":"031-977-7740","addr":"경기도 고양시 일산동구 성석동 984-145번지","category":"일반휴게음식 - 일반한식"},{"name":"참마루한식부페","tel":"031-977-7740","addr":"경기도 고양시 일산동구 성석동 984-145번지","category":""},{"name":"참마루한식부페","tel":"031-977-7740","addr":"경기도 고양시 일산동구 성석동 984-145번지","category":"일반휴게음식 - 일반한식"},{"name":"청옥국수","tel":"031-975-0346","addr":"경기도 고양시 일산동구 성석동 984-145번지","category":""},{"name":"카페앤(Cafe Ann)","tel":"031-977-7768","addr":"경기도 고양시 일산동구 성석동 984-145번지","category":"일반휴게음식 - 서양음식"},{"name":"카페앤(Cafe Ann)","tel":"031-977-7768","addr":"경기도 고양시 일산동구 성석동 984-145번지","category":""}]},{"lat":"37.708765037","long":"126.79562404","items":[{"name":"앤의 다락방","tel":"031-977-9985","addr":"경기도 고양시 일산동구 성석동 991번지","category":""},{"name":"앤의 다락방","tel":"031-977-9985","addr":"경기도 고양시 일산동구 성석동 991번지","category":"신변잡화 - 기타잡화"}]},{"lat":"37.709432512","long":"126.78118569","items":[{"name":"야긴통상","tel":"031-814-7499","addr":"경기도 고양시 일산동구 성석동 1391-1번지","category":"의류 - 정장"},{"name":"야긴통상","tel":"031-814-7499","addr":"경기도 고양시 일산동구 성석동 1391-1번지","category":""}]},{"lat":"37.705234712","long":"126.80165535","items":[{"name":"야호어린이집[아이행복]","tel":"031-977-4788","addr":"경기도 고양시 일산동구 성석동 564-3번지","category":"학원 - 유아원"}]},{"lat":"37.705261314","long":"126.80140581","items":[{"name":"야호어린이집[아이행복]","tel":"031-977-4788","addr":"경기도 고양시 일산동구 성석동","category":"학원 - 유아원"}]},{"lat":"37.707732704","long":"126.78278973","items":[{"name":"양이사랑","tel":"031-968-0599","addr":"경기도 고양시 일산동구 성석동 2122-1번지 시크베르","category":""}]},{"lat":"37.688793348","long":"126.79711948","items":[{"name":"양평해장국","tel":"031-976-0344","addr":"경기도 고양시 일산동구 성석동 830번지","category":""},{"name":"우래한식당","tel":"031-977-2185","addr":"경기도 고양시 일산동구 성석동 830번지","category":""},{"name":"우래한식당","tel":"031-977-2185","addr":"경기도 고양시 일산동구 성석동 830번지","category":"일반휴게음식 - 일반한식"}]},{"lat":"37.708565775","long":"126.80551342","items":[{"name":"어울림광고","tel":"031-977-0941","addr":"경기도 고양시 일산동구 성석동 428-45번지","category":"건축자재 - 인테리어전문"},{"name":"어울림광고","tel":"031-977-0941","addr":"경기도 고양시 일산동구 성석동 428-45번지","category":""}]},{"lat":"37.706817007","long":"126.77974195","items":[{"name":"에너지생수","tel":"","addr":"경기도 고양시 일산동구 성석동 1418-7번지","category":""},{"name":"에너지생수","tel":"","addr":"경기도 고양시 일산동구 성석동 1418-7번지","category":"음료식품 - 기타음료식품"},{"name":"원당낚시음식점(원당낚시마트)","tel":"031-965-8366","addr":"경기도 고양시 일산동구 성석동 1418-7번지","category":"레져용품 - 스포츠·레져용품"},{"name":"원당낚시음식점(원당낚시마트)","tel":"031-965-8366","addr":"경기도 고양시 일산동구 성석동 1418-7번지","category":""}]},{"lat":"37.701903745","long":"126.80857004","items":[{"name":"에산","tel":"031-977-7802","addr":"경기도 고양시 일산동구 성석동 79번지","category":"서적문구 - 기타서적문구"},{"name":"에산","tel":"031-977-7802","addr":"경기도 고양시 일산동구 성석동 79번지","category":""},{"name":"유니온 아트 토탈 솔루션","tel":"031-931-7379","addr":"경기도 고양시 일산동구 성석동 79번지","category":"문화.취미 - 민예·공예품"},{"name":"유니온 아트 토탈 솔루션","tel":"031-931-7379","addr":"경기도 고양시 일산동구 성석동 79번지","category":""}]},{"lat":"37.715469779","long":"126.7914544","items":[{"name":"에스제이(SJ)실업","tel":"070-7757-1302","addr":"경기도 고양시 일산동구 성석동 1075-2번지 일산I하우스","category":"건축자재 - 기타건축자재"},{"name":"에스제이(SJ)실업","tel":"070-7757-1302","addr":"경기도 고양시 일산동구 성석동 1075-2번지 일산I하우스","category":""},{"name":"한빛스포츠","tel":"032-551-2178","addr":"경기도 고양시 일산동구 성석동 1075-2번지 일산I하우스","category":""}]},{"lat":"37.704847548","long":"126.78167562","items":[{"name":"에이스 와인세상","tel":"031-977-1108","addr":"경기도 고양시 일산동구 성석동 2171-2번지","category":"음료식품 - 주류 판매점"},{"name":"에이스 와인세상","tel":"031-977-1108","addr":"경기도 고양시 일산동구 성석동 2171-2번지","category":""},{"name":"현대목재","tel":"031-976-2115","addr":"경기도 고양시 일산동구 성석동 2171-2번지","category":"건축자재 - 기타건축자재"},{"name":"현대목재","tel":"031-976-2115","addr":"경기도 고양시 일산동구 성석동 2171-2번지","category":""}]},{"lat":"37.715321522","long":"126.78426435","items":[{"name":"에이엔에프(ANF)용마은서","tel":"031-111-1111","addr":"경기도 고양시 일산동구 성석동 1099-35번지","category":""},{"name":"에이엔에프(ANF)용마은서","tel":"031-111-1111","addr":"경기도 고양시 일산동구 성석동 1099-35번지","category":"문화.취미 - 애완동물"}]},{"lat":"37.716042998","long":"126.78957007","items":[{"name":"에이치피 출장서비스센터","tel":"","addr":"경기도 고양시 일산동구 성석동 1082-96번지","category":"수리서비스 - 사무·통신기기수리"},{"name":"에이치피 출장서비스센터","tel":"","addr":"경기도 고양시 일산동구 성석동 1082-96번지","category":""}]},{"lat":"37.713456275","long":"126.7841224","items":[{"name":"에이티 알브이","tel":"","addr":"경기도 고양시 일산동구 성석동 2111번지","category":""}]},{"lat":"37.713627456","long":"126.7841219","items":[{"name":"에이티 알브이","tel":"02-1111-1111","addr":"경기도 고양시 일산동구 성석동 2111번지","category":"레져용품 - 스포츠·레져용품"}]},{"lat":"37.716070477","long":"126.78981951","items":[{"name":"엔엔앰(M&M)","tel":"070-8749-9155","addr":"경기도 고양시 일산동구 성석동 1082-97번지","category":""},{"name":"주식회사 에스엔디(SND Co.,Ltd.)","tel":"070-4610-4211","addr":"경기도 고양시 일산동구 성석동 1082-97번지","category":"의류 - 아동의류"},{"name":"주식회사 에스엔디(SND Co.,Ltd.)","tel":"070-4610-4211","addr":"경기도 고양시 일산동구 성석동 1082-97번지","category":""}]},{"lat":"37.712540353","long":"126.80631944","items":[{"name":"엘티레이저","tel":"031-977-1252","addr":"경기도 고양시 일산동구 성석동 521-41번지","category":""},{"name":"엘티레이저","tel":"031-977-1252","addr":"경기도 고양시 일산동구 성석동 521-41번지","category":"기타 - 기계공구"}]},{"lat":"37.698740273","long":"126.81343135","items":[{"name":"엠에스테크","tel":"070-7523-4542","addr":"경기도 고양시 일산동구 성석동 53-25번지","category":""},{"name":"엠에스테크","tel":"070-7523-4542","addr":"경기도 고양시 일산동구 성석동 53-25번지","category":"건축자재 - 조명기구"}]},{"lat":"37.70570982","long":"126.80556636","items":[{"name":"여럿이함께어린이집[아이행복]","tel":"031-977-2382","addr":"경기도 고양시 일산동구 성석동 415-11번지","category":"학원 - 유아원"}]},{"lat":"37.708453695","long":"126.79278981","items":[{"name":"연화산","tel":"031-975-7661","addr":"경기도 고양시 일산동구 성석동 984-31번지","category":"일반휴게음식 - 중국식"},{"name":"연화산","tel":"031-975-7661","addr":"경기도 고양시 일산동구 성석동 984-31번지","category":""},{"name":"주식회사 려기","tel":"031-975-7048","addr":"경기도 고양시 일산동구 성석동 984-31번지","category":"용역 서비스 - 사무서비스"},{"name":"주식회사 려기","tel":"031-975-7048","addr":"경기도 고양시 일산동구 성석동 984-31번지","category":""}]},{"lat":"37.709290944","long":"126.79753912","items":[{"name":"영구이사","tel":"031-915-9800","addr":"경기도 고양시 일산동구 성석동 541-4번지","category":""}]},{"lat":"37.68985009","long":"126.79862446","items":[{"name":"영마트","tel":"","addr":"경기도 고양시 일산동구 성석동 778-10번지","category":"유통업 영리 - 슈퍼마켓"},{"name":"영마트","tel":"070-8886-3684","addr":"경기도 고양시 일산동구 성석동 778-10번지","category":""},{"name":"영진슈퍼","tel":"031-977-1632","addr":"경기도 고양시 일산동구 성석동 778-10번지","category":""},{"name":"오늘기사부페","tel":"031-975-5990","addr":"경기도 고양시 일산동구 성석동 778-10번지","category":"일반휴게음식 - 일반한식"},{"name":"오늘기사부페","tel":"031-975-5990","addr":"경기도 고양시 일산동구 성석동 778-10번지","category":""}]},{"lat":"37.709732526","long":"126.78262505","items":[{"name":"예성디자인","tel":"031-975-1940","addr":"경기도 고양시 일산동구 성석동","category":"건축자재 - 인테리어전문"},{"name":"예성디자인","tel":"031-975-1940","addr":"경기도 고양시 일산동구 성석동 1374-1번지","category":""}]},{"lat":"37.709624624","long":"126.78273878","items":[{"name":"옛날시골밥상","tel":"031-977-4790","addr":"경기도 고양시 일산동구 성석동 1374-3번지","category":""}]},{"lat":"37.709871728","long":"126.78973519","items":[{"name":"오미산24시셀프세차장/카페앤커피","tel":"031-976-4768","addr":"경기도 고양시 일산동구 성석동 1246-30번지","category":""},{"name":"오미산24시셀프세차장/카페앤커피","tel":"031-976-4768","addr":"경기도 고양시 일산동구 성석동 1246-30번지","category":"일반휴게음식 - 서양음식"},{"name":"오미산셀프세차장","tel":"031-976-4768","addr":"경기도 고양시 일산동구 성석동 1246-30번지","category":""},{"name":"코레인모터스","tel":"031-3331-5300","addr":"경기도 고양시 일산동구 성석동 1246-30번지","category":""}]},{"lat":"37.711538529","long":"126.80526738","items":[{"name":"오성MOTORS","tel":"031-911-4972","addr":"경기도 고양시 일산동구 성석동 521-83번지","category":"자동차정비 유지 - 자동차정비"},{"name":"오성MOTORS","tel":"031-911-4972","addr":"경기도 고양시 일산동구 성석동 521-83번지","category":""}]},{"lat":"37.711430908","long":"126.80556253","items":[{"name":"오성자동차","tel":"031-977-0610","addr":"경기도 고양시 일산동구 성석동 521-84번지","category":"자동차정비 유지 - 자동차정비"},{"name":"오성자동차","tel":"031-977-0610","addr":"경기도 고양시 일산동구 성석동 521-84번지","category":""}]},{"lat":"37.692129769","long":"126.7987656","items":[{"name":"올라이프","tel":"070-8808-1610","addr":"경기도 고양시 일산동구 성석동 785번지","category":""}]},{"lat":"37.706461391","long":"126.79722941","items":[{"name":"와일드 코리아","tel":"031-977-0648","addr":"경기도 고양시 일산동구 성석동 965-26번지","category":"자동차정비 유지 - 자동차부품"},{"name":"일산성석 대신정기화물","tel":"031-977-2253","addr":"경기도 고양시 일산동구 성석동 965-26번지","category":""},{"name":"펠리토","tel":"031-968-1403","addr":"경기도 고양시 일산동구 성석동 965-26번지","category":"가구 - 일반가구"},{"name":"펠리토","tel":"031-968-1403","addr":"경기도 고양시 일산동구 성석동 965-26번지","category":""}]},{"lat":"37.688042433","long":"126.7953416","items":[{"name":"외가집","tel":"031-977-2680","addr":"경기도 고양시 일산동구 성석동 879-15번지","category":""},{"name":"외가집","tel":"031-977-2680","addr":"경기도 고양시 일산동구 성석동 879-15번지","category":"일반휴게음식 - 일반한식"}]},{"lat":"37.709037885","long":"126.80231416","items":[{"name":"외가집한식분식","tel":"031-977-5337","addr":"경기도 고양시 일산동구 성석동 536-5번지","category":""},{"name":"하나건업","tel":"031-977-8844","addr":"경기도 고양시 일산동구 성석동 536-5번지","category":"건축자재 - 기타건축자재"},{"name":"하나건업","tel":"031-977-8844","addr":"경기도 고양시 일산동구 성석동 536-5번지","category":""}]},{"lat":"37.715175451","long":"126.78323272","items":[{"name":"요술나무","tel":"031-904-8868","addr":"경기도 고양시 일산동구 성석동 1149-1번지","category":""},{"name":"요술나무","tel":"031-904-8868","addr":"경기도 고양시 일산동구 성석동 1149-1번지","category":"가구 - 일반가구"}]},{"lat":"37.691179006","long":"126.80123983","items":[{"name":"우드크래프트","tel":"031-977-6600","addr":"경기도 고양시 일산동구 성석동","category":"문화.취미 - 민예·공예품"},{"name":"우드크래프트","tel":"031-977-6600","addr":"경기도 고양시 일산동구 성석동 806-3번지","category":""}]},{"lat":"37.710735187","long":"126.79910016","items":[{"name":"우디풀(Woodiful)","tel":"070-7783-9919","addr":"경기도 고양시 일산동구 성석동 1035-3번지","category":""},{"name":"우디풀(Woodiful)","tel":"070-7783-9919","addr":"경기도 고양시 일산동구 성석동 1035-3번지","category":"서적문구 - 문구용품"}]},{"lat":"37.709955584","long":"126.80156321","items":[{"name":"우성특장","tel":"031-976-9548","addr":"경기도 고양시 일산동구 성석동 537-39번지","category":"자동차판매 - 기타운송"},{"name":"우성특장","tel":"031-976-9548","addr":"경기도 고양시 일산동구 성석동 537-39번지","category":""}]},{"lat":"37.690573585","long":"126.80551577","items":[{"name":"우영팩키지","tel":"031-967-0260","addr":"경기도 고양시 일산동구 성석동 239번지","category":"신변잡화 - 기타잡화"},{"name":"우영팩키지","tel":"031-967-0260","addr":"경기도 고양시 일산동구 성석동 239번지","category":""}]},{"lat":"37.712513463","long":"126.80106862","items":[{"name":"우진광고공사","tel":"031-396-8200","addr":"경기도 고양시 일산동구 성석동 1042-13번지","category":"용역 서비스 - 종합용역"}]},{"lat":"37.708929277","long":"126.78187896","items":[{"name":"원목가구할인매장","tel":"031-976-6677","addr":"경기도 고양시 일산동구 성석동 1399-1번지","category":""},{"name":"일산손만두","tel":"031-977-7763","addr":"경기도 고양시 일산동구 성석동 1399-1번지","category":""},{"name":"일산손만두","tel":"031-977-7763","addr":"경기도 고양시 일산동구 성석동 1399-1번지","category":"일반휴게음식 - 일반한식"}]},{"lat":"37.709011377","long":"126.80262042","items":[{"name":"원엘이디","tel":"031-976-4596","addr":"경기도 고양시 일산동구 성석동 536-6번지","category":""},{"name":"원엘이디","tel":"031-976-4596","addr":"경기도 고양시 일산동구 성석동 536-6번지","category":"건축자재 - 조명기구"},{"name":"주식회사 원진자동차","tel":"031-0-0000","addr":"경기도 고양시 일산동구 성석동 536-6번지","category":""},{"name":"주식회사 원진자동차","tel":"031-000-0000","addr":"경기도 고양시 일산동구 성석동 536-6번지","category":"자동차정비 유지 - 자동차정비"},{"name":"청석한식부페","tel":"031-975-3323","addr":"경기도 고양시 일산동구 성석동 536-6번지","category":""}]},{"lat":"37.710377776","long":"126.80615504","items":[{"name":"월드테크(일산공장)","tel":"031-812-0380","addr":"경기도 고양시 일산동구 성석동 521-14번지","category":"가구 - 일반가구"},{"name":"월드테크(일산공장)","tel":"031-812-0380","addr":"경기도 고양시 일산동구 성석동 521-14번지","category":""}]},{"lat":"37.693182454","long":"126.79793503","items":[{"name":"유니크산업","tel":"031-908-3100","addr":"경기도 고양시 일산동구 성석동 754-4번지","category":""},{"name":"유니크산업","tel":"031-908-3100","addr":"경기도 고양시 일산동구 성석동 754-4번지","category":"가구 - 일반가구"}]},{"lat":"37.716178174","long":"126.79462802","items":[{"name":"유리샷시샤시공사","tel":"031-111-1111","addr":"경기도 고양시 일산동구 성석동 1061-10번지","category":""},{"name":"유리샷시샤시공사","tel":"031-111-1111","addr":"경기도 고양시 일산동구 성석동 1061-10번지","category":"용역 서비스 - 기타용역서비스"}]},{"lat":"37.713266341","long":"126.79878702","items":[{"name":"유비스","tel":"031-975-9903","addr":"경기도 고양시 일산동구 성석동 1043-23번지","category":""},{"name":"유비스","tel":"031-975-9903","addr":"경기도 고양시 일산동구 성석동 1043-23번지","category":"가구 - 일반가구"}]},{"lat":"37.705206481","long":"126.78090344","items":[{"name":"유성종합목재","tel":"031-977-4570","addr":"경기도 고양시 일산동구 성석동 1332-1번지","category":""},{"name":"유성종합목재","tel":"031-977-4570","addr":"경기도 고양시 일산동구 성석동 1332-1번지","category":"건축자재 - 기타건축자재"}]},{"lat":"37.690575383","long":"126.80659284","items":[{"name":"유정기획","tel":"031-975-3532","addr":"경기도 고양시 일산동구 성석동 234-4번지","category":""},{"name":"유정기획","tel":"031-975-3532","addr":"경기도 고양시 일산동구 성석동 234-4번지","category":"건축자재 - 인테리어전문"},{"name":"코리안 팀","tel":"031-975-5975","addr":"경기도 고양시 일산동구 성석동 234-4번지","category":""},{"name":"코리안 팀","tel":"031-975-5975","addr":"경기도 고양시 일산동구 성석동 234-4번지","category":"레져용품 - 스포츠·레져용품"}]},{"lat":"37.713760495","long":"126.78787544","items":[{"name":"은아애견농장 직영점","tel":"031-977-1644","addr":"경기도 고양시 일산동구 성석동 1843번지","category":"문화.취미 - 애완동물"}]},{"lat":"37.702542641","long":"126.81362579","items":[{"name":"이끌림","tel":"070-7420-0049","addr":"경기도 고양시 일산동구 성석동 50-1번지","category":""},{"name":"이끌림","tel":"070-7420-0049","addr":"경기도 고양시 일산동구 성석동 50-1번지","category":"가구 - 기타가구"}]},{"lat":"37.69351571","long":"126.79787742","items":[{"name":"이래자동차공업사","tel":"031-977-2307","addr":"경기도 고양시 일산동구 성석동 756-5번지","category":""},{"name":"주식회사 마일레오토모빌","tel":"031-977-2300","addr":"경기도 고양시 일산동구 성석동 756-5번지","category":"자동차정비 유지 - 자동차부품"}]},{"lat":"37.710320744","long":"126.78401821","items":[{"name":"이마킹","tel":"031-977-1400","addr":"경기도 고양시 일산동구 성석동 1366-4번지","category":""},{"name":"이마킹","tel":"031-977-1400","addr":"경기도 고양시 일산동구 성석동 1366-4번지","category":"기타 - 기타 전문점"}]},{"lat":"37.688242415","long":"126.79635007","items":[{"name":"이사화물 달인","tel":"031-976-3100","addr":"경기도 고양시 일산동구 성석동 871-2번지","category":""},{"name":"진성프로음향","tel":"031-976-8793","addr":"경기도 고양시 일산동구 성석동 871-2번지","category":""},{"name":"한샘익스프레스","tel":"031-977-2487","addr":"경기도 고양시 일산동구 성석동 871-2번지","category":""},{"name":"홍박사자동차공업사","tel":"031-977-1487","addr":"경기도 고양시 일산동구 성석동 871-2번지","category":"자동차정비 유지 - 자동차정비"},{"name":"홍박사자동차공업사","tel":"031-977-1487","addr":"경기도 고양시 일산동구 성석동 871-2번지","category":""}]},{"lat":"37.708149034","long":"126.79886909","items":[{"name":"이터널라이트","tel":"031-111-1111","addr":"경기도 고양시 일산동구 성석동 544-28번지","category":"일반휴게음식 - 서양음식"}]},{"lat":"37.702066552","long":"126.80895516","items":[{"name":"일산도재","tel":"070-4220-9772","addr":"경기도 고양시 일산동구 성석동 79-1번지","category":""},{"name":"일산도재","tel":"070-4220-9772","addr":"경기도 고양시 일산동구 성석동 79-1번지","category":"문화.취미 - 민예·공예품"}]},{"lat":"37.687520376","long":"126.79562649","items":[{"name":"일산뮤겐스","tel":"070-8950-2959","addr":"경기도 고양시 일산동구 성석동 879-2번지","category":""},{"name":"일산뮤겐스","tel":"070-8950-2959","addr":"경기도 고양시 일산동구 성석동","category":"보건위생 - 미용재료"}]},{"lat":"37.689653752","long":"126.80500802","items":[{"name":"일산생화","tel":"031-986-0047","addr":"경기도 고양시 일산동구 성석동 225번지","category":"문화.취미 - 화원"},{"name":"일산생화","tel":"031-986-0047","addr":"경기도 고양시 일산동구 성석동 225번지","category":""}]},{"lat":"37.713123435","long":"126.7893176","items":[{"name":"일산소파","tel":"","addr":"경기도 고양시 일산동구 성석동 1230-7번지","category":"가구 - 일반가구"}]},{"lat":"37.708344124","long":"126.78213018","items":[{"name":"일산재활용","tel":"031-977-5985","addr":"경기도 고양시 일산동구 성석동 1400-2번지","category":""}]},{"lat":"37.695046371","long":"126.79731763","items":[{"name":"일산진공","tel":"031-977-0775","addr":"경기도 고양시 일산동구 성석동 736번지","category":"건축자재 - 유리"},{"name":"일산진공","tel":"031-977-0775","addr":"경기도 고양시 일산동구 성석동 736번지","category":""}]},{"lat":"37.7034017","long":"126.81559669","items":[{"name":"일산판넬","tel":"031-977-4409","addr":"경기도 고양시 일산동구 성석동","category":"기타 - 기계공구"}]},{"lat":"37.70895596","long":"126.79151827","items":[{"name":"자니파파 까페몰 원두의향기","tel":"031-975-0462","addr":"경기도 고양시 일산동구 성석동 984-24번지","category":"일반휴게음식 - 서양음식"}]},{"lat":"37.713208323","long":"126.7914268","items":[{"name":"자매집","tel":"031-977-0945","addr":"경기도 고양시 일산동구 성석동 1227-21번지","category":""}]},{"lat":"37.713204027","long":"126.78904518","items":[{"name":"작은가구마을","tel":"031-975-0278","addr":"경기도 고양시 일산동구 성석동 1230-6번지","category":"가구 - 일반가구"},{"name":"작은가구마을","tel":"031-975-0278","addr":"경기도 고양시 일산동구 성석동 1230-6번지","category":""},{"name":"카포트코리아","tel":"031-977-4900","addr":"경기도 고양시 일산동구 성석동 1230-6번지","category":""},{"name":"카포트코리아","tel":"031-977-4900","addr":"경기도 고양시 일산동구 성석동 1230-6번지","category":"기타 - 기계공구"},{"name":"한솔부엌가구","tel":"031-977-3228","addr":"경기도 고양시 일산동구 성석동 1230-6번지","category":""},{"name":"한솔부엌가구","tel":"031-977-3228","addr":"경기도 고양시 일산동구 성석동 1230-6번지","category":"주방용구 - 주방용구"}]},{"lat":"37.708625381","long":"126.79307284","items":[{"name":"전주통큰밥상","tel":"031-976-5288","addr":"경기도 고양시 일산동구 성석동 984-93번지","category":""},{"name":"전주통큰밥상","tel":"031-976-5288","addr":"경기도 고양시 일산동구 성석동 984-93번지","category":"일반휴게음식 - 일반한식"},{"name":"정이가네아구찜","tel":"031-975-5977","addr":"경기도 고양시 일산동구 성석동 984-93번지","category":""}]},{"lat":"37.704456531","long":"126.79453608","items":[{"name":"전통도검제작소","tel":"031-977-9378","addr":"경기도 고양시 일산동구 성석동 973-8번지","category":"문화.취미 - 민예·공예품"},{"name":"전통도검제작소","tel":"031-977-9378","addr":"경기도 고양시 일산동구 성석동 973-8번지","category":""}]},{"lat":"37.687627578","long":"126.80028578","items":[{"name":"정옥건설주식회사","tel":"031-966-7887","addr":"경기도 고양시 일산동구 성석동 853번지","category":"용역 서비스 - 기타용역서비스"}]},{"lat":"37.708759777","long":"126.79265287","items":[{"name":"제니스오토","tel":"031-977-5505","addr":"경기도 고양시 일산동구 성석동 984-6번지","category":"자동차정비 유지 - 자동차정비"},{"name":"제니스오토","tel":"031-977-5505","addr":"경기도 고양시 일산동구 성석동 984-6번지","category":""},{"name":"지원자동차공업사","tel":"031-977-5505","addr":"경기도 고양시 일산동구 성석동 984-6번지","category":""}]},{"lat":"37.703851169","long":"126.81496054","items":[{"name":"제이산코리아","tel":"042-934-3267","addr":"경기도 고양시 일산동구 성석동 14-9번지","category":""},{"name":"제이산코리아","tel":"042-934-3267","addr":"경기도 고양시 일산동구 성석동 14-9번지","category":"광학제품 - 기타광학제품"}]},{"lat":"37.687824844","long":"126.79457128","items":[{"name":"제일엔진보링","tel":"031-918-0670","addr":"경기도 고양시 일산동구 성석동 877-11번지","category":"자동차정비 유지 - 자동차정비"},{"name":"제일엔진보링","tel":"031-918-0670","addr":"경기도 고양시 일산동구 성석동 877-11번지","category":""}]},{"lat":"37.711346929","long":"126.78842677","items":[{"name":"제일철물","tel":"031-977-9711","addr":"경기도 고양시 일산동구 성석동 1238-5번지","category":""},{"name":"제일철물","tel":"031-977-9711","addr":"경기도 고양시 일산동구 성석동 1238-5번지","category":"건축자재 - 목재·석재·철물"},{"name":"페리카나치킨(성석점)","tel":"031-975-9279","addr":"경기도 고양시 일산동구 성석동 1238-5번지","category":""}]},{"lat":"37.712183308","long":"126.78759647","items":[{"name":"조은꽃도매","tel":"031-968-0118","addr":"경기도 고양시 일산동구 성석동","category":"문화.취미 - 화원"},{"name":"조은꽃도매","tel":"031-968-0118","addr":"경기도 고양시 일산동구 성석동 1865번지","category":""}]},{"lat":"37.715037848","long":"126.79684278","items":[{"name":"좋은나라","tel":"031-906-7844","addr":"경기도 고양시 일산동구 성석동 1065-8번지","category":"사무통신 - 기타 사무용품"},{"name":"좋은나라","tel":"031-906-7844","addr":"경기도 고양시 일산동구 성석동 1065-8번지","category":""}]},{"lat":"37.704540712","long":"126.78140438","items":[{"name":"주식회사 경인타이어","tel":"031-924-6633","addr":"경기도 고양시 일산동구 성석동 2170-2번지","category":"자동차정비 유지 - 자동차부품"},{"name":"주식회사 경인타이어","tel":"031-924-6633","addr":"경기도 고양시 일산동구 성석동 2170-2번지","category":""}]},{"lat":"37.705684457","long":"126.80656434","items":[{"name":"주식회사 금강푸드시스템","tel":"031-965-3185","addr":"경기도 고양시 일산동구 성석동 409번지","category":"음료식품 - 기타음료식품"},{"name":"주식회사 금강푸드시스템","tel":"031-965-3185","addr":"경기도 고양시 일산동구 성석동 409번지","category":""}]},{"lat":"37.708566268","long":"126.80048963","items":[{"name":"주식회사 넥스","tel":"070-1111-1111","addr":"경기도 고양시 일산동구 성석동 1035-84번지","category":"주방용구 - 주방용구"}]},{"lat":"37.707766918","long":"126.78181437","items":[{"name":"주식회사 니노코리아","tel":"031-977-1425","addr":"경기도 고양시 일산동구 성석동 1345-4번지","category":"서적문구 - 기타서적문구"},{"name":"주식회사 니노코리아","tel":"031-977-1425","addr":"경기도 고양시 일산동구 성석동 1345-4번지","category":""}]},{"lat":"37.714569333","long":"126.79174049","items":[{"name":"주식회사 다누리","tel":"070-4322-5167","addr":"경기도 고양시 일산동구 성석동 1074-4번지","category":"사무통신 - 통신기기"}]},{"lat":"37.704405115","long":"126.80123803","items":[{"name":"주식회사 대덕사","tel":"","addr":"경기도 고양시 일산동구 성석동 556-20번지","category":"신변잡화 - 기념품점"}]},{"lat":"37.70979028","long":"126.79973782","items":[{"name":"주식회사 베첼","tel":"031-977-4448","addr":"경기도 고양시 일산동구 성석동 538-14번지","category":"주방용구 - 주방용구"}]},{"lat":"37.690345754","long":"126.79870246","items":[{"name":"주식회사 서부현대공업사","tel":"031-913-0789","addr":"경기도 고양시 일산동구 성석동 779-2번지","category":"자동차정비 유지 - 자동차정비"},{"name":"주식회사 서부현대공업사","tel":"031-913-0789","addr":"경기도 고양시 일산동구 성석동 779-2번지","category":""},{"name":"한성통상","tel":"031-977-1260","addr":"경기도 고양시 일산동구 성석동 779-2번지","category":"가구 - 일반가구"},{"name":"한성통상","tel":"031-977-1260","addr":"경기도 고양시 일산동구 성석동 779-2번지","category":""}]},{"lat":"37.700822921","long":"126.81432185","items":[{"name":"주식회사 선두디자인","tel":"","addr":"경기도 고양시 일산동구 성석동 53-17번지","category":"용역 서비스 - 기타용역서비스"}]},{"lat":"37.70073923","long":"126.79662156","items":[{"name":"주식회사 시큐리티존","tel":"031-976-3322","addr":"경기도 고양시 일산동구 성석동 1902-1번지","category":"용역 서비스 - 종합용역"},{"name":"주식회사 시큐리티존","tel":"031-976-3322","addr":"경기도 고양시 일산동구 성석동 1902-1번지","category":""},{"name":"주식회사 유한건철","tel":"031-977-9968","addr":"경기도 고양시 일산동구 성석동 1902-1번지","category":"기타 - 기계공구"}]},{"lat":"37.716342282","long":"126.78571308","items":[{"name":"주식회사 씨티플랜","tel":"031-964-0053","addr":"경기도 고양시 일산동구 성석동 1104-3번지","category":"건축자재 - 기타건축자재"},{"name":"주식회사 씨티플랜","tel":"031-964-0053","addr":"경기도 고양시 일산동구 성석동 1104-3번지","category":""}]},{"lat":"37.712430217","long":"126.78468112","items":[{"name":"주식회사 에프에이조구","tel":"","addr":"경기도 고양시 일산동구 성석동 1197-2번지","category":""},{"name":"주식회사 에프에이조구","tel":"","addr":"경기도 고양시 일산동구 성석동 1197-2번지","category":"레져용품 - 스포츠·레져용품"}]},{"lat":"37.709151073","long":"126.80531908","items":[{"name":"주식회사 오성전기조명","tel":"031-963-3935","addr":"경기도 고양시 일산동구 성석동 523-50번지","category":"건축자재 - 조명기구"},{"name":"주식회사 오성전기조명","tel":"031-963-3935","addr":"경기도 고양시 일산동구 성석동 523-50번지","category":""}]},{"lat":"37.712655875","long":"126.78490728","items":[{"name":"주식회사 원스탑그린뱅크","tel":"031-975-6501","addr":"경기도 고양시 일산동구 성석동 1197-5번지","category":"용역 서비스 - 종합용역"},{"name":"주식회사 원스탑그린뱅크","tel":"031-975-6501","addr":"경기도 고양시 일산동구 성석동 1197-5번지","category":""}]},{"lat":"37.709704225","long":"126.80209689","items":[{"name":"주식회사 유니크","tel":"031-908-3100","addr":"경기도 고양시 일산동구 성석동 537-24번지","category":"주방용구 - 주방용구"},{"name":"주식회사 유니크","tel":"031-908-3100","addr":"경기도 고양시 일산동구 성석동 537-24번지","category":""}]},{"lat":"37.714925096","long":"126.78917633","items":[{"name":"주식회사 자이온","tel":"","addr":"경기도 고양시 일산동구 성석동 1221-8번지","category":""},{"name":"주식회사 자이온","tel":"02-1111-1111","addr":"경기도 고양시 일산동구 성석동 1221-8번지","category":"의류 - 정장"}]},{"lat":"37.713036856","long":"126.79634931","items":[{"name":"주식회사 좋은교육사","tel":"031-977-8114","addr":"경기도 고양시 일산동구 성석동 1019-8번지","category":""},{"name":"주식회사 좋은교육사","tel":"031-977-8114","addr":"경기도 고양시 일산동구 성석동 1019-8번지","category":"회원제형태 - 서적"}]},{"lat":"37.708790786","long":"126.80006942","items":[{"name":"주식회사 케이 노스랜드","tel":"070-4282-2467","addr":"경기도 고양시 일산동구 성석동 1035-52번지","category":"의류 - 스포츠의류"}]},{"lat":"37.712758714","long":"126.78207172","items":[{"name":"주식회사 키즈메이트","tel":"031-977-8255","addr":"경기도 고양시 일산동구 성석동 1172-7번지","category":"학원 - 기타 교육기관"},{"name":"주식회사 키즈메이트","tel":"031-977-8255","addr":"경기도 고양시 일산동구 성석동 1172-7번지","category":""}]},{"lat":"37.715647971","long":"126.79034243","items":[{"name":"주식회사 탑독","tel":"031-977-7735","addr":"경기도 고양시 일산동구 성석동 1077-3번지","category":"문화.취미 - 애완동물"}]},{"lat":"37.688348004","long":"126.81085021","items":[{"name":"주식회사 트리맥스","tel":"031-921-2209","addr":"경기도 고양시 일산동구 성석동 171-23번지","category":""},{"name":"주식회사 트리맥스","tel":"031-921-2209","addr":"경기도 고양시 일산동구 성석동 171-23번지","category":"기타 - 기계공구"}]},{"lat":"37.686796484","long":"126.80970916","items":[{"name":"주식회사 티비앤티비바이오","tel":"070-8825-0140","addr":"경기도 고양시 일산동구 성석동 176-8번지","category":"전기제품 - 가전제품"},{"name":"킴스커스텀 일산본점","tel":"","addr":"경기도 고양시 일산동구 성석동 176-8번지","category":"자동차정비 유지 - 자동차정비"}]},{"lat":"37.704460585","long":"126.80206568","items":[{"name":"주식회사 플라워앤고양","tel":"031-977-4321","addr":"경기도 고양시 일산동구 성석동 558-8번지","category":""}]},{"lat":"37.712510891","long":"126.79957162","items":[{"name":"주식회사 힘진","tel":"031-901-6389","addr":"경기도 고양시 일산동구 성석동 1039-10번지","category":""},{"name":"주식회사 힘진","tel":"031-901-6389","addr":"경기도 고양시 일산동구 성석동 1039-10번지","category":"전기제품 - 기타전기제품"}]},{"lat":"37.71131902","long":"126.79806655","items":[{"name":"주식회사더드림(THE DREAM)","tel":"031-976-1244","addr":"경기도 고양시 일산동구 성석동 1029-5번지","category":""},{"name":"주식회사더드림(THE DREAM)","tel":"031-976-1244","addr":"경기도 고양시 일산동구 성석동 1029-5번지","category":"레져용품 - 스포츠·레져용품"}]},{"lat":"37.712792086","long":"126.79548807","items":[{"name":"주식회사메가로보텍","tel":"031-902-4680","addr":"경기도 고양시 일산동구 성석동 1014-1번지","category":""}]},{"lat":"37.692178887","long":"126.79593099","items":[{"name":"주식회사에프앤씨머천다이징","tel":"031-975-1730","addr":"경기도 고양시 일산동구 성석동 904-2번지","category":""}]},{"lat":"37.692873697","long":"126.79654131","items":[{"name":"주식회사워커스","tel":"031-7977-1858","addr":"경기도 고양시 일산동구 성석동 766-3","category":""}]},{"lat":"37.688150733","long":"126.81142892","items":[{"name":"주식회사제이플랜","tel":"031-976-2877","addr":"경기도 고양시 일산동구 성석동 172-4번지","category":""}]},{"lat":"37.687984379","long":"126.79821009","items":[{"name":"주식회사해왕푸드","tel":"031-977-2085","addr":"경기도 고양시 일산동구 성석동 836번지","category":""}]},{"lat":"37.707542932","long":"126.78248411","items":[{"name":"주엔터테인먼트","tel":"031-974-4300","addr":"경기도 고양시 일산동구 성석동 2125번지","category":"용역 서비스 - 종합용역"},{"name":"주엔터테인먼트","tel":"031-974-4300","addr":"경기도 고양시 일산동구 성석동 2125번지","category":""}]},{"lat":"37.709317432","long":"126.80246083","items":[{"name":"중부벤딩","tel":"","addr":"경기도 고양시 일산동구 성석동 536번지","category":"용역 서비스 - 기타용역서비스"}]},{"lat":"37.709184441","long":"126.80373133","items":[{"name":"중부철강","tel":"031-921-6100","addr":"경기도 고양시 일산동구 성석동 523-55번지","category":""},{"name":"중부철강","tel":"031-921-6100","addr":"경기도 고양시 일산동구 성석동 523-55번지","category":"기타 - 기계공구"},{"name":"진성 샤링","tel":"031-975-8999","addr":"경기도 고양시 일산동구 성석동 523-55번지","category":"건축자재 - 목재·석재·철물"},{"name":"진성 샤링","tel":"031-975-8999","addr":"경기도 고양시 일산동구 성석동 523-55번지","category":""}]},{"lat":"37.714341833","long":"126.79048225","items":[{"name":"쥬비코스","tel":"031-977-6327","addr":"경기도 고양시 일산동구 성석동 1082-41번지 지오빌","category":""}]},{"lat":"37.699683171","long":"126.80070654","items":[{"name":"쥬비코스 르네셀","tel":"070-8838-1914","addr":"경기도 고양시 일산동구 성석동 684-15번지","category":""}]},{"lat":"37.709710122","long":"126.80558977","items":[{"name":"지성파인텍","tel":"031-976-7331","addr":"경기도 고양시 일산동구 성석동 521-38번지","category":"레져용품 - 스포츠·레져용품"},{"name":"지성파인텍","tel":"031-976-7331","addr":"경기도 고양시 일산동구 성석동 521-38번지","category":""}]},{"lat":"37.695959094","long":"126.7989025","items":[{"name":"지티엠 (GTM)","tel":"070-7394-5459","addr":"경기도 고양시 일산동구 성석동 729-17번지","category":""},{"name":"지티엠 (GTM)","tel":"070-7394-5459","addr":"경기도 고양시 일산동구 성석동 729-17번지","category":"일반휴게음식 - 서양음식"}]},{"lat":"37.715151443","long":"126.78978812","items":[{"name":"진로마트","tel":"031-975-7454","addr":"경기도 고양시 일산동구 성석동 1082-28번지","category":""}]},{"lat":"37.699789043","long":"126.79940226","items":[{"name":"진밭국수","tel":"031-976-5190","addr":"경기도 고양시 일산동구 성석동 601-3번지","category":""},{"name":"진밭국수","tel":"031-976-5190","addr":"경기도 고양시 일산동구 성석동 601-3번지","category":""},{"name":"진밭국수","tel":"031-976-5190","addr":"경기도 고양시 일산동구 성석동 601-3번지","category":"일반휴게음식 - 일반한식"}]},{"lat":"37.706204886","long":"126.79481469","items":[{"name":"진사부","tel":"031-977-6694","addr":"경기도 고양시 일산동구 성석동 970-3번지","category":""},{"name":"진사부","tel":"031-977-6694","addr":"경기도 고양시 일산동구 성석동 970-3번지","category":"일반휴게음식 - 중국식"}]},{"lat":"37.688679879","long":"126.80451176","items":[{"name":"쪼물락클레이","tel":"031-812-6923","addr":"경기도 고양시 일산동구 성석동 195-32번지","category":"문화.취미 - 문화취미기타"},{"name":"쪼물락클레이","tel":"031-812-6923","addr":"경기도 고양시 일산동구 성석동 195-32번지","category":""}]},{"lat":"37.711289364","long":"126.80712794","items":[{"name":"찬진교육","tel":"031-963-1104","addr":"경기도 고양시 일산동구 성석동 521-27번지","category":""}]},{"lat":"37.713760193","long":"126.79782166","items":[{"name":"참존 씽크","tel":"031-977-8574","addr":"경기도 고양시 일산동구 성석동 1050번지","category":"주방용구 - 주방용구"},{"name":"참존 씽크","tel":"031-977-8574","addr":"경기도 고양시 일산동구 성석동 1050번지","category":""},{"name":"켄코","tel":"031-975-4027","addr":"경기도 고양시 일산동구 성석동 1050번지","category":"기타 - 기계공구"}]},{"lat":"37.717182139","long":"126.79684819","items":[{"name":"참좋은집","tel":"031-823-2677","addr":"경기도 고양시 일산동구 성석동 1061-40번지","category":""},{"name":"참좋은집","tel":"031-823-2677","addr":"경기도 고양시 일산동구 성석동 1061-40번지","category":"기타의료기관 - 기타의료기관 및 기타"},{"name":"해피하우스","tel":"031-975-2842","addr":"경기도 고양시 일산동구 성석동 1061-40번지","category":"일반휴게음식 - 위탁급식업"},{"name":"해피하우스","tel":"031-975-2842","addr":"경기도 고양시 일산동구 성석동 1061-40번지","category":""}]},{"lat":"37.71515158","long":"126.784934","items":[{"name":"채널센터","tel":"031-975-4545","addr":"경기도 고양시 일산동구 성석동 1099-17번지","category":""},{"name":"채널센터","tel":"031-975-4545","addr":"경기도 고양시 일산동구 성석동 1099-17번지","category":"건축자재 - 인테리어전문"}]},{"lat":"37.714455263","long":"126.79345335","items":[{"name":"천하KBT체육관","tel":"031-977-7748","addr":"경기도 고양시 일산동구 성석동 1075-18번지","category":""}]},{"lat":"37.712871116","long":"126.79947991","items":[{"name":"천호전기산업","tel":"031-975-0319","addr":"경기도 고양시 일산동구 성석동 1043번지","category":"건축자재 - 조명기구"},{"name":"천호전기산업","tel":"031-975-0319","addr":"경기도 고양시 일산동구 성석동 1043번지","category":""}]},{"lat":"37.710904339","long":"126.78292778","items":[{"name":"초가집","tel":"031-977-9836","addr":"경기도 고양시 일산동구 성석동 1181-3번지","category":""},{"name":"초가집","tel":"031-977-9836","addr":"경기도 고양시 일산동구 성석동 1181-3번지","category":"일반휴게음식 - 일반한식"}]},{"lat":"37.698572642","long":"126.81006413","items":[{"name":"초이스가구","tel":"031-975-8252","addr":"경기도 고양시 일산동구 성석동 92-2번지","category":""},{"name":"티토바운스","tel":"031-970-7954","addr":"경기도 고양시 일산동구 성석동 92-2번지","category":"음료식품 - 기타음료식품"},{"name":"티토바운스","tel":"031-970-7954","addr":"경기도 고양시 일산동구 성석동 92-2번지","category":""},{"name":"해피바운스","tel":"031-0000-0000","addr":"경기도 고양시 일산동구 성석동 92-2번지","category":"직물 - 카페트,커튼,천막,지물"}]},{"lat":"37.704899002","long":"126.78029201","items":[{"name":"최고집칼국수","tel":"031-970-7500","addr":"경기도 고양시 일산동구 성석동 1336-40번지","category":""},{"name":"최고집칼국수","tel":"031-970-7500","addr":"경기도 고양시 일산동구 성석동 1336-40번지","category":"일반휴게음식 - 일반한식"}]},{"lat":"37.713262472","long":"126.79656417","items":[{"name":"캥거루트랜스","tel":"031-975-2454","addr":"경기도 고양시 일산동구 성석동 1017-2번지","category":""}]},{"lat":"37.708571626","long":"126.80904027","items":[{"name":"커피마시다","tel":"031-977-0777","addr":"경기도 고양시 일산동구 성석동 498-4번지","category":"일반휴게음식 - 서양음식"}]},{"lat":"37.706597035","long":"126.78254361","items":[{"name":"코다리 밥도둑 성석점","tel":"031-977-0310","addr":"경기도 고양시 일산동구 성석동 2182-2번지","category":"일반휴게음식 - 일반한식"}]},{"lat":"37.709655991","long":"126.79000798","items":[{"name":"코레일모터스","tel":"031-976-7400","addr":"경기도 고양시 일산동구 성석동 1246-42번지","category":"자동차정비 유지 - 자동차정비"},{"name":"코레일모터스","tel":"031-976-7400","addr":"경기도 고양시 일산동구 성석동 1246-42번지","category":""}]},{"lat":"37.702073779","long":"126.81340019","items":[{"name":"코사마트","tel":"031-977-9923","addr":"경기도 고양시 일산동구 성석동 52번지","category":""},{"name":"코사마트","tel":"031-977-9923","addr":"경기도 고양시 일산동구 성석동 52번지","category":"유통업 영리 - 슈퍼마켓"}]},{"lat":"37.716097998","long":"126.79009163","items":[{"name":"코아가구","tel":"031-977-9733","addr":"경기도 고양시 일산동구 성석동 1077-1번지","category":""}]},{"lat":"37.702761528","long":"126.77913043","items":[{"name":"코트라코(주)","tel":"070-8767-8001","addr":"경기도 고양시 일산동구 성석동 2149-2번지","category":""}]},{"lat":"37.714202653","long":"126.79326126","items":[{"name":"클래식 티피(Classic TP)","tel":"031-923-0338","addr":"경기도 고양시 일산동구 성석동 1075-125번지","category":"레져용품 - 스포츠·레져용품"},{"name":"클래식 티피(Classic TP)","tel":"031-923-0338","addr":"경기도 고양시 일산동구 성석동 1075-125번지","category":""},{"name":"팬텀실내풋살","tel":"031-0-0000","addr":"경기도 고양시 일산동구 성석동 1075-125번지","category":""},{"name":"팬텀실내풋살","tel":"031-000-0000","addr":"경기도 고양시 일산동구 성석동 1075-125번지","category":"레저업소 - 기타레져업소"}]},{"lat":"37.715681856","long":"126.78915147","items":[{"name":"키즈휠즈일산파주점","tel":"031-975-5333","addr":"경기도 고양시 일산동구 성석동 1082-79번지","category":""},{"name":"키즈휠즈일산파주점","tel":"031-975-5333","addr":"경기도 고양시 일산동구 성석동 1082-79번지","category":"서적문구 - 완구점"}]},{"lat":"37.688297919","long":"126.79717754","items":[{"name":"타워음향","tel":"031-977-9484","addr":"경기도 고양시 일산동구 성석동 865번지","category":"전기제품 - 가전제품"},{"name":"타워음향","tel":"031-977-9484","addr":"경기도 고양시 일산동구 성석동 865번지","category":""}]},{"lat":"37.68943697","long":"126.80467981","items":[{"name":"태광환경","tel":"","addr":"경기도 고양시 일산동구 성석동 195-44번지 성석행복한가","category":"용역 서비스 - 종합용역"}]},{"lat":"37.71526618","long":"126.78357269","items":[{"name":"태성씽크","tel":"031-905-9395","addr":"경기도 고양시 일산동구 성석동 1140번지","category":""},{"name":"태성씽크","tel":"031-905-9395","addr":"경기도 고양시 일산동구 성석동 1140번지","category":"주방용구 - 주방용구"}]},{"lat":"37.704626488","long":"126.79384388","items":[{"name":"태양건설기계","tel":"","addr":"경기도 고양시 일산동구 성석동 973-11번지","category":""},{"name":"태양건설기계","tel":"","addr":"경기도 고양시 일산동구 성석동 973-11번지","category":"기타 - 기계공구"}]},{"lat":"37.692657606","long":"126.79662127","items":[{"name":"털보마스터","tel":"070-4150-5758","addr":"경기도 고양시 일산동구 성석동 905번지","category":""},{"name":"털보마스터","tel":"070-4150-5758","addr":"경기도 고양시 일산동구 성석동 905번지","category":"기타 - 기계공구"}]},{"lat":"37.712980826","long":"126.78523522","items":[{"name":"튜니드(Tuneed)","tel":"031-0-0000","addr":"경기도 고양시 일산동구 성석동 1200-3번지","category":""}]},{"lat":"37.712980972","long":"126.78531461","items":[{"name":"튜니드(Tuneed)","tel":"031-0000-0000","addr":"경기도 고양시 일산동구 성석동 1200-3번지","category":"자동차정비 유지 - 자동차부품"}]},{"lat":"37.708959722","long":"126.79362758","items":[{"name":"트리웨어(Tree Wear)","tel":"031-976-8980","addr":"경기도 고양시 일산동구 성석동 983-22번지","category":""}]},{"lat":"37.687491342","long":"126.79965127","items":[{"name":"티앤제이상사","tel":"031-977-5631","addr":"경기도 고양시 일산동구 성석동 855-1번지","category":""},{"name":"티앤제이상사","tel":"031-977-5631","addr":"경기도 고양시 일산동구 성석동 855-1번지","category":"레져용품 - 스포츠·레져용품"}]},{"lat":"37.717539777","long":"126.78528994","items":[{"name":"판24","tel":"031-975-0628","addr":"경기도 고양시 일산동구 성석동 1109-2번지","category":"문화.취미 - 화방·표구점"},{"name":"판24","tel":"031-975-0628","addr":"경기도 고양시 일산동구 성석동 1109-2번지","category":""}]},{"lat":"37.716900706","long":"126.78562071","items":[{"name":"팔도쌀상회","tel":"","addr":"경기도 고양시 일산동구 성석동 1106-1번지","category":""},{"name":"팔도쌀상회/주식회사 해마루유통","tel":"031-111-1111","addr":"경기도 고양시 일산동구 성석동 1106-1번지","category":""},{"name":"팔도쌀상회/주식회사 해마루유통","tel":"031-111-1111","addr":"경기도 고양시 일산동구 성석동 1106-1번지","category":"음료식품 - 미곡상"}]},{"lat":"37.704795461","long":"126.80296062","items":[{"name":"펠리스 요양원","tel":"031-926-2301","addr":"경기도 고양시 일산동구 성석동 558-18번지","category":"기타의료기관 - 기타의료기관 및 기타"}]},{"lat":"37.687131095","long":"126.79973161","items":[{"name":"평화식품","tel":"031-977-9538","addr":"경기도 고양시 일산동구 성석동 854-4번지","category":"음료식품 - 기타음료식품"},{"name":"평화식품","tel":"031-977-9538","addr":"경기도 고양시 일산동구 성석동 854-4번지","category":""}]},{"lat":"37.714543541","long":"126.79243238","items":[{"name":"푸드패키지","tel":"032-924-9493","addr":"경기도 고양시 일산동구 성석동 1075-3번지","category":"유통업 영리 - 기타유통업"}]},{"lat":"37.714231519","long":"126.7994535","items":[{"name":"푸른밥상","tel":"031-977-9903","addr":"경기도 고양시 일산동구 성석동 1043-19번지","category":"일반휴게음식 - 일반한식"},{"name":"푸른밥상","tel":"031-977-9903","addr":"경기도 고양시 일산동구 성석동 1043-19번지","category":""}]},{"lat":"37.708623213","long":"126.80754321","items":[{"name":"풍원포장","tel":"031-977-9346","addr":"경기도 고양시 일산동구 성석동 529-2번지","category":""},{"name":"풍원포장","tel":"031-977-9346","addr":"경기도 고양시 일산동구 성석동 529-2번지","category":"유통업 영리 - 기타유통업"}]},{"lat":"37.711481861","long":"126.79845169","items":[{"name":"플랜비테크놀로지","tel":"031-975-1645","addr":"경기도 고양시 일산동구 성석동 1037-5번지","category":"서적문구 - 출판 및 인쇄물"},{"name":"플랜비테크놀로지","tel":"031-975-1645","addr":"경기도 고양시 일산동구 성석동 1037-5번지","category":""}]},{"lat":"37.714762533","long":"126.79398553","items":[{"name":"플러그","tel":"031-977-0571","addr":"경기도 고양시 일산동구 성석동 1068번지","category":"가구 - 일반가구"},{"name":"플러그","tel":"031-977-0571","addr":"경기도 고양시 일산동구 성석동 1068번지","category":""}]},{"lat":"37.688179824","long":"126.79662234","items":[{"name":"피앤씨(P&C)","tel":"031-975-4201","addr":"경기도 고양시 일산동구 성석동 871-1번지","category":""},{"name":"피앤씨(P&C)","tel":"031-975-4201","addr":"경기도 고양시 일산동구 성석동 871-1번지","category":"유통업 영리 - 기타유통업"},{"name":"한아름재활용센터","tel":"031-977-6408","addr":"경기도 고양시 일산동구 성석동 871-1번지","category":""},{"name":"한아름재활용센터","tel":"031-977-6408","addr":"경기도 고양시 일산동구 성석동 871-1번지","category":"전기제품 - 가전제품"}]},{"lat":"37.720007948","long":"126.78504453","items":[{"name":"하나로","tel":"031-977-0601","addr":"경기도 고양시 일산동구 성석동 1779번지","category":""},{"name":"하나로","tel":"031-977-0601","addr":"경기도 고양시 일산동구 성석동","category":"가구 - 일반가구"}]},{"lat":"37.708180661","long":"126.78629257","items":[{"name":"하나무역","tel":"031-977-2116","addr":"경기도 고양시 일산동구 성석동 1276-4번지","category":""},{"name":"하나무역","tel":"031-977-2116","addr":"경기도 고양시 일산동구 성석동","category":"기타 - 기타 전문점"}]},{"lat":"37.710707797","long":"126.78382428","items":[{"name":"하나슈퍼&식당","tel":"031-977-9322","addr":"경기도 고양시 일산동구 성석동 1184번지","category":""},{"name":"하나슈퍼&식당","tel":"031-977-9322","addr":"경기도 고양시 일산동구 성석동 1184번지","category":""}]},{"lat":"37.695262699","long":"126.79737373","items":[{"name":"한국건철","tel":"031-975-9480","addr":"경기도 고양시 일산동구 성석동 734-1번지","category":"기타 - 기계공구"},{"name":"한국건철","tel":"031-975-9480","addr":"경기도 고양시 일산동구 성석동 734-1번지","category":""}]},{"lat":"37.699789376","long":"126.79959503","items":[{"name":"한국한약","tel":"031-975-8933","addr":"경기도 고양시 일산동구 성석동 600번지","category":"약국 - 한약방"},{"name":"한국한약","tel":"031-975-8933","addr":"경기도 고양시 일산동구 성석동 600번지","category":""}]},{"lat":"37.693045117","long":"126.79667689","items":[{"name":"한라상사","tel":"031-976-8288","addr":"경기도 고양시 일산동구 성석동 766-9번지","category":""}]},{"lat":"37.700234405","long":"126.79137294","items":[{"name":"한맥출판사","tel":"031-975-3240","addr":"경기도 고양시 일산동구 성석동 933번지","category":"서적문구 - 출판 및 인쇄물"},{"name":"한맥출판사","tel":"031-975-3240","addr":"경기도 고양시 일산동구 성석동 933번지","category":""}]},{"lat":"37.709011608","long":"126.79751721","items":[{"name":"한백기계공업","tel":"031-977-2824","addr":"경기도 고양시 일산동구 성석동 541-34번지","category":""},{"name":"한백기계공업","tel":"031-977-2824","addr":"경기도 고양시 일산동구 성석동 541-34번지","category":"기타 - 기계공구"},{"name":"호수상사","tel":"031-919-3199","addr":"경기도 고양시 일산동구 성석동 541-34번지","category":""}]},{"lat":"37.712595692","long":"126.80173752","items":[{"name":"한성디자인","tel":"031-966-9935","addr":"경기도 고양시 일산동구 성석동 1042-32번지","category":"건축자재 - 인테리어전문"},{"name":"한성디자인","tel":"031-966-9935","addr":"경기도 고양시 일산동구 성석동 1042-32번지","category":""}]},{"lat":"37.707870651","long":"126.7794893","items":[{"name":"한일조명상사","tel":"031-976-8342","addr":"경기도 고양시 일산동구 성석동 1420-7번지","category":"건축자재 - 조명기구"},{"name":"한일조명상사","tel":"031-976-8342","addr":"경기도 고양시 일산동구 성석동 1420-7번지","category":""}]},{"lat":"37.687742031","long":"126.79359651","items":[{"name":"한탄강","tel":"031-901-4492","addr":"경기도 고양시 일산동구 성석동 888-6번지","category":"일반휴게음식 - 일반한식"},{"name":"한탄강","tel":"031-901-4492","addr":"경기도 고양시 일산동구 성석동 888-6번지","category":""}]},{"lat":"37.702935481","long":"126.81703799","items":[{"name":"해피브레드","tel":"031-976-5450","addr":"경기도 고양시 일산동구 성석동 32-5번지","category":""},{"name":"해피브레드","tel":"031-976-5450","addr":"경기도 고양시 일산동구 성석동 32-5번지","category":"음료식품 - 제과점"},{"name":"효창S&B","tel":"031-977-1767","addr":"경기도 고양시 일산동구 성석동","category":"신변잡화 - 기타잡화"}]},{"lat":"37.707260318","long":"126.80607256","items":[{"name":"행복한단비","tel":"031-964-8170","addr":"경기도 고양시 일산동구 성석동 532-13번지","category":"음료식품 - 제과점"},{"name":"행복한단비","tel":"031-964-8170","addr":"경기도 고양시 일산동구 성석동 532-13번지","category":""}]},{"lat":"37.702487761","long":"126.80222975","items":[{"name":"행신매점","tel":"070-7425-4545","addr":"경기도 고양시 일산동구 성석동 362번지","category":"유통업 영리 - 편 의 점"},{"name":"행신매점","tel":"070-7425-4545","addr":"경기도 고양시 일산동구 성석동 362번지","category":""}]},{"lat":"37.709932637","long":"126.78854425","items":[{"name":"현대가축약품","tel":"031-977-5085","addr":"경기도 고양시 일산동구 성석동 1242-2번지","category":""}]},{"lat":"37.714458016","long":"126.78996022","items":[{"name":"홍스 취킨","tel":"031-977-5554","addr":"경기도 고양시 일산동구 성석동 1223-9번지","category":""},{"name":"홍스 취킨","tel":"031-977-5554","addr":"경기도 고양시 일산동구 성석동 1223-9번지","category":"일반휴게음식 - 스넥"}]},{"lat":"37.70448471","long":"126.805683","items":[{"name":"힐링유통","tel":"031-976-5660","addr":"경기도 고양시 일산동구 성석동 419-5번지","category":""}]},{"lat":"37.698264149","long":"126.79809113","items":[{"name":"힐사이드","tel":"031-977-1276","addr":"경기도 고양시 일산동구 성석동 641-7번지","category":""},{"name":"힐사이드","tel":"031-977-1276","addr":"경기도 고양시 일산동구 성석동 641-7번지","category":"일반휴게음식 - 서양음식"}]}]