[{"lat":"37.213135006","long":"126.95331226","items":[{"name":"(주)GKT","tel":"070-8847-1797","addr":"경기도 화성시 봉담읍 상리 14번지 협성대학교 309-2호 협성대산학협력관","category":"기타 - 기계공구"},{"name":"(주)미하","tel":"02-2632-8819","addr":"경기도 화성시 봉담읍 상리 14번지 협성대학교 205호 협성대학산학협력관","category":"보건위생 - 화장품"},{"name":"드림시너리","tel":"","addr":"경기도 화성시 봉담읍 상리 14번지 협성대학교 산학협력단 301호 가호","category":"사무통신 - 컴퓨터"},{"name":"라이트하우스 협동조합","tel":"031-294-1551","addr":"경기도 화성시 봉담읍 상리 14번지 협성대학교 107호 산학협력단","category":"음료식품 - 기타음료식품"},{"name":"브로윈 주식회사","tel":"070-4633-6596","addr":"경기도 화성시 봉담읍 상리 14번지 협성대학교 103호","category":"전기제품 - 기타전기제품"},{"name":"아이프린트 협성대점","tel":"","addr":"경기도 화성시 봉담읍 상리 14번지 협성대학교 2층","category":"용역 서비스 - 사무서비스"},{"name":"위플","tel":"031-300-3921","addr":"경기도 화성시 봉담읍 상리 14번지 협성대학교 산학협력관 108호","category":"전기제품 - 기타전기제품"},{"name":"재능나눔 사회적협동조합","tel":"031-299-1366","addr":"경기도 화성시 봉담읍 상리 14번지 협성대학교 101-2호","category":"문화.취미 - 티켓"},{"name":"협성대 구내 안경원","tel":"031-227-2670","addr":"경기도 화성시 봉담읍 상리 14번지","category":"보건위생 - 안경"},{"name":"협성대구내서점","tel":"031-227-7137","addr":"경기도 화성시 봉담읍 상리 14번지 협성대학교","category":"서적문구 - 일반서적"}]},{"lat":"37.2188006","long":"126.94890327","items":[{"name":"(주)씨구파트너스 화성봉담지점","tel":"070-3383-6661","addr":"경기도 화성시 봉담읍 상리 26-68번지 301,302,303호","category":"레저업소 - 기타레져업소"},{"name":"나무로스터리카페","tel":"","addr":"경기도 화성시 봉담읍 상리 26-68번지 1동 1층 101-1호","category":"일반휴게음식 - 서양음식"},{"name":"사나운치킨","tel":"031-297-3393","addr":"경기도 화성시 봉담읍 상리 26-68번지 1동 1층 105호","category":"일반휴게음식 - 스넥"},{"name":"아리송","tel":"","addr":"경기도 화성시 봉담읍 상리 26-68번지 1층 101호 좌측","category":"음료식품 - 기타음료식품"},{"name":"통큰멸치국수","tel":"","addr":"경기도 화성시 봉담읍 상리 26-68번지 105호","category":"일반휴게음식 - 일반한식"}]},{"lat":"37.215405175","long":"126.95226302","items":[{"name":"(주)효성장묘개발","tel":"031-278-0444","addr":"경기도 화성시 봉담읍 상리 15-34번지 B1층","category":"회원제형태 - 기타4"},{"name":"카페랏떼, Coffee","tel":"031-111-1111","addr":"경기도 화성시 봉담읍 상리 15-34번지","category":"일반휴게음식 - 서양음식"}]},{"lat":"37.217936263","long":"126.95036854","items":[{"name":"BBQ봉담행복","tel":"031-227-9284","addr":"경기도 화성시 봉담읍 상리 21-3번지","category":"일반휴게음식 - 스넥"},{"name":"보보스","tel":"031-227-5441","addr":"경기도 화성시 봉담읍 상리 21-3","category":"일반휴게음식 - 주점"},{"name":"에덴반찬하우스","tel":"031-227-5881","addr":"경기도 화성시 봉담읍 상리 21-3번지 104호","category":"음료식품 - 기타음료식품"},{"name":"진가네왕족발","tel":"031-227-5595","addr":"경기도 화성시 봉담읍 상리 21-3번지 105호","category":"음료식품 - 기타음료식품"},{"name":"하이센스","tel":"031-227-6026","addr":"경기도 화성시 봉담읍 상리 21-3번지 201호","category":"보건위생 - 미용원"}]},{"lat":"37.215717204","long":"126.94498482","items":[{"name":"BD골프아카데미","tel":"031-292-2882","addr":"경기도 화성시 봉담읍 상리 459-6번지 2층","category":"레저업소 - 골프연습장"},{"name":"SG골프 봉담점","tel":"","addr":"경기도 화성시 봉담읍 상리 459-6번지 외4필지","category":"레저업소 - 골프연습장"},{"name":"쌤소나이트아울렛봉담점","tel":"031-292-7954","addr":"경기도 화성시 봉담읍 상리 459-6번지 101호","category":"레져용품 - 스포츠·레져용품"},{"name":"예지디자인","tel":"031-227-7712","addr":"경기도 화성시 봉담읍 상리 459-6","category":"서적문구 - 출판 및 인쇄물"}]},{"lat":"37.217378348","long":"126.95203637","items":[{"name":"CMNG화성봉담센터","tel":"031-291-7556","addr":"경기도 화성시 봉담읍 상리 11-47번지 지맨프라자 115호","category":"신변잡화 - 기타잡화"},{"name":"M마트","tel":"031-278-6633","addr":"경기도 화성시 봉담읍 상리 11-47번지 지맨프라자 1층 118호","category":"유통업 영리 - 슈퍼마켓"},{"name":"가람 스크린골프","tel":"031-227-7276","addr":"경기도 화성시 봉담읍 상리 11-47번지 지맨프라자 2층 208호~211호","category":"레저업소 - 스크린골프"},{"name":"굽네치킨 봉담1호점","tel":"031-227-9797","addr":"경기도 화성시 봉담읍 상리 11-47번지 지맨프라자 119-1호","category":"일반휴게음식 - 스넥"},{"name":"나래캠퍼스텔","tel":"031-227-7606","addr":"경기도 화성시 봉담읍 상리 11-47번지 지앤프라자 314호","category":"학원 - 독서실"},{"name":"느린식빵","tel":"031-111-1111","addr":"경기도 화성시 봉담읍 상리 11-47번지 지맨프라자 1층 115호","category":"음료식품 - 제과점"},{"name":"다미","tel":"031-291-1731","addr":"경기도 화성시 봉담읍 상리 11-47번지 지맨프라자 2층 201호","category":"음료식품 - 기타음료식품"},{"name":"모모 독서실","tel":"031-292-6363","addr":"경기도 화성시 봉담읍 상리 11-47번지 지맨프라자 306호","category":"학원 - 독서실"},{"name":"미스사이공(화성봉담점)","tel":"031-227-4201","addr":"경기도 화성시 봉담읍 상리 11-47번지 지맨프라자 107호","category":"일반휴게음식 - 스넥"},{"name":"샤브향","tel":"031-296-3322","addr":"경기도 화성시 봉담읍 상리 11-47번지 지맨프라자","category":"일반휴게음식 - 일반한식"},{"name":"신전떡볶이","tel":"031-227-9989","addr":"경기도 화성시 봉담읍 상리 11-47번지 지맨프라자 106호","category":"일반휴게음식 - 일반한식"},{"name":"신전떡볶이","tel":"031-227-9989","addr":"경기도 화성시 봉담읍 상리 11-47번지 지맨프라자 1층 106호","category":"일반휴게음식 - 스넥"},{"name":"에이스 유소년스포츠","tel":"031-296-8803","addr":"경기도 화성시 봉담읍 상리 11-47번지 204,205,206호","category":"학원 - 기타 교육기관"},{"name":"열풍마라탕","tel":"","addr":"경기도 화성시 봉담읍 상리 11-47번지 지맨프라자 111호","category":"일반휴게음식 - 중국식"},{"name":"유로코피자화성봉담점","tel":"031-297-1828","addr":"경기도 화성시 봉담읍 상리 11-47번지 지맨프라자 114호","category":"일반휴게음식 - 서양음식"},{"name":"이디야커피 (화성봉담점)","tel":"031-227-1470","addr":"경기도 화성시 봉담읍 상리 11-47번지 104,105호","category":"일반휴게음식 - 서양음식"},{"name":"잇앤조이(Eat NJoy)","tel":"070-7539-0017","addr":"경기도 화성시 봉담읍 상리 11-47번지 지맨프라자 113호","category":"일반휴게음식 - 일반한식"},{"name":"자연을담은김밥","tel":"031-227-0888","addr":"경기도 화성시 봉담읍 상리 11-47번지 지맨프라자 1층 112호","category":"일반휴게음식 - 일반한식"},{"name":"지지고","tel":"031-227-0257","addr":"경기도 화성시 봉담읍 상리 11-47번지 지맨프라자 119호","category":"일반휴게음식 - 일반한식"},{"name":"청춘냉면1996","tel":"031-298-4081","addr":"경기도 화성시 봉담읍 상리 11-47번지 지맨프라자 107호","category":"일반휴게음식 - 일반한식"},{"name":"카페유안","tel":"031-000-0000","addr":"경기도 화성시 봉담읍 상리 11-47번지 지맨프라자 109호","category":"일반휴게음식 - 서양음식"},{"name":"케이제이(KJ)","tel":"031-111-1111","addr":"경기도 화성시 봉담읍 상리 11-47번지 지맨프라자 301호","category":"신변잡화 - 기타잡화"},{"name":"코모리치 헤어증모","tel":"031-294-0479","addr":"경기도 화성시 봉담읍 상리 11-47번지 지맨프라자 103호","category":"보건위생 - 미용재료"},{"name":"크리닝하우스","tel":"","addr":"경기도 화성시 봉담읍 상리 11-47 지맨프라자101호~102호","category":"수리서비스 - 세탁소"},{"name":"타코비봉담점","tel":"070-7737-8797","addr":"경기도 화성시 봉담읍 상리 11-47번지 지맨프라자 117호","category":"일반휴게음식 - 일식·회집"},{"name":"헤어보떼","tel":"031-298-3003","addr":"경기도 화성시 봉담읍 상리 11-47번지 지맨프라자 108호","category":"보건위생 - 미용원"},{"name":"현 컴퓨터 토탈시스템","tel":"031-230-9881","addr":"경기도 화성시 봉담읍 상리 11-47번지 지맨프라자 1층 110호","category":"수리서비스 - 사무·통신기기수리"}]},{"lat":"37.218963087","long":"126.94956789","items":[{"name":"GO노래연습장","tel":"031-227-1778","addr":"경기도 화성시 봉담읍 상리 23-4","category":"레저업소 - 노 래 방"},{"name":"별법동태탕속초코다리냉면","tel":"031-298-2363","addr":"경기도 화성시 봉담읍 상리 23-4번지","category":"일반휴게음식 - 일반한식"},{"name":"봉담축산식당","tel":"031-227-6682","addr":"경기도 화성시 봉담읍 상리 23-4번지 2층","category":"일반휴게음식 - 일반한식"},{"name":"봉담축산식당/정육","tel":"031-227-6682","addr":"경기도 화성시 봉담읍 상리 23-4번지 201호","category":"음료식품 - 정육점"},{"name":"봉담포차","tel":"031-298-3326","addr":"경기도 화성시 봉담읍 상리 23-4번지","category":"일반휴게음식 - 일반한식"}]},{"lat":"37.216547459","long":"126.94771065","items":[{"name":"GS25봉담신안점","tel":"","addr":"경기도 화성시 봉담읍 상리 614번지 115동 101~102호","category":"유통업 영리 - 편 의 점"},{"name":"까꿍어린이집[아이행복]","tel":"031-298-7250","addr":"경기도 화성시 봉담읍 상리 614번지 청운마을신안인스빌","category":"학원 - 유아원"},{"name":"스윗미","tel":"","addr":"경기도 화성시 봉담읍 상리 614번지 청운마을신안인스빌 115동 102-1호","category":"일반휴게음식 - 서양음식"}]},{"lat":"37.215747439","long":"126.9519586","items":[{"name":"GS25화성협성대점","tel":"","addr":"경기도 화성시 봉담읍 상리 15-22번지 금성팰리스 가동 1층 102호","category":"유통업 영리 - 편 의 점"},{"name":"달콤한 하루","tel":"070-8887-9832","addr":"경기도 화성시 봉담읍 상리 15-22번지 금강팰리스 1동 101호","category":"일반휴게음식 - 서양음식"}]},{"lat":"37.218377746","long":"126.9503119","items":[{"name":"KBS노래연습장","tel":"031-297-3419","addr":"경기도 화성시 봉담읍 상리 22-20","category":"레저업소 - 노 래 방"}]},{"lat":"37.216441334","long":"126.95218346","items":[{"name":"PGA골프스쿨","tel":"031-297-0755","addr":"경기도 화성시 봉담읍 상리 11-17번지 2층","category":"레저업소 - 골프연습장"},{"name":"마시또","tel":"031-297-9416","addr":"경기도 화성시 봉담읍 상리 11-17번지 102호","category":"일반휴게음식 - 일반한식"},{"name":"바다횟집","tel":"031-297-5010","addr":"경기도 화성시 봉담읍 상리 11-17번지","category":"일반휴게음식 - 일반한식"}]},{"lat":"37.219126856","long":"126.93504496","items":[{"name":"가든한우농장","tel":"031-227-9924","addr":"경기도 화성시 봉담읍 상리 347번지","category":"음료식품 - 정육점"}]},{"lat":"37.216855534","long":"126.951541","items":[{"name":"감성커피 협성대점","tel":"","addr":"경기도 화성시 봉담읍 상리 11-14번지 2층","category":"일반휴게음식 - 서양음식"},{"name":"봉담(  )닭발","tel":"031-297-4438","addr":"경기도 화성시 봉담읍 상리 11-14번지","category":"일반휴게음식 - 일반한식"},{"name":"청춘감자탕순대국","tel":"031-227-1170","addr":"경기도 화성시 봉담읍 상리 11-14번지","category":"일반휴게음식 - 일반한식"}]},{"lat":"37.218494462","long":"126.94937669","items":[{"name":"강원 손두부","tel":"03-100-0000","addr":"경기도 화성시 봉담읍 상리 24-16번지 1층","category":"음료식품 - 기타음료식품"},{"name":"베리나이스","tel":"031-204-2322","addr":"경기도 화성시 봉담읍 상리 24-16번지 102호","category":"일반휴게음식 - 서양음식"}]},{"lat":"37.218493486","long":"126.94725856","items":[{"name":"강원식품","tel":"031-227-3492","addr":"경기도 화성시 봉담읍 상리 25-42번지 대정빌딩 107호","category":"음료식품 - 농·축·수산품"},{"name":"경동보일러,에어컨","tel":"031-1877-9804","addr":"경기도 화성시 봉담읍 상리 25-42번지 대정빌딩 4층 401호","category":"전기제품 - 냉열기기"},{"name":"봉담 엠티비(MTB)","tel":"031-297-7696","addr":"경기도 화성시 봉담읍 상리 25-42번지 대정빌딩 108호","category":"레져용품 - 스포츠·레져용품"},{"name":"신흥종합주방","tel":"031-298-3443","addr":"경기도 화성시 봉담읍 상리 25-42번지 대정빌딩 1층","category":"주방용구 - 주방용구"}]},{"lat":"37.218550027","long":"126.95281298","items":[{"name":"강한학원","tel":"031-278-0570","addr":"경기도 화성시 봉담읍 상리 622-1번지 (상가동206,206호)","category":"학원 - 보습학원"},{"name":"아지트모티","tel":"","addr":"경기도 화성시 봉담읍 상리 622-1번지","category":"일반휴게음식 - 서양음식"},{"name":"토마토","tel":"031-298-9833","addr":"경기도 화성시 봉담읍 상리 622-1,104","category":"보건위생 - 미용원"}]},{"lat":"37.218242531","long":"126.9501768","items":[{"name":"고바우대파막창구이","tel":"031-298-9222","addr":"경기도 화성시 봉담읍 상리 22-39번지","category":"일반휴게음식 - 일반한식"},{"name":"뚜레쥬르 화성상리","tel":"031-297-0085","addr":"경기도 화성시 봉담읍 상리 22-39","category":"음료식품 - 제과점"},{"name":"만두(ManDoo)","tel":"031-222-4277","addr":"경기도 화성시 봉담읍 상리 22-39번지","category":"일반휴게음식 - 스넥"},{"name":"벨라","tel":"031-973-0356","addr":"경기도 화성시 봉담읍 상리 22-39번지 106호","category":"의류 - 정장"},{"name":"부자인테리어","tel":"031-298-4458","addr":"경기도 화성시 봉담읍 상리 22-39번지","category":"직물 - 카페트,커튼,천막,지물"},{"name":"태후사랑","tel":"031-227-1002","addr":"경기도 화성시 봉담읍 상리 22-39번지","category":"보건위생 - 미용원"}]},{"lat":"37.219962683","long":"126.94835037","items":[{"name":"골든치과의원","tel":"031-296-2870","addr":"경기도 화성시 봉담읍 상리 27-6번지 이안건물 3층","category":"의원 - 치과의원"},{"name":"솔약국","tel":"031-227-7015","addr":"경기도 화성시 봉담읍 상리 27-6번지 이안건물","category":"약국 - 약국"},{"name":"아모레퍼시픽 화장품","tel":"031-291-7177","addr":"경기도 화성시 봉담읍 상리 27-6번지 2층","category":"보건위생 - 화장품"},{"name":"우리식당","tel":"031-297-4551","addr":"경기도 화성시 봉담읍 상리 27-6번지","category":"일반휴게음식 - 일반한식"},{"name":"이한수댄스","tel":"031-293-5959","addr":"경기도 화성시 봉담읍 상리 27-6번지 5층","category":"학원 - 예·체능계학원"},{"name":"자연애 인테리어","tel":"031-292-0725","addr":"경기도 화성시 봉담읍 상리 27-6번지 B (2층)","category":"건축자재 - 인테리어전문"}]},{"lat":"37.21918775","long":"126.94826079","items":[{"name":"교촌치킨","tel":"031-278-9277","addr":"경기도 화성시 봉담읍 상리 26-8번지 1층 8-9호","category":"일반휴게음식 - 서양음식"},{"name":"리코코(RICOCO)","tel":"031-298-3178","addr":"경기도 화성시 봉담읍 상리 26-8번지 1층 6호","category":"의류 - 정장"},{"name":"마루공방","tel":"031-227-7975","addr":"경기도 화성시 봉담읍 상리 26-8번지 황현빌딩 3층","category":"문화.취미 - 민예·공예품"},{"name":"아리따움 봉담점","tel":"031-278-0303","addr":"경기도 화성시 봉담읍 상리 26-8번지 황현빌딩 1층 3호 3","category":"보건위생 - 화장품"},{"name":"정호석치과의원","tel":"031-298-7528","addr":"경기도 화성시 봉담읍 상리 26-8번지 황현빌딩 3층","category":"의원 - 치과의원"},{"name":"큐앤아이(Q&I)","tel":"031-298-1187","addr":"경기도 화성시 봉담읍 상리 26-8번지","category":"회원제형태 - 기타4"},{"name":"파리바게뜨 화성상리점","tel":"031-278-0500","addr":"경기도 화성시 봉담읍 상리 26-8번지","category":"음료식품 - 제과점"}]},{"lat":"37.217963394","long":"126.95059386","items":[{"name":"군산식당(홍한양행)","tel":"031-227-0640","addr":"경기도 화성시 봉담읍 상리 11-3번지","category":"일반휴게음식 - 일반한식"},{"name":"꿈꾸는도시락","tel":"031-292-3304","addr":"경기도 화성시 봉담읍 상리 11-3번지 1층 일부","category":"일반휴게음식 - 스넥"},{"name":"미니세계주류","tel":"070-7529-0331","addr":"경기도 화성시 봉담읍 상리 11-3번지 1층 102-1호","category":"음료식품 - 주류 판매점"},{"name":"봉담스포츠","tel":"031-707-8342","addr":"경기도 화성시 봉담읍 상리 11-3번지 흥한빌딩 102호","category":"레져용품 - 스포츠·레져용품"},{"name":"숯불 닭갈비 계륵장군","tel":"031-291-9971","addr":"경기도 화성시 봉담읍 상리 11-3번지 1층 101호","category":"일반휴게음식 - 일반한식"},{"name":"시연초(수제담배)","tel":"031-241-9206","addr":"경기도 화성시 봉담읍 상리 11-3번지 103호","category":"음료식품 - 기타음료식품"},{"name":"우미상사","tel":"031-227-0973","addr":"경기도 화성시 봉담읍 상리 11-3번지 405호","category":"회원제형태 - 기타3"},{"name":"토브헤어","tel":"031-295-9270","addr":"경기도 화성시 봉담읍 상리 11-3번지 104호","category":"보건위생 - 미용원"}]},{"lat":"37.217855379","long":"126.95084179","items":[{"name":"그라시아스(Gracias)","tel":"031-227-2162","addr":"경기도 화성시 봉담읍 상리 11-48번지 스페이스빌 1층 101호","category":"일반휴게음식 - 서양음식"}]},{"lat":"37.217377795","long":"126.95076326","items":[{"name":"극단 위드유","tel":"031-891-9191","addr":"경기도 화성시 봉담읍 상리 11-45번지 봉담세화의원 4층 401호","category":"문화.취미 - 티켓"},{"name":"극단 위드유","tel":"031-891-9191","addr":"경기도 화성시 봉담읍 상리 11-45번지 봉담세화의원 4층 401호","category":"용역 서비스 - 종합용역"},{"name":"봉담세화의원","tel":"031-298-3377","addr":"경기도 화성시 봉담읍 상리 11-45번지","category":"의원 - 의원"}]},{"lat":"37.219854413","long":"126.94803498","items":[{"name":"글로벌직업전문학교","tel":"031-298-6868","addr":"경기도 화성시 봉담읍 상리 31-3번지 우정프라자 4층","category":"학원 - 컴퓨터학원"},{"name":"라이브호프","tel":"031-227-3437","addr":"경기도 화성시 봉담읍 상리 31-3번지","category":"일반휴게음식 - 주점"},{"name":"상리요양원","tel":"031-227-8089","addr":"경기도 화성시 봉담읍 상리 31-3번지 우정프라자 5층","category":"기타의료기관 - 기타의료기관 및 기타"},{"name":"선연합치과의원","tel":"031-297-3343","addr":"경기도 화성시 봉담읍 상리 31-3번지 우정프라자 403호","category":"의원 - 치과의원"},{"name":"수앤미화장품의류잡화","tel":"031-278-1806","addr":"경기도 화성시 봉담읍 상리 31-3번지 우정프라자 지하 101,102,103,109,110호","category":"보건위생 - 화장품"},{"name":"오피스젬","tel":"031-227-6966","addr":"경기도 화성시 봉담읍 상리 31-3번지 우정프라자 1층 110호","category":"서적문구 - 문구용품"},{"name":"오피스젬문구,문고","tel":"031-227-6966","addr":"경기도 화성시 봉담읍 상리 31-3번지 우정프라자 1층 110호","category":"서적문구 - 문구용품"},{"name":"으뜸50안경","tel":"031-293-5550","addr":"경기도 화성시 봉담읍 상리 31-3번지 우정프라자","category":"보건위생 - 안경"},{"name":"이레","tel":"031-278-8877","addr":"경기도 화성시 봉담읍 상리 31-3번지 우정프라자 4층","category":"용역 서비스 - 부동산 중개·임대"},{"name":"정가네돈가스","tel":"031-227-1708","addr":"경기도 화성시 봉담읍 상리 31-3번지 우정프라자 101호","category":"일반휴게음식 - 서양음식"},{"name":"째즈노래연습장","tel":"","addr":"경기도 화성시 봉담읍 상리 31-3번지 우정프라자 306호","category":"레저업소 - 노 래 방"},{"name":"하루","tel":"031-297-6568","addr":"경기도 화성시 봉담읍 상리 31-3번지 우정프라자 106호","category":"의류 - 정장"}]},{"lat":"37.218521766","long":"126.94998507","items":[{"name":"금비인테리어","tel":"031-227-2116","addr":"경기도 화성시 봉담읍 상리 22-31","category":"건축자재 - 인테리어전문"},{"name":"농민축산","tel":"031-227-0312","addr":"경기도 화성시 봉담읍 상리 22-31","category":"음료식품 - 정육점"},{"name":"봉담갈릴리","tel":"031-298-1982","addr":"경기도 화성시 봉담읍 상리 22-31번지","category":"일반휴게음식 - 일식·회집"},{"name":"봉담보신탕","tel":"031-297-7907","addr":"경기도 화성시 봉담읍 상리 22-31번지","category":"일반휴게음식 - 일반한식"},{"name":"소세지야 (장안,협성대점)","tel":"","addr":"경기도 화성시 봉담읍 상리 22-31번지","category":"일반휴게음식 - 일반한식"},{"name":"통큰포차","tel":"031-227-7208","addr":"경기도 화성시 봉담읍 상리 22-31","category":"일반휴게음식 - 일반한식"},{"name":"퇘랑","tel":"031-227-8278","addr":"경기도 화성시 봉담읍 상리 22-31","category":"일반휴게음식 - 일반한식"},{"name":"파마헤어샵","tel":"031-238-2848","addr":"경기도 화성시 봉담읍 상리 22-31번지","category":"보건위생 - 미용원"}]},{"lat":"37.220187916","long":"126.94829387","items":[{"name":"금영식당","tel":"031-298-3366","addr":"경기도 화성시 봉담읍 상리 30-1번지","category":"일반휴게음식 - 일반한식"},{"name":"백반나라한식부페","tel":"031-227-5777","addr":"경기도 화성시 봉담읍 상리 30-1번지 1층","category":"일반휴게음식 - 일반한식"},{"name":"봉담건강원","tel":"031-227-7595","addr":"경기도 화성시 봉담읍 상리 30-1","category":"건강식품 - 기타건강식품"},{"name":"수원신닭발","tel":"031-295-5425","addr":"경기도 화성시 봉담읍 상리 30-1번지 105호","category":"일반휴게음식 - 일반한식"},{"name":"홍초닭발","tel":"031-227-9777","addr":"경기도 화성시 봉담읍 상리 30-1번지","category":"일반휴게음식 - 일반한식"}]},{"lat":"37.216963619","long":"126.95145079","items":[{"name":"기쁨양꼬치","tel":"031-297-8481","addr":"경기도 화성시 봉담읍 상리 11-6번지 4호","category":"일반휴게음식 - 스넥"},{"name":"꿈의 공방","tel":"","addr":"경기도 화성시 봉담읍 상리 11-6번지 지하1층","category":"문화.취미 - 민예·공예품"},{"name":"대박","tel":"031-227-5566","addr":"경기도 화성시 봉담읍 상리 11-6번지","category":"일반휴게음식 - 중국식"},{"name":"샘골당구클럽","tel":"","addr":"경기도 화성시 봉담읍 상리 11-6번지 2층","category":"레저업소 - 당 구 장"},{"name":"숯의힘","tel":"031-422-0246","addr":"경기도 화성시 봉담읍 상리 11-6번지 2층","category":"보건위생 - 의료용품"},{"name":"썬플라워","tel":"031-227-3335","addr":"경기도 화성시 봉담읍 상리 11-6번지 1층","category":"일반휴게음식 - 주점"},{"name":"씨유협성대점","tel":"031-227-9509","addr":"경기도 화성시 봉담읍 상리 11-6번지 1층","category":"유통업 영리 - 편 의 점"},{"name":"푸드딜라이트 봉담점","tel":"070-8616-2223","addr":"경기도 화성시 봉담읍 상리 11-6번지 1층","category":"일반휴게음식 - 일반한식"}]},{"lat":"37.218855013","long":"126.94968064","items":[{"name":"깜도야","tel":"031-298-0808","addr":"경기도 화성시 봉담읍 상리 22-26번지 1층","category":"일반휴게음식 - 일반한식"}]},{"lat":"37.217684048","long":"126.95053772","items":[{"name":"꼬미곶닭발","tel":"031-8025-7443","addr":"경기도 화성시 봉담읍 상리 11-5번지","category":"일반휴게음식 - 일반한식"},{"name":"꼬지사께 봉담점","tel":"031-227-1042","addr":"경기도 화성시 봉담읍 상리 11-5번지 천석빌딩 102호","category":"일반휴게음식 - 주점"},{"name":"차수학잉글리시아이학원","tel":"031-8004-1009","addr":"경기도 화성시 봉담읍 상리 11-5번지 302호","category":"학원 - 보습학원"},{"name":"천담채","tel":"031-227-1523","addr":"경기도 화성시 봉담읍 상리 11-5번지","category":"일반휴게음식 - 일반한식"},{"name":"코리아 태풍 태권도","tel":"031-278-5511","addr":"경기도 화성시 봉담읍 상리 11-5번지 201호","category":"학원 - 예·체능계학원"}]},{"lat":"37.216267853","long":"126.94710247","items":[{"name":"꽃피는 허브 아틀리에","tel":"031-293-3362","addr":"경기도 화성시 봉담읍 상리 614번지 청운마을신안인스빌 106동 203호","category":"문화.취미 - 문화취미기타"}]},{"lat":"37.217991043","long":"126.95201342","items":[{"name":"꾸버스피자","tel":"031-227-9122","addr":"경기도 화성시 봉담읍 상리 11-119번지 1층","category":"일반휴게음식 - 서양음식"}]},{"lat":"37.218161537","long":"126.95040219","items":[{"name":"남매통닭","tel":"","addr":"경기도 화성시 봉담읍 상리 22-25번지 101호","category":"일반휴게음식 - 스넥"},{"name":"남매통닭","tel":"031-278-7557","addr":"경기도 화성시 봉담읍 상리 22-25번지 101호","category":"일반휴게음식 - 일반한식"},{"name":"불도야지천국","tel":"031-297-8938","addr":"경기도 화성시 봉담읍 상리 22-25번지 외2필지 1층","category":"일반휴게음식 - 일반한식"},{"name":"유송건설","tel":"031-295-7896","addr":"경기도 화성시 봉담읍 상리 22-25번지 2층","category":"용역 서비스 - 기타용역서비스"},{"name":"허슬러7당구장","tel":"031-111-1111","addr":"경기도 화성시 봉담읍 상리 22-25번지 2층","category":"레저업소 - 당 구 장"},{"name":"황궁짬뽕전문점","tel":"031-298-1121","addr":"경기도 화성시 봉담읍 상리 22-25번지","category":"일반휴게음식 - 중국식"}]},{"lat":"37.220629968","long":"126.94948785","items":[{"name":"남해수산","tel":"031-227-5682","addr":"경기도 화성시 봉담읍 상리 27-14","category":"음료식품 - 농·축·수산품"},{"name":"봉담먹거리맛집","tel":"031-298-6274","addr":"경기도 화성시 봉담읍 상리 27-14번지","category":"일반휴게음식 - 일반한식"}]},{"lat":"37.216377926","long":"126.95140613","items":[{"name":"냠냠족발","tel":"031-227-5580","addr":"경기도 화성시 봉담읍 상리 15-45번지","category":"일반휴게음식 - 일반한식"},{"name":"유명환 명품 족발","tel":"031-227-4556","addr":"경기도 화성시 봉담읍 상리 15-45번지","category":"일반휴게음식 - 일반한식"}]},{"lat":"37.214353056","long":"126.93806853","items":[{"name":"농부아트","tel":"031-227-1719","addr":"경기도 화성시 봉담읍 상리 413-1번지 1층","category":"음료식품 - 농·축·수산품"}]},{"lat":"37.208635442","long":"126.94579006","items":[{"name":"농업회사법인 정인유통 주식회사","tel":"031-222-6759","addr":"경기도 화성시 봉담읍 상리 464-56번지","category":"음료식품 - 농·축·수산품"}]},{"lat":"37.217161387","long":"126.95040288","items":[{"name":"다원정육식당","tel":"031-294-3838","addr":"경기도 화성시 봉담읍 상리 20-4번지","category":"일반휴게음식 - 일반한식"},{"name":"다원정육점","tel":"031-294-3838","addr":"경기도 화성시 봉담읍 상리 20-4번지","category":"음료식품 - 정육점"}]},{"lat":"37.218350383","long":"126.94956833","items":[{"name":"달보드레","tel":"031-296-1110","addr":"경기도 화성시 봉담읍 상리 24","category":"의류 - 정장"},{"name":"망고인테리어","tel":"031-298-4455","addr":"경기도 화성시 봉담읍 상리 24번지","category":"건축자재 - 인테리어전문"}]},{"lat":"37.218963409","long":"126.95028896","items":[{"name":"대구생막창","tel":"031-297-7451","addr":"경기도 화성시 봉담읍 상리 22-54번지","category":"일반휴게음식 - 일반한식"},{"name":"로뎀스킨케어","tel":"031-298-4201","addr":"경기도 화성시 봉담읍 상리 22-54번지","category":"보건위생 - 화장품"},{"name":"봉담연무관합기도","tel":"031-298-9119","addr":"경기도 화성시 봉담읍 상리 22-54번지 수민빌딩 302호","category":"학원 - 예·체능계학원"},{"name":"옹백이보쌈족발","tel":"031-227-5432","addr":"경기도 화성시 봉담읍 상리 22-54번지","category":"일반휴게음식 - 일반한식"},{"name":"원시다자","tel":"031-292-8826","addr":"경기도 화성시 봉담읍 상리 22-54번지","category":"일반휴게음식 - 중국식"},{"name":"전장군","tel":"031-295-0655","addr":"경기도 화성시 봉담읍 상리 22-54번지","category":"일반휴게음식 - 일반한식"},{"name":"킹 당구장","tel":"031-227-9725","addr":"경기도 화성시 봉담읍 상리 22-54번지 2층","category":"레저업소 - 당 구 장"}]},{"lat":"37.222461906","long":"126.93720528","items":[{"name":"대한두발만세!!","tel":"031-298-2416","addr":"경기도 화성시 봉담읍 상리 604","category":"보건위생 - 미용원"}]},{"lat":"37.219575413","long":"126.94873372","items":[{"name":"덤분식","tel":"031-298-7297","addr":"경기도 화성시 봉담읍 상리 27-11","category":"일반휴게음식 - 스넥"},{"name":"봉담안경마트","tel":"031-227-3489","addr":"경기도 화성시 봉담읍 상리 27-11번지 1동","category":"보건위생 - 안경"},{"name":"삼겹싸롱 (봉담점)","tel":"031-297-9279","addr":"경기도 화성시 봉담읍 상리 27-11번지 2층","category":"일반휴게음식 - 일반한식"},{"name":"양지PC방","tel":"070-5540-4265","addr":"경기도 화성시 봉담읍 상리 27-11번지","category":"레저업소 - 기타레져업소"},{"name":"양지당구장","tel":"031-295-1053","addr":"경기도 화성시 봉담읍 상리 27-11","category":"레저업소 - 당 구 장"},{"name":"엣지","tel":"031-227-7670","addr":"경기도 화성시 봉담읍 상리 27-11번지 외1필지 2층","category":"일반휴게음식 - 일반한식"},{"name":"제주부향순 죽 전문점","tel":"031-227-8288","addr":"경기도 화성시 봉담읍 상리 27-11번지","category":"일반휴게음식 - 일반한식"},{"name":"황금당","tel":"031-227-0727","addr":"경기도 화성시 봉담읍 상리 27-11번지","category":"신변잡화 - 귀금속"}]},{"lat":"37.228879053","long":"126.94049002","items":[{"name":"두배로행복마트","tel":"032-298-6314","addr":"경기도 화성시 봉담읍 상리 192-2번지 상가 106,107호","category":"유통업 영리 - 슈퍼마켓"}]},{"lat":"37.207796274","long":"126.94334618","items":[{"name":"로랜드 엔코어 충전소","tel":"031-292-1282","addr":"경기도 화성시 봉담읍 상리 464-6번지","category":"연료판매점 - SK가스충전소"}]},{"lat":"37.212077578","long":"126.94614797","items":[{"name":"로코트럭","tel":"","addr":"경기도 화성시 봉담읍 상리 460번지 장안대학교 교내","category":"일반휴게음식 - 서양음식"},{"name":"주식회사디앤씨티","tel":"031-366-1830","addr":"경기도 화성시 봉담읍 상리 460번지 장안대학 자아실현관 1층","category":"유통업 영리 - 편 의 점"},{"name":"주식회사디앤씨티","tel":"031-366-1830","addr":"경기도 화성시 봉담읍 상리 460번지 장안대학 자아실현관 1층","category":"일반휴게음식 - 서양음식"},{"name":"한국크리스토퍼 평생교육원 화성지부","tel":"","addr":"경기도 화성시 봉담읍 상리 460번지","category":"학원 - 기타 교육기관"}]},{"lat":"37.217142211","long":"126.94785668","items":[{"name":"리플모","tel":"070-7592-9318","addr":"경기도 화성시 봉담읍 상리 614 청운마을신안인스빌 101-806 43/","category":"회원제형태 - 기타4"}]},{"lat":"37.205524085","long":"126.94029523","items":[{"name":"맞춤옷가게","tel":"031-298-1894","addr":"경기도 화성시 봉담읍 상리 475-5번지","category":"의류 - 정장"}]},{"lat":"37.218549043","long":"126.95053712","items":[{"name":"명가3초삼겹살","tel":"031-227-7885","addr":"경기도 화성시 봉담읍 상리 22-56번지","category":"일반휴게음식 - 일반한식"}]},{"lat":"37.218323833","long":"126.95064994","items":[{"name":"문식당","tel":"031-1111-1111","addr":"경기도 화성시 봉담읍 상리 22-92번지","category":"일반휴게음식 - 일반한식"},{"name":"문참치","tel":"031-1111-1111","addr":"경기도 화성시 봉담읍 상리 22-92번지 1층","category":"일반휴게음식 - 일반한식"}]},{"lat":"37.217357775","long":"126.94640315","items":[{"name":"미앤컬","tel":"031-223-6569","addr":"경기도 화성시 봉담읍 상리 618 삼봉마을상가104호","category":"보건위생 - 미용원"},{"name":"세븐일레븐화성봉담주공점","tel":"","addr":"경기도 화성시 봉담읍 상리 618번지 (상가1층101호,102호)","category":"유통업 영리 - 편 의 점"}]},{"lat":"37.22098954","long":"126.94765108","items":[{"name":"민들레유치원[아이행복]","tel":"031-227-7600","addr":"경기도 화성시 봉담읍 상리 39-6","category":"학원 - 유치원"}]},{"lat":"37.20715631","long":"126.94289608","items":[{"name":"병마골화성오리","tel":"031-223-5214","addr":"경기도 화성시 봉담읍 상리 474-3번지","category":"일반휴게음식 - 일반한식"}]},{"lat":"37.215990801","long":"126.95214996","items":[{"name":"봉구스밥버거","tel":"031-8001-8747","addr":"경기도 화성시 봉담읍 상리 15-10번지 1층","category":"일반휴게음식 - 스넥"},{"name":"이삭토스트 (협성대점)","tel":"031-298-5248","addr":"경기도 화성시 봉담읍 상리 15-10번지 1층","category":"일반휴게음식 - 서양음식"}]},{"lat":"37.217242881","long":"126.95131541","items":[{"name":"봉담볼링장","tel":"031-297-4788","addr":"경기도 화성시 봉담읍 상리 11-4번지 (상리11-4,11-50)","category":"레저업소 - 볼 링 장"},{"name":"봉담식당","tel":"031-297-4788","addr":"경기도 화성시 봉담읍 상리 11-4번지 2층 일부","category":"일반휴게음식 - 일반한식"}]},{"lat":"37.220413489","long":"126.94898099","items":[{"name":"봉담한의원","tel":"031-227-1075","addr":"경기도 화성시 봉담읍 상리 27-2","category":"의원 - 한의원"},{"name":"수앤미화장품.의류","tel":"031-278-1806","addr":"경기도 화성시 봉담읍 상리 27-2번지 1층 112호","category":"보건위생 - 화장품"},{"name":"플러스알파","tel":"031-298-5626","addr":"경기도 화성시 봉담읍 상리 27-2번지 조빌딩 1층 9호","category":"서적문구 - 문구용품"},{"name":"함지박떡마을","tel":"031-297-7755","addr":"경기도 화성시 봉담읍 상리 27-2","category":"음료식품 - 제과점"}]},{"lat":"37.215603389","long":"126.95222909","items":[{"name":"부킹","tel":"031-227-3420","addr":"경기도 화성시 봉담읍 상리 15-35","category":"일반휴게음식 - 스넥"},{"name":"예빈","tel":"031-227-2479","addr":"경기도 화성시 봉담읍 상리 15-35번지","category":"일반휴게음식 - 중국식"}]},{"lat":"37.21741304","long":"126.94898313","items":[{"name":"비손유치원[아이행복]","tel":"031-296-1488","addr":"경기도 화성시 봉담읍 상리 24-7","category":"학원 - 유치원"}]},{"lat":"37.217828929","long":"126.95218253","items":[{"name":"새벽길","tel":"","addr":"경기도 화성시 봉담읍 상리 11-137번지 1층 102호","category":"일반휴게음식 - 서양음식"}]},{"lat":"37.218683877","long":"126.94981596","items":[{"name":"생고기마을","tel":"031-227-5758","addr":"경기도 화성시 봉담읍 상리 22-21번지 C동 1층","category":"일반휴게음식 - 일반한식"}]},{"lat":"37.218440943","long":"126.95059353","items":[{"name":"생생회포차","tel":"031-227-8472","addr":"경기도 화성시 봉담읍 상리 22-91번지 102호","category":"일반휴게음식 - 일식·회집"},{"name":"알딸딸","tel":"031-297-1523","addr":"경기도 화성시 봉담읍 상리 22-91번지","category":"일반휴게음식 - 일반한식"}]},{"lat":"37.217268761","long":"126.94873537","items":[{"name":"선갤러리","tel":"","addr":"경기도 화성시 봉담읍 상리 24-2번지 102호","category":"보건위생 - 미용원"}]},{"lat":"37.220152025","long":"126.94862064","items":[{"name":"설레족발","tel":"031-295-8770","addr":"경기도 화성시 봉담읍 상리 27-6번지 이안건물 B동 2층","category":"일반휴게음식 - 일반한식"}]},{"lat":"37.218072064","long":"126.95184437","items":[{"name":"세븐일레븐화성상리점","tel":"","addr":"경기도 화성시 봉담읍 상리 11번지 외3필지 1층","category":"유통업 영리 - 편 의 점"}]},{"lat":"37.218601732","long":"126.94751762","items":[{"name":"쇼카멀티샵","tel":"031-227-6004","addr":"경기도 화성시 봉담읍 상리 26-29번지","category":"자동차정비 유지 - 자동차부품"}]},{"lat":"37.208157105","long":"126.94417951","items":[{"name":"수성연가","tel":"031-297-2636","addr":"경기도 화성시 봉담읍 상리 465번지","category":"일반휴게음식 - 일반한식"}]},{"lat":"37.224299101","long":"126.9355699","items":[{"name":"숲속키즈어린이집[아이행복]","tel":"031-355-6781","addr":"경기도 화성시 봉담읍 상리 256-1번지 지역 도로명 미고시","category":"학원 - 유아원"}]},{"lat":"37.222519073","long":"126.94306419","items":[{"name":"시립봉담제2어린이집[아이행복]","tel":"031-294-7942","addr":"경기도 화성시 봉담읍 상리 40-11번지 (화성봉담2LH2단지)","category":"학원 - 유아원"},{"name":"하나시스템","tel":"","addr":"경기도 화성시 봉담읍 상리 40-11번지 206동 1104호 (화성봉담2 LH2단지)","category":"전기제품 - 냉열기기"},{"name":"현대","tel":"","addr":"경기도 화성시 봉담읍 상리 40-11번지 205동 1805호 (화성봉담2LH2단지)","category":"용역 서비스 - 기타용역서비스"}]},{"lat":"37.217548977","long":"126.95072934","items":[{"name":"신세계약국","tel":"031-298-1118","addr":"경기도 화성시 봉담읍 상리 11-24번지","category":"약국 - 약국"}]},{"lat":"37.218323224","long":"126.94928668","items":[{"name":"신화수산","tel":"031-000-0000","addr":"경기도 화성시 봉담읍 상리 24-4번지 1층 한마음마트","category":"음료식품 - 농·축·수산품"},{"name":"형제수산","tel":"","addr":"경기도 화성시 봉담읍 상리 24-4번지","category":"음료식품 - 농·축·수산품"}]},{"lat":"37.217549473","long":"126.95186726","items":[{"name":"에니시스템","tel":"0505-990-7000","addr":"경기도 화성시 봉담읍 상리 11-108번지","category":"용역 서비스 - 종합용역"}]},{"lat":"37.216324063","long":"126.95186808","items":[{"name":"영구스피자(봉담점)","tel":"031-222-0913","addr":"경기도 화성시 봉담읍 상리 15-36번지 1층","category":"일반휴게음식 - 서양음식"},{"name":"한솥도시락","tel":"031-298-7926","addr":"경기도 화성시 봉담읍 상리 15-36번지","category":"일반휴게음식 - 일반한식"}]},{"lat":"37.216405611","long":"126.9348446","items":[{"name":"예랑도예원","tel":"031-297-5908","addr":"경기도 화성시 봉담읍 상리 383-2","category":"회원제형태 - 학원"}]},{"lat":"37.22057589","long":"126.94945409","items":[{"name":"옛순대국","tel":"031-227-8787","addr":"경기도 화성시 봉담읍 상리 27-25번지","category":"일반휴게음식 - 일반한식"}]},{"lat":"37.218881918","long":"126.94939895","items":[{"name":"오누이손칼국수수제비","tel":"031-227-1909","addr":"경기도 화성시 봉담읍 상리 23-8번지 1층","category":"일반휴게음식 - 스넥"}]},{"lat":"37.217711567","long":"126.95165308","items":[{"name":"오보느","tel":"","addr":"경기도 화성시 봉담읍 상리 11-111번지 101호","category":"일반휴게음식 - 서양음식"}]},{"lat":"37.217711698","long":"126.95195728","items":[{"name":"오스테리아 노이","tel":"031-111-1111","addr":"경기도 화성시 봉담읍 상리 11-124번지 1층 101호","category":"일반휴게음식 - 일반한식"}]},{"lat":"37.216549371","long":"126.95198059","items":[{"name":"오슬로 (Oslo)","tel":"031-298-0510","addr":"경기도 화성시 봉담읍 상리 11-142번지 1층 102호","category":"일반휴게음식 - 일반한식"},{"name":"킹콩쥬스 (협성대점)","tel":"031-111-1111","addr":"경기도 화성시 봉담읍 상리 11-142번지 101호","category":"일반휴게음식 - 서양음식"}]},{"lat":"37.218910546","long":"126.95306061","items":[{"name":"옹기종기어린이집[아이행복]","tel":"031-278-9651","addr":"경기도 화성시 봉담읍 상리 622-1번지 호수마을동문굿모닝힐아파트 105동 101호","category":"학원 - 유아원"}]},{"lat":"37.220043812","long":"126.94842918","items":[{"name":"우리정육점","tel":"031-000-0000","addr":"경기도 화성시 봉담읍 상리 27-6번지 이안건물 A동","category":"음료식품 - 정육점"}]},{"lat":"37.217018555","long":"126.93526091","items":[{"name":"웃골낚시터","tel":"031-227-7336","addr":"경기도 화성시 봉담읍 상리 384","category":"레저업소 - 기타레져업소"}]},{"lat":"37.219412701","long":"126.94759589","items":[{"name":"위니아서비스 화성점","tel":"","addr":"경기도 화성시 봉담읍 상리 31-8번지 3층","category":"수리서비스 - 가정용품수리"}]},{"lat":"37.215410619","long":"126.94451188","items":[{"name":"은강스포츠 (봉담)","tel":"031-297-1116","addr":"경기도 화성시 봉담읍 상리 459-1번지","category":"의류 - 스포츠의류"}]},{"lat":"37.217468311","long":"126.95170958","items":[{"name":"이영란헤어샵","tel":"031-898-5404","addr":"경기도 화성시 봉담읍 상리 11-53번지 101호 11-53","category":"보건위생 - 미용원"}]},{"lat":"37.217603379","long":"126.95150669","items":[{"name":"정스킨케어","tel":"031-297-7476","addr":"경기도 화성시 봉담읍 상리 11-112번지 1층","category":"보건위생 - 화장품"}]},{"lat":"37.214878289","long":"126.94307023","items":[{"name":"조경나라","tel":"031-297-3084","addr":"경기도 화성시 봉담읍 상리 461-6번지","category":"건축자재 - 인테리어전문"}]},{"lat":"37.222521015","long":"126.94704153","items":[{"name":"주식회사 정우푸드 화성 (봉담점)","tel":"02-581-4095","addr":"경기도 화성시 봉담읍 상리 39-10번지 봉담초등학교 화성봉담2공공주택지구 3-3로트","category":"일반휴게음식 - 위탁급식업"}]},{"lat":"37.225381109","long":"126.93693232","items":[{"name":"주식회사디자인하람봉담점","tel":"031-613-9969","addr":"경기도 화성시 봉담읍 상리 223-2번지 (주)디자인하람","category":"가구 - 일반가구"}]},{"lat":"37.224272306","long":"126.93598682","items":[{"name":"진주숲어린이집[아이행복]","tel":"031-298-2876","addr":"경기도 화성시 봉담읍 상리 258-1번지","category":"학원 - 유아원"}]},{"lat":"37.20657972","long":"126.94304298","items":[{"name":"칠보산업","tel":"031-227-5570","addr":"경기도 화성시 봉담읍 상리 474-8번지","category":"용역 서비스 - 기타용역서비스"}]},{"lat":"37.207994974","long":"126.94429229","items":[{"name":"카페 마리안느","tel":"031-3344-9605","addr":"경기도 화성시 봉담읍 상리 465-6번지 1층","category":"일반휴게음식 - 서양음식"}]},{"lat":"37.217133564","long":"126.94864533","items":[{"name":"커피인센스","tel":"031-296-1337","addr":"경기도 화성시 봉담읍 상리 24-48번지","category":"일반휴게음식 - 서양음식"}]},{"lat":"37.217548211","long":"126.94901683","items":[{"name":"코코헤어샵","tel":"031-227-5877","addr":"경기도 화성시 봉담읍 상리 24번지 24호 , 삼리","category":"보건위생 - 미용원"}]},{"lat":"37.219044392","long":"126.95004104","items":[{"name":"토마토","tel":"031-293-1836","addr":"경기도 화성시 봉담읍 상리 22-58번지 1,2층","category":"일반휴게음식 - 서양음식"}]},{"lat":"37.219106694","long":"126.94833972","items":[{"name":"프라임꿈터어린이집[아이행복]","tel":"031-227-7668","addr":"경기도 화성시 봉담읍 상리 26-4번지","category":"학원 - 유아원"}]},{"lat":"37.216630142","long":"126.95123696","items":[{"name":"플리즈(Please)","tel":"","addr":"경기도 화성시 봉담읍 상리 15-8번지 1층","category":"일반휴게음식 - 서양음식"}]},{"lat":"37.217071889","long":"126.95178871","items":[{"name":"피자알볼로 봉담점","tel":"031-297-8495","addr":"경기도 화성시 봉담읍 상리 11-106번지 우진빌 101호","category":"일반휴게음식 - 서양음식"}]},{"lat":"37.217854985","long":"126.94995174","items":[{"name":"한신음악학원","tel":"031-227-9355","addr":"경기도 화성시 봉담읍 상리 21-19번지 3층 304,305호","category":"학원 - 예·체능계학원"}]},{"lat":"37.217990599","long":"126.95098817","items":[{"name":"해담은어린이집[아이행복]","tel":"031-227-7999","addr":"경기도 화성시 봉담읍 상리 11-60번지","category":"학원 - 유아원"}]},{"lat":"37.219413355","long":"126.94901551","items":[{"name":"화성시니어클럽 노노카페 (봉담도서관점)","tel":"031-8059-4349","addr":"경기도 화성시 봉담읍 상리 27-49번지 4층","category":"일반휴게음식 - 서양음식"}]},{"lat":"37.219909352","long":"126.94996157","items":[{"name":"화성시니어클럽 노노카페 (봉담읍주민센터","tel":"031-8059-4349","addr":"경기도 화성시 봉담읍 상리 27-1번지 봉담읍사무소","category":"일반휴게음식 - 서양음식"}]}]