[{"lat":"37.9950111","long":"127.0259011","items":[{"name":"동일콘크리트","tel":"031-833-0420","addr":"경기도 연천군 전곡읍 양원리 460-1번지 외","category":"건축자재 - 기타건축자재"}]},{"lat":"37.97776037","long":"127.0125677","items":[{"name":"마차산오리구이","tel":"031-832-5925","addr":"경기도 연천군 전곡읍 양원리 784","category":"일반휴게음식 - 일반한식"}]},{"lat":"37.99715276","long":"127.0363985","items":[{"name":"성은콘크리트","tel":"031-834-6888","addr":"경기도 연천군 전곡읍 양원리 361","category":"건축자재 - 기타건축자재"}]},{"lat":"37.96890187","long":"127.0287836","items":[{"name":"숲속의빈터","tel":"031-833-0300","addr":"경기도 연천군 전곡읍 양원리 749번지","category":"음료식품 - 기타음료식품"}]},{"lat":"37.96948735","long":"127.0293414","items":[{"name":"숲속의쉼터","tel":"070-8252-8552","addr":"경기도 연천군 전곡읍 양원리 203번지 202호","category":"숙박업 - 여관/기타숙박업"}]},{"lat":"37.97676041","long":"127.0118164","items":[{"name":"시대주유소","tel":"031-832-9491","addr":"경기도 연천군 전곡읍 양원리 828번지","category":"연료판매점 - SK주유소"},{"name":"태정주유소","tel":"031-832-1482","addr":"경기도 연천군 전곡읍 양원리 828번지","category":"연료판매점 - 현대정유(오일뱅크)"}]},{"lat":"37.98726404","long":"127.0211747","items":[{"name":"양원리식당","tel":"031-833-6900","addr":"경기도 연천군 전곡읍 양원리 660-3번지","category":"일반휴게음식 - 일반한식"}]},{"lat":"37.99731609","long":"127.032061","items":[{"name":"양원현대공업사","tel":"031-833-9266","addr":"경기도 연천군 전곡읍 양원리 380-8번지","category":"자동차정비 유지 - 자동차정비"}]},{"lat":"37.99111975","long":"127.0225417","items":[{"name":"연수구 출장세차","tel":"031-000-0000","addr":"경기도 연천군 전곡읍 양원리 606-1번지","category":"자동차정비 유지 - 세차장"}]},{"lat":"37.98240011","long":"127.0124887","items":[{"name":"웰빙가든","tel":"031-833-3399","addr":"경기도 연천군 전곡읍 양원리 816-6번지","category":"일반휴게음식 - 일반한식"}]},{"lat":"37.97493158","long":"127.0113154","items":[{"name":"한양대리점","tel":"031-833-9400","addr":"경기도 연천군 전곡읍 양원리 828-1번지","category":"자동차정비 유지 - 자동차시트·타이어"}]}]