[{"lat":"37.09798819","long":"127.34694774","items":[{"name":"(재)천주교수원교구유지재단안성추모공원","tel":"031-672-4276","addr":"경기도 안성시 보개면 북가현리 산49-1","category":"일반휴게음식 - 일반한식"}]},{"lat":"37.101821771","long":"127.31959555","items":[{"name":"(주)도현레미콘","tel":"031-675-5070","addr":"경기도 안성시 보개면 북가현리 482-18번지","category":"건축자재 - 기타건축자재"}]},{"lat":"37.11271026","long":"127.32487256","items":[{"name":"구봉정사","tel":"031-674-5547","addr":"경기도 안성시 보개면 북가현리 407번지","category":"기타 - 비영리/대상"}]},{"lat":"37.102652013","long":"127.32247885","items":[{"name":"두리봉","tel":"031-674-8919","addr":"경기도 안성시 보개면 북가현리 466-1번지","category":"일반휴게음식 - 일반한식"}]},{"lat":"37.100404148","long":"127.31045539","items":[{"name":"세븐일레븐안성북가현점","tel":"031-1577-0711","addr":"경기도 안성시 보개면 북가현리 546번지 1층 101~102호","category":"유통업 영리 - 편 의 점"}]},{"lat":"37.10367888","long":"127.31584592","items":[{"name":"안성숯가마","tel":"031-672-3947","addr":"경기도 안성시 보개면 북가현리 489-1번지","category":"연료판매점 - 기타연료"}]},{"lat":"37.09560197","long":"127.33373136","items":[{"name":"주식회사 골프존카운티(안성에이치)","tel":"031-8056-0717","addr":"경기도 안성시 보개면 북가현리 산65-1번지","category":"레저업소 - 골프경기장"}]},{"lat":"37.09896254","long":"127.31042706","items":[{"name":"칠성주유소","tel":"031-674-0055","addr":"경기도 안성시 보개면 북가현리 590-1번지","category":"연료판매점 - SK주유소"}]}]