[{"lat":"37.491349346","long":"127.23497945","items":[{"name":"(주)다나헬스패밀리","tel":"031-111-1111","addr":"경기도 하남시 상산곡동 270-1번지 1층","category":"가구 - 일반가구"},{"name":"OZ스크린골프연습장","tel":"031-793-9919","addr":"경기도 하남시 상산곡동 270-1번지 외1필지 2층","category":"회원제형태 - 레져업소"}]},{"lat":"37.492741331","long":"127.23269961","items":[{"name":"(주)다름푸드","tel":"031-793-5284","addr":"경기도 하남시 상산곡동 166-1번지 2층","category":"음료식품 - 정육점"}]},{"lat":"37.49807907","long":"127.23070305","items":[{"name":"(주)바노/원격지","tel":"02-400-5380","addr":"경기도 하남시 상산곡동 71-2번지","category":"기타 - 기타 전문점"}]},{"lat":"37.492353642","long":"127.23283411","items":[{"name":"7004임업","tel":"031-791-7400","addr":"경기도 하남시 상산곡동 167-3","category":"건축자재 - 목재·석재·철물"}]},{"lat":"37.492829644","long":"127.2336158","items":[{"name":"GS25하남산곡점","tel":"02-2006-2118","addr":"경기도 하남시 상산곡동 164-10번지 1층","category":"유통업 영리 - 편 의 점"},{"name":"형제자동차공업사","tel":"031-793-7845","addr":"경기도 하남시 상산곡동 164-10번지","category":"자동차정비 유지 - 자동차정비"}]},{"lat":"37.496487673","long":"127.23361574","items":[{"name":"VIP렌탈","tel":"031-795-2763","addr":"경기도 하남시 상산곡동 116번지","category":"기타 - 기타 전문점"},{"name":"경기렌탈","tel":"031-794-2466","addr":"경기도 하남시 상산곡동 116번지","category":"직물 - 카페트,커튼,천막,지물"}]},{"lat":"37.490133124","long":"127.23491915","items":[{"name":"강가","tel":"031-793-5905","addr":"경기도 하남시 상산곡동 279-11번지","category":"일반휴게음식 - 일반한식"},{"name":"비비나인","tel":"031-794-1995","addr":"경기도 하남시 상산곡동 279-11번지 지1층,1층 101호","category":"건축자재 - 건축용 요업제품"}]},{"lat":"37.492604177","long":"127.23372818","items":[{"name":"강계봉진막국수","tel":"031-793-8326","addr":"경기도 하남시 상산곡동 164-24번지","category":"일반휴게음식 - 일반한식"}]},{"lat":"37.49651791","long":"127.22247721","items":[{"name":"강북특장","tel":"070-8880-6992","addr":"경기도 하남시 상산곡동 594-1번지 외1필지","category":"자동차정비 유지 - 자동차부품"}]},{"lat":"37.496022504","long":"127.23189547","items":[{"name":"강원가든","tel":"031-792-1580","addr":"경기도 하남시 상산곡동 135-7번지","category":"일반휴게음식 - 일반한식"}]},{"lat":"37.494966086","long":"127.23305697","items":[{"name":"경복궁노인전문요양원","tel":"031-795-6005","addr":"경기도 하남시 상산곡동 157-21 157-22","category":"기타의료기관 - 기타의료기관 및 기타"}]},{"lat":"37.496074784","long":"127.23281159","items":[{"name":"경순국수마을","tel":"031-791-9199","addr":"경기도 하남시 상산곡동 141-6번지 1층","category":"일반휴게음식 - 일반한식"}]},{"lat":"37.491435451","long":"127.23700376","items":[{"name":"고려기기(주)","tel":"031-793-1044","addr":"경기도 하남시 상산곡동 202-3번지","category":"서적문구 - 과학기자재"}]},{"lat":"37.496876772","long":"127.23275751","items":[{"name":"고촌방민속품","tel":"031-793-4426","addr":"경기도 하남시 상산곡동 119-13번지","category":"문화.취미 - 민예·공예품"},{"name":"이레민속품","tel":"031-793-7984","addr":"경기도 하남시 상산곡동 119-13번지","category":"신변잡화 - 기념품점"}]},{"lat":"37.490632676","long":"127.23745355","items":[{"name":"금산실업","tel":"031-792-7141","addr":"경기도 하남시 상산곡동 205번지","category":"직물 - 침구·수예점"}]},{"lat":"37.489715059","long":"127.23674963","items":[{"name":"나의부엌","tel":"031-793-2794","addr":"경기도 하남시 상산곡동 292-2번지","category":"주방용구 - 주방용구"}]},{"lat":"37.492965543","long":"127.23323176","items":[{"name":"노인전문요양원효덕","tel":"031-796-8700","addr":"경기도 하남시 상산곡동 165번지","category":"기타의료기관 - 기타의료기관 및 기타"},{"name":"노인전문요양원효덕","tel":"031-796-8700","addr":"경기도 하남시 상산곡동 165번지","category":"기타의료기관 - 기타의료기관 및 기타"}]},{"lat":"37.494100146","long":"127.23356317","items":[{"name":"다인우드","tel":"031-795-5833","addr":"경기도 하남시 상산곡동 157-6번지","category":"건축자재 - 기타건축자재"},{"name":"삼익가구 하남점","tel":"031-791-1237","addr":"경기도 하남시 상산곡동 157-6번지","category":"가구 - 일반가구"}]},{"lat":"37.497994562","long":"127.22778521","items":[{"name":"대선피부이씨 (주)","tel":"031-792-9841","addr":"경기도 하남시 상산곡동 552번지","category":"건축자재 - 기타건축자재"}]},{"lat":"37.486524218","long":"127.23741809","items":[{"name":"대영(    )철강","tel":"031-794-6566","addr":"경기도 하남시 상산곡동 319-5번지","category":"건축자재 - 목재·석재·철물"}]},{"lat":"37.489300021","long":"127.23245161","items":[{"name":"대진코리아","tel":"031-795-1514","addr":"경기도 하남시 상산곡동 497-2번지","category":"건축자재 - 보일러·펌프·샷시"}]},{"lat":"37.489907655","long":"127.23503153","items":[{"name":"대평세라믹스산업","tel":"031-795-1314","addr":"경기도 하남시 상산곡동 282-1번지","category":"건축자재 - 기타건축자재"}]},{"lat":"37.48426847","long":"127.23450529","items":[{"name":"더라이프스토리","tel":"031-795-1545","addr":"경기도 하남시 상산곡동 440번지","category":"용역 서비스 - 종합용역"}]},{"lat":"37.485991962","long":"127.23775562","items":[{"name":"동명종합철강(주)","tel":"031-795-5464","addr":"경기도 하남시 상산곡동 319-2번지","category":"건축자재 - 기타건축자재"},{"name":"수소k뷰티","tel":"031-795-6090","addr":"경기도 하남시 상산곡동 319-2번지 2층 206호","category":"보건위생 - 화장품"},{"name":"오병이어","tel":"031-796-7009","addr":"경기도 하남시 상산곡동 319-2번지 1층","category":"일반휴게음식 - 일반한식"}]},{"lat":"37.490383041","long":"127.2361185","items":[{"name":"동부농자재","tel":"031-791-3721","addr":"경기도 하남시 상산곡동 285","category":"농업 - 농기계"}]},{"lat":"37.495960201","long":"127.23149949","items":[{"name":"동부어닝","tel":"031-792-3119","addr":"경기도 하남시 상산곡동 131-9번지","category":"직물 - 카페트,커튼,천막,지물"}]},{"lat":"37.489211798","long":"127.2406151","items":[{"name":"동산농원","tel":"031-795-2602","addr":"경기도 하남시 상산곡동 215-1번지","category":"문화.취미 - 화원"}]},{"lat":"37.494661158","long":"127.23233232","items":[{"name":"동서가구하남점","tel":"031-794-2668","addr":"경기도 하남시 상산곡동 161-44번지","category":"가구 - 일반가구"}]},{"lat":"37.4966561","long":"127.2303934","items":[{"name":"동수교슈퍼","tel":"031-793-8487","addr":"경기도 하남시 상산곡동 127-18번지","category":"유통업 영리 - 슈퍼마켓"}]},{"lat":"37.502102579","long":"127.23272829","items":[{"name":"돼지마을(아리랑바베큐)","tel":"031-793-9249","addr":"경기도 하남시 상산곡동 15번지","category":"음료식품 - 기타음료식품"}]},{"lat":"37.490877035","long":"127.23230944","items":[{"name":"드림","tel":"031-791-5918","addr":"경기도 하남시 상산곡동 503-1번지","category":"신변잡화 - 기타잡화"}]},{"lat":"37.49762707","long":"127.23148196","items":[{"name":"드림하우징협동조합","tel":"02-420-9830","addr":"경기도 하남시 상산곡동 122-2번지","category":"건축자재 - 인테리어전문"}]},{"lat":"37.489578095","long":"127.23308567","items":[{"name":"리가","tel":"031-794-8814","addr":"경기도 하남시 상산곡동 495-2번지","category":"주방용구 - 기타주방용구"}]},{"lat":"37.489573356","long":"127.23550539","items":[{"name":"리가디자인","tel":"031-264-9999","addr":"경기도 하남시 상산곡동 282-10번지","category":"직물 - 침구·수예점"}]},{"lat":"37.491719039","long":"127.2348336","items":[{"name":"마포갈비","tel":"031-795-1202","addr":"경기도 하남시 상산곡동 262-1번지","category":"일반휴게음식 - 일반한식"}]},{"lat":"37.492352121","long":"127.23361433","items":[{"name":"만경두부마을","tel":"02-1111-1111","addr":"경기도 하남시 상산곡동 164-27번지","category":"일반휴게음식 - 일반한식"}]},{"lat":"37.477050163","long":"127.23972868","items":[{"name":"만두집","tel":"031-794-3122","addr":"경기도 하남시 상산곡동 391-2번지","category":"일반휴게음식 - 일반한식"}]},{"lat":"37.495439915","long":"127.23494688","items":[{"name":"먹거리장터","tel":"031-796-0653","addr":"경기도 하남시 상산곡동 145-3번지","category":"음료식품 - 제과점"}]},{"lat":"37.491935764","long":"127.2345855","items":[{"name":"메밀생각봉평막국수","tel":"031-792-4196","addr":"경기도 하남시 상산곡동 262번지 1층","category":"일반휴게음식 - 일반한식"}]},{"lat":"37.490822712","long":"127.23244496","items":[{"name":"메타트레이딩","tel":"070-4225-0300","addr":"경기도 하남시 상산곡동 503-28번지","category":"레져용품 - 스포츠·레져용품"}]},{"lat":"37.48302521","long":"127.23900133","items":[{"name":"명성가구마을","tel":"031-793-2224","addr":"경기도 하남시 상산곡동 413-6번지","category":"가구 - 일반가구"}]},{"lat":"37.490690981","long":"127.23530533","items":[{"name":"명품선산갤러리","tel":"031-794-7848","addr":"경기도 하남시 상산곡동 273-13번지","category":"가구 - 일반가구"}]},{"lat":"37.484718073","long":"127.23950414","items":[{"name":"무량사","tel":"031-793-9577","addr":"경기도 하남시 상산곡동 335-4번지","category":"기타 - 기타 전문점"}]},{"lat":"37.486659925","long":"127.22786429","items":[{"name":"미스터변이","tel":"031-793-0703","addr":"경기도 하남시 상산곡동 670-8번지","category":"문화.취미 - 화원"}]},{"lat":"37.490746395","long":"127.23461575","items":[{"name":"벌봉돈까스","tel":"031-795-3863","addr":"경기도 하남시 상산곡동 273-1번지 1층","category":"일반휴게음식 - 일반한식"},{"name":"사단법인 한국아동청소년안전교육협회 경기","tel":"02-2272-1312","addr":"경기도 하남시 상산곡동 273-1번지 203호","category":"학원 - 기타 교육기관"},{"name":"서령장묘센터","tel":"031-767-0555","addr":"경기도 하남시 상산곡동 273-1번지 202호","category":"용역 서비스 - 가례서비스업"},{"name":"아름다운집","tel":"031-796-3728","addr":"경기도 하남시 상산곡동 273-1번지","category":"가구 - 일반가구"},{"name":"이팝커피","tel":"031-793-9667","addr":"경기도 하남시 상산곡동 273-1번지 청담빌딩 101호","category":"일반휴게음식 - 서양음식"}]},{"lat":"37.491130126","long":"127.24100564","items":[{"name":"벧엘자동차정비기기","tel":"070-8833-9987","addr":"경기도 하남시 상산곡동 213번지","category":"기타 - 기계공구"}]},{"lat":"37.496654289","long":"127.23133199","items":[{"name":"비엔에프에스피(B&F SP)","tel":"031-793-3362","addr":"경기도 하남시 상산곡동 127-13번지","category":"음료식품 - 농·축·수산품"}]},{"lat":"37.489382514","long":"127.23172821","items":[{"name":"빛나조명 유한회사","tel":"","addr":"경기도 하남시 상산곡동 498-6번지","category":"건축자재 - 조명기구"}]},{"lat":"37.49188279","long":"127.23403127","items":[{"name":"산곡민물매운탕어탕칼국수","tel":"031-793-9292","addr":"경기도 하남시 상산곡동 265-1번지 1층","category":"일반휴게음식 - 일반한식"}]},{"lat":"37.49987912","long":"127.23170369","items":[{"name":"산곡주유소","tel":"031-793-5184","addr":"경기도 하남시 상산곡동 70-7번지","category":"연료판매점 - SK주유소"}]},{"lat":"37.490439726","long":"127.23478441","items":[{"name":"산곡휴게소","tel":"031-793-0686","addr":"경기도 하남시 상산곡동 278-8번지","category":"유통업 영리 - 슈퍼마켓"}]},{"lat":"37.502848567","long":"127.23366924","items":[{"name":"산골뜰안집","tel":"031-792-1507","addr":"경기도 하남시 상산곡동 13-20번지 1층","category":"일반휴게음식 - 일반한식"}]},{"lat":"37.486659451","long":"127.22811304","items":[{"name":"산내들육종원(연구소)","tel":"031-793-0703","addr":"경기도 하남시 상산곡동 670-1번지","category":"문화.취미 - 화원"}]},{"lat":"37.496769533","long":"127.23230485","items":[{"name":"삼시세끼밥상","tel":"031-793-4405","addr":"경기도 하남시 상산곡동 121-1번지 1층","category":"일반휴게음식 - 일반한식"}]},{"lat":"37.493940039","long":"127.23249974","items":[{"name":"상민테크","tel":"031-793-3767","addr":"경기도 하남시 상산곡동 161-15번지","category":"기타 - 기계공구"}]},{"lat":"37.486656485","long":"127.23886577","items":[{"name":"상상트리주식회사","tel":"031-793-3862","addr":"경기도 하남시 상산곡동 322번지","category":"가구 - 일반가구"}]},{"lat":"37.496383008","long":"127.23184003","items":[{"name":"상일가구","tel":"031-793-2678","addr":"경기도 하남시 상산곡동 127-20번지","category":"가구 - 일반가구"}]},{"lat":"37.485469007","long":"127.2379462","items":[{"name":"상진가구백화점","tel":"031-795-1777","addr":"경기도 하남시 상산곡동 328-2번지","category":"가구 - 일반가구"}]},{"lat":"37.497743081","long":"127.22736604","items":[{"name":"새능유통","tel":"031-792-2142","addr":"경기도 하남시 상산곡동 562-3번지","category":"음료식품 - 농·축·수산품"}]},{"lat":"37.485990138","long":"127.23867146","items":[{"name":"새신기업","tel":"031-794-6945","addr":"경기도 하남시 상산곡동 325-1번지","category":"용역 서비스 - 가례서비스업"},{"name":"유림하우징","tel":"031-791-7742","addr":"경기도 하남시 상산곡동 325-1번지","category":"건축자재 - 기타건축자재"}]},{"lat":"37.496072154","long":"127.22950959","items":[{"name":"성운기획","tel":"031-795-2700","addr":"경기도 하남시 상산곡동 542-6번지","category":"신변잡화 - 기타잡화"}]},{"lat":"37.495770293","long":"127.23186078","items":[{"name":"세븐일레븐하남상산곡본점","tel":"02-3284-8168","addr":"경기도 하남시 상산곡동 135-3번지 1층 101호","category":"유통업 영리 - 편 의 점"}]},{"lat":"37.48880243","long":"127.23350165","items":[{"name":"세븐캐노피 (SEVEN CNOPY)","tel":"031-793-9325","addr":"경기도 하남시 상산곡동 487-3번지","category":"직물 - 카페트,커튼,천막,지물"}]},{"lat":"37.487913808","long":"127.24089367","items":[{"name":"세현푸드","tel":"031-792-8466","addr":"경기도 하남시 상산곡동 305-5번지","category":"음료식품 - 미곡상"}]},{"lat":"37.503659359","long":"127.23828594","items":[{"name":"숲길FORESTWAY","tel":"070-4649-1101","addr":"경기도 하남시 상산곡동 2-5번지 1층","category":"일반휴게음식 - 일반한식"}]},{"lat":"37.496300405","long":"127.23262004","items":[{"name":"스카트자동차공업사","tel":"031-793-9469","addr":"경기도 하남시 상산곡동 137-1번지","category":"자동차정비 유지 - 자동차정비"},{"name":"착한타이어","tel":"031-793-9469","addr":"경기도 하남시 상산곡동 137-1번지","category":"자동차정비 유지 - 자동차시트·타이어"}]},{"lat":"37.491049883","long":"127.23606404","items":[{"name":"시티스크린골프존","tel":"031-792-0077","addr":"경기도 하남시 상산곡동 258-4번지 2층","category":"레저업소 - 스크린골프"}]},{"lat":"37.496496042","long":"127.23394371","items":[{"name":"쓰리스타버티칼","tel":"031-794-8488","addr":"경기도 하남시 상산곡동 115-8번지","category":"직물 - 카페트,커튼,천막,지물"}]},{"lat":"37.500131352","long":"127.23172708","items":[{"name":"아트앤크레프트(ART N CRAFT)","tel":"031-796-1484","addr":"경기도 하남시 상산곡동 70-15번지","category":"가구 - 일반가구"}]},{"lat":"37.482240672","long":"127.23933804","items":[{"name":"약수터주유소","tel":"031-793-1355","addr":"경기도 하남시 상산곡동 412-2번지","category":"연료판매점 - 쌍용S-OIL"}]},{"lat":"37.493162148","long":"127.23405782","items":[{"name":"엘엔엔무역","tel":"031-793-8984","addr":"경기도 하남시 상산곡동 171-1번지","category":"가구 - 일반가구"}]},{"lat":"37.503546761","long":"127.23600111","items":[{"name":"영진산업","tel":"02-479-4161","addr":"경기도 하남시 상산곡동 4-2번지","category":"건축자재 - 기타건축자재"}]},{"lat":"37.488991748","long":"127.2334457","items":[{"name":"오앤씨","tel":"031-793-3119","addr":"경기도 하남시 상산곡동 488번지 1층","category":"의류 - 아동의류"}]},{"lat":"37.502103502","long":"127.23225331","items":[{"name":"오채 (O Chea)","tel":"031-794-1133","addr":"경기도 하남시 상산곡동 19-8번지","category":"음료식품 - 정육점"}]},{"lat":"37.490072467","long":"127.23825461","items":[{"name":"올인올테크 주식회사","tel":"031-793-7417","addr":"경기도 하남시 상산곡동 209번지","category":"기타 - 기계공구"}]},{"lat":"37.495491513","long":"127.23158853","items":[{"name":"우성퍼니처","tel":"031-794-6860","addr":"경기도 하남시 상산곡동 159번지","category":"주방용구 - 주방용구"}]},{"lat":"37.488740707","long":"127.24189131","items":[{"name":"우진프레임","tel":"02-415-0008","addr":"경기도 하남시 상산곡동 240번지","category":"용역 서비스 - 종합용역"}]},{"lat":"37.497323446","long":"127.22534059","items":[{"name":"원음국악기","tel":"031-791-1851","addr":"경기도 하남시 상산곡동 567-18번지","category":"레져용품 - 악기점"}]},{"lat":"37.493910405","long":"127.22442583","items":[{"name":"유니마스타강동","tel":"","addr":"경기도 하남시 상산곡동 산332-2번지","category":"주방용구 - 주방용구"}]},{"lat":"37.491851069","long":"127.23641706","items":[{"name":"유레카산업","tel":"031-793-0405","addr":"경기도 하남시 상산곡동 198-2번지","category":"보건위생 - 의료용품"}]},{"lat":"37.496076081","long":"127.23214441","items":[{"name":"유병주가구","tel":"031-795-9616","addr":"경기도 하남시 상산곡동 135-5 외2필지","category":"가구 - 일반가구"}]},{"lat":"37.487718837","long":"127.23927616","items":[{"name":"유성비니루","tel":"031-794-5505","addr":"경기도 하남시 상산곡동 311번지","category":"기타 - 기타 전문점"}]},{"lat":"37.496932829","long":"127.23172862","items":[{"name":"이레자동차공업사","tel":"031-796-7414","addr":"경기도 하남시 상산곡동 122-4번지","category":"자동차정비 유지 - 자동차정비"},{"name":"하남안전잡철물건설자재","tel":"031-796-9036","addr":"경기도 하남시 상산곡동 122-4번지","category":"건축자재 - 목재·석재·철물"}]},{"lat":"37.485185457","long":"127.23553702","items":[{"name":"이영숙 임대","tel":"","addr":"경기도 하남시 상산곡동 436번지","category":"용역 서비스 - 부동산 중개·임대"}]},{"lat":"37.478882206","long":"127.24269653","items":[{"name":"정텐트","tel":"031-794-1012","addr":"경기도 하남시 상산곡동 371-6번지","category":"직물 - 카페트,커튼,천막,지물"}]},{"lat":"37.492524059","long":"127.2332304","items":[{"name":"제이케이세라믹스","tel":"031-791-0027","addr":"경기도 하남시 상산곡동 166-7번지","category":"건축자재 - 기타건축자재"}]},{"lat":"37.495103454","long":"127.23191528","items":[{"name":"제일교육","tel":"02-486-2224","addr":"경기도 하남시 상산곡동 161-9번지","category":"회원제형태 - 서적"}]},{"lat":"37.49702255","long":"127.22722818","items":[{"name":"좋은산업","tel":"031-796-9925","addr":"경기도 하남시 상산곡동 567-4번지 101호","category":"건축자재 - 기타건축자재"},{"name":"케이엠케이렌탈","tel":"031-796-8977","addr":"경기도 하남시 상산곡동 567-4번지","category":"가구 - 기타가구"}]},{"lat":"37.497906288","long":"127.23152804","items":[{"name":"주식회사 벙커컴퍼니","tel":"031-795-1456","addr":"경기도 하남시 상산곡동 123번지 1,2층","category":"음료식품 - 기타음료식품"}]},{"lat":"37.487996784","long":"127.23542136","items":[{"name":"주식회사명가푸드","tel":"031-795-7187","addr":"경기도 하남시 상산곡동 479-1번지 1층","category":"음료식품 - 정육점"}]},{"lat":"37.493656427","long":"127.23470389","items":[{"name":"주식회사송림","tel":"031-793-1815","addr":"경기도 하남시 상산곡동 175-4번지","category":"일반휴게음식 - 일반한식"}]},{"lat":"37.494409781","long":"127.23186793","items":[{"name":"중부농업협동조합","tel":"031-764-8696","addr":"경기도 하남시 상산곡동 161-33","category":"유통업 비영리 - 농,축협 직영매장"}]},{"lat":"37.48043779","long":"127.23978459","items":[{"name":"청솔","tel":"031-793-3326","addr":"경기도 하남시 상산곡동 409-1번지","category":"일반휴게음식 - 일반한식"}]},{"lat":"37.496462912","long":"127.23245092","items":[{"name":"청정하남주유소","tel":"031-793-4088","addr":"경기도 하남시 상산곡동 137-5번지","category":"연료판매점 - GS주유소"}]},{"lat":"37.494961918","long":"127.23055789","items":[{"name":"청학주방","tel":"031-793-3361","addr":"경기도 하남시 상산곡동 515번지","category":"주방용구 - 주방용구"}]},{"lat":"37.496882962","long":"127.22480779","items":[{"name":"카라반코리아","tel":"070-4922-1261","addr":"경기도 하남시 상산곡동 567-22번지","category":"직물 - 카페트,커튼,천막,지물"}]},{"lat":"37.493161705","long":"127.23428398","items":[{"name":"카페오마르","tel":"031-793-1755","addr":"경기도 하남시 상산곡동 172-1번지","category":"일반휴게음식 - 서양음식"}]},{"lat":"37.494740663","long":"127.23314674","items":[{"name":"태양종합공구","tel":"031-791-0942","addr":"경기도 하남시 상산곡동 157-15번지","category":"건축자재 - 목재·석재·철물"}]},{"lat":"37.487352546","long":"127.24220348","items":[{"name":"투웰브영어영농조합","tel":"031-792-0170","addr":"경기도 하남시 상산곡동 307-4번지 외5필지(307-5,307-6,307-8,307-9,307-10)","category":"음료식품 - 농·축·수산품"}]},{"lat":"37.494738941","long":"127.23402876","items":[{"name":"파이프750","tel":"070-4667-5294","addr":"경기도 하남시 상산곡동 156-4번지","category":"기타 - 기계공구"}]},{"lat":"37.493714353","long":"127.2327252","items":[{"name":"푸드앤머신","tel":"031-793-3766","addr":"경기도 하남시 상산곡동 164-4번지","category":"주방용구 - 주방용구"},{"name":"현미박사","tel":"031-793-3766","addr":"경기도 하남시 상산곡동 164-4번지","category":"음료식품 - 기타음료식품"}]},{"lat":"37.499383971","long":"127.23149862","items":[{"name":"하남가스충전소/주식회사브룩사이드","tel":"031-794-4824","addr":"경기도 하남시 상산곡동 70-1번지","category":"연료판매점 - SK가스충전소"}]},{"lat":"37.495631028","long":"127.23397497","items":[{"name":"하남장애인직업재활센터","tel":"031-794-2340","addr":"경기도 하남시 상산곡동 144-2번지","category":"신변잡화 - 기타잡화"}]},{"lat":"37.485267258","long":"127.23517546","items":[{"name":"해담","tel":"031-794-7136","addr":"경기도 하남시 상산곡동 437-2번지 1층","category":"음료식품 - 농·축·수산품"}]},{"lat":"37.496131651","long":"127.23136432","items":[{"name":"헬스웨이","tel":"031-793-5137","addr":"경기도 하남시 상산곡동 131-8번지","category":"레져용품 - 스포츠·레져용품"}]},{"lat":"37.494575877","long":"127.23448058","items":[{"name":"현대가구","tel":"02-471-1945","addr":"경기도 하남시 상산곡동 155-1번지","category":"가구 - 일반가구"}]},{"lat":"37.49291177","long":"127.23308459","items":[{"name":"효덕노인전문요양원","tel":"031-796-8700","addr":"경기도 하남시 상산곡동 165-1번지","category":"기타의료기관 - 기타의료기관 및 기타"}]}]