[{"lat":"37.792098427","long":"127.47225472","items":[{"name":"(주)가남환경","tel":"031-581-3813","addr":"경기도 가평군 가평읍 상색리 348-1","category":"용역 서비스 - 종합용역"}]},{"lat":"37.80385134","long":"127.48669299","items":[{"name":"(주)가평고속관광","tel":"031-581-5544","addr":"경기도 가평군 가평읍 상색리 171-27번지","category":"여행 - 관광여행"}]},{"lat":"37.797735133","long":"127.48199799","items":[{"name":"(주)오일유업","tel":"031-581-4545","addr":"경기도 가평군 가평읍 상색리 273-3번지","category":"연료판매점 - GS주유소"},{"name":"가평군농협하나로주유소","tel":"031-584-2871","addr":"경기도 가평군 가평읍 상색리 271-3번지 가평군농협주유소","category":"연료판매점 - 주유소"},{"name":"오일유업","tel":"031-581-4545","addr":"경기도 가평군 가평읍 상색리 273-3번지","category":"연료판매점 - GS주유소"}]},{"lat":"37.796962375","long":"127.48149343","items":[{"name":"(주)오일유업경춘LPG충전소","tel":"031-581-2040","addr":"경기도 가평군 가평읍 상색리 280번지","category":"연료판매점 - GS 가스충전소"}]},{"lat":"37.7944878","long":"127.47852558","items":[{"name":"(주)카브루","tel":"02-3143-4082","addr":"경기도 가평군 가평읍 상색리 332-1번지 2층","category":"일반휴게음식 - 주점"}]},{"lat":"37.802318037","long":"127.48491167","items":[{"name":"HS농자재","tel":"031-581-0338","addr":"경기도 가평군 가평읍 상색리 109-1","category":"농업 - 비료,사료,종자"},{"name":"주식회사 세은","tel":"031-581-0338","addr":"경기도 가평군 가평읍 상색리 109-1번지","category":"농업 - 기타농업관련"}]},{"lat":"37.798044258","long":"127.4813074","items":[{"name":"가평군농업협동조합장례문화센터","tel":"031-581-4442","addr":"경기도 가평군 가평읍 상색리 269-1번지","category":"용역 서비스 - 가례서비스업"}]},{"lat":"37.824512795","long":"127.51580216","items":[{"name":"가평군산림조합","tel":"031-582-2207","addr":"경기도 가평군 가평읍 상색리 413-1번지","category":"유통업 비영리 - 기타비영리유통"}]},{"lat":"37.794873458","long":"127.47672284","items":[{"name":"가평군산림조합임산물유통사업소","tel":"031-582-2207","addr":"경기도 가평군 가평읍 상색리 413-1","category":"건축자재 - 목재·석재·철물"},{"name":"사단법인 가평잣협회","tel":"031-581-0877","addr":"경기도 가평군 가평읍 상색리 413-1번지 가평군산림조합 2층 201호","category":"음료식품 - 농·축·수산품"}]},{"lat":"37.798375244","long":"127.48188859","items":[{"name":"가평농업협동조합-하나로주유소","tel":"031-582-2871","addr":"경기도 가평군 가평읍 상색리 271-3번지","category":"연료판매점 - 주유소"}]},{"lat":"37.803346129","long":"127.48686002","items":[{"name":"가평제일종합타이어","tel":"031-584-3010","addr":"경기도 가평군 가평읍 상색리 169-7","category":"자동차정비 유지 - 자동차시트·타이어"}]},{"lat":"37.796234386","long":"127.47883197","items":[{"name":"금강막국수웰빙식당","tel":"031-581-8039","addr":"경기도 가평군 가평읍 상색리 314-1번지","category":"일반휴게음식 - 일반한식"},{"name":"세븐일레븐가평휴게소점","tel":"031-1577-0711","addr":"경기도 가평군 가평읍 상색리 314-1번지","category":"유통업 영리 - 편 의 점"},{"name":"소뚜레 (가마솥)","tel":"031-000-0000","addr":"경기도 가평군 가평읍 상색리 314-1번지 1층","category":"일반휴게음식 - 일반한식"},{"name":"우리농산물","tel":"031-000-0000","addr":"경기도 가평군 가평읍 상색리 314-1번지","category":"음료식품 - 농·축·수산품"}]},{"lat":"37.80351595","long":"127.48719042","items":[{"name":"금강산식당","tel":"031-582-1117","addr":"경기도 가평군 가평읍 상색리 171-12번지","category":"일반휴게음식 - 일반한식"}]},{"lat":"37.801849359","long":"127.48275126","items":[{"name":"꽃마차플라워","tel":"033-251-1936","addr":"경기도 가평군 가평읍 상색리 238-6","category":"문화.취미 - 화원"}]},{"lat":"37.799625303","long":"127.47575402","items":[{"name":"농업회사법인 조흥미가식품/농업회사법인","tel":"031-1899-3818","addr":"경기도 가평군 가평읍 상색리 452번지","category":"음료식품 - 기타음료식품"},{"name":"미가푸드","tel":"031-582-9696","addr":"경기도 가평군 가평읍 상색리 452번지","category":"음료식품 - 기타음료식품"},{"name":"미가푸드","tel":"031-582-9696","addr":"경기도 가평군 가평읍 상색리 452번지 2층","category":"음료식품 - 기타음료식품"}]},{"lat":"37.798818581","long":"127.48363998","items":[{"name":"농업회사법인참사람들주식회사","tel":"031-000-0000","addr":"경기도 가평군 가평읍 상색리 32-4번지","category":"음료식품 - 농·축·수산품"}]},{"lat":"37.803287965","long":"127.48785886","items":[{"name":"니드썸레스트(NEED SOME REST)","tel":"","addr":"경기도 가평군 가평읍 상색리 171-16번지","category":"일반휴게음식 - 서양음식"},{"name":"현대가구산업","tel":"031-582-2760","addr":"경기도 가평군 가평읍 상색리 171-16번지","category":"가구 - 일반가구"}]},{"lat":"37.798207489","long":"127.47658518","items":[{"name":"동신종합목재@오컴즈","tel":"031-581-4970","addr":"경기도 가평군 가평읍 상색리 442-1번지","category":"건축자재 - 목재·석재·철물"}]},{"lat":"37.796933816","long":"127.47741723","items":[{"name":"들뫼향","tel":"031-581-9767","addr":"경기도 가평군 가평읍 상색리 447","category":"학원 - 기타 교육기관"}]},{"lat":"37.801121859","long":"127.47325423","items":[{"name":"루엔팬션","tel":"031-582-9877","addr":"경기도 가평군 가평읍 상색리 478-9번지","category":"숙박업 - 여관/기타숙박업"}]},{"lat":"37.802401195","long":"127.48660405","items":[{"name":"명원산업봉구네핫도그","tel":"","addr":"경기도 가평군 가평읍 상색리 96-11번지","category":"일반휴게음식 - 서양음식"}]},{"lat":"37.795875578","long":"127.47844364","items":[{"name":"무지개주유소","tel":"031-581-2280","addr":"경기도 가평군 가평읍 상색리 314-2번지","category":"연료판매점 - 주유소"},{"name":"주식회사오일릭","tel":"031-581-2280","addr":"경기도 가평군 가평읍 상색리 314-2번지","category":"연료판매점 - 쌍용S-OIL"}]},{"lat":"37.799346571","long":"127.48230361","items":[{"name":"봉화전","tel":"031-581-5221","addr":"경기도 가평군 가평읍 상색리 254-4번지","category":"일반휴게음식 - 일반한식"}]},{"lat":"37.803740011","long":"127.48747575","items":[{"name":"산수민박","tel":"031-582-8623","addr":"경기도 가평군 가평읍 상색리 171-3번지","category":"숙박업 - 여관/기타숙박업"}]},{"lat":"37.805183131","long":"127.48488487","items":[{"name":"상색초등학교","tel":"031-582-4845","addr":"경기도 가평군 가평읍 상색리 171-2번지 상색초등학교","category":"학원 - 초중고교육기관"}]},{"lat":"37.80287874","long":"127.484393","items":[{"name":"상일리베가구가평대리점","tel":"031-581-3161","addr":"경기도 가평군 가평읍 상색리 104-3번지","category":"가구 - 일반가구"},{"name":"태봉편의점","tel":"031-581-0861","addr":"경기도 가평군 가평읍 상색리 104-3번지","category":"유통업 영리 - 편 의 점"}]},{"lat":"37.794985777","long":"127.47791568","items":[{"name":"성지철망휀스(주)","tel":"031-581-0187","addr":"경기도 가평군 가평읍 상색리 318-5번지","category":"건축자재 - 목재·석재·철물"}]},{"lat":"37.798040428","long":"127.48224975","items":[{"name":"세븐일레븐가평자전거테마파크점","tel":"","addr":"경기도 가평군 가평읍 상색리 273-10번지 101호","category":"유통업 영리 - 편 의 점"}]},{"lat":"37.799067379","long":"127.4822791","items":[{"name":"손짜장마을","tel":"031-581-8582","addr":"경기도 가평군 가평읍 상색리 252-2번지","category":"일반휴게음식 - 중국식"},{"name":"시골밥상","tel":"031-582-9809","addr":"경기도 가평군 가평읍 상색리 254-3번지","category":"일반휴게음식 - 일반한식"},{"name":"시골밥상","tel":"031-582-9809","addr":"경기도 가평군 가평읍 상색리 254-3번지","category":"일반휴게음식 - 일반한식"}]},{"lat":"37.799761223","long":"127.48224952","items":[{"name":"손짜장마을","tel":"031-581-8582","addr":"경기도 가평군 가평읍 상색리 252-2번지","category":"일반휴게음식 - 중국식"}]},{"lat":"37.795934054","long":"127.47957939","items":[{"name":"에이티에스","tel":"02-0000-0000","addr":"경기도 가평군 가평읍 상색리 311번지","category":"문화.취미 - 수족관"}]},{"lat":"37.801069163","long":"127.47291326","items":[{"name":"올리브나무사이로","tel":"031-581-3080","addr":"경기도 가평군 가평읍 상색리 478-7번지","category":"일반휴게음식 - 서양음식"}]},{"lat":"37.804238407","long":"127.486775","items":[{"name":"우리슈퍼","tel":"031-582-1980","addr":"경기도 가평군 가평읍 상색리 171-14번지","category":"유통업 영리 - 슈퍼마켓"},{"name":"제일부품","tel":"031-581-0448","addr":"경기도 가평군 가평읍 상색리 171-14번지","category":"자동차정비 유지 - 자동차부품"}]},{"lat":"37.804517597","long":"127.48679954","items":[{"name":"우리자동차운전전문학원(주)","tel":"031-582-0769","addr":"경기도 가평군 가평읍 상색리 171-38번지","category":"학원 - 기능학원"}]},{"lat":"37.804125341","long":"127.48358354","items":[{"name":"원식품","tel":"031-581-9187","addr":"경기도 가평군 가평읍 상색리 182번지","category":"음료식품 - 기타음료식품"}]},{"lat":"37.795517318","long":"127.47791908","items":[{"name":"잘타장작","tel":"031-581-0951","addr":"경기도 가평군 가평읍 상색리 315-1번지 산 74ㅡ2","category":"연료판매점 - 기타연료"},{"name":"진도공업사","tel":"031-581-0951","addr":"경기도 가평군 가평읍 상색리 315-1번지","category":"자동차정비 유지 - 자동차정비"}]},{"lat":"37.802097586","long":"127.48594351","items":[{"name":"주식회사 골든쉘금고","tel":"","addr":"경기도 가평군 가평읍 상색리 113-6번지","category":"문화.취미 - 민예·공예품"}]},{"lat":"37.802767007","long":"127.48527794","items":[{"name":"주식회사 산과들 농업회사법인","tel":"031-582-9300","addr":"경기도 가평군 가평읍 상색리 98-1번지","category":"음료식품 - 정육점"}]},{"lat":"37.802038135","long":"127.48285467","items":[{"name":"주식회사 아쿠아페스타","tel":"070-8129-9081","addr":"경기도 가평군 가평읍 상색리 238-5번지","category":"레져용품 - 스포츠·레져용품"}]},{"lat":"37.75787747","long":"127.43539622","items":[{"name":"주식회사 오일릭","tel":"031-584-2280","addr":"경기도 가평군 가평읍 상색리 314-2번지","category":"연료판매점 - 쌍용S-OIL"}]},{"lat":"37.800960147","long":"127.47313966","items":[{"name":"카라","tel":"031-4220-1580","addr":"경기도 가평군 가평읍 상색리 478-8번지","category":"숙박업 - 여관/기타숙박업"}]},{"lat":"37.805096826","long":"127.47952472","items":[{"name":"태뿌리","tel":"031-581-4848","addr":"경기도 가평군 가평읍 상색리 203-1번지","category":"일반휴게음식 - 일반한식"}]},{"lat":"37.804264408","long":"127.48702498","items":[{"name":"테크원모터스","tel":"031-581-6565","addr":"경기도 가평군 가평읍 상색리 171-4,9,14,26,27","category":"자동차정비 유지 - 자동차정비"},{"name":"테크원모터스주식회사","tel":"031-581-8585","addr":"경기도 가평군 가평읍 상색리 171-4,171-14","category":"자동차정비 유지 - 자동차정비"}]},{"lat":"37.797150291","long":"127.4795872","items":[{"name":"한국스베아","tel":"031-581-3828","addr":"경기도 가평군 가평읍 상색리 294","category":"레져용품 - 스포츠·레져용품"}]}]