[{"lat":"37.632588038","long":"127.3164644","items":[{"name":"(주) 경미","tel":"031-595-8712","addr":"경기도 남양주시 화도읍 창현리 213번지","category":"가구 - 일반가구"}]},{"lat":"37.638142316","long":"127.31141206","items":[{"name":"(주)고랄","tel":"02-1588-2052","addr":"경기도 남양주시 화도읍 창현리 152-20번지 주 1동","category":"레져용품 - 스포츠·레져용품"}]},{"lat":"37.637948092","long":"127.32010108","items":[{"name":"(주)금성세라믹스","tel":"031-511-6330","addr":"경기도 남양주시 화도읍 창현리 45-1","category":"건축자재 - 기타건축자재"}]},{"lat":"37.636311114","long":"127.31226552","items":[{"name":"(주)네이브플러스","tel":"02-2088-5551","addr":"경기도 남양주시 화도읍 창현리 190-23번지","category":"음료식품 - 기타음료식품"}]},{"lat":"37.649332193","long":"127.30800227","items":[{"name":"(주)동그라미파트너스","tel":"02-6407-0679","addr":"경기도 남양주시 화도읍 창현리 438-12번지 삼우M타운빌리지 103동 1층 101호","category":"회원제형태 - 학원"}]},{"lat":"37.650225668","long":"127.30390392","items":[{"name":"(주)마석식자재마트","tel":"031-594-8943","addr":"경기도 남양주시 화도읍 창현리 728번지 1층","category":"유통업 영리 - 슈퍼마켓"},{"name":"대겸축산","tel":"","addr":"경기도 남양주시 화도읍 창현리 728번지 대농마트내 정육코너","category":"음료식품 - 정육점"}]},{"lat":"37.640639912","long":"127.30013766","items":[{"name":"(주)저스틴데이비스코리아","tel":"031-518-0049","addr":"경기도 남양주시 화도읍 창현리 712-3번지 3층","category":"신변잡화 - 기타잡화"}]},{"lat":"37.646860718","long":"127.30560132","items":[{"name":"1등축산","tel":"070-4064-8289","addr":"경기도 남양주시 화도읍 창현리 553-1번지 107호 재윤상가","category":"음료식품 - 정육점"},{"name":"공감헤어","tel":"031-592-2900","addr":"경기도 남양주시 화도읍 창현리 553-1번지 1층","category":"보건위생 - 미용원"},{"name":"그라운드노리","tel":"031-594-9452","addr":"경기도 남양주시 화도읍 창현리 553-1번지 203호","category":"일반휴게음식 - 서양음식"},{"name":"단오방뚝배기떡볶이 (마석 창현점)","tel":"031-595-8866","addr":"경기도 남양주시 화도읍 창현리 553-1번지 104호","category":"일반휴게음식 - 일반한식"},{"name":"더달달 남양주 창현점","tel":"031-1111-111","addr":"경기도 남양주시 화도읍 창현리 553-1번지 재윤상가 1층 102호","category":"음료식품 - 기타음료식품"},{"name":"명수학학원","tel":"031-592-1236","addr":"경기도 남양주시 화도읍 창현리 553-1번지 2층","category":"학원 - 보습학원"},{"name":"블럭몬스터","tel":"031-0000-0000","addr":"경기도 남양주시 화도읍 창현리 553-1번지 2층 202-1호(재윤상가)","category":"학원 - 기타 교육기관"},{"name":"수에스테틱","tel":"031-732-9285","addr":"경기도 남양주시 화도읍 창현리 553-1번지 2층 202-2호 (재윤상가)","category":"보건위생 - 피부미용실"},{"name":"씨유창현햇살점","tel":"080-080-3663","addr":"경기도 남양주시 화도읍 창현리 553-1번지 101호","category":"유통업 영리 - 편 의 점"},{"name":"온실 플라워 스튜디오","tel":"031-595-9864","addr":"경기도 남양주시 화도읍 창현리 553-1번지 106(재윤상가)","category":"문화.취미 - 화원"},{"name":"이쁘개","tel":"031-593-1004","addr":"경기도 남양주시 화도읍 창현리 553-1번지 재윤상사 108-2호","category":"문화.취미 - 애완동물"}]},{"lat":"37.651337372","long":"127.3060501","items":[{"name":"24시장터왕족발 원조장충왕족발","tel":"031-593-3335","addr":"경기도 남양주시 화도읍 창현리 489-9번지","category":"일반휴게음식 - 일반한식"},{"name":"59년왕십리불곱창","tel":"031-591-1456","addr":"경기도 남양주시 화도읍 창현리 489-9번지","category":"일반휴게음식 - 일반한식"},{"name":"하쿠라멘왕","tel":"031-594-2777","addr":"경기도 남양주시 화도읍 창현리 489-9번지 1층","category":"일반휴게음식 - 스넥"}]},{"lat":"37.651113908","long":"127.30182249","items":[{"name":"4U(포유)","tel":"","addr":"경기도 남양주시 화도읍 창현리 718-3번지 2층","category":"레저업소 - 기타레져업소"}]},{"lat":"37.650111775","long":"127.30263434","items":[{"name":"59삼겹살","tel":"031-559-4531","addr":"경기도 남양주시 화도읍 창현리 725-10번지 1층","category":"일반휴게음식 - 일반한식"}]},{"lat":"37.650525813","long":"127.30279464","items":[{"name":"7179춘천닭갈비","tel":"031-594-4555","addr":"경기도 남양주시 화도읍 창현리 724-8번지 광열빌딩 1층","category":"일반휴게음식 - 일반한식"}]},{"lat":"37.651309207","long":"127.30649192","items":[{"name":"GS25마석궁전점","tel":"","addr":"경기도 남양주시 화도읍 창현리 469-20번지","category":"유통업 영리 - 편 의 점"},{"name":"LA노래연습장","tel":"031-593-5718","addr":"경기도 남양주시 화도읍 창현리 469-20번지 2층","category":"레저업소 - 노 래 방"}]},{"lat":"37.652505582","long":"127.30372048","items":[{"name":"GS25창현사랑점","tel":"","addr":"경기도 남양주시 화도읍 창현리 495-1번지","category":"유통업 영리 - 편 의 점"},{"name":"마석우리순대국","tel":"031-595-4883","addr":"경기도 남양주시 화도읍 창현리 495-1번지 101호","category":"일반휴게음식 - 일반한식"},{"name":"열린프라자약국","tel":"031-595-3214","addr":"경기도 남양주시 화도읍 창현리 495-1번지 104호","category":"약국 - 약국"},{"name":"영24시편의점","tel":"070-8659-9774","addr":"경기도 남양주시 화도읍 창현리 495-1번지","category":"유통업 영리 - 편 의 점"},{"name":"피자헤븐","tel":"031-591-7578","addr":"경기도 남양주시 화도읍 창현리 495-1번지 103호","category":"일반휴게음식 - 서양음식"},{"name":"해피실버노인복지센타","tel":"031-515-5655","addr":"경기도 남양주시 화도읍 창현리 495-1번지 2층 삼중빌딩","category":"기타의료기관 - 기타의료기관 및 기타"}]},{"lat":"37.648533831","long":"127.30312657","items":[{"name":"GS25창현은하점","tel":"02-2006-2485","addr":"경기도 남양주시 화도읍 창현리 745 창현두산@1층101호","category":"유통업 영리 - 편 의 점"},{"name":"진피아노이야기","tel":"031-591-5011","addr":"경기도 남양주시 화도읍 창현리 745번지 두산2차 상가 205,206호","category":"학원 - 예·체능계학원"}]},{"lat":"37.649919603","long":"127.30380071","items":[{"name":"GnB영어전문학원","tel":"031-594-0512","addr":"경기도 남양주시 화도읍 창현리 727-5번지 대왕빌딩 2층","category":"학원 - 보습학원"},{"name":"김밥천국(마석1호점)","tel":"031-559-3997","addr":"경기도 남양주시 화도읍 창현리 727-5번지 대왕빌딩 1층","category":"일반휴게음식 - 일반한식"},{"name":"바오밥나무과자점","tel":"031-591-2348","addr":"경기도 남양주시 화도읍 창현리 727-5번지 대왕빌딩 1층","category":"음료식품 - 제과점"}]},{"lat":"37.650720038","long":"127.30435918","items":[{"name":"JB미용그룹","tel":"031-511-1544","addr":"경기도 남양주시 화도읍 창현리 735-2 102번지","category":"보건위생 - 미용원"},{"name":"경희대마석체육관","tel":"031-593-3116","addr":"경기도 남양주시 화도읍 창현리 735-2","category":"회원제형태 - 학원"},{"name":"쁘띠아미 마석점","tel":"031-592-1365","addr":"경기도 남양주시 화도읍 창현리 735-2번지 영일빌딩 1층","category":"음료식품 - 제과점"},{"name":"아름학원","tel":"031-252-7508","addr":"경기도 남양주시 화도읍 창현리 735-2번지 영일빌딩","category":"학원 - 보습학원"}]},{"lat":"37.641811469","long":"127.30357539","items":[{"name":"MTA블랙벨트 태권도","tel":"031-511-5163","addr":"경기도 남양주시 화도읍 창현리 642-1번지","category":"학원 - 예·체능계학원"},{"name":"블루마켓","tel":"031-595-2050","addr":"경기도 남양주시 화도읍 창현리 642-1번지 1층","category":"자동차정비 유지 - 카인테리어"},{"name":"신안광고","tel":"031-593-6893","addr":"경기도 남양주시 화도읍 창현리 642-1","category":"유통업 영리 - 기타유통업"},{"name":"태후로켓트밧데리","tel":"031-593-8484","addr":"경기도 남양주시 화도읍 창현리 642-1번지","category":"자동차정비 유지 - 자동차부품"}]},{"lat":"37.650670369","long":"127.30263658","items":[{"name":"MookDrumArt 음악교습소","tel":"031-594-7430","addr":"경기도 남양주시 화도읍 창현리 724-4번지 1층","category":"학원 - 예·체능계학원"}]},{"lat":"37.652337463","long":"127.30604283","items":[{"name":"OHOO","tel":"031-595-6662","addr":"경기도 남양주시 화도읍 창현리 488-7번지 1층","category":"의류 - 정장"}]},{"lat":"37.650138662","long":"127.3062152","items":[{"name":"OMYPUPPY","tel":"031-555-5879","addr":"경기도 남양주시 화도읍 창현리 472-7번지 2-1호오마이퍼피","category":"의류 - 정장"},{"name":"맛나분식","tel":"031-594-3013","addr":"경기도 남양주시 화도읍 창현리 472-7번지","category":"일반휴게음식 - 스넥"}]},{"lat":"37.65164329","long":"127.30620998","items":[{"name":"TERRI","tel":"031-521-5944","addr":"경기도 남양주시 화도읍 창현리 488-16번지","category":"신변잡화 - 제화"},{"name":"마석전자담배","tel":"031-513-3440","addr":"경기도 남양주시 화도읍 창현리 488-16번지","category":"기타 - 기타 전문점"},{"name":"마석커피호프","tel":"031-593-9714","addr":"경기도 남양주시 화도읍 창현리 488-16번지","category":"일반휴게음식 - 주점"},{"name":"밀레오레","tel":"","addr":"경기도 남양주시 화도읍 창현리 488-16번지 1층","category":"의류 - 정장"},{"name":"신데렐라","tel":"031-593-9977","addr":"경기도 남양주시 화도읍 창현리 488-16번지 상가 1층","category":"신변잡화 - 신발"}]},{"lat":"37.650720617","long":"127.30413255","items":[{"name":"UGM학원","tel":"031-595-6399","addr":"경기도 남양주시 화도읍 창현리 735-1번지 3층","category":"학원 - 보습학원"},{"name":"경태성네육본부","tel":"031-593-1747","addr":"경기도 남양주시 화도읍 창현리 735-1번지","category":"일반휴게음식 - 일반한식"},{"name":"마석검도관(대한검도회)","tel":"031-511-3009","addr":"경기도 남양주시 화도읍 창현리 735-1번지 우리빌딩 2층","category":"회원제형태 - 학원"},{"name":"올리브 헤어","tel":"031-593-5945","addr":"경기도 남양주시 화도읍 창현리 735-1","category":"보건위생 - 미용원"},{"name":"차차네일","tel":"070-4151-3366","addr":"경기도 남양주시 화도읍 창현리 735-1번지 1층 2호","category":"보건위생 - 피부미용실"},{"name":"피아노의 향기학원","tel":"","addr":"경기도 남양주시 화도읍 창현리 735-1번지 4층","category":"학원 - 예·체능계학원"}]},{"lat":"37.649030892","long":"127.30605205","items":[{"name":"hairby봉","tel":"031-528-6263","addr":"경기도 남양주시 화도읍 창현리 462-3번지 보람아트프라자 106호","category":"보건위생 - 미용원"},{"name":"경희화동한의원","tel":"031-593-3357","addr":"경기도 남양주시 화도읍 창현리 462-3번지 보람프라자 205호","category":"의원 - 한의원"},{"name":"교촌치킨","tel":"031-559-9911","addr":"경기도 남양주시 화도읍 창현리 462-3번지 보람아트프라자 1층 103호","category":"일반휴게음식 - 스넥"},{"name":"덕골순대국","tel":"031-511-1885","addr":"경기도 남양주시 화도읍 창현리 462-3번지 보람아트프라자 1층 101호","category":"일반휴게음식 - 일반한식"},{"name":"마블링고기백화점","tel":"031-511-0766","addr":"경기도 남양주시 화도읍 창현리 462-3번지 보람마트105호","category":"음료식품 - 정육점"},{"name":"세븐일레븐마석중학교점","tel":"","addr":"경기도 남양주시 화도읍 창현리 462-3번지 보람아트 104호","category":"유통업 영리 - 편 의 점"},{"name":"이모쿡도시락","tel":"031-593-5342","addr":"경기도 남양주시 화도읍 창현리 462-3번지 보람아트프라자 1층 107호","category":"일반휴게음식 - 일반한식"},{"name":"창조브라인드","tel":"031-594-4363","addr":"경기도 남양주시 화도읍 창현리 462-3 보람아트프라자지하1호","category":"직물 - 카페트,커튼,천막,지물"},{"name":"청수당약국","tel":"031-511-8784","addr":"경기도 남양주시 화도읍 창현리 462-3번지 보람아트프라자102호 청수당약국","category":"약국 - 약국"},{"name":"탑클래스영어학원","tel":"031-511-3343","addr":"경기도 남양주시 화도읍 창현리 462-3번지 보람아트프라자 203호","category":"학원 - 보습학원"},{"name":"필로스터디학원","tel":"031-511-2233","addr":"경기도 남양주시 화도읍 창현리 462-3번지 201,202호","category":"학원 - 보습학원"},{"name":"핏걸 창현점","tel":"031-511-9879","addr":"경기도 남양주시 화도읍 창현리 462-3번지 201,202호","category":"레저업소 - 헬스클럽"}]},{"lat":"37.646585911","long":"127.3073565","items":[{"name":"가나공구","tel":"031-594-0034","addr":"경기도 남양주시 화도읍 창현리 431-3번지","category":"기타 - 기계공구"},{"name":"가나엔지니어링","tel":"031-511-7334","addr":"경기도 남양주시 화도읍 창현리 431-3번지","category":"농업 - 농기계"},{"name":"가나종합기계","tel":"","addr":"경기도 남양주시 화도읍 창현리 431-3번지 2동","category":"기타 - 기계공구"}]},{"lat":"37.639588694","long":"127.30254674","items":[{"name":"가온엔지니어링","tel":"02-1111-1111","addr":"경기도 남양주시 화도읍 창현리 682-1번지 예림빌 1층 상가","category":"수리서비스 - 기타수리서비스"},{"name":"요니컴퍼니(yonI company)","tel":"","addr":"경기도 남양주시 화도읍 창현리 682-1번지 예림빌 301호","category":"음료식품 - 기타음료식품"}]},{"lat":"37.651339349","long":"127.30174407","items":[{"name":"가을달","tel":"02-1111-1111","addr":"경기도 남양주시 화도읍 창현리 718-1번지 1층 일부","category":"일반휴게음식 - 서양음식"}]},{"lat":"37.636532369","long":"127.3171834","items":[{"name":"가한애드텍","tel":"031-595-4510","addr":"경기도 남양주시 화도읍 창현리 174-37번지 다동","category":"건축자재 - 인테리어전문"}]},{"lat":"37.641777046","long":"127.30294075","items":[{"name":"강가네칼국수","tel":"031-593-5311","addr":"경기도 남양주시 화도읍 창현리 699-2","category":"일반휴게음식 - 일반한식"},{"name":"이마트24 화도중앙점","tel":"","addr":"경기도 남양주시 화도읍 창현리 699-2번지 넝쿨가든 101호","category":"유통업 영리 - 편 의 점"},{"name":"종갓집한돈한우","tel":"031-559-0030","addr":"경기도 남양주시 화도읍 창현리 699-2번지 넝쿨가든 201호","category":"일반휴게음식 - 일반한식"},{"name":"필2노래연습장","tel":"031-511-7228","addr":"경기도 남양주시 화도읍 창현리 699-2번지 넝쿨가든 2층 202호","category":"레저업소 - 노 래 방"},{"name":"필노래연습장","tel":"070-8953-0280","addr":"경기도 남양주시 화도읍 창현리 699-2번지 203 2층","category":"레저업소 - 노 래 방"}]},{"lat":"37.636424883","long":"127.31010207","items":[{"name":"강남식당","tel":"031-595-3151","addr":"경기도 남양주시 화도읍 창현리 320-5번지","category":"일반휴게음식 - 일반한식"},{"name":"근당구장","tel":"031-593-3949","addr":"경기도 남양주시 화도읍 창현리 320-5번지","category":"레저업소 - 당 구 장"},{"name":"부영식당","tel":"031-592-3939","addr":"경기도 남양주시 화도읍 창현리 320-5번지","category":"일반휴게음식 - 일반한식"},{"name":"수레김밥","tel":"031-511-8815","addr":"경기도 남양주시 화도읍 창현리 320-5번지 2동 1층 일부호","category":"일반휴게음식 - 스넥"},{"name":"씨유화도보경점","tel":"031-511-7839","addr":"경기도 남양주시 화도읍 창현리 320-5번지 1동","category":"유통업 영리 - 편 의 점"},{"name":"창현당구장","tel":"031-553-3949","addr":"경기도 남양주시 화도읍 창현리 320-5번지 1동 2층","category":"레저업소 - 당 구 장"},{"name":"포스넷","tel":"031-559-4891","addr":"경기도 남양주시 화도읍 창현리 320-5번지 2동 2층","category":"사무통신 - 통신기기"}]},{"lat":"37.648256708","long":"127.30579962","items":[{"name":"강원도옥수수","tel":"","addr":"경기도 남양주시 화도읍 창현리 547-1번지 1층","category":"음료식품 - 농·축·수산품"},{"name":"마석미당","tel":"031-592-5560","addr":"경기도 남양주시 화도읍 창현리 547-1번지 1층 일부","category":"일반휴게음식 - 일반한식"},{"name":"용인대 합기도 주짓수","tel":"031-595-1055","addr":"경기도 남양주시 화도읍 창현리 547-1번지 3층","category":"학원 - 예·체능계학원"},{"name":"자동차마을","tel":"031-511-3331","addr":"경기도 남양주시 화도읍 창현리 547-1 자동차마을","category":"자동차정비 유지 - 자동차정비"},{"name":"자전거리(LEE)","tel":"031-595-8048","addr":"경기도 남양주시 화도읍 창현리 547-1번지","category":"레져용품 - 스포츠·레져용품"},{"name":"행복한하우징","tel":"031-594-2181","addr":"경기도 남양주시 화도읍 창현리 547-1번지 1층","category":"건축자재 - 인테리어전문"},{"name":"힐링실내테니스아카데미","tel":"031-853-5411","addr":"경기도 남양주시 화도읍 창현리 547-1번지 지하1층","category":"레져용품 - 스포츠·레져용품"}]},{"lat":"37.651858645","long":"127.30655081","items":[{"name":"강원축산","tel":"031-594-0017","addr":"경기도 남양주시 화도읍 창현리 488-14","category":"음료식품 - 정육점"},{"name":"복권판매점","tel":"031-577-7778","addr":"경기도 남양주시 화도읍 창현리 488-14번지 441-1외2필지 103호","category":"건축자재 - 조명기구"},{"name":"축산사랑","tel":"031-511-6264","addr":"경기도 남양주시 화도읍 창현리 488-14번지","category":"음료식품 - 정육점"}]},{"lat":"37.647500689","long":"127.30549061","items":[{"name":"건2 모바일","tel":"070-7745-5000","addr":"경기도 남양주시 화도읍 창현리 552-1번지 102호","category":"사무통신 - 통신기기"},{"name":"달동네순대","tel":"031-595-0481","addr":"경기도 남양주시 화도읍 창현리 552-1번지","category":"일반휴게음식 - 일반한식"},{"name":"또봉이통닭","tel":"031-593-5693","addr":"경기도 남양주시 화도읍 창현리 552-1번지 106호","category":"일반휴게음식 - 스넥"},{"name":"라벨라나폴리","tel":"031-511-6753","addr":"경기도 남양주시 화도읍 창현리 552-1번지 1층 일부","category":"일반휴게음식 - 일반한식"},{"name":"우리농산물(주)","tel":"031-973-0356","addr":"경기도 남양주시 화도읍 창현리 552-1번지 104호","category":"음료식품 - 농·축·수산품"},{"name":"투윈커피(2WIN COFFEE)","tel":"031-111-1111","addr":"경기도 남양주시 화도읍 창현리 552-1번지 신성빌딩 2층","category":"일반휴게음식 - 서양음식"},{"name":"헤어 토크","tel":"031-593-3854","addr":"경기도 남양주시 화도읍 창현리 552-1번지 103호 일부","category":"의류 - 정장"},{"name":"헤어 토크(HAIR TALK)","tel":"","addr":"경기도 남양주시 화도읍 창현리 552-1번지 103호","category":"보건위생 - 미용원"}]},{"lat":"37.647003212","long":"127.30624777","items":[{"name":"경기냉동","tel":"","addr":"경기도 남양주시 화도읍 창현리 551-48번지 누리하우스 104동 402호","category":"수리서비스 - 가정용품수리"}]},{"lat":"37.636223568","long":"127.3214646","items":[{"name":"경남산업","tel":"031-593-1613","addr":"경기도 남양주시 화도읍 창현리 56-5번지","category":"건축자재 - 기타건축자재"}]},{"lat":"37.647419021","long":"127.3057169","items":[{"name":"경성양꼬치","tel":"031-1111-1111","addr":"경기도 남양주시 화도읍 창현리 551-13번지","category":"일반휴게음식 - 일반한식"},{"name":"불타는연탄구이","tel":"031-516-2580","addr":"경기도 남양주시 화도읍 창현리 551-13번지","category":"일반휴게음식 - 일반한식"},{"name":"쏭차이","tel":"031-111-1111","addr":"경기도 남양주시 화도읍 창현리 551-13번지","category":"일반휴게음식 - 중국식"},{"name":"준지비어","tel":"031-559-8885","addr":"경기도 남양주시 화도읍 창현리 551-13번지 1층","category":"일반휴게음식 - 일반한식"},{"name":"진시미엔","tel":"031-595-0671","addr":"경기도 남양주시 화도읍 창현리 551-13번지","category":"일반휴게음식 - 일반한식"},{"name":"해맞이물회","tel":"031-593-1117","addr":"경기도 남양주시 화도읍 창현리 551-13번지","category":"일반휴게음식 - 일반한식"}]},{"lat":"37.650446413","long":"127.3056612","items":[{"name":"경아두마리치킨","tel":"031-511-5678","addr":"경기도 남양주시 화도읍 창현리 736-2번지 1층","category":"일반휴게음식 - 일반한식"},{"name":"쎈언니","tel":"031-593-3854","addr":"경기도 남양주시 화도읍 창현리 736-2번지 101호","category":"보건위생 - 피부미용실"},{"name":"핸드폰나라","tel":"031-595-2788","addr":"경기도 남양주시 화도읍 창현리 736-2번지 4호","category":"사무통신 - 통신기기"}]},{"lat":"37.652447756","long":"127.30165786","items":[{"name":"계놈프로젝트","tel":"070-8611-4041","addr":"경기도 남양주시 화도읍 창현리 503-9번지 B203호,B204호","category":"일반휴게음식 - 일반한식"},{"name":"마석참숯사우나 한식당","tel":"031-559-3492","addr":"경기도 남양주시 화도읍 창현리 503-9번지 마석프라자 B101호","category":"일반휴게음식 - 일반한식"},{"name":"마석황토24시여탕매점","tel":"031-559-1220","addr":"경기도 남양주시 화도읍 창현리 503-9번지 마석프라자 B동 213호","category":"음료식품 - 기타음료식품"},{"name":"마석황토24시참숯사우나","tel":"031-559-9186","addr":"경기도 남양주시 화도읍 창현리 503-9번지 마석프라자 102 지하 101","category":"보건위생 - 피부미용실"},{"name":"마석황토사우나스넥","tel":"031-559-1220","addr":"경기도 남양주시 화도읍 창현리 503-9번지 마석프라자 지하 1호","category":"일반휴게음식 - 일반한식"},{"name":"무한장어연구소","tel":"070-8611-4041","addr":"경기도 남양주시 화도읍 창현리 503-9번지 마석프라자 B201호,B202호","category":"일반휴게음식 - 일반한식"},{"name":"무한컴퍼니 주식회사","tel":"02-1544-7393","addr":"경기도 남양주시 화도읍 창현리 503-9번지 마석프라자 307호","category":"회원제형태 - 사무서비스"},{"name":"미트업","tel":"070-8611-4041","addr":"경기도 남양주시 화도읍 창현리 503-9번지 마석프라자","category":"일반휴게음식 - 일반한식"},{"name":"세움미술학원","tel":"031-594-5903","addr":"경기도 남양주시 화도읍 창현리 503-9번지 마석프라자 306호","category":"학원 - 예·체능계학원"},{"name":"우정식당","tel":"031-577-8880","addr":"경기도 남양주시 화도읍 창현리 503-9번지 마석프라자 B동 210호","category":"일반휴게음식 - 일반한식"},{"name":"웰케어요양센터","tel":"031-559-5030","addr":"경기도 남양주시 화도읍 창현리 503-9번지 마석프라자 3층 304호","category":"기타의료기관 - 기타의료기관 및 기타"},{"name":"웰케어주야간보호센터","tel":"031-593-5882","addr":"경기도 남양주시 화도읍 창현리 503-9번지 205,304호","category":"기타의료기관 - 기타의료기관 및 기타"},{"name":"지영피부체형관리","tel":"031-594-9415","addr":"경기도 남양주시 화도읍 창현리 503-9번지 B101호","category":"보건위생 - 피부미용실"},{"name":"찜질방 내 매점","tel":"031-559-1220","addr":"경기도 남양주시 화도읍 창현리 503-9번지 마석프라자 지하1층 마석황토24시사우나","category":"음료식품 - 기타음료식품"},{"name":"천마타일","tel":"031-511-9192","addr":"경기도 남양주시 화도읍 창현리 503-9번지 마석프라자 지하2층 8.9호","category":"건축자재 - 건축용 요업제품"},{"name":"카호카호","tel":"070-8611-4041","addr":"경기도 남양주시 화도읍 창현리 503-9번지 마석프라자 B동 207호","category":"일반휴게음식 - 주점"},{"name":"행복한침구","tel":"031-573-2790","addr":"경기도 남양주시 화도읍 창현리 503-9번지 마석프라자 111호","category":"직물 - 침구·수예점"},{"name":"화도사랑채주야간보호센터","tel":"031-595-5035","addr":"경기도 남양주시 화도읍 창현리 503-9번지 마석프라자 301호","category":"기타의료기관 - 기타의료기관 및 기타"},{"name":"화도요양보호사교육원","tel":"031-567-6565","addr":"경기도 남양주시 화도읍 창현리 503-9번지 마석프라자 203호","category":"학원 - 기능학원"}]},{"lat":"37.648948173","long":"127.30668627","items":[{"name":"고양이 팔경 캣스쿨","tel":"031-511-1717","addr":"경기도 남양주시 화도읍 창현리 436-2번지 101호","category":"일반휴게음식 - 서양음식"}]},{"lat":"37.650977989","long":"127.3021279","items":[{"name":"고커피로스터스","tel":"031-593-2135","addr":"경기도 남양주시 화도읍 창현리 723-1번지 파크빌 1층 상가","category":"일반휴게음식 - 서양음식"}]},{"lat":"37.65083375","long":"127.30216131","items":[{"name":"고투콜라","tel":"031-591-8183","addr":"경기도 남양주시 화도읍 창현리 723-6번지 다올채 102호","category":"보건위생 - 미용원"},{"name":"예쁨","tel":"031-000-0000","addr":"경기도 남양주시 화도읍 창현리 723-6번지 1층 일부","category":"보건위생 - 피부미용실"}]},{"lat":"37.635811198","long":"127.31049607","items":[{"name":"골프존 파크","tel":"031-595-3398","addr":"경기도 남양주시 화도읍 창현리 319번지","category":"레저업소 - 스크린골프"},{"name":"아이엘전기제어","tel":"031-577-1034","addr":"경기도 남양주시 화도읍 창현리 319번지","category":"전기제품 - 기타전기제품"}]},{"lat":"37.649505424","long":"127.30720978","items":[{"name":"곱빼기 소갈비","tel":"031-9242-5217","addr":"경기도 남양주시 화도읍 창현리 456-26번지","category":"일반휴게음식 - 일반한식"}]},{"lat":"37.648499967","long":"127.30580061","items":[{"name":"구피샵(창현점)","tel":"031-593-1339","addr":"경기도 남양주시 화도읍 창현리 547-15번지 창현빌딩 1층 일부호","category":"보건위생 - 이용원"},{"name":"마산아구찜","tel":"031-593-6828","addr":"경기도 남양주시 화도읍 창현리 547-15번지","category":"일반휴게음식 - 일반한식"},{"name":"반찬카페","tel":"031-591-8280","addr":"경기도 남양주시 화도읍 창현리 547-15번지","category":"음료식품 - 기타음료식품"},{"name":"본프랑스","tel":"031-594-5001","addr":"경기도 남양주시 화도읍 창현리 547-15번지 1층","category":"음료식품 - 제과점"},{"name":"아이스크림 아울렛","tel":"070-8688-8324","addr":"경기도 남양주시 화도읍 창현리 547-15번지 창현빌딩 3호","category":"음료식품 - 기타음료식품"},{"name":"오늘도 예쁘다","tel":"031-511-8654","addr":"경기도 남양주시 화도읍 창현리 547-15번지 창현빌딩 105호","category":"의류 - 정장"},{"name":"초코파이","tel":"070-5208-1044","addr":"경기도 남양주시 화도읍 창현리 547-15번지 창현빌딩 105호","category":"의류 - 아동의류"}]},{"lat":"37.650615761","long":"127.30637578","items":[{"name":"굴다리분식","tel":"031-595-0050","addr":"경기도 남양주시 화도읍 창현리 469","category":"일반휴게음식 - 스넥"},{"name":"김성범유도멀티짐","tel":"031-594-8265","addr":"경기도 남양주시 화도읍 창현리 469번지 2층","category":"학원 - 예·체능계학원"},{"name":"도배공장","tel":"031-593-7027","addr":"경기도 남양주시 화도읍 창현리 469번지","category":"직물 - 카페트,커튼,천막,지물"},{"name":"짱뷰티헤어","tel":"031-594-9024","addr":"경기도 남양주시 화도읍 창현리 469번지","category":"보건위생 - 미용원"}]},{"lat":"37.650227286","long":"127.30326937","items":[{"name":"굽네치킨","tel":"031-559-9285","addr":"경기도 남양주시 화도읍 창현리 732-8번지","category":"일반휴게음식 - 스넥"}]},{"lat":"37.649418303","long":"127.30605363","items":[{"name":"그린오피스 남양주점","tel":"031-511-7979","addr":"경기도 남양주시 화도읍 창현리 465-6 덕양빌딩","category":"서적문구 - 문구용품"},{"name":"김밥천국","tel":"031-511-0858","addr":"경기도 남양주시 화도읍 창현리 465-6번지","category":"일반휴게음식 - 일반한식"},{"name":"미치코런던","tel":"031-515-7227","addr":"경기도 남양주시 화도읍 창현리 465-6번지 덕양빌딩 102호","category":"의류 - 단체복"},{"name":"수유리우동집","tel":"031-000-0000","addr":"경기도 남양주시 화도읍 창현리 465-6번지 덕양빌딩 102호","category":"일반휴게음식 - 일반한식"},{"name":"스쿨룩스학생복","tel":"031-595-5419","addr":"경기도 남양주시 화도읍 창현리 465-6번지 다삼빌딩 지하층","category":"의류 - 맞춤복점"}]},{"lat":"37.652556803","long":"127.30483121","items":[{"name":"글로리아헤어","tel":"031-511-1336","addr":"경기도 남양주시 화도읍 창현리 493-1번지","category":"보건위생 - 미용원"},{"name":"니즈스타일","tel":"031-593-1341","addr":"경기도 남양주시 화도읍 창현리 493-1번지","category":"의류 - 정장"},{"name":"마석","tel":"031-511-5800","addr":"경기도 남양주시 화도읍 창현리 493-1번지 마석기독요양병원 1층","category":"음료식품 - 기타음료식품"},{"name":"송우촌","tel":"031-595-8040","addr":"경기도 남양주시 화도읍 창현리 493-1","category":"일반휴게음식 - 일반한식"}]},{"lat":"37.634448146","long":"127.31148741","items":[{"name":"글로벌모터스","tel":"031-594-4334","addr":"경기도 남양주시 화도읍 창현리 190-2번지","category":"자동차정비 유지 - 자동차정비"},{"name":"글로벌모터스","tel":"031-594-4334","addr":"경기도 남양주시 화도읍 창현리 190-2번지","category":"자동차정비 유지 - 자동차정비"}]},{"lat":"37.652391084","long":"127.30621302","items":[{"name":"금당은당","tel":"031-593-2177","addr":"경기도 남양주시 화도읍 창현리 488-2","category":"신변잡화 - 귀금속"},{"name":"뉴라이프신발","tel":"070-4922-1261","addr":"경기도 남양주시 화도읍 창현리 488-2번지","category":"신변잡화 - 신발"},{"name":"스피드정보통신","tel":"031-594-8055","addr":"경기도 남양주시 화도읍 창현리 488-2번지","category":"사무통신 - 통신기기"},{"name":"아이센스PC 마석점","tel":"070-8816-1183","addr":"경기도 남양주시 화도읍 창현리 488-2번지 지하1층","category":"레저업소 - 기타레져업소"},{"name":"온기한의원","tel":"031-592-7975","addr":"경기도 남양주시 화도읍 창현리 488-2번지 2층 일부","category":"의원 - 한의원"},{"name":"정치과의원","tel":"031-593-0647","addr":"경기도 남양주시 화도읍 창현리 488-2번지 2층","category":"의원 - 치과의원"},{"name":"커피에 반하다","tel":"","addr":"경기도 남양주시 화도읍 창현리 488-2번지","category":"일반휴게음식 - 서양음식"}]},{"lat":"37.648894903","long":"127.30638011","items":[{"name":"기절초풍물닭갈비","tel":"031-511-5651","addr":"경기도 남양주시 화도읍 창현리 548-5","category":"일반휴게음식 - 일반한식"},{"name":"동해동태찜,탕","tel":"031-511-2180","addr":"경기도 남양주시 화도읍 창현리 548-5번지 상가동 1층","category":"일반휴게음식 - 일반한식"},{"name":"효당칼국수","tel":"031-511-4336","addr":"경기도 남양주시 화도읍 창현리 548-5번지 2호","category":"일반휴게음식 - 일반한식"}]},{"lat":"37.650336093","long":"127.30299785","items":[{"name":"김기선헤어4","tel":"031-593-3456","addr":"경기도 남양주시 화도읍 창현리 725-6번지 1층 일부","category":"보건위생 - 미용원"}]},{"lat":"37.652056943","long":"127.30651762","items":[{"name":"김밥나라 (창현점)","tel":"031-511-2629","addr":"경기도 남양주시 화도읍 창현리 488-12번지","category":"일반휴게음식 - 스넥"},{"name":"포시즌","tel":"031-511-2909","addr":"경기도 남양주시 화도읍 창현리 488-12번지 2층","category":"일반휴게음식 - 주점"}]},{"lat":"37.650283044","long":"127.30260103","items":[{"name":"김쉐프 쭈꾸미 낙지","tel":"031-559-0908","addr":"경기도 남양주시 화도읍 창현리 725-3번지 수산빌라 101호","category":"일반휴게음식 - 일반한식"}]},{"lat":"37.649892921","long":"127.30366462","items":[{"name":"김은주수학학원","tel":"031-595-0206","addr":"경기도 남양주시 화도읍 창현리 727-6번지 2층 병권빌딩","category":"학원 - 보습학원"},{"name":"러블리","tel":"031-559-4915","addr":"경기도 남양주시 화도읍 창현리 727-6번지 병권빌딩 402호","category":"보건위생 - 화장품"},{"name":"손톱가게","tel":"031-593-2844","addr":"경기도 남양주시 화도읍 창현리 727-6번지 지하1층","category":"보건위생 - 화장품"}]},{"lat":"37.650581499","long":"127.30568441","items":[{"name":"깍개","tel":"031-511-1131","addr":"경기도 남양주시 화도읍 창현리 736-1번지 아이티타워 1층 101호","category":"문화.취미 - 애완동물"}]},{"lat":"37.639505908","long":"127.30321487","items":[{"name":"깡돈","tel":"031-527-8866","addr":"경기도 남양주시 화도읍 창현리 680-2번지 1층일부 103호","category":"일반휴게음식 - 일반한식"},{"name":"준헤어매니아","tel":"031-592-4708","addr":"경기도 남양주시 화도읍 창현리 680-2번지 1층 101호","category":"보건위생 - 미용원"},{"name":"크린에이드","tel":"031-594-8281","addr":"경기도 남양주시 화도읍 창현리 680-2번지 1층 102호","category":"수리서비스 - 세탁소"}]},{"lat":"37.650499417","long":"127.30254524","items":[{"name":"꺼리","tel":"031-591-3023","addr":"경기도 남양주시 화도읍 창현리 724-10번지 1층 평안빌","category":"일반휴게음식 - 일반한식"}]},{"lat":"37.650667918","long":"127.30359976","items":[{"name":"꼬치의장인","tel":"031-771-6484","addr":"경기도 남양주시 화도읍 창현리 733-5번지 1층","category":"일반휴게음식 - 일반한식"}]},{"lat":"37.640838347","long":"127.30360545","items":[{"name":"꼼꼼네일","tel":"070-4406-0389","addr":"경기도 남양주시 화도읍 창현리 676-7번지 1층","category":"보건위생 - 피부미용실"},{"name":"미르펫","tel":"031-559-6468","addr":"경기도 남양주시 화도읍 창현리 676-7번지 외4필지 101호","category":"문화.취미 - 애완동물"},{"name":"선브레드","tel":"031-111-1111","addr":"경기도 남양주시 화도읍 창현리 676-7번지 B101호","category":"음료식품 - 제과점"},{"name":"신대륙공인중개사사무소","tel":"031-559-2255","addr":"경기도 남양주시 화도읍 창현리 676-7번지","category":"용역 서비스 - 부동산 중개·임대"},{"name":"제이에스미트","tel":"031-593-2244","addr":"경기도 남양주시 화도읍 창현리 676-7번지 106호","category":"음료식품 - 정육점"}]},{"lat":"37.634805681","long":"127.31257649","items":[{"name":"나래식당","tel":"031-591-9993","addr":"경기도 남양주시 화도읍 창현리 190-36번지 102호","category":"일반휴게음식 - 일반한식"},{"name":"작은공장","tel":"031-0000-0000","addr":"경기도 남양주시 화도읍 창현리 190-36번지 1층 101호","category":"음료식품 - 기타음료식품"}]},{"lat":"37.652275822","long":"127.30548732","items":[{"name":"남양주마석잠언의료기","tel":"031-591-8297","addr":"경기도 남양주시 화도읍 창현리 491-2번지 나 동 202호(489-20)","category":"보건위생 - 의료용품"},{"name":"다비치안경 마석신한은행역점","tel":"031-593-9485","addr":"경기도 남양주시 화도읍 창현리 491-2번지","category":"보건위생 - 안경"},{"name":"렙업PC방","tel":"070-8816-1183","addr":"경기도 남양주시 화도읍 창현리 491-2번지 5층","category":"레저업소 - 기타레져업소"},{"name":"마석기독의원","tel":"031-591-3100","addr":"경기도 남양주시 화도읍 창현리 491-2번지 1층","category":"의원 - 의원"}]},{"lat":"37.6380301","long":"127.31638531","items":[{"name":"남양주시호남향우회연합회","tel":"031-592-4137","addr":"경기도 남양주시 화도읍 창현리 64-24번지","category":"기타 - 비영리/비대상"}]},{"lat":"37.652365176","long":"127.30224678","items":[{"name":"남양주큰사랑실버요양원","tel":"031-591-2448","addr":"경기도 남양주시 화도읍 창현리 503-12번지 오성주택","category":"기타의료기관 - 기타의료기관 및 기타"},{"name":"남양주큰사랑실버요양원","tel":"031-591-2448","addr":"경기도 남양주시 화도읍 창현리 503-12번지 오성주택","category":"기타의료기관 - 기타의료기관 및 기타"}]},{"lat":"37.651084026","long":"127.30646834","items":[{"name":"남양주타올총판","tel":"031-594-4996","addr":"경기도 남양주시 화도읍 창현리 469-6","category":"직물 - 옷감·직물"},{"name":"다모아","tel":"031-512-3540","addr":"경기도 남양주시 화도읍 창현리 469-6번지","category":"직물 - 침구·수예점"}]},{"lat":"37.65113887","long":"127.30616261","items":[{"name":"남양주화도댄스스포츠","tel":"031-515-1031","addr":"경기도 남양주시 화도읍 창현리 487-2","category":"회원제형태 - 레져업소"},{"name":"도미노피자","tel":"031-595-3082","addr":"경기도 남양주시 화도읍 창현리 487-2번지","category":"일반휴게음식 - 서양음식"}]},{"lat":"37.645224426","long":"127.30424632","items":[{"name":"남자만들기","tel":"031-595-3243","addr":"경기도 남양주시 화도읍 창현리 605번지","category":"보건위생 - 미용원"},{"name":"맑은샘약국","tel":"031-591-2792","addr":"경기도 남양주시 화도읍 창현리 605번지 1층 5호","category":"약국 - 약국"}]},{"lat":"37.645422","long":"127.3044964","items":[{"name":"네일화  (봄날뷰티)","tel":"031-599-0966","addr":"경기도 남양주시 화도읍 창현리 606-2번지 1층 103호","category":"보건위생 - 피부미용실"},{"name":"삼성소통의원","tel":"031-595-5333","addr":"경기도 남양주시 화도읍 창현리 606-2번지","category":"의원 - 의원"},{"name":"안경기업","tel":"031-592-8850","addr":"경기도 남양주시 화도읍 창현리 606-2번지 1층 106호","category":"보건위생 - 안경"}]},{"lat":"37.649860083","long":"127.3024067","items":[{"name":"노가리와꽃등심","tel":"031-594-8778","addr":"경기도 남양주시 화도읍 창현리 726-1번지 에이스빌 1층","category":"일반휴게음식 - 일반한식"},{"name":"다우공조","tel":"031-743-3398","addr":"경기도 남양주시 화도읍 창현리 726-1번지 에이스빌","category":"용역 서비스 - 기타용역서비스"}]},{"lat":"37.640866933","long":"127.30299374","items":[{"name":"노루너머카센타","tel":"031-593-2679","addr":"경기도 남양주시 화도읍 창현리 694-1번지","category":"자동차정비 유지 - 자동차정비"}]},{"lat":"37.64991483","long":"127.30213496","items":[{"name":"노팅힐","tel":"031-515-7737","addr":"경기도 남양주시 화도읍 창현리 720-6번지 1층","category":"의류 - 정장"},{"name":"스시도락","tel":"031-591-6984","addr":"경기도 남양주시 화도읍 창현리 720-6번지 1층","category":"일반휴게음식 - 일식·회집"}]},{"lat":"37.651219752","long":"127.30624226","items":[{"name":"뉴아이비미용실","tel":"031-593-3033","addr":"경기도 남양주시 화도읍 창현리 489-2","category":"보건위생 - 미용원"},{"name":"대복통신","tel":"","addr":"경기도 남양주시 화도읍 창현리 489-2번지 1층","category":"사무통신 - 통신기기"}]},{"lat":"37.641254288","long":"127.30301796","items":[{"name":"늘푸른","tel":"031-591-1726","addr":"경기도 남양주시 화도읍 창현리 696-1번지 창현유치원 302호","category":"보건위생 - 화장품"},{"name":"라라뷰티앤왁싱","tel":"","addr":"경기도 남양주시 화도읍 창현리 696-1번지 4층 일부","category":"보건위생 - 피부미용실"},{"name":"참사랑의원","tel":"031-559-0075","addr":"경기도 남양주시 화도읍 창현리 696-1번지 장흥빌딩 302호","category":"의원 - 의원"},{"name":"크린토피아 창현이안점","tel":"031-511-0311","addr":"경기도 남양주시 화도읍 창현리 696-1번지 장흥빌딩 1층 103호","category":"수리서비스 - 세탁소"},{"name":"해피스마일치과","tel":"031-593-2827","addr":"경기도 남양주시 화도읍 창현리 696-1번지 장흥빌딩 2층","category":"의원 - 치과의원"}]},{"lat":"37.636729083","long":"127.32110422","items":[{"name":"다래향","tel":"031-559-1313","addr":"경기도 남양주시 화도읍 창현리 56-2번지","category":"일반휴게음식 - 중국식"}]},{"lat":"37.649283247","long":"127.30601908","items":[{"name":"다미철물점","tel":"031-593-0109","addr":"경기도 남양주시 화도읍 창현리 462-11번지 102호","category":"건축자재 - 목재·석재·철물"}]},{"lat":"37.650503171","long":"127.3046076","items":[{"name":"달맞이 멸치국시","tel":"031-111-1111","addr":"경기도 남양주시 화도읍 창현리 737-1번지 대인빌딩 1층 102호","category":"일반휴게음식 - 일반한식"},{"name":"동현당한의원","tel":"031-511-2750","addr":"경기도 남양주시 화도읍 창현리 737-1번지 대인빌딩 4층 401호","category":"의원 - 한의원"},{"name":"마석시그마수학학원","tel":"","addr":"경기도 남양주시 화도읍 창현리 737-1번지 대인빌딩 501호","category":"학원 - 보습학원"},{"name":"제이뷰티","tel":"031-511-1196","addr":"경기도 남양주시 화도읍 창현리 737-1번지 대인빌딩 302호 301호,302호","category":"보건위생 - 피부미용실"},{"name":"하이엠수학교습소","tel":"031-591-6777","addr":"경기도 남양주시 화도읍 창현리 737-1번지 대인빌딩 201호 일부","category":"학원 - 보습학원"}]},{"lat":"37.640198579","long":"127.30363687","items":[{"name":"대복곱창","tel":"031-593-1667","addr":"경기도 남양주시 화도읍 창현리 675-7번지","category":"일반휴게음식 - 일반한식"},{"name":"롤로코리아","tel":"031-511-1011","addr":"경기도 남양주시 화도읍 창현리 675-7번지 1층 104호","category":"음료식품 - 기타음료식품"},{"name":"뽄쟁이","tel":"031-559-5109","addr":"경기도 남양주시 화도읍 창현리 675-7번지 103호","category":"보건위생 - 미용원"},{"name":"헤어미넷","tel":"031-511-9246","addr":"경기도 남양주시 화도읍 창현리 675-7번지 1층","category":"보건위생 - 미용원"}]},{"lat":"37.633973158","long":"127.32071861","items":[{"name":"대원정사","tel":"031-594-7779","addr":"경기도 남양주시 화도읍 창현리 225번지","category":"기타 - 비영리/대상"}]},{"lat":"37.649697824","long":"127.30244004","items":[{"name":"대한국민학원","tel":"031-511-2134","addr":"경기도 남양주시 화도읍 창현리 726-12번지 신우빌딩 2층","category":"회원제형태 - 학원"},{"name":"상구비어 화도창현점","tel":"031-511-3925","addr":"경기도 남양주시 화도읍 창현리 726-12번지 1층 102호","category":"일반휴게음식 - 일반한식"}]},{"lat":"37.650220667","long":"127.30232882","items":[{"name":"대호생고기","tel":"031-511-4767","addr":"경기도 남양주시 화도읍 창현리 725-1번지","category":"일반휴게음식 - 일반한식"},{"name":"대호정육점","tel":"031-511-4767","addr":"경기도 남양주시 화도읍 창현리 725-1번지 1층","category":"음료식품 - 정육점"},{"name":"해뜸스튜디오","tel":"","addr":"경기도 남양주시 화도읍 창현리 725-1번지 2동 202층","category":"광학제품 - 사진관"}]},{"lat":"37.649724507","long":"127.30257612","items":[{"name":"덕이네감자탕","tel":"031-592-4116","addr":"경기도 남양주시 화도읍 창현리 726-11번지","category":"일반휴게음식 - 일반한식"}]},{"lat":"37.650476924","long":"127.30430154","items":[{"name":"돈쩨쩨(DONTZEZE)","tel":"031-559-5022","addr":"경기도 남양주시 화도읍 창현리 731-2번지 지하1층","category":"회원제형태 - 사무서비스"},{"name":"멕시카나 마석점","tel":"031-5914-1882","addr":"경기도 남양주시 화도읍 창현리 731-2번지 소정빌딩","category":"일반휴게음식 - 스넥"},{"name":"명동칼국수 창현점","tel":"031-254-5882","addr":"경기도 남양주시 화도읍 창현리 731-2번지 소정빌딩 1층 일부호","category":"일반휴게음식 - 일반한식"},{"name":"비앤비","tel":"031-511-3848","addr":"경기도 남양주시 화도읍 창현리 731-2번지 소정빌딩","category":"의류 - 정장"}]},{"lat":"37.65203268","long":"127.30544101","items":[{"name":"동창중기","tel":"031-594-2922","addr":"경기도 남양주시 화도읍 창현리 491-14","category":"기타 - 기계공구"}]},{"lat":"37.649948767","long":"127.30296229","items":[{"name":"두꺼비퓨전포차","tel":"031-593-9500","addr":"경기도 남양주시 화도읍 창현리 726-5번지","category":"일반휴게음식 - 주점"}]},{"lat":"37.645834962","long":"127.30507594","items":[{"name":"두리서창현점","tel":"031-592-1030","addr":"경기도 남양주시 화도읍 창현리 562번지","category":"사무통신 - 통신기기"},{"name":"만이갈비 마석점","tel":"031-529-9279","addr":"경기도 남양주시 화도읍 창현리 562번지","category":"일반휴게음식 - 일반한식"},{"name":"창현동물병원","tel":"031-591-5991","addr":"경기도 남양주시 화도읍 창현리 562번지","category":"기타의료기관 - 동물병원"},{"name":"카페글렌창현점","tel":"070-4124-2261","addr":"경기도 남양주시 화도읍 창현리 562번지 1층","category":"일반휴게음식 - 서양음식"},{"name":"힐링샵","tel":"031-592-8387","addr":"경기도 남양주시 화도읍 창현리 562번지 2층 1호","category":"보건위생 - 화장품"}]},{"lat":"37.65164075","long":"127.303683","items":[{"name":"두부촌","tel":"031-559-3912","addr":"경기도 남양주시 화도읍 창현리 497-17","category":"일반휴게음식 - 일반한식"},{"name":"생고기나라","tel":"031-511-0630","addr":"경기도 남양주시 화도읍 창현리 497-17번지 1층","category":"일반휴게음식 - 일반한식"},{"name":"세진세차장","tel":"031-594-6228","addr":"경기도 남양주시 화도읍 창현리 497-17번지","category":"자동차정비 유지 - 세차장"},{"name":"전주콩나물국밥","tel":"031-559-7202","addr":"경기도 남양주시 화도읍 창현리 497-17번지 2동 101호","category":"일반휴게음식 - 일반한식"},{"name":"차오마 미엔","tel":"031-592-7720","addr":"경기도 남양주시 화도읍 창현리 497-17번지 주1동 2층","category":"일반휴게음식 - 중국식"}]},{"lat":"37.648568224","long":"127.30377259","items":[{"name":"두산건설중기","tel":"031-511-7300","addr":"경기도 남양주시 화도읍 창현리 745번지 참현두산2차아파트 209동 801호","category":"기타 - 기계공구"}]},{"lat":"37.636032151","long":"127.31893734","items":[{"name":"두손레져기계","tel":"02-454-4213","addr":"경기도 남양주시 화도읍 창현리 64-10번지 1","category":"수리서비스 - 기타수리서비스"}]},{"lat":"37.634307058","long":"127.32384686","items":[{"name":"두연테크","tel":"02-326-0297","addr":"경기도 남양주시 화도읍 창현리 25번지","category":"신변잡화 - 가방"}]},{"lat":"37.64611362","long":"127.30532635","items":[{"name":"드림아이 태권도장","tel":"031-511-1911","addr":"경기도 남양주시 화도읍 창현리 555번지 4층 404호","category":"학원 - 예·체능계학원"},{"name":"배스킨라빈스","tel":"031-591-4240","addr":"경기도 남양주시 화도읍 창현리 555번지 1층","category":"음료식품 - 제과점"},{"name":"설맥 마석점","tel":"070-4797-8541","addr":"경기도 남양주시 화도읍 창현리 555번지 101호","category":"일반휴게음식 - 주점"},{"name":"쌈촌마석점","tel":"031-595-3366","addr":"경기도 남양주시 화도읍 창현리 555번지 203호","category":"일반휴게음식 - 일반한식"},{"name":"아이엠에스헤어(IM:S HAIR)","tel":"031-595-5933","addr":"경기도 남양주시 화도읍 창현리 555번지 1층","category":"보건위생 - 미용원"},{"name":"전주콩나루콩나물국밥","tel":"031-559-1701","addr":"경기도 남양주시 화도읍 창현리 555번지 2층","category":"일반휴게음식 - 중국식"},{"name":"청년다방","tel":"031-592-5336","addr":"경기도 남양주시 화도읍 창현리 555번지 1층 106호","category":"일반휴게음식 - 일반한식"},{"name":"퀘스트 짐(QUEST GYM)","tel":"031-000-0000","addr":"경기도 남양주시 화도읍 창현리 555번지 3층","category":"레저업소 - 헬스클럽"},{"name":"회포차","tel":"031-591-0923","addr":"경기도 남양주시 화도읍 창현리 555번지 1층 일부","category":"일반휴게음식 - 일반한식"}]},{"lat":"37.64150647","long":"127.30305297","items":[{"name":"디에스트레이드","tel":"","addr":"경기도 남양주시 화도읍 창현리 697-2번지 401호","category":"서적문구 - 문구용품"}]},{"lat":"37.650167328","long":"127.30204532","items":[{"name":"뚱보네 불막창","tel":"031-592-4999","addr":"경기도 남양주시 화도읍 창현리 720-4번지 반석빌리지 1층","category":"일반휴게음식 - 일반한식"}]},{"lat":"37.649804182","long":"127.30313168","items":[{"name":"뚱스땡스","tel":"070-1111-1111","addr":"경기도 남양주시 화도읍 창현리 726-7번지 1층","category":"일반휴게음식 - 일반한식"}]},{"lat":"37.651387123","long":"127.30421457","items":[{"name":"라인","tel":"","addr":"경기도 남양주시 화도읍 창현리 496번지 미리내빌딩 1층","category":"의류 - 정장"},{"name":"카페아크(Cafe Ark)","tel":"","addr":"경기도 남양주시 화도읍 창현리 496번지 1층","category":"일반휴게음식 - 서양음식"}]},{"lat":"37.650614553","long":"127.30332758","items":[{"name":"레드(Red)","tel":"070-7809-7789","addr":"경기도 남양주시 화도읍 창현리 733-7","category":"의류 - 정장"}]},{"lat":"37.652531772","long":"127.30404921","items":[{"name":"루트SNS학원","tel":"031-595-3800","addr":"경기도 남양주시 화도읍 창현리 494-3번지 외1필지 3층","category":"회원제형태 - 학원"},{"name":"마석콜라텍식당","tel":"","addr":"경기도 남양주시 화도읍 창현리 494-3번지 G동 1층","category":"일반휴게음식 - 일반한식"},{"name":"멍구네빵집","tel":"031-594-0130","addr":"경기도 남양주시 화도읍 창현리 494-3번지 1층","category":"음료식품 - 제과점"},{"name":"옥성광고","tel":"031-594-9351","addr":"경기도 남양주시 화도읍 창현리 494-3","category":"용역 서비스 - 종합용역"},{"name":"중앙당구프라자","tel":"031-594-9351","addr":"경기도 남양주시 화도읍 창현리 494-3","category":"레저업소 - 당 구 장"},{"name":"펄스캠 남양주지점","tel":"031-592-7013","addr":"경기도 남양주시 화도읍 창현리 494-3번지 3층","category":"보건위생 - 의료용품"}]},{"lat":"37.649779629","long":"127.30215708","items":[{"name":"리우커피","tel":"070-4414-5549","addr":"경기도 남양주시 화도읍 창현리 720-7번지","category":"일반휴게음식 - 서양음식"},{"name":"리우컴퍼니","tel":"","addr":"경기도 남양주시 화도읍 창현리 720-7번지 1층 2호","category":"주방용구 - 주방용구"},{"name":"지아이엠코리아","tel":"070-4352-2753","addr":"경기도 남양주시 화도읍 창현리 720-7번지","category":"용역 서비스 - 종합용역"}]},{"lat":"37.650728497","long":"127.30457452","items":[{"name":"리콘바이크","tel":"070-7718-9776","addr":"경기도 남양주시 화도읍 창현리 735-3번지","category":"레져용품 - 스포츠·레져용품"},{"name":"세븐일레븐화도창현농협점","tel":"031-1577-0711","addr":"경기도 남양주시 화도읍 창현리 735-3번지","category":"유통업 영리 - 편 의 점"}]},{"lat":"37.650415708","long":"127.30357608","items":[{"name":"리프톤","tel":"031-591-2231","addr":"경기도 남양주시 화도읍 창현리 732-4번지 블루빌 202호","category":"기타 - 기계공구"}]},{"lat":"37.64794916","long":"127.30627428","items":[{"name":"마더코아","tel":"031-595-8266","addr":"경기도 남양주시 화도읍 창현리 551-1번지 3층","category":"주방용구 - 주방용구"},{"name":"세원상사","tel":"031-592-7072","addr":"경기도 남양주시 화도읍 창현리 551-1번지 웰스포 3층 수영복매장","category":"레져용품 - 스포츠·레져용품"},{"name":"웰스크린골프","tel":"031-559-6530","addr":"경기도 남양주시 화도읍 창현리 551-1번지 웰스포빌딩","category":"레저업소 - 스크린골프"},{"name":"웰스포볼링센터","tel":"031-567-5600","addr":"경기도 남양주시 화도읍 창현리 551-1번지 5층","category":"레저업소 - 볼 링 장"},{"name":"웰스포빌딩","tel":"070-4495-5200","addr":"경기도 남양주시 화도읍 창현리 551-1번지","category":"자동차정비 유지 - 주차장"},{"name":"웰스포사우나","tel":"031-594-6181","addr":"경기도 남양주시 화도읍 창현리 551-1번지","category":"일반휴게음식 - 일반한식"},{"name":"웰스포사우나","tel":"031-594-6182","addr":"경기도 남양주시 화도읍 창현리 551-1번지","category":"보건위생 - 사우나"},{"name":"웰스포샵","tel":"031-511-8387","addr":"경기도 남양주시 화도읍 창현리 551-1번지","category":"보건위생 - 화장품"},{"name":"웰스포스넥","tel":"070-5121-6771","addr":"경기도 남양주시 화도읍 창현리 551-1번지 웰스포빌딩 1층","category":"일반휴게음식 - 일반한식"},{"name":"웰스포편의점","tel":"031-567-5600","addr":"경기도 남양주시 화도읍 창현리 551-1번지 5층","category":"유통업 영리 - 편 의 점"},{"name":"정식당","tel":"031-000-0000","addr":"경기도 남양주시 화도읍 창현리 551-1번지","category":"일반휴게음식 - 일반한식"},{"name":"지디알(GDR)골프아카데미마석","tel":"031-511-1110","addr":"경기도 남양주시 화도읍 창현리 551-1번지 웰스포빌딩 3동 3층","category":"레져용품 - 골프용품 전문점"},{"name":"피오레","tel":"031-581-7030","addr":"경기도 남양주시 화도읍 창현리 551-1번지 웰스포빌딩","category":"신변잡화 - 액세서리"}]},{"lat":"37.652253545","long":"127.30362881","items":[{"name":"마무리","tel":"031-594-0341","addr":"경기도 남양주시 화도읍 창현리 497-1번지 성심빌딩 지하","category":"일반휴게음식 - 주점"},{"name":"마석의료기","tel":"031-593-7258","addr":"경기도 남양주시 화도읍 창현리 497-1번지 성심빌딩 1층 103호","category":"보건위생 - 의료용품"},{"name":"성심다방","tel":"031-511-4050","addr":"경기도 남양주시 화도읍 창현리 497-1번지 성심빌딩 지하1층","category":"일반휴게음식 - 서양음식"},{"name":"성심다방","tel":"031-511-4050","addr":"경기도 남양주시 화도읍 창현리 497-1번지 지하1층","category":"일반휴게음식 - 서양음식"},{"name":"코끼리 만두","tel":"031-594-0405","addr":"경기도 남양주시 화도읍 창현리 497-1번지","category":"일반휴게음식 - 스넥"}]},{"lat":"37.64458596","long":"127.30376786","items":[{"name":"마미맘피자치킨","tel":"031-559-5921","addr":"경기도 남양주시 화도읍 창현리 604-2","category":"일반휴게음식 - 서양음식"}]},{"lat":"37.644060417","long":"127.30843393","items":[{"name":"마석 차바닥","tel":"031-591-0029","addr":"경기도 남양주시 화도읍 창현리 379-4번지 1층","category":"자동차정비 유지 - 자동차부품"}]},{"lat":"37.651643785","long":"127.30601735","items":[{"name":"마석고시텔","tel":"031-511-7895","addr":"경기도 남양주시 화도읍 창현리 489-4번지 외1필지 금용빌딩","category":"학원 - 독서실"},{"name":"삼성식당","tel":"031-594-7768","addr":"경기도 남양주시 화도읍 창현리 489-4번지","category":"일반휴게음식 - 일반한식"},{"name":"스카이","tel":"031-111-1111","addr":"경기도 남양주시 화도읍 창현리 489-4번지 금용빌딩 1층","category":"일반휴게음식 - 주점"},{"name":"으니네","tel":"031-559-9633","addr":"경기도 남양주시 화도읍 창현리 489-4번지 1층 금용빌딩","category":"일반휴게음식 - 일반한식"},{"name":"탑 피씨(TOP PC)","tel":"070-9381-2170","addr":"경기도 남양주시 화도읍 창현리 489-4번지 3층 금용빌딩","category":"레저업소 - 기타레져업소"}]},{"lat":"37.652252186","long":"127.3041614","items":[{"name":"마석사우나","tel":"031-594-6503","addr":"경기도 남양주시 화도읍 창현리 495-10번지","category":"보건위생 - 사우나"},{"name":"마석치과의원","tel":"031-595-2875","addr":"경기도 남양주시 화도읍 창현리 495-10번지 현대빌딩 2층","category":"의원 - 치과의원"},{"name":"수정코스메틱","tel":"031-594-5289","addr":"경기도 남양주시 화도읍 창현리 495-10번지 5층","category":"보건위생 - 화장품"},{"name":"창현약국","tel":"031-593-1624","addr":"경기도 남양주시 화도읍 창현리 495-10번지","category":"약국 - 약국"}]},{"lat":"37.646528061","long":"127.30532803","items":[{"name":"마석스크린골프","tel":"031-595-0752","addr":"경기도 남양주시 화도읍 창현리 555-4번지 2층","category":"회원제형태 - 레져업소"}]},{"lat":"37.652614361","long":"127.30346029","items":[{"name":"마석전기","tel":"031-594-2976","addr":"경기도 남양주시 화도읍 창현리 498-1번지","category":"전기제품 - 기타전기제품"},{"name":"마석탁구장","tel":"031-559-4507","addr":"경기도 남양주시 화도읍 창현리 498-1번지 지하층","category":"레저업소 - 기타레져업소"},{"name":"소풍가는날","tel":"031-593-7767","addr":"경기도 남양주시 화도읍 창현리 498-1번지 101호","category":"일반휴게음식 - 일반한식"}]},{"lat":"37.652281065","long":"127.30343628","items":[{"name":"마석정문약국","tel":"070-8775-5678","addr":"경기도 남양주시 화도읍 창현리 498-5번지 대광주택 1층","category":"약국 - 약국"}]},{"lat":"37.649671428","long":"127.30219064","items":[{"name":"마석정일보습학원","tel":"031-594-2827","addr":"경기도 남양주시 화도읍 창현리 720-8번지","category":"학원 - 기타 교육기관"}]},{"lat":"37.649223463","long":"127.3047384","items":[{"name":"마석초병설유치원[아이행복]","tel":"031-593-6390","addr":"경기도 남양주시 화도읍 창현리 517-1번지 마석초등학교","category":"학원 - 유치원"}]},{"lat":"37.649777874","long":"127.30284829","items":[{"name":"마음을먹다","tel":"031-511-4040","addr":"경기도 남양주시 화도읍 창현리 726-9번지 1층","category":"일반휴게음식 - 일반한식"}]},{"lat":"37.637002647","long":"127.3096626","items":[{"name":"만나김밥","tel":"031-591-3005","addr":"경기도 남양주시 화도읍 창현리 320번지 1층","category":"일반휴게음식 - 일반한식"}]},{"lat":"37.65147237","long":"127.3061073","items":[{"name":"만화카페 튠","tel":"070-4213-8030","addr":"경기도 남양주시 화도읍 창현리 489-6번지","category":"일반휴게음식 - 서양음식"},{"name":"이규로동물병원","tel":"031-593-7751","addr":"경기도 남양주시 화도읍 창현리 489-6번지","category":"기타의료기관 - 동물병원"}]},{"lat":"37.643089154","long":"127.3042377","items":[{"name":"맘스아동복","tel":"031-593-2084","addr":"경기도 남양주시 화도읍 창현리 648번지","category":"의류 - 아동의류"}]},{"lat":"37.647725056","long":"127.30583145","items":[{"name":"매콤코다리마석점","tel":"031-593-0288","addr":"경기도 남양주시 화도읍 창현리 551-2번지","category":"일반휴게음식 - 일반한식"},{"name":"세븐힐스","tel":"031-595-0033","addr":"경기도 남양주시 화도읍 창현리 551-2번지 지층","category":"일반휴게음식 - 주점"},{"name":"장수등갈비","tel":"031-511-1377","addr":"경기도 남양주시 화도읍 창현리 551-2번지","category":"일반휴게음식 - 일반한식"},{"name":"제이제이다이어트복싱","tel":"031-594-5582","addr":"경기도 남양주시 화도읍 창현리 551-2번지 2층","category":"회원제형태 - 레져업소"},{"name":"컬투치킨화도사랑1호점","tel":"031-593-8295","addr":"경기도 남양주시 화도읍 창현리 551-2번지 외2필지","category":"일반휴게음식 - 주점"}]},{"lat":"37.649886766","long":"127.30254278","items":[{"name":"맥주천국","tel":"031-559-2700","addr":"경기도 남양주시 화도읍 창현리 726-2번지","category":"일반휴게음식 - 주점"},{"name":"명주막","tel":"031-511-0399","addr":"경기도 남양주시 화도읍 창현리 726-2","category":"일반휴게음식 - 주점"}]},{"lat":"37.651192082","long":"127.30649144","items":[{"name":"맵시나","tel":"031-591-5436","addr":"경기도 남양주시 화도읍 창현리 469-21번지 101호","category":"의류 - 정장"},{"name":"명성의료기","tel":"031-591-1716","addr":"경기도 남양주시 화도읍 창현리 469-21번지","category":"보건위생 - 의료용품"},{"name":"주식회사성하트레이딩","tel":"031-592-2210","addr":"경기도 남양주시 화도읍 창현리 469-21번지","category":"주방용구 - 주방용식기"},{"name":"현만물사","tel":"031-594-7807","addr":"경기도 남양주시 화도읍 창현리 469-21번지","category":"수리서비스 - 가정용품수리"}]},{"lat":"37.650026648","long":"127.3042204","items":[{"name":"머꼬머꼬","tel":"031-1111-1111","addr":"경기도 남양주시 화도읍 창현리 729번지 대광프라자 112호","category":"일반휴게음식 - 스넥"},{"name":"미노","tel":"","addr":"경기도 남양주시 화도읍 창현리 729번지 대광프라자 201호","category":"일반휴게음식 - 일반한식"},{"name":"엔학고레카페","tel":"","addr":"경기도 남양주시 화도읍 창현리 729번지 대광프라자 202호 일부","category":"일반휴게음식 - 서양음식"},{"name":"인더슬라임","tel":"","addr":"경기도 남양주시 화도읍 창현리 729번지 대광프라자 2층 203호","category":"레저업소 - 기타레져업소"},{"name":"쭈네","tel":"","addr":"경기도 남양주시 화도읍 창현리 729번지 대광프라자 1층 104호","category":"일반휴게음식 - 일반한식"}]},{"lat":"37.651277501","long":"127.30480337","items":[{"name":"머다쉐프바비큐카페","tel":"070-4304-5884","addr":"경기도 남양주시 화도읍 창현리 483-3번지","category":"일반휴게음식 - 일반한식"},{"name":"임성용한의원","tel":"031-523-3391","addr":"경기도 남양주시 화도읍 창현리 483-3번지 2층","category":"의원 - 한의원"},{"name":"주식회사 머다","tel":"031-591-4502","addr":"경기도 남양주시 화도읍 창현리 483-3번지 4층","category":"보건위생 - 의료용품"}]},{"lat":"37.652219902","long":"127.30621233","items":[{"name":"명동의류","tel":"031-511-0105","addr":"경기도 남양주시 화도읍 창현리 488-3번지 1층","category":"의류 - 정장"},{"name":"창현반점","tel":"031-594-9288","addr":"경기도 남양주시 화도읍 창현리 488-3번지","category":"일반휴게음식 - 중국식"}]},{"lat":"37.650054891","long":"127.30374459","items":[{"name":"모꼬지보쌈","tel":"031-594-0759","addr":"경기도 남양주시 화도읍 창현리 727-4번지","category":"일반휴게음식 - 일반한식"}]},{"lat":"37.636089189","long":"127.32118079","items":[{"name":"모란카페","tel":"031-595-8456","addr":"경기도 남양주시 화도읍 창현리 58-8번지","category":"일반휴게음식 - 서양음식"}]},{"lat":"37.63739625","long":"127.30727369","items":[{"name":"뮤엠영어엘가나영어교습소","tel":"","addr":"경기도 남양주시 화도읍 창현리 329-1번지 영남탑스빌아파트 103호","category":"학원 - 외국어학원"}]},{"lat":"37.64653203","long":"127.30377571","items":[{"name":"뮤엠영어창현교습소","tel":"031-594-0570","addr":"경기도 남양주시 화도읍 창현리 749 신명상가201-2호","category":"회원제형태 - 학원"},{"name":"사랑치과","tel":"031-594-5795","addr":"경기도 남양주시 화도읍 창현리 749번지 신명상가 204호","category":"의원 - 치과의원"},{"name":"신나는음악학원","tel":"031-593-9811","addr":"경기도 남양주시 화도읍 창현리 749번지 신명상가 3층 306-2호, 307호","category":"학원 - 예·체능계학원"},{"name":"신명세탁소","tel":"031-594-7471","addr":"경기도 남양주시 화도읍 창현리 749 신명상가2층 206","category":"수리서비스 - 세탁소"},{"name":"신명어린이집[아이행복]","tel":"031-595-7531","addr":"경기도 남양주시 화도읍 창현리 749번지","category":"학원 - 유아원"},{"name":"신명인테리어","tel":"031-593-0819","addr":"경기도 남양주시 화도읍 창현리 749번지 신명상가 27호","category":"건축자재 - 인테리어전문"},{"name":"연세약국","tel":"031-593-2055","addr":"경기도 남양주시 화도읍 창현리 749번지","category":"약국 - 약국"}]},{"lat":"37.652365278","long":"127.30573698","items":[{"name":"뮤젠노래연습장","tel":"031-1111-1111","addr":"경기도 남양주시 화도읍 창현리 489-1번지","category":"레저업소 - 노 래 방"},{"name":"치아나라그룹","tel":"031-592-2082","addr":"경기도 남양주시 화도읍 창현리 489-1 4층","category":"의원 - 치과의원"}]},{"lat":"37.652305607","long":"127.30441092","items":[{"name":"미래성외우리반점","tel":"031-594-4066","addr":"경기도 남양주시 화도읍 창현리 494-11번지","category":"일반휴게음식 - 중국식"}]},{"lat":"37.638947576","long":"127.32032059","items":[{"name":"미성헬스뱅크","tel":"031-527-9967","addr":"경기도 남양주시 화도읍 창현리 86-7번지","category":"레져용품 - 스포츠·레져용품"}]},{"lat":"37.65239187","long":"127.30590707","items":[{"name":"미소바른치과의원","tel":"031-593-9990","addr":"경기도 남양주시 화도읍 창현리 489-14번지 2층","category":"의원 - 치과의원"},{"name":"바른정형외과","tel":"031-559-7575","addr":"경기도 남양주시 화도읍 창현리 489-14번지 5층","category":"의원 - 의원"},{"name":"해양약국","tel":"031-594-1424","addr":"경기도 남양주시 화도읍 창현리 489-14번지","category":"약국 - 약국"},{"name":"행운라이브","tel":"031-511-3789","addr":"경기도 남양주시 화도읍 창현리 489-14번지 지하층","category":"일반휴게음식 - 주점"}]},{"lat":"37.650641236","long":"127.30346367","items":[{"name":"미트샵","tel":"031-593-2244","addr":"경기도 남양주시 화도읍 창현리 733-6번지 1층","category":"일반휴게음식 - 일반한식"},{"name":"미트샵","tel":"031-593-2244","addr":"경기도 남양주시 화도읍 창현리 733-6번지 1층","category":"음료식품 - 정육점"}]},{"lat":"37.652608722","long":"127.30213444","items":[{"name":"민트휴","tel":"031-000-0000","addr":"경기도 남양주시 화도읍 창현리 503-10번지 오성주택 102호","category":"문화.취미 - 문화취미기타"}]},{"lat":"37.651498408","long":"127.30649269","items":[{"name":"박여사지지미골호프","tel":"031-511-4905","addr":"경기도 남양주시 화도읍 창현리 488-20번지","category":"일반휴게음식 - 일반한식"},{"name":"핸드폰가게화도점","tel":"031-592-6018","addr":"경기도 남양주시 화도읍 창현리 488-20번지","category":"사무통신 - 통신기기"},{"name":"화사랑화장품","tel":"031-593-7504","addr":"경기도 남양주시 화도읍 창현리 488-20번지","category":"보건위생 - 화장품"}]},{"lat":"37.650333002","long":"127.30421031","items":[{"name":"백두태권도","tel":"031-593-5707","addr":"경기도 남양주시 화도읍 창현리 731-3번지 5층 청일빌딩","category":"학원 - 예·체능계학원"},{"name":"별밤지기","tel":"031-577-3436","addr":"경기도 남양주시 화도읍 창현리 731-3번지 8층 청일빌딩","category":"일반휴게음식 - 주점"},{"name":"수영당구클럽","tel":"070-4332-9171","addr":"경기도 남양주시 화도읍 창현리 731-3번지 3층 청일빌딩","category":"레저업소 - 당 구 장"},{"name":"왕자와공주","tel":"070-4159-6720","addr":"경기도 남양주시 화도읍 창현리 731-3번지","category":"레저업소 - 기타레져업소"},{"name":"이보영의토킹클럽큰빛학원","tel":"031-595-7705","addr":"경기도 남양주시 화도읍 창현리 731-3번지 청일빌딩 4층","category":"학원 - 외국어학원"},{"name":"창현이제마체질독서실","tel":"031-511-8895","addr":"경기도 남양주시 화도읍 창현리 731-3번지 청일빌딩 2층","category":"학원 - 독서실"},{"name":"코끼리날다음악미술보습학원","tel":"031-594-7790","addr":"경기도 남양주시 화도읍 창현리 731-3번지 6층 청일빌딩","category":"학원 - 예·체능계학원"}]},{"lat":"37.652530556","long":"127.30452515","items":[{"name":"벅스마루굼벵이","tel":"","addr":"경기도 남양주시 화도읍 창현리 494-18번지 1층 103호","category":"건강식품 - 기타건강식품"},{"name":"영포차","tel":"031-593-0763","addr":"경기도 남양주시 화도읍 창현리 494-18번지","category":"일반휴게음식 - 일반한식"},{"name":"최진사치킨호프","tel":"031-593-2845","addr":"경기도 남양주시 화도읍 창현리 494-18번지 104호","category":"일반휴게음식 - 스넥"},{"name":"킹스노래연습장","tel":"031-511-6268","addr":"경기도 남양주시 화도읍 창현리 494-18번지 지하1층","category":"레저업소 - 노 래 방"},{"name":"푸드독","tel":"","addr":"경기도 남양주시 화도읍 창현리 494-18번지 102호","category":"문화.취미 - 애완동물"},{"name":"혜영유통","tel":"031-594-0600","addr":"경기도 남양주시 화도읍 창현리 494-18번지","category":"음료식품 - 농·축·수산품"}]},{"lat":"37.645000459","long":"127.30374687","items":[{"name":"베가모터스","tel":"031-559-5867","addr":"경기도 남양주시 화도읍 창현리 600-6","category":"자동차정비 유지 - 자동차정비"},{"name":"학사","tel":"031-591-1671","addr":"경기도 남양주시 화도읍 창현리 600-6번지 1층","category":"자동차정비 유지 - 세차장"}]},{"lat":"37.651777646","long":"127.30651649","items":[{"name":"벨","tel":"031-594-3306","addr":"경기도 남양주시 화도읍 창현리 488-17번지","category":"의류 - 정장"},{"name":"수원갈비탕","tel":"031-511-3952","addr":"경기도 남양주시 화도읍 창현리 488-17번지","category":"일반휴게음식 - 일반한식"}]},{"lat":"37.651390234","long":"127.30651491","items":[{"name":"부흥떡집","tel":"031-595-2272","addr":"경기도 남양주시 화도읍 창현리 469-19번지 102호","category":"음료식품 - 기타음료식품"}]},{"lat":"37.652474236","long":"127.3054088","items":[{"name":"브이원커머스","tel":"031-594-5455","addr":"경기도 남양주시 화도읍 창현리 491-4번지 상가 1층","category":"의류 - 내의판매"}]},{"lat":"37.64962003","long":"127.30818475","items":[{"name":"브이티브이","tel":"","addr":"경기도 남양주시 화도읍 창현리 438-14번지 삼우M타운빌리지 104동 1층 102호","category":"용역 서비스 - 종합용역"}]},{"lat":"37.635389637","long":"127.31321335","items":[{"name":"블루텍정공 (주)","tel":"031-591-1108","addr":"경기도 남양주시 화도읍 창현리 190-1번지","category":"자동차판매 - 기타운송"}]},{"lat":"37.652030614","long":"127.30624555","items":[{"name":"비어뱅크","tel":"031-1111-1111","addr":"경기도 남양주시 화도읍 창현리 488-5번지 2층","category":"일반휴게음식 - 주점"},{"name":"쌍둥이의류","tel":"031-593-0668","addr":"경기도 남양주시 화도읍 창현리 488-5","category":"의류 - 정장"},{"name":"토탈의류직매장","tel":"031-559-0656","addr":"경기도 남양주시 화도읍 창현리 488-5번지","category":"의류 - 정장"}]},{"lat":"37.650200805","long":"127.30305396","items":[{"name":"뼈다귀 정 감자탕","tel":"031-591-8841","addr":"경기도 남양주시 화도읍 창현리 725-7번지","category":"일반휴게음식 - 일반한식"}]},{"lat":"37.651473883","long":"127.30551806","items":[{"name":"사라","tel":"03-111-1111","addr":"경기도 남양주시 화도읍 창현리 484-5번지 101호","category":"일반휴게음식 - 일반한식"},{"name":"이쁜여우","tel":"031-594-7230","addr":"경기도 남양주시 화도읍 창현리 484-5","category":"일반휴게음식 - 주점"}]},{"lat":"37.650949551","long":"127.30268303","items":[{"name":"사랑유치원[아이행복]","tel":"031-595-4320","addr":"경기도 남양주시 화도읍 창현리 723-7번지","category":"학원 - 유치원"}]},{"lat":"37.638279776","long":"127.3139618","items":[{"name":"삼성주물공업사","tel":"031-593-7800","addr":"경기도 남양주시 화도읍 창현리 153-2","category":"건축자재 - 목재·석재·철물"}]},{"lat":"37.645555596","long":"127.30859869","items":[{"name":"삼우산업","tel":"031-593-5011","addr":"경기도 남양주시 화도읍 창현리 396번지","category":"가구 - 일반가구"}]},{"lat":"37.642669736","long":"127.30966324","items":[{"name":"상일에스피","tel":"031-592-8120","addr":"경기도 남양주시 화도읍 창현리 383-3번지","category":"용역 서비스 - 종합용역"},{"name":"현대벽난로","tel":"","addr":"경기도 남양주시 화도읍 창현리 383-3번지 1층 2호","category":"전기제품 - 냉열기기"}]},{"lat":"37.645694492","long":"127.30007849","items":[{"name":"샤론헤어라인","tel":"031-594-9276","addr":"경기도 남양주시 화도읍 창현리 764번지 신한토탈상가 113","category":"보건위생 - 미용원"},{"name":"샤론헤어라인","tel":"","addr":"경기도 남양주시 화도읍 창현리 764번지 신한토탈 상가 1층 112,113호","category":"보건위생 - 미용원"},{"name":"창현태권도장","tel":"031-595-3354","addr":"경기도 남양주시 화도읍 창현리 764번지 신한 상가 204,205호","category":"학원 - 예·체능계학원"}]},{"lat":"37.640114065","long":"127.30143851","items":[{"name":"샤론헤어샵","tel":"031-559-5760","addr":"경기도 남양주시 화도읍 창현리 774번지 현대피오레아파트 상가동 103호","category":"보건위생 - 미용원"},{"name":"엄마손","tel":"031-511-2530","addr":"경기도 남양주시 화도읍 창현리 774번지 창현대주피오레 상가 101호","category":"일반휴게음식 - 일반한식"},{"name":"제이빌리어드","tel":"031-000-0000","addr":"경기도 남양주시 화도읍 창현리 774번지 창현대주피오레","category":"레저업소 - 당 구 장"}]},{"lat":"37.638336112","long":"127.31987614","items":[{"name":"서진식당","tel":"031-594-7520","addr":"경기도 남양주시 화도읍 창현리 76-8번지","category":"일반휴게음식 - 일반한식"}]},{"lat":"37.650309439","long":"127.30285043","items":[{"name":"선미용실","tel":"031-594-0389","addr":"경기도 남양주시 화도읍 창현리 725-5번지","category":"보건위생 - 미용원"}]},{"lat":"37.639195461","long":"127.3152119","items":[{"name":"성진기계","tel":"031-593-2375","addr":"경기도 남양주시 화도읍 창현리 156-7번지","category":"기타 - 기계공구"}]},{"lat":"37.652696255","long":"127.30314333","items":[{"name":"세븐일레븐남양주창현점","tel":"","addr":"경기도 남양주시 화도읍 창현리 501번지 광원아파트 A동 105호","category":"유통업 영리 - 편 의 점"}]},{"lat":"37.652556106","long":"127.30510317","items":[{"name":"송라문구","tel":"031-594-2580","addr":"경기도 남양주시 화도읍 창현리 493-5번지","category":"서적문구 - 문구용품"}]},{"lat":"37.648805943","long":"127.30593782","items":[{"name":"슈나애견미용카페","tel":"031-594-5906","addr":"경기도 남양주시 화도읍 창현리 547-2번지 2층","category":"문화.취미 - 애완동물"},{"name":"신의주찹쌀순대","tel":"031-591-2025","addr":"경기도 남양주시 화도읍 창현리 547-2","category":"일반휴게음식 - 일반한식"}]},{"lat":"37.651890587","long":"127.30463588","items":[{"name":"스마트대리운전","tel":"031-1666-7113","addr":"경기도 남양주시 화도읍 창현리 482-3번지 1층","category":"보건위생 - 기타대인서비스"},{"name":"창현슈퍼","tel":"031-511-0360","addr":"경기도 남양주시 화도읍 창현리 482-3번지","category":"유통업 영리 - 슈퍼마켓"}]},{"lat":"37.650472734","long":"127.30240916","items":[{"name":"스텝","tel":"031-595-6462","addr":"경기도 남양주시 화도읍 창현리 724-11번지","category":"일반휴게음식 - 주점"}]},{"lat":"37.652282182","long":"127.30651854","items":[{"name":"스피드15660933","tel":"031-1566-0933","addr":"경기도 남양주시 화도읍 창현리 488-1번지","category":"보건위생 - 기타대인서비스"}]},{"lat":"37.652588314","long":"127.3030749","items":[{"name":"승진설비","tel":"031-594-1937","addr":"경기도 남양주시 화도읍 창현리 501번지 광원아파트","category":"건축자재 - 목재·석재·철물"},{"name":"파크세탁소","tel":"031-593-1122","addr":"경기도 남양주시 화도읍 창현리 501번지 광원아파트 104호","category":"수리서비스 - 세탁소"}]},{"lat":"37.642644532","long":"127.30896066","items":[{"name":"신성가설재","tel":"031-594-1509","addr":"경기도 남양주시 화도읍 창현리 382-6번지 외 1필지","category":"건축자재 - 기타건축자재"}]},{"lat":"37.65075013","long":"127.30315816","items":[{"name":"신성자동차유리","tel":"031-575-4345","addr":"경기도 남양주시 화도읍 창현리 733-1번지 월드 403호","category":"자동차정비 유지 - 자동차정비"}]},{"lat":"37.641724025","long":"127.30954605","items":[{"name":"신화도렉카","tel":"031-593-5700","addr":"경기도 남양주시 화도읍 창현리 366-19번지","category":"자동차정비 유지 - 견인서비스"}]},{"lat":"37.649866614","long":"127.30338123","items":[{"name":"씨유화도창현점","tel":"031-511-3565","addr":"경기도 남양주시 화도읍 창현리 727-8번지 1층","category":"유통업 영리 - 편 의 점"},{"name":"커피마스터리","tel":"","addr":"경기도 남양주시 화도읍 창현리 727-8번지 2층 명하빌딩","category":"학원 - 기능학원"}]},{"lat":"37.64997545","long":"127.30309838","items":[{"name":"아레테영어학원","tel":"070-4150-4911","addr":"경기도 남양주시 화도읍 창현리 726-6번지 2층","category":"학원 - 보습학원"},{"name":"우리식당","tel":"031-559-8902","addr":"경기도 남양주시 화도읍 창현리 726-6","category":"일반휴게음식 - 일반한식"},{"name":"우리정육점","tel":"031-559-8902","addr":"경기도 남양주시 화도읍 창현리 726-6","category":"음료식품 - 정육점"}]},{"lat":"37.648141727","long":"127.30846198","items":[{"name":"아모레카운셀러","tel":"","addr":"경기도 남양주시 화도읍 창현리 447-12번지 월드그린타운 101동 201호","category":"보건위생 - 화장품"}]},{"lat":"37.650085466","long":"127.30235095","items":[{"name":"아모레카운셀러","tel":"031-593-3292","addr":"경기도 남양주시 화도읍 창현리 725-12번지 아인아트빌","category":"보건위생 - 화장품"}]},{"lat":"37.648781406","long":"127.3084646","items":[{"name":"아모레카운셀러","tel":"031-593-3292","addr":"경기도 남양주시 화도읍 창현리 449-1번지","category":"보건위생 - 화장품"}]},{"lat":"37.641078916","long":"127.30466012","items":[{"name":"아스트로켐시스","tel":"070-4274-7608","addr":"경기도 남양주시 화도읍 창현리 777번지 이안남양주 104동 1203호","category":"서적문구 - 과학기자재"}]},{"lat":"37.64975119","long":"127.30271221","items":[{"name":"아싸떡볶이","tel":"","addr":"경기도 남양주시 화도읍 창현리 726-10번지","category":"일반휴게음식 - 스넥"},{"name":"엄지양꼬치","tel":"031-592-1426","addr":"경기도 남양주시 화도읍 창현리 726-10번지 1층","category":"일반휴게음식 - 일반한식"}]},{"lat":"37.650447924","long":"127.30507197","items":[{"name":"알파오메가 마석점","tel":"031-595-8433","addr":"경기도 남양주시 화도읍 창현리 737-3번지","category":"신변잡화 - 기타잡화"}]},{"lat":"37.642173209","long":"127.30304432","items":[{"name":"양평해장국순대국","tel":"031-559-9059","addr":"경기도 남양주시 화도읍 창현리 640-4번지","category":"일반휴게음식 - 일반한식"}]},{"lat":"37.650446769","long":"127.30198979","items":[{"name":"어메집","tel":"031-575-5522","addr":"경기도 남양주시 화도읍 창현리 720-2번지","category":"일반휴게음식 - 일반한식"},{"name":"어메집","tel":"031-595-5522","addr":"경기도 남양주시 화도읍 창현리 720-2번지 상현빌 1층","category":"음료식품 - 정육점"}]},{"lat":"37.640528134","long":"127.30158746","items":[{"name":"에너지 원","tel":"031-513-1196","addr":"경기도 남양주시 화도읍 창현리 774번지 창현대주피오레 101동 402호","category":"기타 - 기계공구"}]},{"lat":"37.6409222","long":"127.3025181","items":[{"name":"엔엠테크","tel":"","addr":"경기도 남양주시 화도읍 창현리 703번지 한성빌라 403호","category":"전기제품 - 기타전기제품"}]},{"lat":"37.639282118","long":"127.31988015","items":[{"name":"엘엔에스(L&S furniture)","tel":"031-594-5256","addr":"경기도 남양주시 화도읍 창현리 92번지","category":"가구 - 일반가구"}]},{"lat":"37.650138458","long":"127.30277042","items":[{"name":"엘호프","tel":"031-595-7954","addr":"경기도 남양주시 화도읍 창현리 725-9번지 글로리아빌 1층","category":"일반휴게음식 - 주점"}]},{"lat":"37.64814002","long":"127.30562918","items":[{"name":"연세음악미술학원","tel":"031-595-8555","addr":"경기도 남양주시 화도읍 창현리 546-6, 547-1, 547-16","category":"학원 - 예·체능계학원"}]},{"lat":"37.636667925","long":"127.31362653","items":[{"name":"영초산삼","tel":"031-593-4308","addr":"경기도 남양주시 화도읍 창현리 188번지","category":"건강식품 - 인삼제품"}]},{"lat":"37.642504861","long":"127.30371414","items":[{"name":"예경무늬목","tel":"031-593-9948","addr":"경기도 남양주시 화도읍 창현리 646-7번지","category":"건축자재 - 목재·석재·철물"},{"name":"투썸플레이스 남양주화도점","tel":"031-594-5943","addr":"경기도 남양주시 화도읍 창현리 646-7번지","category":"일반휴게음식 - 서양음식"}]},{"lat":"37.65044605","long":"127.30227307","items":[{"name":"옛날통닭","tel":"031-595-9555","addr":"경기도 남양주시 화도읍 창현리 724-12번지 1층 101호","category":"일반휴게음식 - 스넥"}]},{"lat":"37.649198016","long":"127.30762779","items":[{"name":"오일플레이스","tel":"031-511-1810","addr":"경기도 남양주시 화도읍 창현리 438-10번지","category":"자동차정비 유지 - 자동차부품"},{"name":"제트에프 존","tel":"031-593-3414","addr":"경기도 남양주시 화도읍 창현리 438-10번지 1층","category":"자동차정비 유지 - 윤활유 전문 판매"}]},{"lat":"37.650554941","long":"127.30196756","items":[{"name":"왕십리곱창","tel":"031-511-0706","addr":"경기도 남양주시 화도읍 창현리 720-1번지 1층 로즈빌","category":"일반휴게음식 - 일반한식"}]},{"lat":"37.639975736","long":"127.30621919","items":[{"name":"용성자동문","tel":"070-4242-1017","addr":"경기도 남양주시 화도읍 창현리 663-12번지 대양하이빌 104동 102호","category":"회원제형태 - 기타4"}]},{"lat":"37.651919758","long":"127.30379744","items":[{"name":"원마트","tel":"070-5022-9809","addr":"경기도 남양주시 화도읍 창현리 497-11번지 대광주택","category":"유통업 영리 - 슈퍼마켓"}]},{"lat":"37.650311539","long":"127.30202324","items":[{"name":"원조오향족발","tel":"031-592-9755","addr":"경기도 남양주시 화도읍 창현리 720-3","category":"일반휴게음식 - 일반한식"}]},{"lat":"37.639892195","long":"127.30365829","items":[{"name":"의정부부대찌개","tel":"031-591-5296","addr":"경기도 남양주시 화도읍 창현리 675-2번지","category":"일반휴게음식 - 일반한식"}]},{"lat":"37.641478172","long":"127.30355138","items":[{"name":"이노헤어","tel":"031-593-1028","addr":"경기도 남양주시 화도읍 창현리 672-6번지","category":"보건위생 - 미용원"}]},{"lat":"37.650112121","long":"127.30249836","items":[{"name":"이맛에산다","tel":"070-7799-5875","addr":"경기도 남양주시 화도읍 창현리 725-11번지 1층 골든빌","category":"일반휴게음식 - 일반한식"}]},{"lat":"37.649699913","long":"127.30864967","items":[{"name":"이비자(IBIZA)","tel":"031-595-6331","addr":"경기도 남양주시 화도읍 창현리 438-15번지 삼우M타운빌리지 107동 401호","category":"수리서비스 - 기타수리서비스"}]},{"lat":"37.652058362","long":"127.30243819","items":[{"name":"이승호정형외과의원","tel":"031-593-2448","addr":"경기도 남양주시 화도읍 창현리 503-4번지","category":"의원 - 의원"}]},{"lat":"37.641610278","long":"127.30474158","items":[{"name":"이안플러스","tel":"031-559-7778","addr":"경기도 남양주시 화도읍 창현리 777번지 상가동 2층 1,2호","category":"일반휴게음식 - 주점"}]},{"lat":"37.639506888","long":"127.30282966","items":[{"name":"일품라이스","tel":"02-857-0377","addr":"경기도 남양주시 화도읍 창현리 681번지","category":"음료식품 - 미곡상"}]},{"lat":"37.65194874","long":"127.30655118","items":[{"name":"자연으로","tel":"031-592-2999","addr":"경기도 남양주시 화도읍 창현리 488-13번지","category":"의류 - 정장"}]},{"lat":"37.649895401","long":"127.30269013","items":[{"name":"자연홍가","tel":"031-593-9099","addr":"경기도 남양주시 화도읍 창현리 726-3번지 1층","category":"일반휴게음식 - 일반한식"}]},{"lat":"37.642839774","long":"127.30310365","items":[{"name":"장대박","tel":"031-592-7710","addr":"경기도 남양주시 화도읍 창현리 643-1번지 1층 101호","category":"일반휴게음식 - 일반한식"}]},{"lat":"37.650362487","long":"127.30324725","items":[{"name":"전부치는집","tel":"031-559-9119","addr":"경기도 남양주시 화도읍 창현리 732-1번지","category":"일반휴게음식 - 일반한식"}]},{"lat":"37.650028498","long":"127.30349519","items":[{"name":"족가네","tel":"031-559-0550","addr":"경기도 남양주시 화도읍 창현리 727-2번지 1층","category":"일반휴게음식 - 일반한식"},{"name":"주식회사 참살이푸드","tel":"031-513-3331","addr":"경기도 남양주시 화도읍 창현리 727-2번지 1층 101호","category":"음료식품 - 기타음료식품"}]},{"lat":"37.64600095","long":"127.31057208","items":[{"name":"주노디자인","tel":"031-511-4253","addr":"경기도 남양주시 화도읍 창현리 399","category":"가구 - 일반가구"}]},{"lat":"37.651945369","long":"127.3043528","items":[{"name":"주식회사 카페씨","tel":"070-8816-3333","addr":"경기도 남양주시 화도읍 창현리 495-3번지","category":"일반휴게음식 - 서양음식"}]},{"lat":"37.63689568","long":"127.30922031","items":[{"name":"주식회사 피스티스","tel":"031-511-2915","addr":"경기도 남양주시 화도읍 창현리 326-1번지 1호","category":"사무통신 - 컴퓨터"}]},{"lat":"37.650336523","long":"127.30635198","items":[{"name":"줄리앤줄리아","tel":"031-593-1056","addr":"경기도 남양주시 화도읍 창현리 469-3번지 1층","category":"의류 - 정장"}]},{"lat":"37.634308039","long":"127.31337879","items":[{"name":"지금 특장 냉동차","tel":"031-591-4562","addr":"경기도 남양주시 화도읍 창현리 193-2번지","category":"자동차판매 - 기타운송"}]},{"lat":"37.648973332","long":"127.30741157","items":[{"name":"지니.케이 카페","tel":"031-559-3180","addr":"경기도 남양주시 화도읍 창현리 438번지 1층","category":"일반휴게음식 - 서양음식"}]},{"lat":"37.642506564","long":"127.30304566","items":[{"name":"지니살롱","tel":"031-511-0727","addr":"경기도 남양주시 화도읍 창현리 641-1번지","category":"보건위생 - 미용원"},{"name":"찜사랑","tel":"031-591-5912","addr":"경기도 남양주시 화도읍 창현리 641-1번지 1층","category":"일반휴게음식 - 일반한식"},{"name":"타이어코리아TK화도점","tel":"031-559-4477","addr":"경기도 남양주시 화도읍 창현리 641-1번지","category":"자동차정비 유지 - 자동차시트·타이어"}]},{"lat":"37.647863134","long":"127.30818889","items":[{"name":"지산닭도리탕전문점","tel":"031-592-1174","addr":"경기도 남양주시 화도읍 창현리 446-4번지 201동 1층 101호","category":"일반휴게음식 - 일반한식"}]},{"lat":"37.65247252","long":"127.30607737","items":[{"name":"지오유통","tel":"031-593-3111","addr":"경기도 남양주시 화도읍 창현리 488-6번지","category":"전기제품 - 가전제품"}]},{"lat":"37.649893296","long":"127.30351731","items":[{"name":"짬뽕의신","tel":"031-594-7424","addr":"경기도 남양주시 화도읍 창현리 727-7번지","category":"일반휴게음식 - 중국식"},{"name":"퍼펙트광택","tel":"031-593-5882","addr":"경기도 남양주시 화도읍 창현리 727-7번지 201호","category":"자동차정비 유지 - 카인테리어"}]},{"lat":"37.646445846","long":"127.29866511","items":[{"name":"창현생태유치원[아이행복]","tel":"031-591-4009","addr":"경기도 남양주시 화도읍 창현리 762번지","category":"학원 - 유치원"}]},{"lat":"37.634111401","long":"127.3229057","items":[{"name":"창현슈퍼","tel":"031-594-8423","addr":"경기도 남양주시 화도읍 창현리 23-4번지","category":"유통업 영리 - 슈퍼마켓"}]},{"lat":"37.645581882","long":"127.30185697","items":[{"name":"창현초등학교병설유치원[아이행복]","tel":"031-595-2144","addr":"경기도 남양주시 화도읍 창현리 766번지 창현초등학교","category":"학원 - 유치원"}]},{"lat":"37.650389256","long":"127.30334934","items":[{"name":"처갓집양념치킨","tel":"031-592-1441","addr":"경기도 남양주시 화도읍 창현리 732-2번지 1층","category":"일반휴게음식 - 스넥"}]},{"lat":"37.643615377","long":"127.30280085","items":[{"name":"천광카센타","tel":"031-594-0728","addr":"경기도 남양주시 화도읍 창현리 631번지","category":"자동차정비 유지 - 자동차부품"}]},{"lat":"37.650561476","long":"127.3029421","items":[{"name":"춘천명가닭갈비","tel":"031-593-5654","addr":"경기도 남양주시 화도읍 창현리 724-7","category":"일반휴게음식 - 일반한식"}]},{"lat":"37.635084978","long":"127.31257765","items":[{"name":"큰별 타이어","tel":"","addr":"경기도 남양주시 화도읍 창현리 190-35번지","category":"자동차정비 유지 - 자동차시트·타이어"},{"name":"큰별공업사","tel":"031-593-2941","addr":"경기도 남양주시 화도읍 창현리 190-35번지","category":"자동차정비 유지 - 자동차정비"}]},{"lat":"37.650581338","long":"127.30221696","items":[{"name":"타이양","tel":"031-511-4325","addr":"경기도 남양주시 화도읍 창현리 724-1번지 1층 101호","category":"일반휴게음식 - 중국식"}]},{"lat":"37.651276224","long":"127.30530196","items":[{"name":"타이어아울렛","tel":"031-511-0957","addr":"경기도 남양주시 화도읍 창현리 482-11번지 외2필지","category":"자동차정비 유지 - 자동차시트·타이어"}]},{"lat":"37.649922084","long":"127.30282621","items":[{"name":"투다리","tel":"031-595-5382","addr":"경기도 남양주시 화도읍 창현리 726-4번지 투다리","category":"일반휴게음식 - 주점"}]},{"lat":"37.650055238","long":"127.30360862","items":[{"name":"펫츠헬스(수제명가)","tel":"","addr":"경기도 남양주시 화도읍 창현리 727-3번지 1층","category":"문화.취미 - 애완동물"}]},{"lat":"37.649783989","long":"127.3074942","items":[{"name":"평창카센타","tel":"031-594-8000","addr":"경기도 남양주시 화도읍 창현리 457-1","category":"자동차정비 유지 - 자동차정비"}]},{"lat":"37.650471579","long":"127.30638652","items":[{"name":"포르스","tel":"070-8888-1198","addr":"경기도 남양주시 화도읍 창현리 469-2번지 101호","category":"일반휴게음식 - 일반한식"},{"name":"힐스템건강","tel":"031-559-5790","addr":"경기도 남양주시 화도읍 창현리 469-2번지 2층 201호","category":"보건위생 - 피부미용실"}]},{"lat":"37.647782371","long":"127.30101596","items":[{"name":"풍경","tel":"031-559-1760","addr":"경기도 남양주시 화도읍 창현리 757번지 두산상가 103","category":"일반휴게음식 - 주점"}]},{"lat":"37.644699718","long":"127.30154751","items":[{"name":"하림멕시칸","tel":"031-595-9292","addr":"경기도 남양주시 화도읍 창현리 769-1번지 창현주공 상가 103호","category":"일반휴게음식 - 스넥"}]},{"lat":"37.652557962","long":"127.30437794","items":[{"name":"하은맘","tel":"031-511-9967","addr":"경기도 남양주시 화도읍 창현리 494-4번지 1층","category":"의류 - 정장"}]},{"lat":"37.651220597","long":"127.30591364","items":[{"name":"한국체육관","tel":"031-953-7744","addr":"경기도 남양주시 화도읍 창현리 486-1번지","category":"회원제형태 - 학원"}]},{"lat":"37.633557566","long":"127.32446673","items":[{"name":"한솔화학","tel":"031-594-3100","addr":"경기도 남양주시 화도읍 창현리 23-1번지","category":"건축자재 - 기타건축자재"}]},{"lat":"37.651834266","long":"127.30551952","items":[{"name":"해리칼국수","tel":"031-511-6166","addr":"경기도 남양주시 화도읍 창현리 491-17번지","category":"일반휴게음식 - 일반한식"}]},{"lat":"37.651669531","long":"127.30651605","items":[{"name":"해피민헤어","tel":"031-511-0767","addr":"경기도 남양주시 화도읍 창현리 488-18번지","category":"보건위생 - 미용원"}]},{"lat":"37.651195574","long":"127.30513166","items":[{"name":"행복재활용센터","tel":"070-8150-8670","addr":"경기도 남양주시 화도읍 창현리 482-7번지","category":"전기제품 - 가전제품"}]},{"lat":"37.651526951","long":"127.30590355","items":[{"name":"행복한밥상","tel":"031-595-1233","addr":"경기도 남양주시 화도읍 창현리 489-3번지 1층","category":"일반휴게음식 - 일반한식"}]},{"lat":"37.640921567","long":"127.30276736","items":[{"name":"행복한아이어린이집[아이행복]","tel":"031-592-9140","addr":"경기도 남양주시 화도읍 창현리 695번지","category":"학원 - 유아원"},{"name":"행복한아이어린이집[아이행복]","tel":"031-592-9140","addr":"경기도 남양주시 화도읍 창현리 695번지","category":"학원 - 유아원"}]},{"lat":"37.633340256","long":"127.32154292","items":[{"name":"헤세드LED조명","tel":"031-593-7667","addr":"경기도 남양주시 화도읍 창현리 258번지","category":"건축자재 - 조명기구"}]},{"lat":"37.639671998","long":"127.3052096","items":[{"name":"현대당구장","tel":"","addr":"경기도 남양주시 화도읍 창현리 산46번지 상가동 지층","category":"레저업소 - 당 구 장"},{"name":"현대식당","tel":"","addr":"경기도 남양주시 화도읍 창현리 산46번지 2층","category":"일반휴게음식 - 일반한식"}]},{"lat":"37.650001815","long":"127.30335911","items":[{"name":"현대자동차화도점","tel":"031-594-0500","addr":"경기도 남양주시 화도읍 창현리 727-1번지","category":"자동차정비 유지 - 자동차정비"}]},{"lat":"37.639949567","long":"127.30235558","items":[{"name":"호식이두마리치킨 (창현점)","tel":"031-595-4785","addr":"경기도 남양주시 화도읍 창현리 683번지 청구아파트 103호","category":"일반휴게음식 - 스넥"}]},{"lat":"37.651086326","long":"127.30557315","items":[{"name":"화도천막","tel":"031-595-1107","addr":"경기도 남양주시 화도읍 창현리 484-9번지","category":"직물 - 카페트,커튼,천막,지물"}]},{"lat":"37.65028197","long":"127.30654439","items":[{"name":"화도특수여객","tel":"031-593-5600","addr":"경기도 남양주시 화도읍 창현리 468-4번지 2층","category":"용역 서비스 - 가례서비스업"}]},{"lat":"37.649755612","long":"127.30096719","items":[{"name":"화도프로테크","tel":"070-5142-1743","addr":"경기도 남양주시 화도읍 창현리 529-5번지","category":"레져용품 - 스포츠·레져용품"}]},{"lat":"37.643366004","long":"127.30869169","items":[{"name":"환모형","tel":"031-595-0244","addr":"경기도 남양주시 화도읍 창현리 382-2","category":"용역 서비스 - 사무서비스"}]},{"lat":"37.651364109","long":"127.30616352","items":[{"name":"휠링","tel":"031-594-4557","addr":"경기도 남양주시 화도읍 창현리 489-7 9","category":"일반휴게음식 - 주점"}]},{"lat":"37.639531523","long":"127.30377013","items":[{"name":"희망대박통신","tel":"031-559-0008","addr":"경기도 남양주시 화도읍 창현리 679-2 1층 698","category":"사무통신 - 통신기기"}]}]