[{"lat":"37.53070121","long":"126.78807391","items":[{"name":"(재)대한불교관음종도솔천봉원사","tel":"032-673-9096","addr":"경기도 부천시 오정동 112-32번지","category":"기타 - 비영리/대상"},{"name":"포스코리아 밴정보통신","tel":"070-4335-0164","addr":"경기도 부천시 오정동 112-32번지 지층","category":"사무통신 - 통신기기"}]},{"lat":"37.524032674","long":"126.78251601","items":[{"name":"(주)다원","tel":"032-247-2347","addr":"경기도 부천시 오정동 609-8번지 2층","category":"기타 - 기계공구"}]},{"lat":"37.526841741","long":"126.78629755","items":[{"name":"(주)부천할인마트","tel":"02-000-0000","addr":"경기도 부천시 오정동 572번지 오정종합시장 111호~121호","category":"유통업 영리 - 슈퍼마켓"},{"name":"(주)케이와이푸드","tel":"032-677-7747","addr":"경기도 부천시 오정동 572번지 111~114,116~121호","category":"유통업 영리 - 슈퍼마켓"},{"name":"고은미용실","tel":"032-671-5121","addr":"경기도 부천시 오정동 572 1층","category":"보건위생 - 미용원"},{"name":"구두수선","tel":"032-676-3155","addr":"경기도 부천시 오정동 572번지 오정종합시장 지하층 53호","category":"수리서비스 - 신변잡화수리"},{"name":"국생돈","tel":"032-671-8898","addr":"경기도 부천시 오정동 572번지","category":"일반휴게음식 - 일반한식"},{"name":"대교식당","tel":"032-672-2970","addr":"경기도 부천시 오정동 572번지 오정종합시장지층2호","category":"일반휴게음식 - 일반한식"},{"name":"디자인 윤","tel":"","addr":"경기도 부천시 오정동 572번지 네제 1층 104호","category":"건축자재 - 인테리어전문"},{"name":"미가식당","tel":"032-671-9730","addr":"경기도 부천시 오정동 572번지 오정종합시장 지층 51호","category":"일반휴게음식 - 일반한식"},{"name":"상일리베가구","tel":"032-683-9993","addr":"경기도 부천시 오정동 572번지 오정 종합상가 1층","category":"가구 - 일반가구"},{"name":"시장방앗간","tel":"032-671-9897","addr":"경기도 부천시 오정동 572번지 지하층","category":"음료식품 - 기타음료식품"},{"name":"연화침구","tel":"032-671-8111","addr":"경기도 부천시 오정동 572번지","category":"직물 - 침구·수예점"},{"name":"오정레포츠","tel":"032-675-4672","addr":"경기도 부천시 오정동 572번지 오정시장 102호","category":"레져용품 - 스포츠·레져용품"},{"name":"오정청과","tel":"032-678-9025","addr":"경기도 부천시 오정동 572번지 오정종합시장 지층 49호","category":"음료식품 - 농·축·수산품"},{"name":"우리떡집","tel":"","addr":"경기도 부천시 오정동 572번지 오정종합시장1층7,8호,53,54호","category":"음료식품 - 제과점"},{"name":"은혜분식","tel":"032-671-6167","addr":"경기도 부천시 오정동 572번지","category":"일반휴게음식 - 일반한식"},{"name":"조선바지락손칼국수","tel":"032-421-3838","addr":"경기도 부천시 오정동 572번지 오정종합시장 지하1층 3,4호","category":"일반휴게음식 - 일반한식"},{"name":"진미식당","tel":"032-673-0715","addr":"경기도 부천시 오정동 572번지 오정종합시장 6호","category":"일반휴게음식 - 일반한식"},{"name":"진부각","tel":"","addr":"경기도 부천시 오정동 572번지 지층 15,16,60호","category":"음료식품 - 기타음료식품"},{"name":"총각네고기백화점","tel":"032-678-1595","addr":"경기도 부천시 오정동 572번지 오정종합시장 105,106,122,150호","category":"음료식품 - 정육점"},{"name":"콩나라쌀나라","tel":"032-682-1468","addr":"경기도 부천시 오정동 572번지 오정종합시장 지층 1호","category":"음료식품 - 기타음료식품"},{"name":"한빛인테리어","tel":"032-681-8961","addr":"경기도 부천시 오정동 572번지 오정종합시장 1층 123호","category":"직물 - 카페트,커튼,천막,지물"},{"name":"한아름마트","tel":"032-612-5043","addr":"경기도 부천시 오정동 572번지 111-114호","category":"유통업 영리 - 슈퍼마켓"},{"name":"현미랑누룽지","tel":"032-678-0061","addr":"경기도 부천시 오정동 572번지 오정종합시장 1층 127호","category":"음료식품 - 기타음료식품"}]},{"lat":"37.527927268","long":"126.77896359","items":[{"name":"(주)부형정밀몰드","tel":"032-679-8855","addr":"경기도 부천시 오정동 773-9번지 1층","category":"기타 - 기계공구"},{"name":"태양레이저","tel":"032-679-5557","addr":"경기도 부천시 오정동 773-9번지","category":"기타 - 기계공구"},{"name":"하나로테크","tel":"032-676-2664","addr":"경기도 부천시 오정동 773-9번지 3층","category":"기타 - 기계공구"}]},{"lat":"37.531288573","long":"126.77929295","items":[{"name":"(주)비에스인테크","tel":"070-8627-6388","addr":"경기도 부천시 오정동 758-9번지 4층","category":"전기제품 - 기타전기제품"}]},{"lat":"37.529787247","long":"126.78590438","items":[{"name":"(주)제이에스기술","tel":"032-676-3600","addr":"경기도 부천시 오정동 725번지 오정프라자 304호","category":"전기제품 - 기타전기제품"},{"name":"(주)행복드림여성장애인기업","tel":"02-674-7336","addr":"경기도 부천시 오정동 725번지 오정프라자 201호","category":"사무통신 - 기타 사무용품"},{"name":"365포차","tel":"032-671-5010","addr":"경기도 부천시 오정동 725번지 오정프라자 1층 114호","category":"일반휴게음식 - 스넥"},{"name":"YBM(와이비엠)시사영어수학보습학원","tel":"032-678-9106","addr":"경기도 부천시 오정동 725번지 오정프라자 302호","category":"회원제형태 - 학원"},{"name":"개성삼계탕","tel":"032-674-3359","addr":"경기도 부천시 오정동 725번지 오정프라자 205호","category":"일반휴게음식 - 일반한식"},{"name":"골프존스크린오정점","tel":"032-676-7272","addr":"경기도 부천시 오정동 725번지 오정프라자 406~408호","category":"회원제형태 - 레져업소"},{"name":"김밥천국 오정점","tel":"032-671-0310","addr":"경기도 부천시 오정동 725번지 오정프라자 107호","category":"일반휴게음식 - 스넥"},{"name":"롯데리아부천오정점","tel":"032-682-3535","addr":"경기도 부천시 오정동 725번지 오정프라자 110동 111호","category":"일반휴게음식 - 서양음식"},{"name":"메가엠지씨커피(부천오정점)","tel":"","addr":"경기도 부천시 오정동 725번지 오정프라자 115호","category":"일반휴게음식 - 서양음식"},{"name":"명태본가","tel":"032-679-7726","addr":"경기도 부천시 오정동 725번지 오정프라자 207호","category":"일반휴게음식 - 일반한식"},{"name":"배돼랑생고기","tel":"070-7351-1605","addr":"경기도 부천시 오정동 725번지 오정프라자 203호","category":"일반휴게음식 - 일반한식"},{"name":"베스킨라빈스31","tel":"032-677-0880","addr":"경기도 부천시 오정동 725번지 오정프라자 108호","category":"음료식품 - 제과점"},{"name":"빠짐플러스","tel":"032-677-3287","addr":"경기도 부천시 오정동 725번지 오정프라자 208호","category":"레져용품 - 스포츠·레져용품"},{"name":"씨유오정프라자점","tel":"032-671-4441","addr":"경기도 부천시 오정동 725번지 오정프라자 113호","category":"유통업 영리 - 편 의 점"},{"name":"아이엘무용학원","tel":"031-676-1611","addr":"경기도 부천시 오정동 725번지 오정프라자 4층 404호","category":"학원 - 예·체능계학원"},{"name":"안경박사","tel":"032-683-0110","addr":"경기도 부천시 오정동 725번지 오정프라자 109호","category":"보건위생 - 안경"},{"name":"에이세븐(A7)","tel":"032-679-9958","addr":"경기도 부천시 오정동 725번지 오정프라자 1층 105호","category":"보건위생 - 미용원"},{"name":"오정M플란트치과의원","tel":"032-673-2345","addr":"경기도 부천시 오정동 725번지 오정프라자 3층 305호","category":"의원 - 치과의원"},{"name":"우주중화퓨전","tel":"032-675-4848","addr":"경기도 부천시 오정동 725번지 오정프라자 118호","category":"일반휴게음식 - 중국식"},{"name":"이해법수학영어보습학원","tel":"032-673-5255","addr":"경기도 부천시 오정동 725번지 오정프라자 3층 301호","category":"학원 - 보습학원"},{"name":"전주추어탕","tel":"032-682-9882","addr":"경기도 부천시 오정동 725번지 오정프라자 202호","category":"일반휴게음식 - 일반한식"},{"name":"정아카데미","tel":"032-677-5051","addr":"경기도 부천시 오정동 725번지 오정프라자 204호","category":"레져용품 - 스포츠·레져용품"},{"name":"치킨매니아 오정점","tel":"032-675-9255","addr":"경기도 부천시 오정동 725번지 오정프라자 206호","category":"일반휴게음식 - 스넥"},{"name":"코코이비인후과의원","tel":"032-314-5678","addr":"경기도 부천시 오정동 725번지 오정프라자 405호","category":"의원 - 의원"},{"name":"킹콩슬라임카페","tel":"070-7337-2262","addr":"경기도 부천시 오정동 725번지 오정프라자 304호","category":"일반휴게음식 - 서양음식"},{"name":"포토꼴라쥬","tel":"032-676-2323","addr":"경기도 부천시 오정동 725번지 오정프라자 303호","category":"광학제품 - 사진관"},{"name":"호림한의원","tel":"032-681-8275","addr":"경기도 부천시 오정동 725번지 오정프라자 307호","category":"의원 - 한의원"},{"name":"홍익궁중전통육개장 부천오정점","tel":"032-677-0335","addr":"경기도 부천시 오정동 725번지 오정프라자 제116,117호","category":"일반휴게음식 - 일반한식"},{"name":"황금스크린골프","tel":"032-676-7272","addr":"경기도 부천시 오정동 725번지 오정프라자 4층","category":"회원제형태 - 레져업소"}]},{"lat":"37.525787427","long":"126.79626706","items":[{"name":"(주)팀싸파","tel":"032-226-4800","addr":"경기도 부천시 오정동 154-3번지 2층 일부","category":"레져용품 - 스포츠·레져용품"}]},{"lat":"37.533087766","long":"126.79249075","items":[{"name":"(주)한보무역","tel":"032-671-0184","addr":"경기도 부천시 오정동 67-2","category":"유통업 영리 - 슈퍼마켓"}]},{"lat":"37.528479734","long":"126.7902637","items":[{"name":"(주)휴먼아이앤디","tel":"032-684-8676","addr":"경기도 부천시 오정동 114-22번지 4층","category":"전기제품 - 가전제품"},{"name":"모여라방방","tel":"032-204-3331","addr":"경기도 부천시 오정동 114-22번지 3층","category":"레저업소 - 기타레져업소"}]},{"lat":"37.524477898","long":"126.77970921","items":[{"name":"(주)희망테크프론/원격지","tel":"032-671-1300","addr":"경기도 부천시 오정동 598-1번지","category":"기타 - 기타 전문점"}]},{"lat":"37.529482034","long":"126.78651618","items":[{"name":"010안경콘택트","tel":"032-679-0204","addr":"경기도 부천시 오정동 543번지 신오빌딩 1층 102호","category":"보건위생 - 안경"},{"name":"경희대정훈태권도","tel":"032-677-1484","addr":"경기도 부천시 오정동 543번지 신오빌딩 1동 401호","category":"학원 - 예·체능계학원"},{"name":"메트로치과의원","tel":"032-673-2885","addr":"경기도 부천시 오정동 543번지 신오빌딩 3층 301호","category":"의원 - 치과의원"},{"name":"에스제이(SJ)음악학원","tel":"032-672-7767","addr":"경기도 부천시 오정동 543번지 신오빌딩 2층 204호","category":"회원제형태 - 학원"},{"name":"오정고은약국","tel":"032-681-7843","addr":"경기도 부천시 오정동 543번지 신오빌딩1 103호","category":"약국 - 약국"},{"name":"올리브영 부천오정점","tel":"032-677-5290","addr":"경기도 부천시 오정동 543번지 신오빌딩1 1층 104호","category":"유통업 영리 - 편 의 점"},{"name":"척척경희한의원","tel":"032-673-4100","addr":"경기도 부천시 오정동 543번지 신오빌딩 302호","category":"의원 - 한의원"},{"name":"카페에이몽/(주)테라비테","tel":"032-672-0618","addr":"경기도 부천시 오정동 543번지 신오빌딩 502,503호","category":"일반휴게음식 - 서양음식"},{"name":"태소아과","tel":"032-924-6072","addr":"경기도 부천시 오정동 543번지 신오빌딩 3층 304호","category":"의원 - 의원"},{"name":"파리바게뜨부천오정점","tel":"032-675-5820","addr":"경기도 부천시 오정동 543번지 신오빌딩 101호","category":"음료식품 - 제과점"}]},{"lat":"37.525287045","long":"126.79351948","items":[{"name":"1175군장","tel":"070-5022-4846","addr":"경기도 부천시 오정동 148번지","category":"신변잡화 - 기념품점"}]},{"lat":"37.530949464","long":"126.78102492","items":[{"name":"153레이저용접","tel":"032-671-5153","addr":"경기도 부천시 오정동 763-3번지 107호 153 레이저용접","category":"용역 서비스 - 기타용역서비스"},{"name":"메이플라워","tel":"02-1544-5435","addr":"경기도 부천시 오정동 763-3번지 105호","category":"문화.취미 - 화원"},{"name":"하나로에프에스 (FS)","tel":"032-682-0311","addr":"경기도 부천시 오정동 763-3번지 2층","category":"일반휴게음식 - 일반한식"}]},{"lat":"37.526093198","long":"126.78590377","items":[{"name":"BYC미래유통","tel":"032-681-6229","addr":"경기도 부천시 오정동 571-20번지","category":"의류 - 내의판매"},{"name":"전설의핫도그","tel":"032-682-9113","addr":"경기도 부천시 오정동 571-20번지","category":"일반휴게음식 - 스넥"},{"name":"행운노래연습장","tel":"070-7365-9292","addr":"경기도 부천시 오정동 571-20번지","category":"레저업소 - 노 래 방"}]},{"lat":"37.527394141","long":"126.78293602","items":[{"name":"CNN노래연습장","tel":"032-674-7640","addr":"경기도 부천시 오정동 207-8번지 태영빌딩 2층","category":"레저업소 - 노 래 방"},{"name":"강순자옛맛김치찌개 오정점","tel":"032-678-3420","addr":"경기도 부천시 오정동 207-8번지 태영빌딩 1층","category":"일반휴게음식 - 일반한식"},{"name":"돈각시소서방생고기","tel":"032-673-5089","addr":"경기도 부천시 오정동 207-8번지 태영빌딩 1층","category":"일반휴게음식 - 일반한식"},{"name":"씨엠복싱","tel":"032-664-6669","addr":"경기도 부천시 오정동 207-8번지 5층","category":"회원제형태 - 레져업소"},{"name":"씨유부천오정점","tel":"032-111-1111","addr":"경기도 부천시 오정동 207-8번지 태영빌딩 106호","category":"유통업 영리 - 편 의 점"},{"name":"오정모터스","tel":"032-682-5949","addr":"경기도 부천시 오정동 207-8번지","category":"레져용품 - 스포츠·레져용품"},{"name":"원사무기","tel":"032-671-0012","addr":"경기도 부천시 오정동 207-8번지","category":"사무통신 - 사무용 OA기기"},{"name":"정정아식당","tel":"032-676-1576","addr":"경기도 부천시 오정동 207-8번지 태영빌딩 2층 일부","category":"일반휴게음식 - 일반한식"},{"name":"추억의 그때그집","tel":"032-674-6300","addr":"경기도 부천시 오정동 207-8번지 태영빌딩 1층","category":"일반휴게음식 - 일반한식"}]},{"lat":"37.526755726","long":"126.78362797","items":[{"name":"G5기획인쇄","tel":"032-674-3669","addr":"경기도 부천시 오정동 592-17번지","category":"서적문구 - 출판 및 인쇄물"},{"name":"로또 노래연습장","tel":"032-683-5273","addr":"경기도 부천시 오정동 592-17번지 지하","category":"레저업소 - 노 래 방"}]},{"lat":"37.523566598","long":"126.78873917","items":[{"name":"GS25오정대로점","tel":"","addr":"경기도 부천시 오정동 613-15번지 1층","category":"유통업 영리 - 편 의 점"}]},{"lat":"37.527090205","long":"126.79935188","items":[{"name":"GS25오정스타점","tel":"","addr":"경기도 부천시 오정동 137-5번지 1층","category":"유통업 영리 - 편 의 점"},{"name":"도연해법영어보습학원","tel":"032-673-6516","addr":"경기도 부천시 오정동 137-5번지 3층","category":"학원 - 보습학원"},{"name":"일출피아노학원","tel":"032-681-0868","addr":"경기도 부천시 오정동 137-5번지 2층","category":"학원 - 예·체능계학원"}]},{"lat":"37.527951585","long":"126.78718807","items":[{"name":"GS25오정타운점","tel":"","addr":"경기도 부천시 오정동 558-10번지 1층","category":"유통업 영리 - 편 의 점"}]},{"lat":"37.530781959","long":"126.78299395","items":[{"name":"GS25오정휴먼시아점","tel":"","addr":"경기도 부천시 오정동 717번지 오정휴먼시아 상가동 1층 101호","category":"유통업 영리 - 편 의 점"},{"name":"Joy(조이)음악교습소","tel":"032-672-0047","addr":"경기도 부천시 오정동 717번지 오정생활휴먼시아1단지 상가동 205호","category":"학원 - 예·체능계학원"},{"name":"가나안기획인쇄","tel":"032-674-3817","addr":"경기도 부천시 오정동 717번지 오정생활휴먼시아1단지아파트","category":"용역 서비스 - 종합용역"},{"name":"몽당","tel":"","addr":"경기도 부천시 오정동 717번지 오정생활휴먼시아1단지아파트","category":"음료식품 - 기타음료식품"},{"name":"애드칼라","tel":"070-4146-7876","addr":"경기도 부천시 오정동 717번지 오정생활휴먼시아1단지아파트","category":"건축자재 - 페인트"},{"name":"인크로쉐(in crochet)","tel":"","addr":"경기도 부천시 오정동 717번지 오정생활휴먼시아1단지아파트","category":"직물 - 침구·수예점"}]},{"lat":"37.531005212","long":"126.78679462","items":[{"name":"JH 상사","tel":"031-468-2563","addr":"경기도 부천시 오정동 726번지 오정생활휴먼시아2단지아파트","category":"보건위생 - 안경"},{"name":"꿈꾸는다빈치미술교습소","tel":"032-620-0195","addr":"경기도 부천시 오정동 726 휴먼시아상가2층 203","category":"학원 - 예·체능계학원"},{"name":"레이져뱅크","tel":"02-2654-9224","addr":"경기도 부천시 오정동 726번지 오정생활휴먼시아 상가 102호","category":"사무통신 - 컴퓨터"},{"name":"별내스마트러닝센터","tel":"031-527-2584","addr":"경기도 부천시 오정동 726번지 오정생활휴먼시아2단지아파트","category":"서적문구 - 기타서적문구"},{"name":"유진아로마크래프트아카데미(EACA)","tel":"032-675-4382","addr":"경기도 부천시 오정동 726번지 오정생활휴먼시아 상가동 103.204호","category":"문화.취미 - 문화취미기타"},{"name":"제이앤비유통","tel":"032-111-1111","addr":"경기도 부천시 오정동 726번지 오정생활휴먼시아2단지아파트","category":"음료식품 - 미곡상"},{"name":"휴먼세탁소","tel":"032-675-3737","addr":"경기도 부천시 오정동 726 오정주공2단지상가동 103호","category":"수리서비스 - 세탁소"},{"name":"휴먼시아헤어","tel":"032-673-9170","addr":"경기도 부천시 오정동 726오정주공상가202","category":"보건위생 - 미용원"}]},{"lat":"37.527034397","long":"126.78818624","items":[{"name":"JK24공조","tel":"02-1111-1111","addr":"경기도 부천시 오정동 561번지 프라임캐슬 B동 202호","category":"용역 서비스 - 기타용역서비스"}]},{"lat":"37.528509015","long":"126.78654162","items":[{"name":"OBS당구장","tel":"02-307-5641","addr":"경기도 부천시 오정동 557번지 3층","category":"레저업소 - 당 구 장"},{"name":"도로시의옷장","tel":"032-674-9503","addr":"경기도 부천시 오정동 557번지 오정빌딩 1층","category":"의류 - 정장"},{"name":"세일공인중개사사무소","tel":"032-674-8833","addr":"경기도 부천시 오정동 557번지","category":"용역 서비스 - 부동산 중개·임대"},{"name":"엄지호헤어","tel":"032-661-7633","addr":"경기도 부천시 오정동 557번지 오정빌딩 1층","category":"보건위생 - 미용원"},{"name":"이지엠","tel":"032-674-2316","addr":"경기도 부천시 오정동 557번지 오정빌딩 4층 401호","category":"건축자재 - 인테리어전문"}]},{"lat":"37.527898228","long":"126.78757286","items":[{"name":"OJ MART","tel":"032-677-8022","addr":"경기도 부천시 오정동 552-2번지","category":"음료식품 - 기타음료식품"},{"name":"상우개발","tel":"032-683-8843","addr":"경기도 부천시 오정동 552-2번지","category":"건축자재 - 목재·석재·철물"},{"name":"세기미용실","tel":"032-672-0812","addr":"경기도 부천시 오정동 552-2번지","category":"보건위생 - 미용원"},{"name":"청화슈퍼","tel":"032-671-3199","addr":"경기도 부천시 오정동 552-2번지","category":"유통업 영리 - 슈퍼마켓"},{"name":"페리카나","tel":"032-679-1684","addr":"경기도 부천시 오정동 552-2번지 1층","category":"일반휴게음식 - 서양음식"}]},{"lat":"37.529310378","long":"126.78140311","items":[{"name":"S&H (에스엔에이치)","tel":"032-682-4240","addr":"경기도 부천시 오정동 395-15번지 1층","category":"주방용구 - 주방용구"}]},{"lat":"37.524372736","long":"126.786135","items":[{"name":"SBS 노래연습장","tel":"032-687-7077","addr":"경기도 부천시 오정동 566번지 지하1층","category":"레저업소 - 노 래 방"},{"name":"우리돈","tel":"032-679-8922","addr":"경기도 부천시 오정동 566번지 1층","category":"음료식품 - 정육점"},{"name":"우리돈","tel":"032-679-8922","addr":"경기도 부천시 오정동 566번지 1층","category":"일반휴게음식 - 일반한식"}]},{"lat":"37.527671453","long":"126.78673635","items":[{"name":"가람보습학원","tel":"032-675-7775","addr":"경기도 부천시 오정동 558-5번지","category":"학원 - 보습학원"},{"name":"드림음악학원","tel":"032-675-7770","addr":"경기도 부천시 오정동 558-5번지 2층","category":"학원 - 예·체능계학원"}]},{"lat":"37.526757737","long":"126.784714","items":[{"name":"가람칼국수 보쌈","tel":"032-681-7698","addr":"경기도 부천시 오정동 579-5번지 1층","category":"일반휴게음식 - 일반한식"}]},{"lat":"37.524201591","long":"126.78615812","items":[{"name":"가요노래연습장","tel":"032-677-1814","addr":"경기도 부천시 오정동 566-10번지","category":"레저업소 - 노 래 방"},{"name":"동해당구장","tel":"031-672-5974","addr":"경기도 부천시 오정동 566-10번지","category":"레저업소 - 당 구 장"},{"name":"베스트월드","tel":"032-683-7288","addr":"경기도 부천시 오정동 566-10번지","category":"의류 - 정장"}]},{"lat":"37.523921518","long":"126.78574037","items":[{"name":"가위손헤어(HAIR)","tel":"070-8637-8944","addr":"경기도 부천시 오정동 611-4번지 1층 일부","category":"보건위생 - 미용원"},{"name":"만원요리포차","tel":"032-682-7733","addr":"경기도 부천시 오정동 611-4번지","category":"일반휴게음식 - 일반한식"}]},{"lat":"37.52906136","long":"126.78804467","items":[{"name":"감악골","tel":"032-679-6298","addr":"경기도 부천시 오정동 546-1번지 우리빌","category":"일반휴게음식 - 일반한식"},{"name":"대세노가리","tel":"032-675-7033","addr":"경기도 부천시 오정동 546-1번지 우리빌 101호","category":"일반휴게음식 - 주점"}]},{"lat":"37.526558852","long":"126.78435257","items":[{"name":"강구물회막회","tel":"032-672-8484","addr":"경기도 부천시 오정동 579-3번지","category":"일반휴게음식 - 일반한식"},{"name":"돝통집","tel":"032-673-6768","addr":"경기도 부천시 오정동 579-3번지 1층","category":"일반휴게음식 - 일반한식"},{"name":"주먹고기랑날으는껍데기","tel":"032-678-0600","addr":"경기도 부천시 오정동 579-3번지","category":"일반휴게음식 - 일반한식"},{"name":"참맛골","tel":"032-676-9560","addr":"경기도 부천시 오정동 579-3번지 1층일부","category":"일반휴게음식 - 일반한식"},{"name":"청화반점","tel":"032-674-4784","addr":"경기도 부천시 오정동 579-3번지 1층 일부","category":"일반휴게음식 - 중국식"}]},{"lat":"37.527201885","long":"126.78616075","items":[{"name":"강쥐들의 천국","tel":"","addr":"경기도 부천시 오정동 573-20번지 1층","category":"문화.취미 - 애완동물"},{"name":"더 예뻐지는 날","tel":"","addr":"경기도 부천시 오정동 573-20번지 1층","category":"보건위생 - 화장품"},{"name":"또봉이통닭오정점","tel":"032-672-9599","addr":"경기도 부천시 오정동 573-20번지 1층","category":"일반휴게음식 - 일반한식"},{"name":"북경한의원","tel":"032-674-1077","addr":"경기도 부천시 오정동 573-20번지 3층,4층","category":"의원 - 한의원"},{"name":"세계로약국","tel":"032-675-1255","addr":"경기도 부천시 오정동 573-20번지 1층","category":"약국 - 약국"}]},{"lat":"37.528455577","long":"126.78688116","items":[{"name":"강태연헤어","tel":"070-7808-4805","addr":"경기도 부천시 오정동 554-24번지 1층","category":"보건위생 - 미용원"},{"name":"옛날족발","tel":"032-0000-0000","addr":"경기도 부천시 오정동 554-24번지","category":"일반휴게음식 - 일반한식"},{"name":"월드필터텍","tel":"032-671-9426","addr":"경기도 부천시 오정동 554-24번지","category":"주방용구 - 정수기"}]},{"lat":"37.526956267","long":"126.78488311","items":[{"name":"개 편한세상","tel":"032-677-5608","addr":"경기도 부천시 오정동 579-11번지","category":"문화.취미 - 애완동물"},{"name":"늘푸른인테리어","tel":"032-674-7816","addr":"경기도 부천시 오정동 579-11번지","category":"직물 - 카페트,커튼,천막,지물"},{"name":"복댕이네과일야채","tel":"070-8278-2057","addr":"경기도 부천시 오정동 579-11번지 1층","category":"음료식품 - 농·축·수산품"},{"name":"열린음악학원","tel":"032-681-9478","addr":"경기도 부천시 오정동 579-11번지 3층","category":"학원 - 예·체능계학원"},{"name":"오투(O2)헤어","tel":"032-684-8190","addr":"경기도 부천시 오정동 579-11번지 1층","category":"보건위생 - 미용원"}]},{"lat":"37.526453404","long":"126.78580091","items":[{"name":"갤러리(예쁜옷집)","tel":"032-666-6666","addr":"경기도 부천시 오정동 571번지 1층","category":"의류 - 정장"},{"name":"신데렐라","tel":"032-672-3588","addr":"경기도 부천시 오정동 571번지 1층","category":"보건위생 - 미용원"},{"name":"예원축산유통","tel":"032-684-8987","addr":"경기도 부천시 오정동 571번지","category":"음료식품 - 정육점"},{"name":"오거리노래연습장","tel":"032-675-4817","addr":"경기도 부천시 오정동 571번지","category":"레저업소 - 노 래 방"},{"name":"인생모바일","tel":"031-000-0000","addr":"경기도 부천시 오정동 571번지 1층","category":"사무통신 - 통신기기"},{"name":"화장품총판","tel":"032-671-4467","addr":"경기도 부천시 오정동 571번지","category":"보건위생 - 화장품"}]},{"lat":"37.526478328","long":"126.78465825","items":[{"name":"거성할인마트","tel":"032-677-0103","addr":"경기도 부천시 오정동 580-1번지","category":"유통업 영리 - 슈퍼마켓"}]},{"lat":"37.528788277","long":"126.78651818","items":[{"name":"결성보신원","tel":"032-671-7764","addr":"경기도 부천시 오정동 544-23번지","category":"건강식품 - 기타건강식품"},{"name":"세림가정식백반","tel":"032-673-7490","addr":"경기도 부천시 오정동 544-23번지 1층","category":"일반휴게음식 - 스넥"}]},{"lat":"37.529039432","long":"126.78590655","items":[{"name":"경인종로약국","tel":"032-672-7155","addr":"경기도 부천시 오정동 555번지 낙원빌딩 1층","category":"약국 - 약국"},{"name":"명품한우","tel":"032-259-6887","addr":"경기도 부천시 오정동 555번지 낙원빌딩 1층 3호","category":"음료식품 - 정육점"},{"name":"본죽오정점","tel":"032-682-6282","addr":"경기도 부천시 오정동 555낙원빌딩1층2","category":"일반휴게음식 - 일반한식"},{"name":"상록한의원","tel":"032-681-9955","addr":"경기도 부천시 오정동 555번지","category":"의원 - 한의원"},{"name":"샵노래연습장","tel":"032-676-4800","addr":"경기도 부천시 오정동 555번지 낙원빌딩 지하층","category":"레저업소 - 노 래 방"},{"name":"하늘연의원","tel":"032-671-6777","addr":"경기도 부천시 오정동 555번지 낙원빌딩 2층","category":"의원 - 의원"}]},{"lat":"37.523814583","long":"126.78638549","items":[{"name":"경희TEMPLE어학원","tel":"032-674-0012","addr":"경기도 부천시 오정동 612번지 3층","category":"회원제형태 - 학원"},{"name":"대성자동차부분정비공업사","tel":"032-651-1515","addr":"경기도 부천시 오정동 612번지 101,102호","category":"자동차정비 유지 - 자동차정비"},{"name":"스타디자인","tel":"032-671-2999","addr":"경기도 부천시 오정동 612번지 계성빌딩 104호","category":"건축자재 - 인테리어전문"},{"name":"유찬주방","tel":"000-1661-8933","addr":"경기도 부천시 오정동 612번지 계성빌딩 1층 104호","category":"주방용구 - 주방용식기"}]},{"lat":"37.529506819","long":"126.78529428","items":[{"name":"경희대석사 샛별태권도","tel":"032-678-2234","addr":"경기도 부천시 오정동 216-1번지 썬프라자 302호","category":"학원 - 예·체능계학원"},{"name":"굿모닝치과의원","tel":"032-287-2875","addr":"경기도 부천시 오정동 216-1번지 썬프라자 301호","category":"의원 - 치과의원"},{"name":"늘편한내과의원","tel":"032-678-7582","addr":"경기도 부천시 오정동 216-1번지 썬프라자 2층 201호","category":"의원 - 의원"},{"name":"백년갈비","tel":"032-672-2002","addr":"경기도 부천시 오정동 216-1번지 썬프라자 202호","category":"일반휴게음식 - 일반한식"},{"name":"오정능력보습학원","tel":"032-684-3473","addr":"경기도 부천시 오정동 216-1번지 썬프라자 401,402호","category":"학원 - 보습학원"},{"name":"이디야커피오정점","tel":"032-671-1034","addr":"경기도 부천시 오정동 216-1번지 썬프라자 104호","category":"일반휴게음식 - 서양음식"},{"name":"잔치떡방앗간","tel":"032-683-7337","addr":"경기도 부천시 오정동 216-1번지 썬프라자 102호","category":"음료식품 - 제과점"},{"name":"체인지헤어","tel":"032-678-9740","addr":"경기도 부천시 오정동 216-1번지 썬프라자 105호","category":"보건위생 - 미용원"},{"name":"크린토피아 부천오정동점","tel":"032-682-8280","addr":"경기도 부천시 오정동 216-1번지 썬프라자 106호","category":"수리서비스 - 세탁소"},{"name":"평택족발음식나라","tel":"032-674-0779","addr":"경기도 부천시 오정동 216-1번지 썬프라자 106호","category":"일반휴게음식 - 일반한식"}]},{"lat":"37.527008258","long":"126.79885434","items":[{"name":"계승종","tel":"032-678-2488","addr":"경기도 부천시 오정동 137-4번지 경인빌라","category":"보건위생 - 기타대인서비스"}]},{"lat":"37.526511431","long":"126.78307436","items":[{"name":"고등어","tel":"031-111-1111","addr":"경기도 부천시 오정동 592-3번지 진도홈빌 103동 2층 201호","category":"용역 서비스 - 사무서비스"}]},{"lat":"37.525759377","long":"126.78565586","items":[{"name":"고려화장품","tel":"032-673-7838","addr":"경기도 부천시 오정동 582-31번지","category":"보건위생 - 화장품"},{"name":"명신당","tel":"032-674-4676","addr":"경기도 부천시 오정동 582-31번지","category":"신변잡화 - 시계"},{"name":"통일인터내셔날(TONGIL INTERNATIONAL)","tel":"02-111-1111","addr":"경기도 부천시 오정동 582-31번지","category":"신변잡화 - 기타잡화"}]},{"lat":"37.525759897","long":"126.78593867","items":[{"name":"고향청과","tel":"032-681-8655","addr":"경기도 부천시 오정동 570-15번지","category":"음료식품 - 농·축·수산품"},{"name":"오정축산","tel":"032-681-8248","addr":"경기도 부천시 오정동 570-15번지 1층","category":"음료식품 - 정육점"},{"name":"태광상사","tel":"032-679-0696","addr":"경기도 부천시 오정동 570-15번지 1층","category":"의류 - 내의판매"}]},{"lat":"37.527008211","long":"126.78374036","items":[{"name":"공원당구장","tel":"000-000-0000","addr":"경기도 부천시 오정동 578-3번지 2층","category":"레저업소 - 당 구 장"},{"name":"까레몽과자점","tel":"032-671-3618","addr":"경기도 부천시 오정동 578-3번지","category":"음료식품 - 제과점"},{"name":"나그네마을","tel":"032-682-7879","addr":"경기도 부천시 오정동 578-3번지","category":"일반휴게음식 - 일반한식"},{"name":"보노보노헤어","tel":"032-678-6854","addr":"경기도 부천시 오정동 578-3번지","category":"보건위생 - 미용원"},{"name":"송가네빈대떡","tel":"032-612-0505","addr":"경기도 부천시 오정동 578-3번지","category":"일반휴게음식 - 일반한식"},{"name":"인덕쌍방울","tel":"032-671-9830","addr":"경기도 부천시 오정동 578-3번지","category":"의류 - 내의판매"},{"name":"투다리오정점","tel":"032-683-3455","addr":"경기도 부천시 오정동 578-3번지","category":"일반휴게음식 - 일반한식"}]},{"lat":"37.524614713","long":"126.78543292","items":[{"name":"광명의자","tel":"031-676-0890","addr":"경기도 부천시 오정동 585-4번지 금호빌라 101동 101호","category":"수리서비스 - 가정용품수리"}]},{"lat":"37.523810027","long":"126.78882897","items":[{"name":"광명인치코리아부천점","tel":"032-673-1516","addr":"경기도 부천시 오정동 565-4번지 1층","category":"자동차정비 유지 - 자동차시트·타이어"}]},{"lat":"37.524537182","long":"126.7824919","items":[{"name":"광성진공열처리","tel":"032-681-0072","addr":"경기도 부천시 오정동 608번지","category":"기타 - 기타 전문점"}]},{"lat":"37.524343751","long":"126.78507171","items":[{"name":"국민노래연습장","tel":"032-672-2704","addr":"경기도 부천시 오정동 585-3번지 정보주상빌라트","category":"레저업소 - 노 래 방"},{"name":"드럼통","tel":"032-679-3491","addr":"경기도 부천시 오정동 585-3번지 정보주상빌라트 109호","category":"일반휴게음식 - 일반한식"},{"name":"박대감생고기매운갈비전문점","tel":"032-684-2543","addr":"경기도 부천시 오정동 585-3번지 정보주상빌라트","category":"일반휴게음식 - 일반한식"},{"name":"소소한밤","tel":"","addr":"경기도 부천시 오정동 585-3번지 정보주상빌라트 1층 110호","category":"일반휴게음식 - 주점"},{"name":"정보이발관","tel":"032-681-6698","addr":"경기도 부천시 오정동 585-3번지 정보주상빌라트 103호","category":"보건위생 - 이용원"},{"name":"주식회사 엠케이도어시스템","tel":"032-710-1215","addr":"경기도 부천시 오정동 585-3번지 정보주상빌라트 104,105,106호","category":"용역 서비스 - 기타용역서비스"},{"name":"할배황소돌곱창","tel":"032-111-1111","addr":"경기도 부천시 오정동 585-3번지 정보주상빌라트 108호","category":"일반휴게음식 - 일반한식"}]},{"lat":"37.532754645","long":"126.78762678","items":[{"name":"굿모닝시스템","tel":"","addr":"경기도 부천시 오정동 732번지 오정생활휴먼시아3단지아파트","category":"수리서비스 - 기타수리서비스"},{"name":"두산FL","tel":"02-2693-4831","addr":"경기도 부천시 오정동 732번지 오정생활휴먼시아3단지아파트","category":"자동차정비 유지 - 자동차부품"},{"name":"뜨란채세탁소","tel":"032-678-1441","addr":"경기도 부천시 오정동 732번지 주공3단지 상가 202호","category":"수리서비스 - 세탁소"},{"name":"무제오인터내셔널","tel":"","addr":"경기도 부천시 오정동 732번지 오정생활휴먼시아3단지아파트","category":"의류 - 정장"},{"name":"부천얼음","tel":"","addr":"경기도 부천시 오정동 732번지 오정생활휴먼시아3단지아파트","category":"음료식품 - 기타음료식품"},{"name":"주공한솔마트","tel":"032-678-5580","addr":"경기도 부천시 오정동 732주공3단지상가101호","category":"유통업 영리 - 슈퍼마켓"},{"name":"진헤어","tel":"032-675-9910","addr":"경기도 부천시 오정동 732번지 203호","category":"보건위생 - 미용원"}]},{"lat":"37.524174873","long":"126.78632788","items":[{"name":"궁당구마을","tel":"032-682-8279","addr":"경기도 부천시 오정동 566-11 3층","category":"레저업소 - 당 구 장"},{"name":"스피드자동차공업사","tel":"032-671-5847","addr":"경기도 부천시 오정동 566-11번지","category":"자동차정비 유지 - 자동차정비"}]},{"lat":"37.528031949","long":"126.78679188","items":[{"name":"그녀의뷰티룸","tel":"070-4131-9004","addr":"경기도 부천시 오정동 558-1번지 1층","category":"보건위생 - 피부미용실"},{"name":"네오파크pc","tel":"031-000-0000","addr":"경기도 부천시 오정동 558-1번지 2층","category":"레저업소 - 기타레져업소"},{"name":"향기나는 아.달.해.깃","tel":"032-671-6171","addr":"경기도 부천시 오정동 558-1번지 1층","category":"문화.취미 - 화원"}]},{"lat":"37.526150528","long":"126.78769101","items":[{"name":"그린씨엔씨","tel":"","addr":"경기도 부천시 오정동 563-11번지 토담빌리지 101호","category":"자동차정비 유지 - 자동차부품"}]},{"lat":"37.524282015","long":"126.78579589","items":[{"name":"그린인테리어","tel":"070-8142-1811","addr":"경기도 부천시 오정동 585-19번지 한진타운 104호","category":"건축자재 - 인테리어전문"},{"name":"야무치","tel":"032-0000-0000","addr":"경기도 부천시 오정동 585-19번지 한진타운 1층 108호","category":"일반휴게음식 - 스넥"},{"name":"이마트24 부천오정점","tel":"032-0000-0000","addr":"경기도 부천시 오정동 585-19번지 105,106호","category":"유통업 영리 - 편 의 점"},{"name":"이마트24 부천오정점","tel":"032-671-7984","addr":"경기도 부천시 오정동 585-19번지 105호 106호","category":"유통업 영리 - 편 의 점"},{"name":"준헤어","tel":"032-677-5540","addr":"경기도 부천시 오정동 585-19번지 한진상가 109호","category":"보건위생 - 미용원"}]},{"lat":"37.52792186","long":"126.78571746","items":[{"name":"그린트리","tel":"032-204-7051","addr":"경기도 부천시 오정동 557-4번지 일부 1층","category":"보건위생 - 화장품"},{"name":"아이오아시스","tel":"032-662-0780","addr":"경기도 부천시 오정동 557-4번지 1층","category":"보건위생 - 의료용품"},{"name":"편안한식당","tel":"032-674-2500","addr":"경기도 부천시 오정동 557-4번지","category":"일반휴게음식 - 일반한식"}]},{"lat":"37.524898609","long":"126.78304516","items":[{"name":"근화산업","tel":"032-681-8239","addr":"경기도 부천시 오정동 607-2번지","category":"기타 - 기타 전문점"}]},{"lat":"37.529589024","long":"126.78105157","items":[{"name":"금성상사","tel":"02-2671-7958","addr":"경기도 부천시 오정동 401-4번지 2층","category":"자동차정비 유지 - 자동차부품"},{"name":"금성상사","tel":"02-2671-7958","addr":"경기도 부천시 오정동 401-4번지 1층","category":"자동차정비 유지 - 자동차부품"},{"name":"안녕 애리","tel":"032-278-3329","addr":"경기도 부천시 오정동 401-4번지 1층","category":"보건위생 - 미용원"}]},{"lat":"37.528032508","long":"126.78709733","items":[{"name":"금성판매장","tel":"032-671-2685","addr":"경기도 부천시 오정동 558-7번지","category":"전기제품 - 가전제품"}]},{"lat":"37.528259687","long":"126.77846482","items":[{"name":"금영건드릴","tel":"032-679-3907","addr":"경기도 부천시 오정동 772-2번지 1층","category":"용역 서비스 - 기타용역서비스"},{"name":"미성정밀","tel":"032-663-4946","addr":"경기도 부천시 오정동 772-2번지 1층","category":"기타 - 기계공구"},{"name":"새영테크","tel":"032-439-7903","addr":"경기도 부천시 오정동 772-2번지","category":"기타 - 기계공구"}]},{"lat":"37.526871781","long":"126.78305068","items":[{"name":"김치찌개전문","tel":"032-671-1995","addr":"경기도 부천시 오정동 593-1번지 1층 일부호","category":"일반휴게음식 - 일반한식"},{"name":"오성공구철물","tel":"032-671-0536","addr":"경기도 부천시 오정동 593-1번지 1층","category":"기타 - 기계공구"},{"name":"와노래연습장","tel":"032-676-9586","addr":"경기도 부천시 오정동 593-1번지 2층","category":"레저업소 - 노 래 방"},{"name":"자연보감","tel":"032-677-6625","addr":"경기도 부천시 오정동 593-1번지 2층","category":"건강식품 - 기타건강식품"},{"name":"한얼커피숍","tel":"032-679-2320","addr":"경기도 부천시 오정동 593-1번지 지층","category":"일반휴게음식 - 서양음식"},{"name":"한일모타","tel":"032-671-2385","addr":"경기도 부천시 오정동 593-1번지","category":"기타 - 기계공구"},{"name":"현대슈퍼","tel":"032-671-2850","addr":"경기도 부천시 오정동 593-1번지","category":"유통업 영리 - 슈퍼마켓"},{"name":"현대피엠텍","tel":"032-671-7704","addr":"경기도 부천시 오정동 593-1번지","category":"건축자재 - 페인트"}]},{"lat":"37.526894886","long":"126.78579963","items":[{"name":"까그랑샘 헤어","tel":"032-681-3138","addr":"경기도 부천시 오정동 573-12번지","category":"보건위생 - 미용원"},{"name":"본초불닭발","tel":"032-675-9595","addr":"경기도 부천시 오정동 573-12번지 1층","category":"일반휴게음식 - 일반한식"},{"name":"홍어정","tel":"032-675-8005","addr":"경기도 부천시 오정동 573-12번지 1층 일부호","category":"일반휴게음식 - 일반한식"}]},{"lat":"37.524505113","long":"126.78463006","items":[{"name":"까까보슈","tel":"","addr":"경기도 부천시 오정동 586-7번지 1층 일부호","category":"보건위생 - 미용원"},{"name":"오뚜기식당","tel":"","addr":"경기도 부천시 오정동 586-7번지","category":"일반휴게음식 - 일반한식"}]},{"lat":"37.527588538","long":"126.78574105","items":[{"name":"꿈의공작소미술교습소","tel":"032-289-2892","addr":"경기도 부천시 오정동 574-8번지 1층","category":"학원 - 예·체능계학원"},{"name":"성훈철물","tel":"032-681-2399","addr":"경기도 부천시 오정동 574-8번지","category":"건축자재 - 기타건축자재"},{"name":"자연품은 곰","tel":"","addr":"경기도 부천시 오정동 574-8번지","category":"음료식품 - 농·축·수산품"}]},{"lat":"37.525369764","long":"126.78446916","items":[{"name":"나리슈퍼","tel":"032-671-6965","addr":"경기도 부천시 오정동 589-12번지","category":"유통업 영리 - 기타유통업"},{"name":"미소헤어클릭","tel":"032-674-4707","addr":"경기도 부천시 오정동 589-12번지","category":"보건위생 - 미용원"}]},{"lat":"37.525428109","long":"126.78679939","items":[{"name":"나오미","tel":"070-2699-0807","addr":"경기도 부천시 오정동 569-6번지 1층 동","category":"의류 - 내의판매"}]},{"lat":"37.52756724","long":"126.78396499","items":[{"name":"남양수도상사","tel":"032-671-7760","addr":"경기도 부천시 오정동 577-1번지","category":"용역 서비스 - 기타용역서비스"},{"name":"여명칸오디오","tel":"032-675-4777","addr":"경기도 부천시 오정동 577-1번지","category":"수리서비스 - 기타수리서비스"},{"name":"오정광고","tel":"032-678-9951","addr":"경기도 부천시 오정동 577-1번지 1층","category":"건축자재 - 인테리어전문"},{"name":"장작구이","tel":"070-7318-5276","addr":"경기도 부천시 오정동 577-1번지 1층","category":"일반휴게음식 - 스넥"},{"name":"킹노래연습장","tel":"032-677-8970","addr":"경기도 부천시 오정동 577-1번지","category":"레저업소 - 노 래 방"}]},{"lat":"37.528733762","long":"126.78626945","items":[{"name":"너와나의분식","tel":"032-000-0000","addr":"경기도 부천시 오정동 556-29번지 1층 일부호","category":"일반휴게음식 - 스넥"},{"name":"레인보우","tel":"032-671-6662","addr":"경기도 부천시 오정동 556-29번지","category":"의류 - 정장"},{"name":"우쭈쭈베베","tel":"070-5025-9005","addr":"경기도 부천시 오정동 556-29번지","category":"의류 - 아동의류"}]},{"lat":"37.529031439","long":"126.78646091","items":[{"name":"네네치킨","tel":"032-672-9494","addr":"경기도 부천시 오정동 544-8번지 더퍼스트빌","category":"일반휴게음식 - 서양음식"}]},{"lat":"37.524202423","long":"126.78174627","items":[{"name":"네이처아이","tel":"070-8638-9313","addr":"경기도 부천시 오정동 601-5번지 3층","category":"신변잡화 - 기타잡화"},{"name":"세영정공","tel":"032-672-2110","addr":"경기도 부천시 오정동 601-5번지","category":"기타 - 기타 전문점"},{"name":"주식회사 세명카본","tel":"032-672-2100","addr":"경기도 부천시 오정동 601-5번지 2층","category":"기타 - 기계공구"},{"name":"투투(TWOTWO)","tel":"032-675-6662","addr":"경기도 부천시 오정동 601-5번지 3층","category":"주방용구 - 주방용구"}]},{"lat":"37.527034358","long":"126.78326514","items":[{"name":"노블PC카페","tel":"070-3550-3138","addr":"경기도 부천시 오정동 593번지 지층","category":"레저업소 - 기타레져업소"},{"name":"도배나라","tel":"032-671-8752","addr":"경기도 부천시 오정동 593번지 102호","category":"용역 서비스 - 기타용역서비스"},{"name":"마당","tel":"032-676-8198","addr":"경기도 부천시 오정동 593번지 1층 5호","category":"일반휴게음식 - 주점"},{"name":"성심치과의원","tel":"032-682-2875","addr":"경기도 부천시 오정동 593번지","category":"의원 - 치과의원"},{"name":"에스티엔커피오정점(Stn Coffee)","tel":"032-676-0606","addr":"경기도 부천시 오정동 593번지 1층 102호","category":"일반휴게음식 - 서양음식"},{"name":"플레이보이","tel":"032-673-8737","addr":"경기도 부천시 오정동 593번지","category":"의류 - 정장"}]},{"lat":"37.529062121","long":"126.78846326","items":[{"name":"놀부숯불갈비","tel":"032-678-5634","addr":"경기도 부천시 오정동 546-7번지","category":"일반휴게음식 - 일반한식"},{"name":"샤인음악학원","tel":"032-676-2046","addr":"경기도 부천시 오정동 546-7번지 2층","category":"학원 - 예·체능계학원"},{"name":"애플음악학원","tel":"032-683-1539","addr":"경기도 부천시 오정동 546-7번지","category":"학원 - 예·체능계학원"},{"name":"오성보습학원","tel":"070-4119-5315","addr":"경기도 부천시 오정동 546-7번지 세일빌딩 3층 4층 ,","category":"학원 - 보습학원"}]},{"lat":"37.534007271","long":"126.79277101","items":[{"name":"농업회사법인 대한기업진흥(주)","tel":"070-0000-0000","addr":"경기도 부천시 오정동 67-12번지","category":"문화.취미 - 화원"}]},{"lat":"37.532896417","long":"126.79129203","items":[{"name":"농업회사법인 주식회사 비씨에프","tel":"032-671-0184","addr":"경기도 부천시 오정동 67-9번지 지층","category":"음료식품 - 농·축·수산품"}]},{"lat":"37.525894483","long":"126.78563284","items":[{"name":"농협쌀직판장","tel":"032-676-3303","addr":"경기도 부천시 오정동 582-30번지 1층","category":"음료식품 - 미곡상"},{"name":"두부마을","tel":"032-675-5390","addr":"경기도 부천시 오정동 582-30번지","category":"음료식품 - 기타음료식품"},{"name":"짱치킨옛날통닭","tel":"032-672-2425","addr":"경기도 부천시 오정동 582-30번지 1층 일부호","category":"일반휴게음식 - 일반한식"},{"name":"한양식당","tel":"070-7326-3317","addr":"경기도 부천시 오정동 582-30번지","category":"일반휴게음식 - 일반한식"}]},{"lat":"37.522921745","long":"126.79595822","items":[{"name":"누야","tel":"032-677-6328","addr":"경기도 부천시 오정동 140-80번지 신남빌딩 102호","category":"일반휴게음식 - 서양음식"}]},{"lat":"37.527976341","long":"126.79598951","items":[{"name":"느림&여유카페","tel":"032-670-1100","addr":"경기도 부천시 오정동 129번지","category":"일반휴게음식 - 서양음식"},{"name":"부천시오정노인복지관 꿈볶는카페","tel":"070-5089-2464","addr":"경기도 부천시 오정동 129번지 5층","category":"일반휴게음식 - 서양음식"}]},{"lat":"37.529671654","long":"126.7867419","items":[{"name":"다나치과","tel":"032-683-7542","addr":"경기도 부천시 오정동 192-6번지 우암빌딩 2층","category":"의원 - 치과의원"},{"name":"동서약국","tel":"032-677-7301","addr":"경기도 부천시 오정동 192-6번지 우암빌딩 1층 102호","category":"약국 - 약국"},{"name":"산새청과","tel":"032-671-1201","addr":"경기도 부천시 오정동 192-6번지 우암빌딩 103호","category":"음료식품 - 농·축·수산품"},{"name":"오정한의원","tel":"032-675-7533","addr":"경기도 부천시 오정동 192-6번지 우암빌딩 3층","category":"의원 - 한의원"}]},{"lat":"37.528289777","long":"126.79490259","items":[{"name":"다오린","tel":"070-4686-9412","addr":"경기도 부천시 오정동 160-1번지 2층","category":"신변잡화 - 기타잡화"},{"name":"대한민국부대찌개","tel":"032-682-3366","addr":"경기도 부천시 오정동 160-1번지","category":"일반휴게음식 - 일반한식"}]},{"lat":"37.525949353","long":"126.78607387","items":[{"name":"다인 저울 계측기","tel":"032-651-9119","addr":"경기도 부천시 오정동 570-12번지 1층 1호","category":"기타 - 기계공구"},{"name":"영헤어라인","tel":"032-671-0638","addr":"경기도 부천시 오정동 570-12번지","category":"보건위생 - 미용원"},{"name":"태양전파사","tel":"032`-671-8559","addr":"경기도 부천시 오정동 570-12번지","category":"건축자재 - 조명기구"}]},{"lat":"37.528864562","long":"126.78882584","items":[{"name":"다정한카페","tel":"02-000-0000","addr":"경기도 부천시 오정동 547번지 1층","category":"일반휴게음식 - 서양음식"},{"name":"중국성","tel":"032-683-6076","addr":"경기도 부천시 오정동 547번지","category":"일반휴게음식 - 중국식"},{"name":"크린토피아 코인워시 부천오정세종점","tel":"032-674-8288","addr":"경기도 부천시 오정동 547번지 103호","category":"수리서비스 - 세탁소"}]},{"lat":"37.52325442","long":"126.79049347","items":[{"name":"대도카센타","tel":"032-671-5202","addr":"경기도 부천시 오정동 615번지 고려 상가 4호","category":"자동차정비 유지 - 자동차정비"},{"name":"명성카센타","tel":"032-672-1277","addr":"경기도 부천시 오정동 615번지","category":"자동차정비 유지 - 자동차정비"},{"name":"현성슈퍼","tel":"032-681-1975","addr":"경기도 부천시 오정동 615번지 고려상가 1층","category":"유통업 영리 - 슈퍼마켓"}]},{"lat":"37.52809115","long":"126.78468749","items":[{"name":"대륙상사","tel":"032-681-7730","addr":"경기도 부천시 오정동 576-1번지 1층","category":"건축자재 - 페인트"},{"name":"우리수산","tel":"032-678-8843","addr":"경기도 부천시 오정동 576-1번지","category":"일반휴게음식 - 일반한식"},{"name":"헬로우바디피트니스","tel":"032-678-5558","addr":"경기도 부천시 오정동 576-1번지 3,4,5층","category":"레저업소 - 헬스클럽"}]},{"lat":"37.531423659","long":"126.78898823","items":[{"name":"대명중고타이어","tel":"032-673-5512","addr":"경기도 부천시 오정동 111-23번지","category":"자동차정비 유지 - 자동차정비"}]},{"lat":"37.52690045","long":"126.783933","items":[{"name":"대박난볼태기찜.탕","tel":"032-682-4989","addr":"경기도 부천시 오정동 578-4번지 한오빌딩 1층","category":"일반휴게음식 - 일반한식"},{"name":"맵go마싯go","tel":"","addr":"경기도 부천시 오정동 578-4번지 한오빌딩 1층 일부","category":"일반휴게음식 - 일반한식"},{"name":"유진꾸꾸루꾸치킨바베큐","tel":"032-681-9969","addr":"경기도 부천시 오정동 578-4번지 한오빌딩 101호","category":"일반휴게음식 - 서양음식"},{"name":"족발에 빠지다","tel":"032-684-8883","addr":"경기도 부천시 오정동 578-4번지 한오빌딩 102호","category":"일반휴게음식 - 일반한식"},{"name":"주식회사대신기업","tel":"032-679-1431","addr":"경기도 부천시 오정동 578-4번지 한오빌딩 4층 403호","category":"용역 서비스 - 기타용역서비스"},{"name":"쿨노래연습장","tel":"032-681-4967","addr":"경기도 부천시 오정동 578-4번지 3층","category":"레저업소 - 노 래 방"},{"name":"한게임당구장","tel":"070-8835-8485","addr":"경기도 부천시 오정동 578-4번지 한오빌딩 2층","category":"레저업소 - 당 구 장"}]},{"lat":"37.528562472","long":"126.78621338","items":[{"name":"대박치킨호프","tel":"032-662-6886","addr":"경기도 부천시 오정동 556-26번지","category":"일반휴게음식 - 주점"},{"name":"샤론미용실","tel":"032-676-4251","addr":"경기도 부천시 오정동 556-26번지","category":"보건위생 - 미용원"}]},{"lat":"37.532253176","long":"126.78932527","items":[{"name":"대성공조시스템","tel":"032-672-0472","addr":"경기도 부천시 오정동 103-1번지 1층","category":"전기제품 - 냉열기기"}]},{"lat":"37.527395697","long":"126.78377317","items":[{"name":"대원레포츠","tel":"032-671-2697","addr":"경기도 부천시 오정동 577-3번지 3층","category":"레져용품 - 스포츠·레져용품"},{"name":"동백반점","tel":"032-673-0105","addr":"경기도 부천시 오정동 577-3번지 1층","category":"일반휴게음식 - 중국식"}]},{"lat":"37.527456292","long":"126.78732525","items":[{"name":"대한냉난방시스템","tel":"","addr":"경기도 부천시 오정동 559-11번지 베스트빌 403호","category":"전기제품 - 냉열기기"}]},{"lat":"37.530341809","long":"126.76960023","items":[{"name":"대한모터스","tel":"032-677-8588","addr":"경기도 부천시 오정동 805-4번지","category":"자동차정비 유지 - 자동차정비"},{"name":"스파크 종합상사","tel":"032-676-4070","addr":"경기도 부천시 오정동 805-4번지 1층","category":"전기제품 - 기타전기제품"}]},{"lat":"37.528149388","long":"126.78696124","items":[{"name":"댕기머리미용실","tel":"032-671-8994","addr":"경기도 부천시 오정동 558번지","category":"보건위생 - 미용원"}]},{"lat":"37.529141996","long":"126.78779555","items":[{"name":"더 끌림","tel":"070-4896-1482","addr":"경기도 부천시 오정동 545-1번지 1층 103호","category":"보건위생 - 기타대인서비스"},{"name":"떳다노래방","tel":"032-677-8841","addr":"경기도 부천시 오정동 545-1번지","category":"레저업소 - 노 래 방"},{"name":"오정이발관","tel":"032-671-6998","addr":"경기도 부천시 오정동 545-1번지 102호","category":"보건위생 - 이용원"},{"name":"쭌헤어닷컴","tel":"032-684-9465","addr":"경기도 부천시 오정동 545-1번지","category":"보건위생 - 미용원"}]},{"lat":"37.530593503","long":"126.78830048","items":[{"name":"더중앙미술어학원","tel":"032-672-6656","addr":"경기도 부천시 오정동 112-4번지 3층","category":"학원 - 예·체능계학원"}]},{"lat":"37.528759446","long":"126.79048917","items":[{"name":"덕산슈퍼","tel":"032-683-9612","addr":"경기도 부천시 오정동 114-36번지","category":"유통업 영리 - 슈퍼마켓"},{"name":"박선헤어","tel":"032-000-0000","addr":"경기도 부천시 오정동 114-36번지 1층 일부","category":"보건위생 - 미용원"}]},{"lat":"37.525894941","long":"126.78588172","items":[{"name":"도경","tel":"032-673-9526","addr":"경기도 부천시 오정동 570번지 1층","category":"직물 - 침구·수예점"},{"name":"천냥DC마트","tel":"","addr":"경기도 부천시 오정동 570번지 1층","category":"신변잡화 - 기타잡화"},{"name":"한성떡방아간","tel":"032-683-7244","addr":"경기도 부천시 오정동 570번지","category":"음료식품 - 제과점"}]},{"lat":"37.522452559","long":"126.7955749","items":[{"name":"도배사랑","tel":"","addr":"경기도 부천시 오정동 140-12번지 서남빌라 401호","category":"직물 - 카페트,커튼,천막,지물"}]},{"lat":"37.52859361","long":"126.7884646","items":[{"name":"동광슈퍼","tel":"032-681-1669","addr":"경기도 부천시 오정동 547-3번지 1층","category":"유통업 영리 - 슈퍼마켓"},{"name":"요루","tel":"032-677-7127","addr":"경기도 부천시 오정동 547-3번지","category":"일반휴게음식 - 주점"}]},{"lat":"37.526317028","long":"126.78513385","items":[{"name":"동네식당","tel":"032-677-1215","addr":"경기도 부천시 오정동 581-4번지 한양아파트","category":"일반휴게음식 - 일반한식"}]},{"lat":"37.52789645","long":"126.78659995","items":[{"name":"동네언니야","tel":"032-111-1111","addr":"경기도 부천시 오정동 558-3번지 1층 1호","category":"의류 - 정장"},{"name":"소소달","tel":"032-677-7384","addr":"경기도 부천시 오정동 558-3번지 1층","category":"일반휴게음식 - 서양음식"}]},{"lat":"37.525451208","long":"126.78466124","items":[{"name":"동아일보 오정지국","tel":"032-672-7000","addr":"경기도 부천시 오정동 582-13번지 현대맨션 1층","category":"서적문구 - 정기간행물"},{"name":"바우보양탕","tel":"032-672-0749","addr":"경기도 부천시 오정동 582-13번지 현대맨션 103호","category":"일반휴게음식 - 일반한식"},{"name":"현대이발관","tel":"032-681-1370","addr":"경기도 부천시 오정동 582-13번지 현대맨션 102호","category":"보건위생 - 이용원"}]},{"lat":"37.52494852","long":"126.78082775","items":[{"name":"동일테크","tel":"032-673-8259","addr":"경기도 부천시 오정동 596번지","category":"건축자재 - 보일러·펌프·샷시"}]},{"lat":"37.528254453","long":"126.78529792","items":[{"name":"돼지삼형제","tel":"032-683-1648","addr":"경기도 부천시 오정동 556-10번지 1층 일부호","category":"일반휴게음식 - 일반한식"}]},{"lat":"37.527838205","long":"126.78432621","items":[{"name":"두드림독서실","tel":"032-674-7880","addr":"경기도 부천시 오정동 576-4번지 3층","category":"학원 - 독서실"}]},{"lat":"37.5292864","long":"126.78793089","items":[{"name":"두리씽크","tel":"032-682-0933","addr":"경기도 부천시 오정동 545-3번지 지하,1층","category":"가구 - 일반가구"},{"name":"야호블럭","tel":"032-672-2674","addr":"경기도 부천시 오정동 545-3번지 1동 2층","category":"학원 - 기타 교육기관"},{"name":"장수설렁탕","tel":"032-679-5217","addr":"경기도 부천시 오정동 545-3번지","category":"일반휴게음식 - 일반한식"},{"name":"전국장의운송사","tel":"032-663-4010","addr":"경기도 부천시 오정동 545-3번지","category":"용역 서비스 - 가례서비스업"},{"name":"클린월","tel":"032-1577-4596","addr":"경기도 부천시 오정동 545-3번지","category":"건축자재 - 인테리어전문"}]},{"lat":"37.525476684","long":"126.79891507","items":[{"name":"두은공조","tel":"070-7565-3672","addr":"경기도 부천시 오정동 139-5번지 경성그린빌라 나동 402호","category":"용역 서비스 - 기타용역서비스"}]},{"lat":"37.533011054","long":"126.78496731","items":[{"name":"디어라비","tel":"","addr":"경기도 부천시 오정동 745-3번지","category":"문화.취미 - 문화취미기타"}]},{"lat":"37.524615772","long":"126.7811568","items":[{"name":"디엘라이트","tel":"02-858-3434","addr":"경기도 부천시 오정동 603-1번지","category":"용역 서비스 - 종합용역"}]},{"lat":"37.526614561","long":"126.78524611","items":[{"name":"뚱스밥버거(오정점)","tel":"032-671-9936","addr":"경기도 부천시 오정동 580번지 오거리타운 1층 104호","category":"일반휴게음식 - 일반한식"},{"name":"맛고을감자탕","tel":"032-678-5736","addr":"경기도 부천시 오정동 580번지 A동","category":"일반휴게음식 - 일반한식"},{"name":"블랙스미스 피씨","tel":"070-8277-9897","addr":"경기도 부천시 오정동 580번지 오거리타운 201호","category":"수리서비스 - 사무·통신기기수리"},{"name":"점핑다이어트","tel":"","addr":"경기도 부천시 오정동 580번지 오거리타운 3층 301호","category":"건강식품 - 기타건강식품"},{"name":"점핑다이어트","tel":"","addr":"경기도 부천시 오정동 580번지 3층 301호","category":"건강식품 - 기타건강식품"},{"name":"티히(TeeHee)","tel":"032-671-9805","addr":"경기도 부천시 오정동 580번지 105호","category":"일반휴게음식 - 서양음식"},{"name":"풍미감자탕부대찌게","tel":"032-671-1178","addr":"경기도 부천시 오정동 580번지","category":"일반휴게음식 - 일반한식"},{"name":"헤어팡","tel":"032-672-0301","addr":"경기도 부천시 오정동 580번지 오거리타운 103호","category":"보건위생 - 미용원"}]},{"lat":"37.52711884","long":"126.78509758","items":[{"name":"라나 인터네셔널 트레이드","tel":"070-0000-0000","addr":"경기도 부천시 오정동 574-4번지 2층","category":"유통업 영리 - 슈퍼마켓"},{"name":"오정열쇠도장","tel":"032-676-3000","addr":"경기도 부천시 오정동 574-4번지","category":"건축자재 - 목재·석재·철물"},{"name":"짱구왕참숯불갈비","tel":"032-673-1521","addr":"경기도 부천시 오정동 574-4번지","category":"일반휴게음식 - 일반한식"},{"name":"행운해물포차","tel":"","addr":"경기도 부천시 오정동 574-4번지 A동 1층일부호","category":"일반휴게음식 - 일반한식"}]},{"lat":"37.526867024","long":"126.7853472","items":[{"name":"라띠","tel":"032-674-2458","addr":"경기도 부천시 오정동 573-5번지","category":"의류 - 정장"}]},{"lat":"37.526508211","long":"126.78620801","items":[{"name":"라움","tel":"032-111-1111","addr":"경기도 부천시 오정동 571-4번지 1층","category":"의류 - 정장"}]},{"lat":"37.528311006","long":"126.78665532","items":[{"name":"라이또 PC부천오정점","tel":"070-5020-5330","addr":"경기도 부천시 오정동 557-6번지 2층","category":"레저업소 - 기타레져업소"},{"name":"신서산생고기김치삼겹살전문점","tel":"032-678-5235","addr":"경기도 부천시 오정동 557-6번지","category":"일반휴게음식 - 일반한식"},{"name":"양평동장군집","tel":"032-677-4525","addr":"경기도 부천시 오정동 557-6번지 1층","category":"일반휴게음식 - 일반한식"}]},{"lat":"37.525255035","long":"126.78577044","items":[{"name":"라임음악학원","tel":"032-671-0760","addr":"경기도 부천시 오정동 583-11번지 2층","category":"학원 - 예·체능계학원"},{"name":"오정농축산","tel":"032-677-1088","addr":"경기도 부천시 오정동 583-11번지 1층","category":"음료식품 - 정육점"},{"name":"오정막회","tel":"","addr":"경기도 부천시 오정동 583-11번지 1층 102호","category":"일반휴게음식 - 일식·회집"}]},{"lat":"37.529229157","long":"126.78618883","items":[{"name":"리나앤보스(오정점)","tel":"032-676-7978","addr":"경기도 부천시 오정동 543-1번지 신오빌딩2 2층 2호","category":"보건위생 - 미용원"},{"name":"아리따움오정점","tel":"032-677-2037","addr":"경기도 부천시 오정동 543-1번지","category":"보건위생 - 화장품"},{"name":"오스시","tel":"032-678-7597","addr":"경기도 부천시 오정동 543-1번지 신오빌딩2 103호","category":"일반휴게음식 - 일식·회집"},{"name":"파파미트 (도드람한돈)","tel":"032-678-6050","addr":"경기도 부천시 오정동 543-1번지 1층 일부","category":"음료식품 - 정육점"}]},{"lat":"37.528454721","long":"126.78155271","items":[{"name":"마그마홀드","tel":"032-231-0137","addr":"경기도 부천시 오정동 387-4번지 3층","category":"레져용품 - 스포츠·레져용품"}]},{"lat":"37.528588056","long":"126.79037653","items":[{"name":"마마문구편의점","tel":"032-682-0227","addr":"경기도 부천시 오정동 114-54번지 덕산빌딩 1층 108호","category":"서적문구 - 문구용품"},{"name":"살롱 드 마망","tel":"032-111-1111","addr":"경기도 부천시 오정동 114-54번지 덕산빌딩 101호","category":"일반휴게음식 - 일반한식"},{"name":"아름소리음악학원","tel":"032-682-1824","addr":"경기도 부천시 오정동 114-54번지 덕산빌딩 3층","category":"학원 - 예·체능계학원"}]},{"lat":"37.530532113","long":"126.77948753","items":[{"name":"마이크론메저먼트시스템 (MS)","tel":"032-259-0052","addr":"경기도 부천시 오정동 759번지 한국금형센터업무동 2층 204호","category":"용역 서비스 - 사무서비스"}]},{"lat":"37.529864954","long":"126.7840714","items":[{"name":"만세기프트","tel":"070-4287-0698","addr":"경기도 부천시 오정동 373번지 창보아파트","category":"유통업 영리 - 기타유통업"},{"name":"신화유통","tel":"031-970-3238","addr":"경기도 부천시 오정동 373번지 창보아파트","category":"음료식품 - 기타음료식품"},{"name":"아이엠어메이커","tel":"070-7150-4958","addr":"경기도 부천시 오정동 373번지 창보아파트","category":"사무통신 - 컴퓨터"}]},{"lat":"37.5272331","long":"126.78354738","items":[{"name":"맛짜우","tel":"070-7333-5100","addr":"경기도 부천시 오정동 577-2번지 1층","category":"일반휴게음식 - 중국식"},{"name":"미성당","tel":"032-681-1845","addr":"경기도 부천시 오정동 577-2번지","category":"신변잡화 - 시계"},{"name":"빙고노래연습장","tel":"032-675-8545","addr":"경기도 부천시 오정동 577-2번지","category":"레저업소 - 노 래 방"},{"name":"술잔비어","tel":"032-672-3389","addr":"경기도 부천시 오정동 577-2번지 2층","category":"일반휴게음식 - 주점"},{"name":"영인양평해장국","tel":"032-673-9495","addr":"경기도 부천시 오정동 577-2번지 2층","category":"일반휴게음식 - 일반한식"},{"name":"오정카서비스","tel":"032-671-1507","addr":"경기도 부천시 오정동 577-2번지","category":"자동차정비 유지 - 자동차정비"},{"name":"우성자동차유리","tel":"032-327-6205","addr":"경기도 부천시 오정동 577-2번지","category":"자동차정비 유지 - 자동차부품"},{"name":"전통춘천숯불닭갈비","tel":"032-678-7529","addr":"경기도 부천시 오정동 577-2번지","category":"일반휴게음식 - 일반한식"},{"name":"착한찹쌀꽈배기","tel":"032-575-4511","addr":"경기도 부천시 오정동 577-2번지 1층","category":"음료식품 - 기타음료식품"},{"name":"환희약국","tel":"032-678-2169","addr":"경기도 부천시 오정동 577-2번지 102호","category":"약국 - 약국"}]},{"lat":"37.524704786","long":"126.7805796","items":[{"name":"매점","tel":"032-672-1055","addr":"경기도 부천시 오정동 596-1번지 1층","category":"유통업 비영리 - 구내매점(국가기관"},{"name":"아주펌프","tel":"032-676-3338","addr":"경기도 부천시 오정동 596-1번지 1층","category":"건축자재 - 보일러·펌프·샷시"}]},{"lat":"37.527225537","long":"126.784328","items":[{"name":"머리 잘 헤어","tel":"032-676-5013","addr":"경기도 부천시 오정동 578-5번지 킹덤하우스 가동 102호","category":"보건위생 - 미용원"},{"name":"조은돈까스","tel":"070-4107-7777","addr":"경기도 부천시 오정동 578-5번지 킹덤하우스 가동 103호","category":"일반휴게음식 - 일반한식"},{"name":"홈플러스365Plus오정중앙점","tel":"02-3459-8000","addr":"경기도 부천시 오정동 578-5번지 킹덤하우스","category":"유통업 영리 - 대형할인점"}]},{"lat":"37.526976182","long":"126.78591252","items":[{"name":"멍멍이네","tel":"032-673-7278","addr":"경기도 부천시 오정동 573-13번지","category":"문화.취미 - 애완동물"},{"name":"바비옷장","tel":"032-673-6942","addr":"경기도 부천시 오정동 573-13번지","category":"의류 - 정장"}]},{"lat":"37.527118026","long":"126.78465638","items":[{"name":"메인호프","tel":"032-684-5525","addr":"경기도 부천시 오정동 579-9번지 1층","category":"일반휴게음식 - 칵테일바"},{"name":"장군집","tel":"032-675-9589","addr":"경기도 부천시 오정동 579-9번지","category":"일반휴게음식 - 일반한식"}]},{"lat":"37.525588752","long":"126.78596179","items":[{"name":"메주언니가 꿈꾸는 밥상","tel":"032-672-9290","addr":"경기도 부천시 오정동 570-6번지 1층 일부","category":"일반휴게음식 - 일반한식"},{"name":"월드D.C","tel":"032-681-5384","addr":"경기도 부천시 오정동 570-6번지","category":"서적문구 - 문구용품"},{"name":"핑크하우스","tel":"02-2631-3798","addr":"경기도 부천시 오정동 570-6번지 1층","category":"직물 - 침구·수예점"}]},{"lat":"37.524094841","long":"126.78690505","items":[{"name":"명 모터스","tel":"032-678-8272","addr":"경기도 부천시 오정동 566-15번지 1층 전체하이카프라자","category":"자동차정비 유지 - 자동차정비"},{"name":"하이카프라자오정점","tel":"032-678-8272","addr":"경기도 부천시 오정동 566-15번지","category":"자동차정비 유지 - 자동차정비"}]},{"lat":"37.528842143","long":"126.78155156","items":[{"name":"명가밥상","tel":"032-673-2987","addr":"경기도 부천시 오정동 394-20번지","category":"일반휴게음식 - 일반한식"}]},{"lat":"37.525118032","long":"126.78476402","items":[{"name":"명성유통","tel":"032-668-7005","addr":"경기도 부천시 오정동 583-9번지 가현팰리스","category":"신변잡화 - 기타잡화"}]},{"lat":"37.528478558","long":"126.77985568","items":[{"name":"명성중식당","tel":"032-679-0533","addr":"경기도 부천시 오정동 773-4번지 명성프라자 1층 105-107호","category":"일반휴게음식 - 중국식"},{"name":"요거프레소 오정산업단지점","tel":"","addr":"경기도 부천시 오정동 773-4번지 명성프라자 1층 104호","category":"일반휴게음식 - 서양음식"},{"name":"유보트레포츠(U Boat Leports)","tel":"032-652-6352","addr":"경기도 부천시 오정동 773-4번지 명성프라자 301호","category":"레져용품 - 스포츠·레져용품"},{"name":"천금연마","tel":"032-683-5239","addr":"경기도 부천시 오정동 773-4번지 명성프라자 1층 102호","category":"기타 - 기계공구"}]},{"lat":"37.532894844","long":"126.78546546","items":[{"name":"명성푸드","tel":"032-679-0533","addr":"경기도 부천시 오정동 746-11번지 2층","category":"일반휴게음식 - 위탁급식업"}]},{"lat":"37.52367205","long":"126.7973815","items":[{"name":"모리미용실","tel":"032-683-9442","addr":"경기도 부천시 오정동 140-37번지","category":"보건위생 - 미용원"},{"name":"위드미 오정부촌점","tel":"02-6916-1580","addr":"경기도 부천시 오정동 140-37번지 1층 일부","category":"유통업 영리 - 편 의 점"}]},{"lat":"37.522425827","long":"126.79574466","items":[{"name":"모아","tel":"070-8141-5018","addr":"경기도 부천시 오정동 140-79 서남빌라 2-1 21/6","category":"회원제형태 - 기타4"}]},{"lat":"37.527311474","long":"126.78696365","items":[{"name":"무동력터보 부천점","tel":"","addr":"경기도 부천시 오정동 559-2번지 효마을아파트","category":"자동차정비 유지 - 자동차부품"},{"name":"조아유통","tel":"032-471-6003","addr":"경기도 부천시 오정동 559-2번지 효마을아파트","category":"회원제형태 - 기타1"}]},{"lat":"37.52914286","long":"126.7882707","items":[{"name":"문구백화점","tel":"032-679-5769","addr":"경기도 부천시 오정동 546번지","category":"서적문구 - 문구용품"},{"name":"아뜰리에","tel":"032-674-5219","addr":"경기도 부천시 오정동 546번지","category":"회원제형태 - 기타4"},{"name":"우드앤도그","tel":"070-7768-4788","addr":"경기도 부천시 오정동 546번지 2층","category":"일반휴게음식 - 서양음식"},{"name":"하루플라워","tel":"032-674-5219","addr":"경기도 부천시 오정동 546번지 1층","category":"문화.취미 - 화원"},{"name":"핸디페어 오정동점","tel":"032-680-4823","addr":"경기도 부천시 오정동 546번지 1층","category":"건축자재 - 인테리어전문"},{"name":"헤어톡톡","tel":"032-679-6811","addr":"경기도 부천시 오정동 546번지 1층","category":"보건위생 - 미용원"}]},{"lat":"37.526122088","long":"126.78204605","items":[{"name":"미니스톱 부천IC점","tel":"031-1577-9621","addr":"경기도 부천시 오정동 594번지 일광오정파크 1층","category":"유통업 영리 - 편 의 점"}]},{"lat":"37.526843314","long":"126.78715732","items":[{"name":"미니스톱 오정성진점","tel":"031-1577-9621","addr":"경기도 부천시 오정동 560-13번지 1층","category":"유통업 영리 - 편 의 점"},{"name":"백조헤어아트","tel":"032-672-5188","addr":"경기도 부천시 오정동 560-13번지","category":"보건위생 - 미용원"}]},{"lat":"37.526174245","long":"126.78588091","items":[{"name":"미니앤맥스(Mini&Max)","tel":"032-000-0000","addr":"경기도 부천시 오정동 571-10번지","category":"의류 - 정장"},{"name":"형제수산","tel":"032-674-6498","addr":"경기도 부천시 오정동 571-10번지 1층상가","category":"음료식품 - 농·축·수산품"}]},{"lat":"37.525039505","long":"126.78615569","items":[{"name":"미도화원","tel":"032-671-3215","addr":"경기도 부천시 오정동 568-11번지 미도주택 C","category":"문화.취미 - 화원"}]},{"lat":"37.528755335","long":"126.78821525","items":[{"name":"미미피부관리","tel":"032-675-8013","addr":"경기도 부천시 오정동 546-3번지","category":"회원제형태 - 기타4"}]},{"lat":"37.528536572","long":"126.78195974","items":[{"name":"미성씽크","tel":"031-977-2586","addr":"경기도 부천시 오정동 387-2번지 1층","category":"주방용구 - 주방용구"},{"name":"삼전섬유","tel":"032-673-3956","addr":"경기도 부천시 오정동 387-2번지","category":"직물 - 기타직물"},{"name":"우성아이비 AS 센타","tel":"032-675-7736","addr":"경기도 부천시 오정동 387-2번지 3층","category":"수리서비스 - 레져용품수리"},{"name":"제백코리아","tel":"032-556-4100","addr":"경기도 부천시 오정동 387-2번지 4층","category":"레져용품 - 스포츠·레져용품"}]},{"lat":"37.526204949","long":"126.78299607","items":[{"name":"믿음자동차공업사","tel":"032-671-8970","addr":"경기도 부천시 오정동 592-11번지","category":"자동차정비 유지 - 자동차정비"}]},{"lat":"37.528587921","long":"126.78535351","items":[{"name":"배불리 찌게랑 감자탕","tel":"032-676-7508","addr":"경기도 부천시 오정동 555-1번지","category":"일반휴게음식 - 일반한식"},{"name":"비비모터스","tel":"032-671-5197","addr":"경기도 부천시 오정동 555-1번지","category":"수리서비스 - 레져용품수리"},{"name":"신전카센타","tel":"032-671-2121","addr":"경기도 부천시 오정동 555-1번지","category":"자동차정비 유지 - 자동차정비"},{"name":"주식회사천지유통자산관리","tel":"032-677-1373","addr":"경기도 부천시 오정동 555-1번지","category":"회원제형태 - 기타2"}]},{"lat":"37.526705222","long":"126.7855513","items":[{"name":"뱅크노래연습장","tel":"032-679-1301","addr":"경기도 부천시 오정동 573-14번지 지하층","category":"레저업소 - 노 래 방"},{"name":"오거리당구장","tel":"070-7358-0904","addr":"경기도 부천시 오정동 573-14번지 3층","category":"레저업소 - 당 구 장"},{"name":"지앤미의원","tel":"032-679-8412","addr":"경기도 부천시 오정동 573-14번지","category":"의원 - 의원"},{"name":"행복한 팬시","tel":"032-677-1210","addr":"경기도 부천시 오정동 573-14번지 ,13 ,1층","category":"서적문구 - 문구용품"}]},{"lat":"37.52582059","long":"126.78464885","items":[{"name":"베트남쌀국수퍼","tel":"","addr":"경기도 부천시 오정동 582번지 복지그린빌 1동 1층 101호","category":"일반휴게음식 - 서양음식"}]},{"lat":"37.527533871","long":"126.7805712","items":[{"name":"보성산업","tel":"032-679-5394","addr":"경기도 부천시 오정동 781-1번지","category":"기타 - 기계공구"}]},{"lat":"37.524814218","long":"126.78613372","items":[{"name":"부가커피","tel":"032-673-6263","addr":"경기도 부천시 오정동 567번지 조강홈타운 101동 102호","category":"일반휴게음식 - 서양음식"},{"name":"오땡큐","tel":"032-683-7333","addr":"경기도 부천시 오정동 567번지 조강홈타운 101동 101호","category":"회원제형태 - 기타1"}]},{"lat":"37.527982781","long":"126.78455205","items":[{"name":"부전카센타","tel":"032-675-7514","addr":"경기도 부천시 오정동 576-2번지","category":"자동차정비 유지 - 자동차부품"},{"name":"신생약국","tel":"032-671-5300","addr":"경기도 부천시 오정동 576-2번지 1층","category":"약국 - 약국"},{"name":"웰빙우렁이쌈밥","tel":"032-679-6443","addr":"경기도 부천시 오정동 576-2번지","category":"일반휴게음식 - 일반한식"},{"name":"참사랑의원","tel":"032-672-7174","addr":"경기도 부천시 오정동 576-2번지 2-6층","category":"의원 - 의원"}]},{"lat":"37.525454005","long":"126.78132401","items":[{"name":"부천보링공업사","tel":"032-677-6622","addr":"경기도 부천시 오정동 595-3번지","category":"자동차정비 유지 - 자동차정비"}]},{"lat":"37.529897417","long":"126.78702408","items":[{"name":"부천숭무관","tel":"032-677-5753","addr":"경기도 부천시 오정동 177-9번지 세종프라자 301동 302호","category":"학원 - 예·체능계학원"},{"name":"손정민헤어","tel":"032-672-2347","addr":"경기도 부천시 오정동 177-9번지 세종프라자 202호","category":"보건위생 - 미용원"},{"name":"신미가꽃예술원","tel":"032-671-3481","addr":"경기도 부천시 오정동 177-9번지 세종프라자 1층 103호","category":"문화.취미 - 화원"},{"name":"아딸오정점","tel":"032-627-5039","addr":"경기도 부천시 오정동 177-9번지 세종프라자 104호","category":"일반휴게음식 - 스넥"},{"name":"아이스크림할인점","tel":"031-646-1671","addr":"경기도 부천시 오정동 177-9번지 1층 107호","category":"음료식품 - 기타음료식품"},{"name":"오정비타민독서실","tel":"032-677-0661","addr":"경기도 부천시 오정동 177-9번지 3층 301호, 302호","category":"학원 - 독서실"},{"name":"오정장식","tel":"032-671-7368","addr":"경기도 부천시 오정동 177-9번지 세종프라자 101호","category":"직물 - 카페트,커튼,천막,지물"},{"name":"유니베라오정대리점","tel":"032-683-8558","addr":"경기도 부천시 오정동 177-9번지 대동프라자 2층 201호","category":"보건위생 - 화장품"},{"name":"정언텔레콤","tel":"032-678-7222","addr":"경기도 부천시 오정동 177-9번지 세종프라자 1동 106호","category":"사무통신 - 통신기기"},{"name":"치킨사냥 부천오정점","tel":"032-678-8292","addr":"경기도 부천시 오정동 177-9번지 세종프라자 1층 102호","category":"일반휴게음식 - 스넥"},{"name":"피온메디칼","tel":"070-8755-0015","addr":"경기도 부천시 오정동 177-9번지 세종프라자 301호","category":"보건위생 - 의료용품"},{"name":"피자마루","tel":"032-675-1088","addr":"경기도 부천시 오정동 177-9번지 세종프라자 105호","category":"일반휴게음식 - 서양음식"}]},{"lat":"37.532340337","long":"126.77335014","items":[{"name":"부천시 영농","tel":"","addr":"경기도 부천시 오정동 443-4","category":"음료식품 - 농·축·수산품"}]},{"lat":"37.523839159","long":"126.78505055","items":[{"name":"부천시노동복지회관","tel":"032-679-2900","addr":"경기도 부천시 오정동 611번지","category":"기타 - 비영리/대상"}]},{"lat":"37.528400672","long":"126.77680138","items":[{"name":"부천시수퍼마켓협동조합","tel":"032-665-0282","addr":"경기도 부천시 오정동 808-6번지","category":"음료식품 - 기타음료식품"}]},{"lat":"37.529447726","long":"126.78257928","items":[{"name":"부천우편집중국","tel":"032-680-0320","addr":"경기도 부천시 오정동 384번지","category":"용역 서비스 - 공공요금대행서비스/소"}]},{"lat":"37.522812555","long":"126.79534766","items":[{"name":"북경반점","tel":"032-671-1377","addr":"경기도 부천시 오정동 140-15번지 토담빌라 1층 101호","category":"일반휴게음식 - 중국식"}]},{"lat":"37.525092962","long":"126.78582748","items":[{"name":"분식하우스","tel":"","addr":"경기도 부천시 오정동 584-10번지","category":"일반휴게음식 - 일반한식"}]},{"lat":"37.527565931","long":"126.7784669","items":[{"name":"브룸트리","tel":"","addr":"경기도 부천시 오정동 772-5번지 5층 일부호","category":"보건위생 - 화장품"}]},{"lat":"37.529898367","long":"126.78754449","items":[{"name":"브리스코리아","tel":"070-5486-3528","addr":"경기도 부천시 오정동 177-1번지 세종아파트","category":"의류 - 내의판매"},{"name":"홈플러스365Plus오정세종점","tel":"02-3459-8000","addr":"경기도 부천시 오정동 177-1번지 세종상가 102호","category":"유통업 영리 - 대형할인점"}]},{"lat":"37.526060792","long":"126.78299649","items":[{"name":"비에이치씨(BHC)치킨","tel":"032-682-9933","addr":"경기도 부천시 오정동 590번지 오정의아침 102동 101호","category":"일반휴게음식 - 스넥"}]},{"lat":"37.528339007","long":"126.78718695","items":[{"name":"사계절아이스","tel":"","addr":"경기도 부천시 오정동 553-6번지 더샵하우스 104동 1층 101호","category":"음료식품 - 기타음료식품"}]},{"lat":"37.527038315","long":"126.78540326","items":[{"name":"사랑상사","tel":"032-673-1652","addr":"경기도 부천시 오정동 573-4번지 지층","category":"용역 서비스 - 기타용역서비스"},{"name":"천지푸드","tel":"032-671-2177","addr":"경기도 부천시 오정동 573-4번지 1층","category":"음료식품 - 기타음료식품"}]},{"lat":"37.526700216","long":"126.78284755","items":[{"name":"사운드커뮤니케이션","tel":"032-677-1383","addr":"경기도 부천시 오정동 593-2번지 1층","category":"자동차정비 유지 - 자동차부품"},{"name":"엔케이","tel":"031-677-6666","addr":"경기도 부천시 오정동 593-2번지","category":"자동차정비 유지 - 자동차정비"}]},{"lat":"37.522202855","long":"126.79704617","items":[{"name":"삼성시스템에어컨 부천점","tel":"032-000-0000","addr":"경기도 부천시 오정동 140-46번지 대진빌라 101동 301호","category":"용역 서비스 - 기타용역서비스"}]},{"lat":"37.522731725","long":"126.79549494","items":[{"name":"삼성이벤트","tel":"031-945-8281","addr":"경기도 부천시 오정동 140-83번지 토담빌라","category":"용역 서비스 - 사무서비스"}]},{"lat":"37.523006754","long":"126.79307336","items":[{"name":"삼성지게차서비스","tel":"032-327-1929","addr":"경기도 부천시 오정동 617번지","category":"건축자재 - 기타건축자재"}]},{"lat":"37.529008267","long":"126.78857654","items":[{"name":"삼성태권도장","tel":"032-677-9320","addr":"경기도 부천시 오정동 546-5번지 세종빌딩 2층","category":"학원 - 예·체능계학원"},{"name":"세종마트","tel":"032-671-6415","addr":"경기도 부천시 오정동 546-5번지","category":"유통업 영리 - 슈퍼마켓"},{"name":"정수기마트","tel":"032-541-1385","addr":"경기도 부천시 오정동 546-5번지 세종빌딩 1층","category":"주방용구 - 정수기"}]},{"lat":"37.525869283","long":"126.78176397","items":[{"name":"삼원제작","tel":"032-675-7001","addr":"경기도 부천시 오정동 594-2번지","category":"기타 - 기계공구"},{"name":"시지텍","tel":"032-673-0049","addr":"경기도 부천시 오정동 594-2번지 2층 일부","category":"신변잡화 - 기타잡화"},{"name":"인버터뱅크","tel":"070-7326-2001","addr":"경기도 부천시 오정동 594-2번지 1층","category":"전기제품 - 기타전기제품"}]},{"lat":"37.524643031","long":"126.78613422","items":[{"name":"삼천리자전거","tel":"032-672-8388","addr":"경기도 부천시 오정동 567-1번지 삼우빌라","category":"레져용품 - 스포츠·레져용품"},{"name":"프리 지니의 패션 하우스","tel":"032-1111-1111","addr":"경기도 부천시 오정동 567-1번지 킹덤하우스 101호","category":"의류 - 정장"}]},{"lat":"37.527371949","long":"126.78554936","items":[{"name":"삼화공조","tel":"070-7578-2406","addr":"경기도 부천시 오정동 574-16번지 1층","category":"수리서비스 - 기타수리서비스"}]},{"lat":"37.522703362","long":"126.7947371","items":[{"name":"생고기자연석구이","tel":"032-684-1330","addr":"경기도 부천시 오정동 618-1번지","category":"일반휴게음식 - 일반한식"},{"name":"서경자동차공업사","tel":"032-683-0081","addr":"경기도 부천시 오정동 618-1번지","category":"자동차정비 유지 - 자동차정비"},{"name":"씨스페이스부천오정점","tel":"032-683-0068","addr":"경기도 부천시 오정동 618-1번지","category":"유통업 영리 - 편 의 점"}]},{"lat":"37.526755729","long":"126.79870796","items":[{"name":"생생꽃농원","tel":"032-321-2611","addr":"경기도 부천시 오정동 137-9번지","category":"문화.취미 - 화원"}]},{"lat":"37.528643809","long":"126.7863489","items":[{"name":"생생해물손칼국수","tel":"032-679-6779","addr":"경기도 부천시 오정동 556-30번지","category":"일반휴게음식 - 일반한식"}]},{"lat":"37.527484126","long":"126.78776637","items":[{"name":"서광샷시","tel":"032-679-4945","addr":"경기도 부천시 오정동 560번지 1층 2호","category":"건축자재 - 기타건축자재"}]},{"lat":"37.527173274","long":"126.78530106","items":[{"name":"성광엠이","tel":"070-5342-3663","addr":"경기도 부천시 오정동 574-5번지","category":"서적문구 - 출판 및 인쇄물"},{"name":"해만두전골보쌈","tel":"032-674-8876","addr":"경기도 부천시 오정동 574-5번지 1층","category":"일반휴게음식 - 일반한식"}]},{"lat":"37.527253633","long":"126.78490487","items":[{"name":"성신공사","tel":"032-671-2384","addr":"경기도 부천시 오정동 574-3번지","category":"건축자재 - 유리"}]},{"lat":"37.52934284","long":"126.78924306","items":[{"name":"세븐유통","tel":"","addr":"경기도 부천시 오정동 179번지 세종아파트","category":"별도관리 - 자체물품대금"},{"name":"에프에스에이치엔(FSHN)","tel":"","addr":"경기도 부천시 오정동 179번지 세종아파트","category":"건축자재 - 건축용 요업제품"}]},{"lat":"37.529448124","long":"126.78768154","items":[{"name":"세븐일레븐부천세종점","tel":"031-1577-0711","addr":"경기도 부천시 오정동 192-22번지 엠지성새빌딩 1층 102호","category":"유통업 영리 - 편 의 점"}]},{"lat":"37.528622156","long":"126.78930168","items":[{"name":"세종자동차공업사","tel":"032-811-1114","addr":"경기도 부천시 오정동 548번지 1층","category":"자동차정비 유지 - 자동차정비"}]},{"lat":"37.528787261","long":"126.78596384","items":[{"name":"세진설비공사","tel":"032-673-9557","addr":"경기도 부천시 오정동 556-1번지 1층","category":"건축자재 - 목재·석재·철물"},{"name":"옛촌막걸리","tel":"032-677-0550","addr":"경기도 부천시 오정동 556-1번지 1층 2호","category":"일반휴게음식 - 일반한식"}]},{"lat":"37.524928889","long":"126.78479851","items":[{"name":"소리대장간우디","tel":"032-681-7588","addr":"경기도 부천시 오정동 584번지 1층","category":"전기제품 - 가전제품"}]},{"lat":"37.526872602","long":"126.78349188","items":[{"name":"소문난곱창","tel":"032-673-4490","addr":"경기도 부천시 오정동 592번지","category":"일반휴게음식 - 일반한식"},{"name":"열린라이브포차","tel":"032-681-5065","addr":"경기도 부천시 오정동 592번지 지하1층","category":"일반휴게음식 - 주점"},{"name":"장수식당","tel":"032-674-3030","addr":"경기도 부천시 오정동 592번지 1층","category":"일반휴게음식 - 일반한식"},{"name":"티파니노래연습장","tel":"032-673-0100","addr":"경기도 부천시 오정동 592번지 2층","category":"레저업소 - 노 래 방"},{"name":"허니비어","tel":"070-7432-7410","addr":"경기도 부천시 오정동 592번지 1층","category":"일반휴게음식 - 주점"}]},{"lat":"37.524649405","long":"126.77987839","items":[{"name":"소슬아이텍","tel":"032-325-4668","addr":"경기도 부천시 오정동 598-5번지","category":"기타 - 기계공구"},{"name":"웰빙미락한식뷔페","tel":"032-681-4338","addr":"경기도 부천시 오정동 598-5번지","category":"일반휴게음식 - 일반한식"}]},{"lat":"37.529811862","long":"126.77977251","items":[{"name":"송정하이테크","tel":"032-545-3450","addr":"경기도 부천시 오정동 768-12 오정산업단지16-11블럭","category":"전기제품 - 기타전기제품"}]},{"lat":"37.528509884","long":"126.78701676","items":[{"name":"수진이네손칼국수","tel":"032-673-9885","addr":"경기도 부천시 오정동 554-25번지","category":"일반휴게음식 - 일반한식"}]},{"lat":"37.529591228","long":"126.78710415","items":[{"name":"스위트피스","tel":"031-0000-0000","addr":"경기도 부천시 오정동 192-7번지 은경빌딩 1층 102호","category":"일반휴게음식 - 서양음식"},{"name":"오정윤업사","tel":"032-681-4795","addr":"경기도 부천시 오정동 192-7번지","category":"레져용품 - 스포츠·레져용품"},{"name":"율Hair","tel":"070-5284-5685","addr":"경기도 부천시 오정동 192-7번지 은경빌딩 1층 103호","category":"보건위생 - 미용원"},{"name":"정우보습학원","tel":"032-672-4525","addr":"경기도 부천시 오정동 192-7,10,13(2,3층)","category":"학원 - 보습학원"},{"name":"청춘감성 쌀 핫도그(부천오정점)","tel":"032-675-9992","addr":"경기도 부천시 오정동 192-7번지 은경빌딩 1층 104호","category":"일반휴게음식 - 서양음식"}]},{"lat":"37.533481252","long":"126.78588237","items":[{"name":"스크린골프오후","tel":"032-675-0009","addr":"경기도 부천시 오정동 743번지 Ohoo company 202호","category":"레저업소 - 스크린골프"},{"name":"씨유부천오정원룸점","tel":"032-678-8745","addr":"경기도 부천시 오정동 743번지 1층","category":"유통업 영리 - 편 의 점"},{"name":"오후","tel":"032-673-3388","addr":"경기도 부천시 오정동 743번지 3층","category":"일반휴게음식 - 일반한식"}]},{"lat":"37.531008961","long":"126.78885365","items":[{"name":"스키드카클리닉","tel":"032-684-4860","addr":"경기도 부천시 오정동 111-19번지","category":"자동차정비 유지 - 카인테리어"}]},{"lat":"37.53117471","long":"126.78102425","items":[{"name":"스타세일러","tel":"02-1666-3951","addr":"경기도 부천시 오정동 763-2번지","category":"기타 - 기타 전문점"},{"name":"주식회사 중동에프씨","tel":"032-648-1905","addr":"경기도 부천시 오정동 763-2번지","category":"레저업소 - 기타레져업소"},{"name":"주식회사광성이앤에스","tel":"031-611-9356","addr":"경기도 부천시 오정동 763-2번지 3층","category":"신변잡화 - 기타잡화"},{"name":"해나루","tel":"032-675-1785","addr":"경기도 부천시 오정동 763-2번지 1층 일부호","category":"일반휴게음식 - 일반한식"}]},{"lat":"37.523562196","long":"126.79129577","items":[{"name":"스타세차천국","tel":"032-673-4634","addr":"경기도 부천시 오정동 625-3번지","category":"자동차정비 유지 - 세차장"},{"name":"탑 자동차 공업사","tel":"032-345-9568","addr":"경기도 부천시 오정동 625-3번지 다동 1층","category":"자동차정비 유지 - 자동차정비"}]},{"lat":"37.527378169","long":"126.79914747","items":[{"name":"승아네 할머니야채","tel":"032-673-7277","addr":"경기도 부천시 오정동 135-7번지 동양빌라 가동 4층 401호","category":"음료식품 - 농·축·수산품"}]},{"lat":"37.526476424","long":"126.79870872","items":[{"name":"시골보양탕","tel":"032-684-7736","addr":"경기도 부천시 오정동 137-34번지 가동","category":"일반휴게음식 - 일반한식"}]},{"lat":"37.526505775","long":"126.78488442","items":[{"name":"시골흑염소","tel":"032-676-4050","addr":"경기도 부천시 오정동 580-6번지","category":"건강식품 - 기타건강식품"}]},{"lat":"37.52270533","long":"126.79585701","items":[{"name":"신영전산","tel":"032-681-4940","addr":"경기도 부천시 오정동 140-13번지 21/6 삼성주택 202호","category":"사무통신 - 컴퓨터"}]},{"lat":"37.528841631","long":"126.78613338","items":[{"name":"신의주 찹쌀순대","tel":"032-675-9409","addr":"경기도 부천시 오정동 556번지 1층","category":"일반휴게음식 - 일반한식"},{"name":"칠갑산정육식당","tel":"032-683-4532","addr":"경기도 부천시 오정동 556번지 2층","category":"일반휴게음식 - 일반한식"},{"name":"코리안바베큐","tel":"032-671-8892","addr":"경기도 부천시 오정동 556번지 1층 일부","category":"일반휴게음식 - 주점"},{"name":"후로꾸 당구클럽","tel":"032-677-8746","addr":"경기도 부천시 오정동 556번지 4층","category":"레저업소 - 당 구 장"}]},{"lat":"37.525091783","long":"126.7803522","items":[{"name":"신한모터스","tel":"032-684-7561","addr":"경기도 부천시 오정동 598번지","category":"자동차정비 유지 - 자동차정비"}]},{"lat":"37.526786144","long":"126.78546056","items":[{"name":"실내포장마차","tel":"032-677-1578","addr":"경기도 부천시 오정동 573-6,14번지","category":"일반휴게음식 - 일반한식"}]},{"lat":"37.524840189","long":"126.78071495","items":[{"name":"실버텍","tel":"070-4922-1261","addr":"경기도 부천시 오정동 596-4번지 3층","category":"전기제품 - 기타전기제품"},{"name":"진우주방","tel":"032-677-0901","addr":"경기도 부천시 오정동 596-4번지 지하층","category":"주방용구 - 주방용구"}]},{"lat":"37.528588941","long":"126.78590785","items":[{"name":"심원사몰","tel":"032-805-9589","addr":"경기도 부천시 오정동 556-22번지 2층","category":"신변잡화 - 기념품점"}]},{"lat":"37.528198976","long":"126.77970944","items":[{"name":"심테크","tel":"032-679-1248","addr":"경기도 부천시 오정동 773-5번지 2층","category":"신변잡화 - 기타잡화"},{"name":"케이엔비/원격지","tel":"032-684-7811","addr":"경기도 부천시 오정동 773-5번지","category":"기타 - 기타 전문점"}]},{"lat":"37.525032437","long":"126.79732121","items":[{"name":"싱싱다육그린원","tel":"032-681-0044","addr":"경기도 부천시 오정동 146-8번지","category":"문화.취미 - 화원"}]},{"lat":"37.527590329","long":"126.7818494","items":[{"name":"썬바이오의료기","tel":"032-676-9877","addr":"경기도 부천시 오정동 781-6번지 한밭철강부천공장 301호","category":"직물 - 침구·수예점"}]},{"lat":"37.527781409","long":"126.78774289","items":[{"name":"씨오비즈(COBIZ)","tel":"070-7364-5238","addr":"경기도 부천시 오정동 552-6번지 태오빌딩 1층","category":"보건위생 - 의료용품"}]},{"lat":"37.530367408","long":"126.77346932","items":[{"name":"씨유부천큐브에스점","tel":"080-080-3663","addr":"경기도 부천시 오정동 802번지 켄달스퀘어부천 로지스틱스파크 B동 140호","category":"유통업 영리 - 편 의 점"}]},{"lat":"37.524838832","long":"126.7848214","items":[{"name":"아귀사랑","tel":"032-231-5959","addr":"경기도 부천시 오정동 584-8번지 1층","category":"일반휴게음식 - 일반한식"}]},{"lat":"37.526947966","long":"126.78526777","items":[{"name":"아네스 헤어","tel":"032-678-3455","addr":"경기도 부천시 오정동 573-19번지 1층 일부호","category":"보건위생 - 미용원"},{"name":"효도건강원","tel":"032-681-1070","addr":"경기도 부천시 오정동 573-19번지 1층","category":"건강식품 - 기타건강식품"}]},{"lat":"37.52579685","long":"126.78643632","items":[{"name":"아라클린","tel":"","addr":"경기도 부천시 오정동 570-5번지 우진아파트","category":"용역 서비스 - 종합용역"}]},{"lat":"37.527539447","long":"126.79862663","items":[{"name":"아이스크림 전문점","tel":"032-000-0000","addr":"경기도 부천시 오정동 134-1번지 대흥아파트","category":"음료식품 - 기타음료식품"}]},{"lat":"37.524282621","long":"126.78127091","items":[{"name":"아주테크","tel":"032-682-1888","addr":"경기도 부천시 오정동 600-3번지","category":"기타 - 기계공구"},{"name":"주식회사 이륜코리아","tel":"032-676-9411","addr":"경기도 부천시 오정동 600-3번지 세영빌딩 4층","category":"사무통신 - 사무용 OA기기"},{"name":"주식회사 주원에스테크","tel":"032-551-1742","addr":"경기도 부천시 오정동 600-3번지 세영빌딩 4층","category":"사무통신 - 사무용 OA기기"}]},{"lat":"37.527809796","long":"126.78848947","items":[{"name":"알오 Internationl","tel":"070-7686-4632","addr":"경기도 부천시 오정동 551번지 삼두아파트","category":"신변잡화 - 기타잡화"}]},{"lat":"37.525309655","long":"126.78607573","items":[{"name":"어울마당","tel":"032-672-5333","addr":"경기도 부천시 오정동 569-12번지 1층 일부","category":"일반휴게음식 - 일반한식"}]},{"lat":"37.526428862","long":"126.78715851","items":[{"name":"엄마의하루","tel":"02-335-2526","addr":"경기도 부천시 오정동 562-1번지 1층 1호","category":"주방용구 - 주방용구"}]},{"lat":"37.527280914","long":"126.78020994","items":[{"name":"엄브레러","tel":"02-1899-6991","addr":"경기도 부천시 오정동 772-19번지 (주)제너렉스 5층 1호","category":"기타 - 기계공구"}]},{"lat":"37.526675561","long":"126.78412597","items":[{"name":"에소르","tel":"","addr":"경기도 부천시 오정동 579-2번지","category":"숙박업 - 여관/기타숙박업"}]},{"lat":"37.52400653","long":"126.78299121","items":[{"name":"에스앤에이치 홀딩스","tel":"031-1800-2635","addr":"경기도 부천시 오정동 609-5번지 3층 일부","category":"신변잡화 - 기타잡화"}]},{"lat":"37.523171476","long":"126.78946428","items":[{"name":"에어월드","tel":"070-8542-3245","addr":"경기도 부천시 오정동 614-17번지 예스빌라 지층 2호","category":"수리서비스 - 가정용품수리"}]},{"lat":"37.535558302","long":"126.77879369","items":[{"name":"여월비젼보습학원","tel":"032-681-1605","addr":"경기도 부천시 오정동 334-1여월프라자602","category":"학원 - 보습학원"}]},{"lat":"37.530080826","long":"126.78878843","items":[{"name":"영구크린","tel":"032-674-9633","addr":"경기도 부천시 오정동 114-66번지 하나아트빌 7동 202호","category":"용역 서비스 - 종합용역"}]},{"lat":"37.52542672","long":"126.78604145","items":[{"name":"영주상회","tel":"032-677-6388","addr":"경기도 부천시 오정동 569번지","category":"주방용구 - 주방용구"},{"name":"평창축산","tel":"032-678-0221","addr":"경기도 부천시 오정동 569번지","category":"음료식품 - 정육점"}]},{"lat":"37.527340728","long":"126.7784902","items":[{"name":"영진테크","tel":"032-665-2633","addr":"경기도 부천시 오정동 772-7번지 3층","category":"기타 - 기계공구"}]},{"lat":"37.52836436","long":"126.78627052","items":[{"name":"예스나나","tel":"032-677-1417","addr":"경기도 부천시 오정동 557-9번지 1층","category":"보건위생 - 화장품"}]},{"lat":"37.525587483","long":"126.78527172","items":[{"name":"예일 시스템","tel":"032-672-7768","addr":"경기도 부천시 오정동 582-17번지 다온빌 402호","category":"용역 서비스 - 기타용역서비스"}]},{"lat":"37.531198864","long":"126.78923777","items":[{"name":"예지엠에스주식회사","tel":"032-671-5545","addr":"경기도 부천시 오정동 111-5번지","category":"자동차정비 유지 - 자동차정비"},{"name":"예지엠에스주식회사","tel":"032-671-5500","addr":"경기도 부천시 오정동 111-5번지","category":"자동차정비 유지 - 자동차정비"}]},{"lat":"37.531399955","long":"126.78102358","items":[{"name":"오렌지푸드","tel":"032-672-0188","addr":"경기도 부천시 오정동 763-1번지","category":"일반휴게음식 - 일반한식"}]},{"lat":"37.526309351","long":"126.78585789","items":[{"name":"오만이네","tel":"032-328-6428","addr":"경기도 부천시 오정동 571-1번지","category":"음료식품 - 농·축·수산품"},{"name":"중부야채","tel":"032-679-9932","addr":"경기도 부천시 오정동 571-1번지","category":"음료식품 - 농·축·수산품"}]},{"lat":"37.532428068","long":"126.79138386","items":[{"name":"오수호테니스장","tel":"02-2682-9624","addr":"경기도 부천시 오정동 19-1번지 외1","category":"레저업소 - 테니스장"}]},{"lat":"37.528369793","long":"126.77479906","items":[{"name":"오에스테크","tel":"032-670-8277","addr":"경기도 부천시 오정동 808-1번지 1층","category":"기타 - 기계공구"}]},{"lat":"37.526480829","long":"126.78601577","items":[{"name":"오정D.C","tel":"032-683-1717","addr":"경기도 부천시 오정동 571-3번지 1층","category":"신변잡화 - 기타잡화"}]},{"lat":"37.530872808","long":"126.78829968","items":[{"name":"오정동광공업사","tel":"032-683-6513","addr":"경기도 부천시 오정동 112-19번지","category":"자동차정비 유지 - 자동차정비"},{"name":"천훈자동차공업사","tel":"032-682-2346","addr":"경기도 부천시 오정동 112-19번지","category":"자동차정비 유지 - 자동차정비"}]},{"lat":"37.524094489","long":"126.78671274","items":[{"name":"오정동부대찌개","tel":"032-682-3797","addr":"경기도 부천시 오정동 566-17번지","category":"일반휴게음식 - 일반한식"}]},{"lat":"37.528732965","long":"126.7907947","items":[{"name":"오정동주민자치위원회","tel":"032-677-0608","addr":"경기도 부천시 오정동 114-4번지","category":"회원제형태 - 레져업소"}]},{"lat":"37.528841146","long":"126.79590793","items":[{"name":"오정레포츠센터 매점","tel":"02-900-1544","addr":"경기도 부천시 오정동 782번지","category":"음료식품 - 기타음료식품"}]},{"lat":"37.526371858","long":"126.78555226","items":[{"name":"오정반찬","tel":"032-672-5580","addr":"경기도 부천시 오정동 581-7번지","category":"음료식품 - 기타음료식품"},{"name":"종로떡방앗간","tel":"032-676-4577","addr":"경기도 부천시 오정동 581-7번지","category":"음료식품 - 제과점"},{"name":"풍미닭집","tel":"032-681-5898","addr":"경기도 부천시 오정동 581-7번지","category":"음료식품 - 정육점"}]},{"lat":"37.524121167","long":"126.78652035","items":[{"name":"오정설비철물전기","tel":"032-672-7463","addr":"경기도 부천시 오정동 566-18번지","category":"건축자재 - 목재·석재·철물"}]},{"lat":"37.525393643","long":"126.7827722","items":[{"name":"오정셀프식당","tel":"032-684-8079","addr":"경기도 부천시 오정동 606번지 주건축물제1동2층","category":"일반휴게음식 - 일반한식"}]},{"lat":"37.528869221","long":"126.78643876","items":[{"name":"오정아구찜","tel":"032-671-0414","addr":"경기도 부천시 오정동 544-22번지","category":"일반휴게음식 - 일반한식"}]},{"lat":"37.52442346","long":"126.78432486","items":[{"name":"오정인쇄문구","tel":"032-682-3649","addr":"경기도 부천시 오정동 586-11번지","category":"서적문구 - 문구용품"}]},{"lat":"37.52822661","long":"126.78485679","items":[{"name":"오정점현대자동차","tel":"032-672-4004","addr":"경기도 부천시 오정동 576번지","category":"자동차정비 유지 - 자동차정비"}]},{"lat":"37.522345452","long":"126.79615212","items":[{"name":"오정테크","tel":"032-676-6906","addr":"경기도 부천시 오정동 140-40번지","category":"기타 - 기계공구"}]},{"lat":"37.527592462","long":"126.782992","items":[{"name":"오쭈삼","tel":"032-677-9427","addr":"경기도 부천시 오정동 206-9번지 A동 1층","category":"일반휴게음식 - 일반한식"}]},{"lat":"37.528590517","long":"126.78676764","items":[{"name":"왕자관","tel":"032-684-0406","addr":"경기도 부천시 오정동 554-13번지","category":"일반휴게음식 - 중국식"}]},{"lat":"37.527646014","long":"126.78760753","items":[{"name":"우리헤어샵","tel":"070-7586-4537","addr":"경기도 부천시 오정동 559-10번지 맨스타빌딩 1층 2호","category":"보건위생 - 미용원"},{"name":"이엠러닝센타보습학원","tel":"032-671-7148","addr":"경기도 부천시 오정동 559-10번지 맨스타빌딩 2층","category":"학원 - 보습학원"}]},{"lat":"37.527562983","long":"126.78654435","items":[{"name":"우신인테리어","tel":"032-672-2990","addr":"경기도 부천시 오정동 558-4번지 삼두아파트","category":"용역 서비스 - 기타용역서비스"}]},{"lat":"37.529894614","long":"126.7806547","items":[{"name":"웨스트빌","tel":"032-673-9441","addr":"경기도 부천시 오정동 415-4번지 효행복마을아파트 지하1층","category":"일반휴게음식 - 일반한식"}]},{"lat":"37.527038386","long":"126.7954604","items":[{"name":"웰투어협동조합","tel":"032-671-0041","addr":"경기도 부천시 오정동 159-3번지","category":"여행 - 관광여행"},{"name":"주식회사 더원관광","tel":"","addr":"경기도 부천시 오정동 159-3번지 2층","category":"여행 - 관광여행"}]},{"lat":"37.527148459","long":"126.77688435","items":[{"name":"유리목재","tel":"032-681-3648","addr":"경기도 부천시 오정동 428-75번지 1층","category":"건축자재 - 목재·석재·철물"}]},{"lat":"37.526259261","long":"126.78313166","items":[{"name":"유창자동차정비공업사","tel":"032-684-6464","addr":"경기도 부천시 오정동 592-12번지","category":"자동차정비 유지 - 자동차정비"}]},{"lat":"37.527782166","long":"126.77846625","items":[{"name":"윤석테크","tel":"032-672-5331","addr":"경기도 부천시 오정동 772-4번지 2층","category":"문화.취미 - 문화취미기타"},{"name":"주식회사하이스트코리아","tel":"070-4259-1370","addr":"경기도 부천시 오정동 772-4번지 2층","category":"전기제품 - 가전제품"}]},{"lat":"37.530313025","long":"126.78765643","items":[{"name":"윤선생영어교실부천오정북영어숲","tel":"032-678-0594","addr":"경기도 부천시 오정동 181-8번지 외3필지 3층","category":"회원제형태 - 서적"},{"name":"인사이트메디","tel":"070-8755-0015","addr":"경기도 부천시 오정동 181-8번지 2층","category":"보건위생 - 의료용품"},{"name":"최선생고등영어교습소","tel":"032-678-0085","addr":"경기도 부천시 오정동 181-8번지 오정동우체국 201호","category":"학원 - 외국어학원"},{"name":"톱독서실","tel":"032-676-1042","addr":"경기도 부천시 오정동 181-8,9","category":"학원 - 독서실"},{"name":"패턴스터디오정캠퍼스보습학원","tel":"032-679-2222","addr":"경기도 부천시 오정동 181-8번지 오정우체국빌딩 5층","category":"학원 - 보습학원"}]},{"lat":"37.524317388","long":"126.78543379","items":[{"name":"은아","tel":"032-671-5814","addr":"경기도 부천시 오정동 585-20번지 건영하이츠빌라 102호","category":"의류 - 정장"},{"name":"향토미락","tel":"032-671-5814","addr":"경기도 부천시 오정동 585-20번지 건영빌라 102호","category":"회원제형태 - 기타1"}]},{"lat":"37.528869639","long":"126.78180037","items":[{"name":"이마트24 오정산단점","tel":"032-671-2998","addr":"경기도 부천시 오정동 394-22번지 1층","category":"유통업 영리 - 슈퍼마켓"},{"name":"이마트24 오정산단점","tel":"032-671-2998","addr":"경기도 부천시 오정동 394-22번지","category":"유통업 영리 - 편 의 점"}]},{"lat":"37.526095189","long":"126.78698978","items":[{"name":"이안푸드","tel":"032-672-8498","addr":"경기도 부천시 오정동 570-8번지 중앙빌라 102호","category":"음료식품 - 정육점"}]},{"lat":"37.527589764","long":"126.78640851","items":[{"name":"이하드림재능센터","tel":"032-324-0085","addr":"경기도 부천시 오정동 558-4번지 삼두아파트","category":"회원제형태 - 기타4"}]},{"lat":"37.524783505","long":"126.77932367","items":[{"name":"이화정밀","tel":"032-524-9644","addr":"경기도 부천시 오정동 599-8번지","category":"기타 - 기계공구"}]},{"lat":"37.523033301","long":"126.79280179","items":[{"name":"인더라인 부천상오정점","tel":"","addr":"경기도 부천시 오정동 616-16번지 미소더테라스 101~103호","category":"유통업 영리 - 편 의 점"}]},{"lat":"37.526288871","long":"126.78452305","items":[{"name":"인디스","tel":"032-671-1556","addr":"경기도 부천시 오정동 581번지 1층","category":"일반휴게음식 - 주점"}]},{"lat":"37.5277898","long":"126.78740348","items":[{"name":"인출헤어샵","tel":"032-677-8038","addr":"경기도 부천시 오정동 559번지 삼선빌딩 1층 2호","category":"보건위생 - 미용원"}]},{"lat":"37.525588191","long":"126.78565635","items":[{"name":"인하코리아 태권도","tel":"","addr":"경기도 부천시 오정동 582-3번지 2층","category":"학원 - 예·체능계학원"},{"name":"충호태권도체육관","tel":"032-677-7145","addr":"경기도 부천시 오정동 582-3번지","category":"회원제형태 - 학원"},{"name":"하모니마트 부천 오정시장점","tel":"032-684-2518","addr":"경기도 부천시 오정동 582-3번지","category":"유통업 영리 - 슈퍼마켓"}]},{"lat":"37.525372163","long":"126.7857701","items":[{"name":"장미경헤어스케치","tel":"02-678-2961","addr":"경기도 부천시 오정동 583-10번지","category":"보건위생 - 미용원"},{"name":"쾌남정보통신 오정점","tel":"070-4388-4600","addr":"경기도 부천시 오정동 583-10번지 1층","category":"사무통신 - 통신기기"},{"name":"한우리약국","tel":"032-678-9463","addr":"경기도 부천시 오정동 583-10번지","category":"약국 - 약국"}]},{"lat":"37.528591179","long":"126.78712966","items":[{"name":"장수골","tel":"032-683-0308","addr":"경기도 부천시 오정동 554-26번지 1층","category":"일반휴게음식 - 일반한식"}]},{"lat":"37.527667813","long":"126.7847566","items":[{"name":"장안","tel":"032-351-5345","addr":"경기도 부천시 오정동 575-19번지 연회주택 4동 201호","category":"음료식품 - 농·축·수산품"}]},{"lat":"37.523037532","long":"126.79013209","items":[{"name":"장운공구","tel":"032-672-0002","addr":"경기도 부천시 오정동 614-26번지","category":"기타 - 기계공구"}]},{"lat":"37.534148944","long":"126.791379","items":[{"name":"전국컨테이너","tel":"032-671-6464","addr":"경기도 부천시 오정동 56","category":"건축자재 - 기타건축자재"}]},{"lat":"37.526116595","long":"126.78393529","items":[{"name":"정성냉동공조","tel":"032-676-9278","addr":"경기도 부천시 오정동 590-2번지 누리안아파트","category":"전기제품 - 냉열기기"}]},{"lat":"37.525506123","long":"126.7851249","items":[{"name":"정인","tel":"032-675-2378","addr":"경기도 부천시 오정동 582-16번지 삼경그린빌 403호","category":"주방용구 - 주방용식기"}]},{"lat":"37.526892174","long":"126.78432897","items":[{"name":"제너럴케이","tel":"","addr":"경기도 부천시 오정동 579-8번지 502호","category":"신변잡화 - 액세서리"}]},{"lat":"37.526786497","long":"126.78565288","items":[{"name":"제비가물고온 박씨네떡방","tel":"032-673-6310","addr":"경기도 부천시 오정동 573-15번지 1층 일부","category":"음료식품 - 제과점"}]},{"lat":"37.527173941","long":"126.78566307","items":[{"name":"제주한라축산","tel":"","addr":"경기도 부천시 오정동 573-2번지 1층","category":"음료식품 - 정육점"}]},{"lat":"37.5295108","long":"126.78746641","items":[{"name":"종합축산","tel":"031-111-1111","addr":"경기도 부천시 오정동 192-16번지 오정드림타운 102호","category":"음료식품 - 정육점"}]},{"lat":"37.527534764","long":"126.78104634","items":[{"name":"주식회사 대건에스씨","tel":"070-7844-6725","addr":"경기도 부천시 오정동 781-3번지","category":"전기제품 - 냉열기기"}]},{"lat":"37.528477981","long":"126.77955022","items":[{"name":"주식회사 버블코리아","tel":"070-4623-6251","addr":"경기도 부천시 오정동 773-3번지 3층","category":"레져용품 - 스포츠·레져용품"}]},{"lat":"37.527868226","long":"126.77635047","items":[{"name":"주식회사 부천광명","tel":"070-5241-3574","addr":"경기도 부천시 오정동 810-3번지 신한테크노밸리 101호","category":"기타 - 기계공구"}]},{"lat":"37.531642284","long":"126.78052507","items":[{"name":"주식회사 아름다운강산","tel":"032-613-0083","addr":"경기도 부천시 오정동 756번지","category":"용역 서비스 - 종합용역"}]},{"lat":"37.527534339","long":"126.78082009","items":[{"name":"주식회사 엔젤스포츠","tel":"032-674-6785","addr":"경기도 부천시 오정동 781-2번지 2층 일부","category":"레져용품 - 스포츠·레져용품"}]},{"lat":"37.527754491","long":"126.78291233","items":[{"name":"주식회사 히든템","tel":"02-1661-1289","addr":"경기도 부천시 오정동 206-8번지 2층","category":"신변잡화 - 기타잡화"}]},{"lat":"37.532953957","long":"126.78332698","items":[{"name":"주식회사디엔오이(DnOe Co.,Ltd.)","tel":"032-680-7092","addr":"경기도 부천시 오정동 739-7번지 3층","category":"신변잡화 - 기타잡화"}]},{"lat":"37.526536409","long":"126.79693245","items":[{"name":"주식회사아싸","tel":"02-863-0155","addr":"경기도 부천시 오정동 156-7번지","category":"전기제품 - 가전제품"}]},{"lat":"37.530566157","long":"126.77843529","items":[{"name":"주식회사제미타","tel":"070-4006-7000","addr":"경기도 부천시 오정동 758-3번지 현대하이테크부천공장 201호","category":"레져용품 - 스포츠·레져용품"}]},{"lat":"37.524229071","long":"126.78154257","items":[{"name":"주연테크구내식당","tel":"032-672-6334","addr":"경기도 부천시 오정동 601-4번지","category":"일반휴게음식 - 일반한식"}]},{"lat":"37.522921747","long":"126.79087902","items":[{"name":"주은특수강정공","tel":"032-677-0998","addr":"경기도 부천시 오정동 615-4번지 1층","category":"기타 - 기계공구"}]},{"lat":"37.525340989","long":"126.79859869","items":[{"name":"주홍가게","tel":"","addr":"경기도 부천시 오정동 139-10번지 상지연립 7동 2층 202호","category":"광학제품 - 사진관"},{"name":"프롬모모","tel":"032-622-7320","addr":"경기도 부천시 오정동 139-10번지 상지연립 2동 201호","category":"의류 - 정장"}]},{"lat":"37.524009573","long":"126.7846315","items":[{"name":"중고알뜰센타","tel":"032-671-7805","addr":"경기도 부천시 오정동 610-2번지","category":"수리서비스 - 가정용품수리"}]},{"lat":"37.523571818","long":"126.79673698","items":[{"name":"즐거울락이벤트","tel":"070-4763-5713","addr":"경기도 부천시 오정동 140-5번지 부촌아파트","category":"용역 서비스 - 종합용역"}]},{"lat":"37.527811149","long":"126.78923612","items":[{"name":"지니솔루션(GENIE SOLUTION)","tel":"","addr":"경기도 부천시 오정동 550번지 예다움빌리지 1동 402호","category":"신변잡화 - 기타잡화"}]},{"lat":"37.53225573","long":"126.76699213","items":[{"name":"지성건기","tel":"032-684-4006","addr":"경기도 부천시 오정동 480-4 1층","category":"기타 - 기계공구"}]},{"lat":"37.523272017","long":"126.79532376","items":[{"name":"지인코스메틱","tel":"032-681-0141","addr":"경기도 부천시 오정동 140-60번지 백산주택 8동 2층 201호","category":"보건위생 - 화장품"}]},{"lat":"37.524622241","long":"126.78462972","items":[{"name":"지혜슈퍼","tel":"032-682-8214","addr":"경기도 부천시 오정동 586-6번지","category":"유통업 영리 - 슈퍼마켓"}]},{"lat":"37.523921767","long":"126.78587612","items":[{"name":"진소","tel":"02-676-2122","addr":"경기도 부천시 오정동 611-5번지 1층 중 상가1칸","category":"일반휴게음식 - 일반한식"}]},{"lat":"37.530702832","long":"126.78896766","items":[{"name":"진양 정육식당","tel":"032-681-2381","addr":"경기도 부천시 오정동 111-14번지 1층","category":"일반휴게음식 - 일반한식"},{"name":"진양축산","tel":"032-681-6689","addr":"경기도 부천시 오정동 111-14번지 진양빌딩 1층","category":"음료식품 - 정육점"}]},{"lat":"37.526817171","long":"126.79776883","items":[{"name":"진천토종순대","tel":"032-676-1415","addr":"경기도 부천시 오정동 138-1번지 진천토종순대","category":"일반휴게음식 - 일반한식"}]},{"lat":"37.527727494","long":"126.78782224","items":[{"name":"진흥상사","tel":"032-325-4144","addr":"경기도 부천시 오정동 552-7번지","category":"기타 - 기계공구"}]},{"lat":"37.527066645","long":"126.79616172","items":[{"name":"착한돼지 원종점","tel":"032-675-6341","addr":"경기도 부천시 오정동 159-12번지 2층오정동","category":"일반휴게음식 - 일반한식"},{"name":"토브카페","tel":"032-675-3386","addr":"경기도 부천시 오정동 159-12번지 1층 대한예수교장로회 예심교회 전체","category":"일반휴게음식 - 서양음식"}]},{"lat":"37.528120827","long":"126.78127087","items":[{"name":"천상에이스볼클럽","tel":"032-000-0000","addr":"경기도 부천시 오정동 387-14번지 G동 1층","category":"레저업소 - 기타레져업소"}]},{"lat":"37.528978498","long":"126.78707198","items":[{"name":"최PD의 희스토리","tel":"","addr":"경기도 부천시 오정동 554-9번지 지인빌 501호","category":"용역 서비스 - 종합용역"}]},{"lat":"37.525233497","long":"126.79896098","items":[{"name":"치킨사냥","tel":"032-221-8292","addr":"경기도 부천시 오정동 139-6번지 성산리치빌 1층 101호","category":"일반휴게음식 - 스넥"}]},{"lat":"37.525090355","long":"126.78441341","items":[{"name":"카페엘림","tel":"070-4577-5555","addr":"경기도 부천시 오정동 588-3번지 1층","category":"일반휴게음식 - 서양음식"}]},{"lat":"37.525454124","long":"126.786245","items":[{"name":"컴이랑 잉크랑","tel":"032-673-6003","addr":"경기도 부천시 오정동 569-10번지","category":"사무통신 - 컴퓨터"}]},{"lat":"37.528397848","long":"126.77533069","items":[{"name":"케이풀바운스","tel":"070-7527-6532","addr":"경기도 부천시 오정동 808-2번지 5층 501호","category":"레져용품 - 스포츠·레져용품"}]},{"lat":"37.528033374","long":"126.78268525","items":[{"name":"코끼리식당","tel":"032-682-5533","addr":"경기도 부천시 오정동 211-3번지 1층","category":"일반휴게음식 - 일반한식"}]},{"lat":"37.5252825","long":"126.78115483","items":[{"name":"코리아이피","tel":"032-678-4746","addr":"경기도 부천시 오정동 595-1번지 1층","category":"용역 서비스 - 기타용역서비스"}]},{"lat":"37.523953425","long":"126.78841","items":[{"name":"태공이엔지","tel":"","addr":"경기도 부천시 오정동 565-14번지 오복타운 102동 203호","category":"용역 서비스 - 기타용역서비스"}]},{"lat":"37.527927186","long":"126.79365917","items":[{"name":"태광","tel":"032-679-8166","addr":"경기도 부천시 오정동 119-12","category":"건축자재 - 기타건축자재"}]},{"lat":"37.52981202","long":"126.79466079","items":[{"name":"토닥토닥 오정공원점","tel":"070-1111-1111","addr":"경기도 부천시 오정동 1-3번지","category":"일반휴게음식 - 서양음식"}]},{"lat":"37.524119478","long":"126.79562685","items":[{"name":"티티키즈","tel":"031-1111-1111","addr":"경기도 부천시 오정동 146번지","category":"의류 - 정장"}]},{"lat":"37.524423209","long":"126.78418911","items":[{"name":"평화식당","tel":"032-683-6251","addr":"경기도 부천시 오정동 586-12번지","category":"일반휴게음식 - 일반한식"}]},{"lat":"37.530565918","long":"126.7879951","items":[{"name":"푸른환경","tel":"032-673-7123","addr":"경기도 부천시 오정동 112-2번지","category":"용역 서비스 - 종합용역"}]},{"lat":"37.52456669","long":"126.77901888","items":[{"name":"하이피","tel":"02-111-1111","addr":"경기도 부천시 오정동 599-7번지 3층","category":"학원 - 예·체능계학원"}]},{"lat":"37.528371331","long":"126.79010563","items":[{"name":"학사슈퍼","tel":"032-682-6658","addr":"경기도 부천시 오정동 179-10번지","category":"유통업 영리 - 슈퍼마켓"}]},{"lat":"37.526007091","long":"126.78318897","items":[{"name":"한국서비스인재양성연구소","tel":"050-4401-8947","addr":"경기도 부천시 오정동 590-32번지 오정의아침 101동 501호","category":"학원 - 기타 교육기관"}]},{"lat":"37.524369966","long":"126.78463045","items":[{"name":"한돈참숯꼬기(부천점)","tel":"","addr":"경기도 부천시 오정동 586-8번지 1층","category":"일반휴게음식 - 일반한식"}]},{"lat":"37.526254626","long":"126.78549604","items":[{"name":"한마음특수","tel":"032-677-2338","addr":"경기도 부천시 오정동 581-8번지 대운연립 A동 305호","category":"용역 서비스 - 가례서비스업"}]},{"lat":"37.52789456","long":"126.77598837","items":[{"name":"한샘한식부페","tel":"032-677-2588","addr":"경기도 부천시 오정동 810-2번지 1층 102호","category":"일반휴게음식 - 일반한식"}]},{"lat":"37.533782056","long":"126.76432856","items":[{"name":"한우리분재교실","tel":"032-681-3439","addr":"경기도 부천시 오정동 493-7번지","category":"문화.취미 - 화원"}]},{"lat":"37.526559626","long":"126.78477114","items":[{"name":"한우리순대국","tel":"032-682-7227","addr":"경기도 부천시 오정동 580-3번지 1층","category":"일반휴게음식 - 일반한식"}]},{"lat":"37.523392889","long":"126.79234829","items":[{"name":"한일카테크","tel":"032-677-8737","addr":"경기도 부천시 오정동 694번지","category":"자동차정비 유지 - 자동차부품"},{"name":"한일타이어","tel":"032-679-2345","addr":"경기도 부천시 오정동 694번지","category":"자동차정비 유지 - 자동차시트·타이어"}]},{"lat":"37.535425379","long":"126.76163056","items":[{"name":"합기도국술관대전본관","tel":"042-635-3759","addr":"경기도 부천시 오정동 489-3","category":"학원 - 예·체능계학원"}]},{"lat":"37.523067957","long":"126.79713429","items":[{"name":"행복사","tel":"032-671-3375","addr":"경기도 부천시 오정동 140-6번지 부촌아파트","category":"회원제형태 - 기타4"}]},{"lat":"37.534038276","long":"126.78018985","items":[{"name":"행복한선물","tel":"070-7592-3622","addr":"경기도 부천시 오정동 332-1 3층","category":"신변잡화 - 기타잡화"}]},{"lat":"37.52689922","long":"126.79832293","items":[{"name":"헤어샵봄","tel":"070-2699-0807","addr":"경기도 부천시 오정동 137-1번지 디에이치원종팰래스 1층 101호","category":"보건위생 - 미용원"}]},{"lat":"37.526038328","long":"126.78546273","items":[{"name":"형제건어물","tel":"032-671-9351","addr":"경기도 부천시 오정동 581-12번지 대운연립","category":"음료식품 - 농·축·수산품"}]},{"lat":"37.5356159","long":"126.76227486","items":[{"name":"화이트플라워","tel":"032-673-4955","addr":"경기도 부천시 오정동 486-2","category":"문화.취미 - 화원"}]},{"lat":"37.533120693","long":"126.7857929","items":[{"name":"화일씨아이씨","tel":"","addr":"경기도 부천시 오정동 747-2번지 101호","category":"음료식품 - 농·축·수산품"}]},{"lat":"37.527618711","long":"126.78257334","items":[{"name":"황가네청과","tel":"032-675-9944","addr":"경기도 부천시 오정동 208-4번지","category":"음료식품 - 농·축·수산품"}]},{"lat":"37.528476867","long":"126.77896195","items":[{"name":"훈필정밀용접","tel":"032-681-2389","addr":"경기도 부천시 오정동 773-1번지 대원와이어컷","category":"기타 - 기계공구"}]}]