[{"lat":"37.244527128","long":"127.4190223","items":[{"name":"골든카용품","tel":"031-631-8682","addr":"경기도 이천시 호법면 안평리 131-1번지","category":"자동차정비 유지 - 자동차부품"},{"name":"정가순대국","tel":"031-633-3103","addr":"경기도 이천시 호법면 안평리 131-1번지 행복타운 A동 101,102호","category":"일반휴게음식 - 일반한식"},{"name":"차오","tel":"031-637-8440","addr":"경기도 이천시 호법면 안평리 131-1","category":"일반휴게음식 - 중국식"},{"name":"차오","tel":"031-637-8440","addr":"경기도 이천시 호법면 안평리 131-1번지 1층","category":"일반휴게음식 - 중국식"}]},{"lat":"37.247883548","long":"127.41512974","items":[{"name":"국제사무용가구","tel":"031-637-3208","addr":"경기도 이천시 호법면 안평리 61-2번지","category":"가구 - 일반가구"}]},{"lat":"37.246388503","long":"127.41752226","items":[{"name":"난향","tel":"031-111-1111","addr":"경기도 이천시 호법면 안평리 76-9번지","category":"일반휴게음식 - 중국식"}]},{"lat":"37.248250137","long":"127.41335092","items":[{"name":"능이버섯고을","tel":"031-637-3070","addr":"경기도 이천시 호법면 안평리 57-1번지","category":"일반휴게음식 - 일반한식"}]},{"lat":"37.246556906","long":"127.41574241","items":[{"name":"다올","tel":"031-638-6370","addr":"경기도 이천시 호법면 안평리 42번지 1층","category":"일반휴게음식 - 서양음식"},{"name":"아이케이모터스","tel":"031-638-6370","addr":"경기도 이천시 호법면 안평리 42번지 2동 1층","category":"자동차정비 유지 - 자동차정비"},{"name":"정일품 횡성한우 프라자","tel":"031-637-8357","addr":"경기도 이천시 호법면 안평리 42번지 1층","category":"일반휴게음식 - 일반한식"},{"name":"정일품횡성한우","tel":"031-637-8357","addr":"경기도 이천시 호법면 안평리 42번지 1층","category":"음료식품 - 정육점"}]},{"lat":"37.244390788","long":"127.41935967","items":[{"name":"더 기발한치킨 이천안평점","tel":"031-631-9133","addr":"경기도 이천시 호법면 안평리 130-2번지","category":"일반휴게음식 - 일반한식"},{"name":"원진상사","tel":"031-635-5605","addr":"경기도 이천시 호법면 안평리 130-2번지","category":"신변잡화 - 기타잡화"},{"name":"한국타이어 호법점","tel":"031-636-9826","addr":"경기도 이천시 호법면 안평리 130-2번지","category":"자동차정비 유지 - 자동차시트·타이어"}]},{"lat":"37.247022835","long":"127.41648882","items":[{"name":"더보울","tel":"031-636-4588","addr":"경기도 이천시 호법면 안평리 66-5번지","category":"일반휴게음식 - 일반한식"}]},{"lat":"37.244164386","long":"127.41968526","items":[{"name":"도드람기사식당","tel":"031-636-0567","addr":"경기도 이천시 호법면 안평리 130-4번지","category":"일반휴게음식 - 일반한식"},{"name":"무쇠솥이천쌀밥두꺼비","tel":"031-635-7233","addr":"경기도 이천시 호법면 안평리 130-4번지","category":"일반휴게음식 - 일반한식"},{"name":"사랑산업","tel":"031-638-3613","addr":"경기도 이천시 호법면 안평리 130-4번지 나성타운 C동 108호","category":"용역 서비스 - 보관및 창고업"}]},{"lat":"37.245637624","long":"127.41838598","items":[{"name":"마장열쇠 샷시","tel":"031-632-1304","addr":"경기도 이천시 호법면 안평리 73번지","category":"건축자재 - 목재·석재·철물"},{"name":"이방원의붕어낚시","tel":"031-635-4980","addr":"경기도 이천시 호법면 안평리 73번지","category":"레져용품 - 스포츠·레져용품"}]},{"lat":"37.246607071","long":"127.41685849","items":[{"name":"만나식당","tel":"031-633-0455","addr":"경기도 이천시 호법면 안평리 67-2번지","category":"일반휴게음식 - 일반한식"},{"name":"우리집밥상","tel":"031-635-9688","addr":"경기도 이천시 호법면 안평리 67-2번지 대영빌딩","category":"일반휴게음식 - 일반한식"},{"name":"윤슬","tel":"031-638-9498","addr":"경기도 이천시 호법면 안평리 67-2번지 대영빌딩 1층 103호","category":"일반휴게음식 - 서양음식"},{"name":"타이힐","tel":"031-631-0703","addr":"경기도 이천시 호법면 안평리 67-2번지 대영빌딩 205 ,206,207,208호","category":"보건위생 - 화장품"}]},{"lat":"37.248028376","long":"127.41493893","items":[{"name":"범스레이스룸","tel":"","addr":"경기도 이천시 호법면 안평리 61-3번지 2층","category":"일반휴게음식 - 일반한식"}]},{"lat":"37.239498336","long":"127.4218797","items":[{"name":"세븐일레븐이천안평점","tel":"031-1577-0711","addr":"경기도 이천시 호법면 안평리 319번지","category":"유통업 영리 - 편 의 점"}]},{"lat":"37.245973249","long":"127.4177454","items":[{"name":"아이원 이엔지","tel":"031-252-3473","addr":"경기도 이천시 호법면 안평리 68번지 201호","category":"용역 서비스 - 기타용역서비스"}]},{"lat":"37.244636041","long":"127.41879749","items":[{"name":"안평당구클럽","tel":"031-635-1301","addr":"경기도 이천시 호법면 안평리 129-2번지 2층","category":"레저업소 - 당 구 장"}]},{"lat":"37.240050179","long":"127.42632304","items":[{"name":"에스제이렌탈","tel":"031-638-3523","addr":"경기도 이천시 호법면 안평리 698번지","category":"건축자재 - 기타건축자재"}]},{"lat":"37.239553473","long":"127.42157572","items":[{"name":"엠에이치상사","tel":"031-635-5080","addr":"경기도 이천시 호법면 안평리 736-35번지","category":"자동차정비 유지 - 자동차시트·타이어"}]},{"lat":"37.233023257","long":"127.4234891","items":[{"name":"영호기계","tel":"031-631-9437","addr":"경기도 이천시 호법면 안평리 527-2번지","category":"기타 - 기계공구"}]},{"lat":"37.245966752","long":"127.41444306","items":[{"name":"영흥 삼목스프링","tel":"031-631-8975","addr":"경기도 이천시 호법면 안평리 38-16번지 B동","category":"자동차정비 유지 - 자동차부품"}]},{"lat":"37.236800407","long":"127.42296916","items":[{"name":"원앙식당","tel":"031-638-8399","addr":"경기도 이천시 호법면 안평리 648-3번지","category":"일반휴게음식 - 일반한식"}]},{"lat":"37.238467114","long":"127.42302348","items":[{"name":"윙탑종합기계","tel":"031-2580-8181","addr":"경기도 이천시 호법면 안평리 337-2번지","category":"수리서비스 - 기타수리서비스"}]},{"lat":"37.245945477","long":"127.41537841","items":[{"name":"윤재기업","tel":"031-635-6991","addr":"경기도 이천시 호법면 안평리 38-26","category":"건축자재 - 기타건축자재"}]},{"lat":"37.244914952","long":"127.42147013","items":[{"name":"의료법인 예닮 의료재단","tel":"031-637-7400","addr":"경기도 이천시 호법면 안평리 124","category":"병원 - 병원"},{"name":"이마트24 이천소망병원점","tel":"031-1111-1111","addr":"경기도 이천시 호법면 안평리 124번지","category":"유통업 영리 - 편 의 점"},{"name":"이천소망요양병원","tel":"031-637-7405","addr":"경기도 이천시 호법면 안평리 124번지","category":"병원 - 병원"}]},{"lat":"37.236526044","long":"127.41124762","items":[{"name":"이천시장애인수영연맹","tel":"031-635-6730","addr":"경기도 이천시 호법면 안평리 787번지 이천스포츠센터","category":"기타 - 비영리/비대상"}]},{"lat":"37.236614305","long":"127.40916328","items":[{"name":"전원","tel":"031-635-8255","addr":"경기도 이천시 호법면 안평리 785번지 외2필지 2층","category":"일반휴게음식 - 일반한식"}]},{"lat":"37.243469407","long":"127.40966215","items":[{"name":"주식회사 덕정","tel":"031-631-1060","addr":"경기도 이천시 호법면 안평리 21-6번지","category":"유통업 영리 - 기타유통업"}]},{"lat":"37.244998303","long":"127.41826977","items":[{"name":"희정기업","tel":"031-631-0764","addr":"경기도 이천시 호법면 안평리 126-2번지","category":"건축자재 - 기타건축자재"}]}]