[{"lat":"37.652238131","long":"126.7903193","items":[{"name":"경희대여명태권도교육관","tel":"031-907-1555","addr":"경기도 고양시 일산동구 강촌로","category":"학원 - 예·체능계학원"}]},{"lat":"37.653572719","long":"126.79096142","items":[{"name":"마두푸줏간","tel":"031-902-1570","addr":"경기도 고양시 일산동구 강촌로","category":"음료식품 - 정육점"},{"name":"일산둥글이태권도","tel":"031-901-2866","addr":"경기도 고양시 일산동구 강촌로","category":"학원 - 예·체능계학원"},{"name":"초이스수학교습소","tel":"031-908-2633","addr":"경기도 고양시 일산동구 강촌로","category":"회원제형태 - 학원"},{"name":"초이스영어교습소","tel":"031-906-2633","addr":"경기도 고양시 일산동구 강촌로","category":"회원제형태 - 학원"}]},{"lat":"37.646216774","long":"126.77901688","items":[{"name":"민트심리미술학원","tel":"031-905-0516","addr":"경기도 고양시 일산동구 강촌로","category":"학원 - 예·체능계학원"},{"name":"베브스탁어학원","tel":"031-908-0582","addr":"경기도 고양시 일산동구 강촌로","category":"회원제형태 - 학원"}]},{"lat":"37.656827145","long":"126.7920401","items":[{"name":"보람교육","tel":"070-4151-4890","addr":"경기도 고양시 일산동구 강촌로","category":"회원제형태 - 서적"}]},{"lat":"37.650827034","long":"126.78724113","items":[{"name":"한국유통","tel":"031-907-7701","addr":"경기도 고양시 일산동구 강촌로","category":"유통업 영리 - 슈퍼마켓"}]},{"lat":"37.653795389","long":"126.79457572","items":[{"name":"헤어헤라","tel":"031-904-7371","addr":"경기도 고양시 일산동구 강촌로","category":"보건위생 - 미용원"}]}]