[{"lat":"37.298776113","long":"127.61967191","items":[{"name":"(사복)상생복지회골든밸리","tel":"031-881-6595","addr":"경기도 여주시 능서면 왕대리 972-15번지","category":"기타 - 비영리/대상"}]},{"lat":"37.296993305","long":"127.60544686","items":[{"name":"(주)자연환경","tel":"031-881-1825","addr":"경기도 여주시 능서면 왕대리 984-23번지","category":"용역 서비스 - 기타용역서비스"}]},{"lat":"37.3226851796","long":"127.6028652660","items":[{"name":"경기간판공사","tel":"031-881-1904","addr":"경기도 여주시 능서면 왕대리 207-1번지","category":"건축자재 - 인테리어전문"}]},{"lat":"37.297077445","long":"127.61013926","items":[{"name":"경기자동차매매상사","tel":"031-883-7766","addr":"경기도 여주시 능서면 왕대리 981-22번지","category":"자동차판매 - 중고자동차판매"},{"name":"팔구팔구자동차매매상사","tel":"031-882-6480","addr":"경기도 여주시 능서면 왕대리 981-22번지","category":"자동차판매 - 중고자동차판매"}]},{"lat":"37.296912954","long":"127.61058906","items":[{"name":"나래자동차공업사","tel":"031-883-0229","addr":"경기도 여주시 능서면 왕대리 981-36번지 나래자동차공업사","category":"자동차정비 유지 - 자동차정비"}]},{"lat":"37.323884741","long":"127.6061692","items":[{"name":"나무랑놀자","tel":"031-885-5613","addr":"경기도 여주시 능서면 왕대리 32-11번지","category":"건축자재 - 목재·석재·철물"}]},{"lat":"37.326766763","long":"127.60463524","items":[{"name":"로그인 여주보점","tel":"031-884-9110","addr":"경기도 여주시 능서면 왕대리 356-4번지 여주보 2","category":"유통업 영리 - 편 의 점"}]},{"lat":"37.296773193","long":"127.60797141","items":[{"name":"맘그린세라믹","tel":"031-885-5351","addr":"경기도 여주시 능서면 왕대리 984-1번지","category":"문화.취미 - 민예·공예품"},{"name":"청룡도예","tel":"031-885-5890","addr":"경기도 여주시 능서면 왕대리 984-1번지","category":"문화.취미 - 민예·공예품"},{"name":"현대종합상사","tel":"031-884-1234","addr":"경기도 여주시 능서면 왕대리 984-1번지","category":"건축자재 - 목재·석재·철물"}]},{"lat":"37.327215309","long":"127.60146838","items":[{"name":"소로우","tel":"031-881-3549","addr":"경기도 여주시 능서면 왕대리 348-15번지","category":"일반휴게음식 - 서양음식"}]},{"lat":"37.296581566","long":"127.60844356","items":[{"name":"수도예","tel":"031-884-2519","addr":"경기도 여주시 능서면 왕대리 981-8번지","category":"문화.취미 - 민예·공예품"}]},{"lat":"37.321071596","long":"127.61008405","items":[{"name":"알바트로스 커피 로스터스","tel":"031-882-6915","addr":"경기도 여주시 능서면 왕대리 71-59번지","category":"일반휴게음식 - 서양음식"}]},{"lat":"37.296470852","long":"127.60895018","items":[{"name":"여주슈퍼","tel":"031-886-1919","addr":"경기도 여주시 능서면 왕대리 981-7번지","category":"유통업 영리 - 슈퍼마켓"}]},{"lat":"37.295883174","long":"127.62153172","items":[{"name":"여주자영농업고등학교","tel":"031-886-2843","addr":"경기도 여주시 능서면 왕대리 973-1번지","category":"음료식품 - 농·축·수산품"},{"name":"여주자영농업고등학교","tel":"031-880-2734","addr":"경기도 여주시 능서면 왕대리 973-1번지 여주농업경영전문학교","category":"학원 - 초중고교육기관"}]},{"lat":"37.2958831745","long":"127.6215317185","items":[{"name":"여주자영농업고등학교","tel":"031-883-2843","addr":"경기도 여주시 능서면 왕대리 973-1번지","category":"농업 - 비료,사료,종자"}]},{"lat":"37.296910161","long":"127.61983713","items":[{"name":"여주중학교","tel":"031-880-8993","addr":"경기도 여주시 능서면 왕대리 973번지 여주중학교","category":"학원 - 초중고교육기관"}]},{"lat":"37.297136518","long":"127.61091793","items":[{"name":"영동창호","tel":"031-884-7003","addr":"경기도 여주시 능서면 왕대리 981-32번지","category":"건축자재 - 기타건축자재"}]},{"lat":"37.302665582","long":"127.61502288","items":[{"name":"영릉원두막","tel":"031-884-6262","addr":"경기도 여주시 능서면 왕대리 941번지","category":"일반휴게음식 - 일반한식"}]},{"lat":"37.297994168","long":"127.6158309","items":[{"name":"우리어린이집[아이행복]","tel":"031-883-6767","addr":"경기도 여주시 능서면 왕대리 977-5번지","category":"학원 - 유아원"}]},{"lat":"37.299326848","long":"127.61772523","items":[{"name":"우리요양보호사교육원","tel":"031-885-3037","addr":"경기도 여주시 능서면 왕대리 972-15번지","category":"학원 - 기타 교육기관"}]},{"lat":"37.321245095","long":"127.60963418","items":[{"name":"이태리다방","tel":"","addr":"경기도 여주시 능서면 왕대리 70-7번지 1층","category":"일반휴게음식 - 서양음식"},{"name":"헤펠레목공방 여주점","tel":"031-882-3736","addr":"경기도 여주시 능서면 왕대리 70-7번지","category":"가구 - 일반가구"}]},{"lat":"37.323603113","long":"127.5977279","items":[{"name":"임의섭도예작업장","tel":"031-881-2563","addr":"경기도 여주시 능서면 왕대리 506-3번지","category":"문화.취미 - 민예·공예품"}]},{"lat":"37.296962909","long":"127.61313833","items":[{"name":"중앙가설재","tel":"031-882-7272","addr":"경기도 여주시 능서면 왕대리 980-1번지","category":"건축자재 - 기타건축자재"}]},{"lat":"37.297385081","long":"127.61164174","items":[{"name":"중앙휀스","tel":"031-884-4379","addr":"경기도 여주시 능서면 왕대리 982-6번지","category":"건축자재 - 기타건축자재"}]},{"lat":"37.296385176","long":"127.61683287","items":[{"name":"태산농기","tel":"031-883-0339","addr":"경기도 여주시 능서면 왕대리 977-1번지","category":"농업 - 농기계"}]},{"lat":"37.30346628","long":"127.61525496","items":[{"name":"호박농장","tel":"031-883-6373","addr":"경기도 여주시 능서면 왕대리 939번지","category":"일반휴게음식 - 일반한식"}]},{"lat":"37.323356729","long":"127.6036942","items":[{"name":"희망","tel":"","addr":"경기도 여주시 능서면 왕대리 253-1번지","category":"용역 서비스 - 가례서비스업"}]}]