[{"lat":"37.116591329","long":"126.96179141","items":[{"name":"600식당","tel":"031-366-3651","addr":"경기도 화성시 향남읍 요리 32번지","category":"일반휴게음식 - 일반한식"},{"name":"아이지에이마트 화성토성로점","tel":"031-353-9591","addr":"경기도 화성시 향남읍 요리 32번지","category":"유통업 영리 - 슈퍼마켓"},{"name":"향남반점","tel":"031-366-3273","addr":"경기도 화성시 향남읍 요리 32번지 1층","category":"일반휴게음식 - 중국식"}]},{"lat":"37.117753104","long":"126.96014804","items":[{"name":"가나안철물","tel":"031-353-9756","addr":"경기도 화성시 향남읍 요리 8-8","category":"기타 - 기계공구"}]},{"lat":"37.111591445","long":"126.96465182","items":[{"name":"경운기네텐트세탁소","tel":"031-366-0801","addr":"경기도 화성시 향남읍 요리 190-1번지","category":"수리서비스 - 세탁소"}]},{"lat":"37.114807304","long":"126.96196115","items":[{"name":"금보벽지","tel":"031-352-1452","addr":"경기도 화성시 향남읍 요리 72번지","category":"직물 - 카페트,커튼,천막,지물"}]},{"lat":"37.110726841","long":"126.96593483","items":[{"name":"다팜","tel":"","addr":"경기도 화성시 향남읍 요리 190-5번지","category":"문화.취미 - 화원"}]},{"lat":"37.116059879","long":"126.96228676","items":[{"name":"미니스톱 화성요리공단점","tel":"031-1577-9621","addr":"경기도 화성시 향남읍 요리 32-6번지","category":"유통업 영리 - 편 의 점"}]},{"lat":"37.116951181","long":"126.96018224","items":[{"name":"바이실(BY SIL)","tel":"","addr":"경기도 화성시 향남읍 요리 23번지 2층","category":"직물 - 침구·수예점"}]},{"lat":"37.115675551","long":"126.97276201","items":[{"name":"성윤테크","tel":"031-8059-3501","addr":"경기도 화성시 향남읍 요리 270-12번지","category":"기타 - 기계공구"}]},{"lat":"37.113979081","long":"126.96417807","items":[{"name":"승진특장공업","tel":"031-354-4762","addr":"경기도 화성시 향남읍 요리 109-2","category":"기타 - 기타 전문점"}]},{"lat":"37.113501397","long":"126.96379577","items":[{"name":"씨알에스코리아(CRS코리아)","tel":"031-366-4673","addr":"경기도 화성시 향남읍 요리 122번지","category":"보건위생 - 화장품"},{"name":"엘정유통","tel":"031-0000-0000","addr":"경기도 화성시 향남읍 요리 122번지 2층","category":"직물 - 침구·수예점"}]},{"lat":"37.113870773","long":"126.96362682","items":[{"name":"아리랑 한식뷔페","tel":"031-355-7692","addr":"경기도 화성시 향남읍 요리 121번지","category":"일반휴게음식 - 일반한식"}]},{"lat":"37.115780732","long":"126.96281573","items":[{"name":"엄마손부페","tel":"031-353-4742","addr":"경기도 화성시 향남읍 요리 39-3번지","category":"일반휴게음식 - 일반한식"}]},{"lat":"37.117365685","long":"126.96023827","items":[{"name":"이마트24 화성토성로점","tel":"031-000-0000","addr":"경기도 화성시 향남읍 요리 11번지 2동 1층","category":"유통업 영리 - 편 의 점"},{"name":"주식회사천남전기","tel":"031-352-7280","addr":"경기도 화성시 향남읍 요리 11번지 1동","category":"전기제품 - 기타전기제품"}]},{"lat":"37.107844191","long":"126.96832127","items":[{"name":"이수유통","tel":"031-353-7677","addr":"경기도 화성시 향남읍 요리 364","category":"회원제형태 - 기타4"}]},{"lat":"37.116423452","long":"126.97287423","items":[{"name":"주식회사 대우컨테이너","tel":"070-4140-4989","addr":"경기도 화성시 향남읍 요리 270-10번지","category":"건축자재 - 기타건축자재"}]},{"lat":"37.114474039","long":"126.96232136","items":[{"name":"주식회사 비케이테크","tel":"031-0000-0000","addr":"경기도 화성시 향남읍 요리 74번지 1층","category":"자동차정비 유지 - 자동차부품"}]},{"lat":"37.115089818","long":"126.97257097","items":[{"name":"주식회사진우플러스","tel":"031-354-3718","addr":"경기도 화성시 향남읍 요리 270-2","category":"건축자재 - 기타건축자재"}]},{"lat":"37.116978722","long":"126.96162243","items":[{"name":"펠타스포츠","tel":"031-1111-1111","addr":"경기도 화성시 향남읍 요리 31-4번지","category":"학원 - 예·체능계학원"}]},{"lat":"37.116591105","long":"126.96115008","items":[{"name":"풍진식당","tel":"031-352-5643","addr":"경기도 화성시 향남읍 요리 28번지","category":"일반휴게음식 - 일반한식"}]},{"lat":"37.11670277","long":"126.97284037","items":[{"name":"협동조합키움","tel":"031-221-2403","addr":"경기도 화성시 향남읍 요리 270-4번지","category":"학원 - 기능학원"}]},{"lat":"37.112393258","long":"126.96426888","items":[{"name":"화인정","tel":"031-353-3503","addr":"경기도 화성시 향남읍 요리 129번지","category":"일반휴게음식 - 일반한식"}]}]