[{"lat":"37.266126115","long":"127.10619447","items":[{"name":"(38강땡)총각네수산","tel":"031-261-4448","addr":"경기도 용인시 기흥구 상갈동 474-2번지 그린프라자2 105호,106호","category":"음료식품 - 농·축·수산품"},{"name":"M.마스터즈 당구클럽","tel":"031-275-3933","addr":"경기도 용인시 기흥구 상갈동 474-2번지 501호 502호","category":"레저업소 - 당 구 장"},{"name":"가온칼국수","tel":"","addr":"경기도 용인시 기흥구 상갈동 474-2번지 그린프라자2 지하1층 107호,108호","category":"일반휴게음식 - 일반한식"},{"name":"보석사랑","tel":"031-283-9058","addr":"경기도 용인시 기흥구 상갈동 474-2번지 그린프라자2차 102호","category":"신변잡화 - 액세서리"},{"name":"본죽","tel":"031-281-2020","addr":"경기도 용인시 기흥구 상갈동 474-2번지 그린프라자 101호","category":"일반휴게음식 - 일반한식"},{"name":"상갈독서실","tel":"031-284-4742","addr":"경기도 용인시 기흥구 상갈동 474-2번지 그린프라자2 301,302호","category":"학원 - 독서실"},{"name":"술이달다","tel":"","addr":"경기도 용인시 기흥구 상갈동 474-2번지 그린프라자2 1층 204호","category":"일반휴게음식 - 일반한식"},{"name":"스마일찹쌀꽈배기","tel":"031-8019-8215","addr":"경기도 용인시 기흥구 상갈동 474-2번지 그린프라자2 지하1층 104호","category":"일반휴게음식 - 일반한식"},{"name":"싱싱활어직판장","tel":"070-3525-6868","addr":"경기도 용인시 기흥구 상갈동 474-2번지 그린프라자2 지하1층 105,106호","category":"일반휴게음식 - 일식·회집"},{"name":"씨유상갈그린점","tel":"031-284-7922","addr":"경기도 용인시 기흥구 상갈동 474-2번지 그린프라자2 2호","category":"유통업 영리 - 편 의 점"},{"name":"정미경헤어","tel":"031-287-2859","addr":"경기도 용인시 기흥구 상갈동 474-2번지 그린프라자2차 2층 201호","category":"보건위생 - 미용원"},{"name":"즐거운탁구클럽","tel":"031-281-1230","addr":"경기도 용인시 기흥구 상갈동 474-2번지 601,602호","category":"레저업소 - 기타레져업소"},{"name":"즐거운탁구클럽","tel":"031-281-1230","addr":"경기도 용인시 기흥구 상갈동 474-2번지 그린프라자2 5층 601호","category":"레저업소 - 기타레져업소"},{"name":"피자스쿨(금화마을점)","tel":"031-693-9953","addr":"경기도 용인시 기흥구 상갈동 474-2번지 그린프라자2차 103호","category":"일반휴게음식 - 서양음식"}]},{"lat":"37.268045451","long":"127.10602798","items":[{"name":"(주)디에프에스모터스","tel":"031-285-4520","addr":"경기도 용인시 기흥구 상갈동 102-3 넥스빌상가 202","category":"자동차판매 - 수입자동차"}]},{"lat":"37.266180667","long":"127.10563086","items":[{"name":"(주)미래플랜","tel":"031-693-6089","addr":"경기도 용인시 기흥구 상갈동 474번지 중앙프라자 201호","category":"학원 - 독서실"},{"name":"Cafe wlllow/주식회사 이글","tel":"070-4184-1110","addr":"경기도 용인시 기흥구 상갈동 474번지 한솔학원 101호","category":"일반휴게음식 - 서양음식"},{"name":"강릉동화가든짬뽕순두부","tel":"031-282-3661","addr":"경기도 용인시 기흥구 상갈동 474번지 중앙프라자 1층 101호","category":"일반휴게음식 - 일반한식"},{"name":"삼성리빙텔","tel":"031-693-6089","addr":"경기도 용인시 기흥구 상갈동 474번지 한솔학원 201호","category":"학원 - 독서실"},{"name":"샹떼PC방","tel":"070-8760-1131","addr":"경기도 용인시 기흥구 상갈동 474번지 4층","category":"레저업소 - 기타레져업소"},{"name":"좀마니포차","tel":"031-287-0910","addr":"경기도 용인시 기흥구 상갈동 474번지 한솔학원 1층 104호","category":"일반휴게음식 - 일반한식"},{"name":"큐당구장","tel":"031-336-6976","addr":"경기도 용인시 기흥구 상갈동 474번지 3층","category":"레저업소 - 당 구 장"}]},{"lat":"37.265346501","long":"127.10116537","items":[{"name":"(주)비아다빈치","tel":"031-286-9805","addr":"경기도 용인시 기흥구 상갈동 199번지","category":"약국 - 제약회사"}]},{"lat":"37.269409407","long":"127.11227576","items":[{"name":"(주)엠모터스","tel":"031-264-4966","addr":"경기도 용인시 기흥구 상갈동 144-3번지 외2필지","category":"자동차정비 유지 - 자동차정비"}]},{"lat":"37.268434012","long":"127.11472082","items":[{"name":"(주)용인신갈자동차운전전문학원","tel":"031-281-6363","addr":"경기도 용인시 기흥구 상갈동 144-13번지","category":"학원 - 기능학원"}]},{"lat":"37.26165779","long":"127.1052978","items":[{"name":"(주)하기나코리아","tel":"070-4104-8553","addr":"경기도 용인시 기흥구 상갈동 482-2 금화타운 201","category":"보건위생 - 화장품"},{"name":"J헤어","tel":"031-283-6888","addr":"경기도 용인시 기흥구 상갈동 482-3번지 금화타운 102호","category":"보건위생 - 미용원"},{"name":"달토공방","tel":"","addr":"경기도 용인시 기흥구 상갈동 482-3번지 201-1-B호","category":"문화.취미 - 문화취미기타"},{"name":"무궁화지업사","tel":"031-202-8888","addr":"경기도 용인시 기흥구 상갈동 482-3번지 금화타운 107호","category":"직물 - 카페트,커튼,천막,지물"},{"name":"스타메디칼","tel":"031-282-7832","addr":"경기도 용인시 기흥구 상갈동 482-2 금화타운3층303호","category":"보건위생 - 화장품"},{"name":"스타메디칼","tel":"031-282-7832","addr":"경기도 용인시 기흥구 상갈동 482-2번지 금화타운 303호","category":"보건위생 - 의료용품"},{"name":"씨에프숯불바베큐","tel":"031-284-5592","addr":"경기도 용인시 기흥구 상갈동 482-3번지","category":"일반휴게음식 - 스넥"},{"name":"주식회사 한두레","tel":"031-1811-1096","addr":"경기도 용인시 기흥구 상갈동 482-3번지 금화타운 101호","category":"용역 서비스 - 종합용역"},{"name":"주식회사에스티글로벌","tel":"031-282-7832","addr":"경기도 용인시 기흥구 상갈동 482-3번지 금화타운 3층 302-2호","category":"보건위생 - 화장품"},{"name":"커피마마","tel":"031-283-2516","addr":"경기도 용인시 기흥구 상갈동 482-3번지 금화타운 109호","category":"일반휴게음식 - 서양음식"},{"name":"토담","tel":"","addr":"경기도 용인시 기흥구 상갈동 482-3번지 금화타운 104호","category":"일반휴게음식 - 일반한식"}]},{"lat":"37.269431308","long":"127.10799159","items":[{"name":"(주)한솔테크","tel":"031-285-4058","addr":"경기도 용인시 기흥구 상갈동 119번지 신흥빌라","category":"용역 서비스 - 기타용역서비스"},{"name":"베스트 테크(BEST Tech)","tel":"031-281-0418","addr":"경기도 용인시 기흥구 상갈동 119번지 신흥빌라 102호","category":"서적문구 - 과학기자재"},{"name":"현화아이티","tel":"031-338-9653","addr":"경기도 용인시 기흥구 상갈동 119번지 신흥빌라 103호","category":"사무통신 - 컴퓨터"}]},{"lat":"37.2666597","long":"127.11396285","items":[{"name":"EMOTION","tel":"02-406-9434","addr":"경기도 용인시 기흥구 상갈동 454번지 금화마을주공그린빌 505-2003 4/6","category":"광학제품 - 사진관"},{"name":"보람정보OA","tel":"031-286-1310","addr":"경기도 용인시 기흥구 상갈동 454번지 금화마을주공5단지아파트 505동 803호","category":"사무통신 - 사무용 OA기기"}]},{"lat":"37.269070717","long":"127.10819402","items":[{"name":"GS25기흥상갈점","tel":"02-2006-2118","addr":"경기도 용인시 기흥구 상갈동 119-8번지 진빌딩 102호","category":"유통업 영리 - 편 의 점"},{"name":"노리타","tel":"031-275-0038","addr":"경기도 용인시 기흥구 상갈동 119-8번지 진빌딩 1층 103호","category":"일반휴게음식 - 서양음식"},{"name":"베뉴31(Venue31)","tel":"031-282-3131","addr":"경기도 용인시 기흥구 상갈동 119-8번지 104호, 201호","category":"일반휴게음식 - 서양음식"}]},{"lat":"37.262100437","long":"127.10396817","items":[{"name":"GS25기흥센트럴점","tel":"","addr":"경기도 용인시 기흥구 상갈동 234-2번지 110호","category":"유통업 영리 - 편 의 점"}]},{"lat":"37.265960125","long":"127.11046698","items":[{"name":"GS25용인금화점","tel":"","addr":"경기도 용인시 기흥구 상갈동 454-1번지 금화마을주공그린빌5단지아파트 상가동 101호","category":"유통업 영리 - 편 의 점"},{"name":"퍼스트세탁","tel":"031-287-6467","addr":"경기도 용인시 기흥구 상갈동 454-1번지 금화마을그린빌 상가 1층 103호","category":"수리서비스 - 세탁소"}]},{"lat":"37.269765861","long":"127.10666169","items":[{"name":"MBC노래방","tel":"031-284-7009","addr":"경기도 용인시 기흥구 상갈동 101번지 지하1층","category":"레저업소 - 노 래 방"},{"name":"굿마트","tel":"031-282-8239","addr":"경기도 용인시 기흥구 상갈동 101번지 코너 1층","category":"유통업 영리 - 슈퍼마켓"}]},{"lat":"37.261658247","long":"127.10476796","items":[{"name":"YOUR BODY","tel":"031-282-9399","addr":"경기도 용인시 기흥구 상갈동 482-1번지 주공프라자 101호~103호","category":"보건위생 - 화장품"},{"name":"더강한영수학원","tel":"031-283-4222","addr":"경기도 용인시 기흥구 상갈동 482-1번지 주공프라자 303호","category":"학원 - 보습학원"},{"name":"싱싱수산","tel":"031-282-2866","addr":"경기도 용인시 기흥구 상갈동 482-1번지 주공프라자 104호","category":"일반휴게음식 - 일식·회집"},{"name":"엉클스치킨(상갈점)","tel":"031-283-9969","addr":"경기도 용인시 기흥구 상갈동 482-1번지 주공프라자 112호","category":"일반휴게음식 - 스넥"},{"name":"염색가발전문점","tel":"031-285-9594","addr":"경기도 용인시 기흥구 상갈동 482-1번지 주공프라자 1층 108호","category":"보건위생 - 이용원"},{"name":"월드의료기상사","tel":"031-285-4051","addr":"경기도 용인시 기흥구 상갈동 482-1번지 주공프라자 106호","category":"보건위생 - 의료용품"},{"name":"정다운치과","tel":"031-284-2879","addr":"경기도 용인시 기흥구 상갈동 482-1번지 주공프라자 201호","category":"의원 - 치과의원"},{"name":"줄줄이쭈김밥","tel":"031-281-3186","addr":"경기도 용인시 기흥구 상갈동 482-1번지 주공프라자 105호","category":"일반휴게음식 - 일반한식"},{"name":"지앤비영어이젠수학학원","tel":"031-287-4561","addr":"경기도 용인시 기흥구 상갈동 482-1번지 주공프라자 402호","category":"학원 - 보습학원"},{"name":"한씨네왕족발","tel":"031-274-5464","addr":"경기도 용인시 기흥구 상갈동 482-1번지 주공프라자 111호","category":"일반휴게음식 - 일반한식"}]},{"lat":"37.267631321","long":"127.10563283","items":[{"name":"가람","tel":"031-283-6249","addr":"경기도 용인시 기흥구 상갈동 102-6번지","category":"용역 서비스 - 소프트웨어"},{"name":"미래컴넷","tel":"031-274-7267","addr":"경기도 용인시 기흥구 상갈동 102-6번지","category":"사무통신 - 컴퓨터"},{"name":"신갈모터스","tel":"031-282-3900","addr":"경기도 용인시 기흥구 상갈동 102-6번지","category":"자동차정비 유지 - 자동차정비"},{"name":"푸드딜라이트 용인점","tel":"031-283-6988","addr":"경기도 용인시 기흥구 상갈동 102-6번지 1층 103호","category":"일반휴게음식 - 일반한식"}]},{"lat":"37.266098482","long":"127.10688213","items":[{"name":"가온혁신학원","tel":"031-548-0577","addr":"경기도 용인시 기흥구 상갈동 473-1번지 그린빌프라자 5층 501호","category":"학원 - 보습학원"},{"name":"가온혁신학원","tel":"","addr":"경기도 용인시 기흥구 상갈동 473-1번지 그린빌프라자 5층 501호","category":"학원 - 보습학원"},{"name":"그린빌약국","tel":"031-287-2533","addr":"경기도 용인시 기흥구 상갈동 473-1번지","category":"약국 - 약국"},{"name":"김준헤어살롱","tel":"031-284-4960","addr":"경기도 용인시 기흥구 상갈동 473-1번지 그린빌프라자 101호","category":"보건위생 - 미용원"},{"name":"더커피스토리","tel":"070-8992-0105","addr":"경기도 용인시 기흥구 상갈동 473-1번지 그린빌프라자 108호","category":"일반휴게음식 - 서양음식"},{"name":"상갈열린치과의원","tel":"031-286-2828","addr":"경기도 용인시 기흥구 상갈동 473-1번지 그린빌프라자 302호","category":"의원 - 치과의원"},{"name":"스킨아로마","tel":"031-8005-6630","addr":"경기도 용인시 기흥구 상갈동 473-1번지 그린프라자 403호","category":"보건위생 - 피부미용실"},{"name":"아인스수학위싱웰영어학원","tel":"031-285-0098","addr":"경기도 용인시 기흥구 상갈동 473-1번지 그린빌프라자 402호","category":"학원 - 보습학원"},{"name":"이디야커피 용인상갈점","tel":"031-287-7579","addr":"경기도 용인시 기흥구 상갈동 473-1번지 그린빌프라자 102동 103호","category":"일반휴게음식 - 서양음식"},{"name":"헤어카페","tel":"031-287-1733","addr":"경기도 용인시 기흥구 상갈동 473-1번지 그린빌프라자 106호","category":"보건위생 - 미용원"}]},{"lat":"37.263820734","long":"127.10474833","items":[{"name":"거성전기모타","tel":"031-282-7325","addr":"경기도 용인시 기흥구 상갈동 220-22,42-1","category":"수리서비스 - 기타수리서비스"},{"name":"주식회사새롬테크","tel":"031-285-3501","addr":"경기도 용인시 기흥구 상갈동 220-22번지","category":"용역 서비스 - 기타용역서비스"}]},{"lat":"37.270043976","long":"127.10802626","items":[{"name":"경기전장","tel":"031-285-5133","addr":"경기도 용인시 기흥구 상갈동 123-2번지","category":"자동차정비 유지 - 자동차정비"},{"name":"밥과술이만났을때","tel":"031-285-1522","addr":"경기도 용인시 기흥구 상갈동 123-2번지","category":"일반휴게음식 - 일반한식"}]},{"lat":"37.267991752","long":"127.10561077","items":[{"name":"경일흙손공구","tel":"031-284-0949","addr":"경기도 용인시 기흥구 상갈동 102-9번지 경기광고기획","category":"기타 - 기타 전문점"}]},{"lat":"37.266486092","long":"127.10669101","items":[{"name":"고철상상갈직영점","tel":"031-281-9222","addr":"경기도 용인시 기흥구 상갈동 125-18번지","category":"일반휴게음식 - 일반한식"}]},{"lat":"37.268180123","long":"127.10658059","items":[{"name":"골드노래연습장","tel":"031-284-6788","addr":"경기도 용인시 기흥구 상갈동 122-14번지 지하1층","category":"레저업소 - 노 래 방"},{"name":"배관이엔지","tel":"031-1566-7933","addr":"경기도 용인시 기흥구 상갈동 122-14번지 1층","category":"용역 서비스 - 기타용역서비스"},{"name":"뽀글이","tel":"031-285-5807","addr":"경기도 용인시 기흥구 상갈동 122-14번지 1층","category":"일반휴게음식 - 일반한식"}]},{"lat":"37.268991244","long":"127.10635622","items":[{"name":"골목식당","tel":"031-281-8527","addr":"경기도 용인시 기흥구 상갈동 100-16번지","category":"일반휴게음식 - 일반한식"},{"name":"백암왕순대소머리국밥","tel":"031-205-0288","addr":"경기도 용인시 기흥구 상갈동 100-16번지","category":"일반휴게음식 - 일반한식"}]},{"lat":"37.266070935","long":"127.10746833","items":[{"name":"광신당","tel":"031-283-6648","addr":"경기도 용인시 기흥구 상갈동 466-2번지 스카이하우스 101호","category":"서적문구 - 출판 및 인쇄물"},{"name":"치킨마루 용인상갈점","tel":"031-274-8892","addr":"경기도 용인시 기흥구 상갈동 466-2번지 스카이하우스 103호","category":"일반휴게음식 - 스넥"},{"name":"투다리상갈점","tel":"031-285-8667","addr":"경기도 용인시 기흥구 상갈동 466-2번지 스카이하우스 103호","category":"일반휴게음식 - 일반한식"},{"name":"티파니","tel":"031-281-7417","addr":"경기도 용인시 기흥구 상갈동 466-2번지 연번지 102호","category":"신변잡화 - 귀금속"},{"name":"한국선물","tel":"031-693-6117","addr":"경기도 용인시 기흥구 상갈동 466-2번지 스카이하우스 1층","category":"신변잡화 - 기념품점"}]},{"lat":"37.269180627","long":"127.10616482","items":[{"name":"구구식당","tel":"031-284-9957","addr":"경기도 용인시 기흥구 상갈동 100-9번지","category":"일반휴게음식 - 일반한식"}]},{"lat":"37.266430777","long":"127.10811143","items":[{"name":"국가대표계몽태권도장","tel":"031-281-7090","addr":"경기도 용인시 기흥구 상갈동 472-2번지 한솔프라자 207,208호","category":"학원 - 예·체능계학원"},{"name":"국수나무 상갈점","tel":"031-287-9399","addr":"경기도 용인시 기흥구 상갈동 472-2번지 한솔프라자 106호","category":"일반휴게음식 - 스넥"},{"name":"더바른치과","tel":"031-274-2879","addr":"경기도 용인시 기흥구 상갈동 472-2번지 한솔프라자 4층 401호 일부","category":"의원 - 치과의원"},{"name":"블루클럽","tel":"031-285-2880","addr":"경기도 용인시 기흥구 상갈동 472-2번지 한솔프라자 104호","category":"보건위생 - 미용원"},{"name":"아이언소아청소년과의원","tel":"031-548-0028","addr":"경기도 용인시 기흥구 상갈동 472-2번지 한솔프라자 202호,203호","category":"의원 - 의원"},{"name":"안세한의원","tel":"031-284-1275","addr":"경기도 용인시 기흥구 상갈동 472-2번지 한솔프라자","category":"의원 - 한의원"},{"name":"인더그레이(in the gray)","tel":"031-281-7773","addr":"경기도 용인시 기흥구 상갈동 472-2번지 한솔프라자 111호-114호","category":"일반휴게음식 - 서양음식"},{"name":"잉크베스트","tel":"031-275-7355","addr":"경기도 용인시 기흥구 상갈동 472-2번지 한솔프라자 108호","category":"사무통신 - 기타 사무용품"},{"name":"크린토피아금화상갈점","tel":"031-8005-6210","addr":"경기도 용인시 기흥구 상갈동 472-2번지","category":"수리서비스 - 세탁소"},{"name":"프린스턴영수학원(주)","tel":"031-287-9095","addr":"경기도 용인시 기흥구 상갈동 472-2번지 한솔프라자 F동 204호","category":"학원 - 보습학원"},{"name":"한솔프라자","tel":"031-281-4666","addr":"경기도 용인시 기흥구 상갈동 472-2번지","category":"보건위생 - 사우나"},{"name":"호 부부한의원","tel":"031-275-1078","addr":"경기도 용인시 기흥구 상갈동 472-2번지 한솔프라자 205호,206호","category":"의원 - 한의원"},{"name":"힘찬약국","tel":"031-284-5004","addr":"경기도 용인시 기흥구 상갈동 472-2번지 102호,103호","category":"약국 - 약국"}]},{"lat":"37.266071035","long":"127.10735559","items":[{"name":"궁중떡방","tel":"031-285-6464","addr":"경기도 용인시 기흥구 상갈동 466-1번지","category":"음료식품 - 제과점"}]},{"lat":"37.268630804","long":"127.10638955","items":[{"name":"그린피아총판대리점","tel":"031-274-5004","addr":"경기도 용인시 기흥구 상갈동 100-17번지 2층","category":"가구 - 일반가구"}]},{"lat":"37.261658479","long":"127.10449741","items":[{"name":"금와종합장식","tel":"031-286-7312","addr":"경기도 용인시 기흥구 상갈동 482외1필지110","category":"직물 - 카페트,커튼,천막,지물"}]},{"lat":"37.269631121","long":"127.10618798","items":[{"name":"금호숯불갈비","tel":"031-282-9009","addr":"경기도 용인시 기흥구 상갈동 100-2번지","category":"일반휴게음식 - 갈비전문점"},{"name":"대박순대국","tel":"031-281-3223","addr":"경기도 용인시 기흥구 상갈동 100-2번지","category":"일반휴게음식 - 일반한식"},{"name":"정남진식당","tel":"070-7543-1803","addr":"경기도 용인시 기흥구 상갈동 100-2번지","category":"일반휴게음식 - 일반한식"},{"name":"해녀랑","tel":"031-281-9285","addr":"경기도 용인시 기흥구 상갈동 100-2번지 1층","category":"일반휴게음식 - 일반한식"}]},{"lat":"37.269684986","long":"127.10641354","items":[{"name":"금호장","tel":"031-283-5100","addr":"경기도 용인시 기흥구 상갈동 100-3번지","category":"숙박업 - 여관/기타숙박업"},{"name":"신.생태,동태.현","tel":"031-281-6333","addr":"경기도 용인시 기흥구 상갈동 100-3번지 금호장","category":"일반휴게음식 - 일반한식"},{"name":"오픈노래연습장","tel":"031-274-7100","addr":"경기도 용인시 기흥구 상갈동 100-3번지","category":"레저업소 - 노 래 방"},{"name":"필","tel":"070-9144-0059","addr":"경기도 용인시 기흥구 상갈동 100-3번지 2층","category":"보건위생 - 피부미용실"}]},{"lat":"37.269126102","long":"127.10669463","items":[{"name":"금호지물장식","tel":"031-284-2848","addr":"경기도 용인시 기흥구 상갈동 120번지","category":"직물 - 카페트,커튼,천막,지물"},{"name":"대연유통","tel":"031-282-9653","addr":"경기도 용인시 기흥구 상갈동 120","category":"음료식품 - 정육점"},{"name":"두레박","tel":"031-284-5822","addr":"경기도 용인시 기흥구 상갈동 120번지","category":"일반휴게음식 - 일반한식"},{"name":"뮤직박스","tel":"","addr":"경기도 용인시 기흥구 상갈동 120번지 지하1층","category":"용역 서비스 - 사무서비스"},{"name":"상갈리철물","tel":"031-283-0109","addr":"경기도 용인시 기흥구 상갈동 120","category":"건축자재 - 목재·석재·철물"},{"name":"성원상사","tel":"031-282-8201","addr":"경기도 용인시 기흥구 상갈동 120지층전체","category":"건축자재 - 인테리어전문"},{"name":"연해식당","tel":"031-285-4689","addr":"경기도 용인시 기흥구 상갈동 120번지","category":"일반휴게음식 - 일반한식"},{"name":"옻칠스토어","tel":"070-8885-5709","addr":"경기도 용인시 기흥구 상갈동 120번지 2층 1호","category":"문화.취미 - 민예·공예품"},{"name":"인터플러스","tel":"031-294-5704","addr":"경기도 용인시 기흥구 상갈동 120번지 2층 2호","category":"문화.취미 - 민예·공예품"},{"name":"주식회사산들인베스트","tel":"031-1577-8277","addr":"경기도 용인시 기흥구 상갈동 120,201","category":"회원제형태 - 학원"},{"name":"페리양념통닭","tel":"031-283-3502","addr":"경기도 용인시 기흥구 상갈동 120번지","category":"일반휴게음식 - 스넥"},{"name":"화인커뮤니케이션","tel":"031-241-1168","addr":"경기도 용인시 기흥구 상갈동 120번지","category":"용역 서비스 - 사무서비스"}]},{"lat":"37.265879615","long":"127.10982426","items":[{"name":"금화농산물","tel":"031-286-5493","addr":"경기도 용인시 기흥구 상갈동 459-3번지 주공프라자 108호","category":"유통업 영리 - 슈퍼마켓"},{"name":"상갈문구","tel":"031-274-5989","addr":"경기도 용인시 기흥구 상갈동 459-3번지 상갈주공프라자 105호","category":"서적문구 - 문구용품"},{"name":"상갈이화음악학원","tel":"031-285-8567","addr":"경기도 용인시 기흥구 상갈동 459-3번지 상갈주공프라자 302호","category":"학원 - 예·체능계학원"},{"name":"스피닝 싸이클 다이어트클럽","tel":"031-286-7111","addr":"경기도 용인시 기흥구 상갈동 459-3번지 상갈주공프라자 2층 203호","category":"레저업소 - 헬스클럽"},{"name":"신명가화원","tel":"031-282-0134","addr":"경기도 용인시 기흥구 상갈동 459-3번지 상갈주공프라자 1층 101호","category":"문화.취미 - 화원"},{"name":"아이작드럼스튜디오","tel":"","addr":"경기도 용인시 기흥구 상갈동 459-3번지 상갈주공프라자 201호","category":"용역 서비스 - 사무서비스"},{"name":"청담헤어","tel":"031-000-0000","addr":"경기도 용인시 기흥구 상갈동 459-3번지 주공프라자 106호","category":"보건위생 - 미용원"}]},{"lat":"37.266153421","long":"127.10587884","items":[{"name":"금화음악악기연습장","tel":"031-285-3060","addr":"경기도 용인시 기흥구 상갈동 474-1번지 그린프라자 201,202,203호","category":"용역 서비스 - 사무서비스"},{"name":"니커피카페","tel":"031-000-0000","addr":"경기도 용인시 기흥구 상갈동 474-1번지 그린프라자1 1층 204호","category":"일반휴게음식 - 서양음식"},{"name":"상갈노래연습장","tel":"031-8005-9494","addr":"경기도 용인시 기흥구 상갈동 474-1번지 그린프라자2층301,302호일부","category":"레저업소 - 노 래 방"},{"name":"스튜디오4u","tel":"031-282-4725","addr":"경기도 용인시 기흥구 상갈동 474-1번지 그린프라자","category":"광학제품 - 사진관"},{"name":"시즌PC방","tel":"","addr":"경기도 용인시 기흥구 상갈동 474-1번지 그린프라자 501호","category":"레저업소 - 기타레져업소"},{"name":"파티2노래연습장","tel":"031-285-3060","addr":"경기도 용인시 기흥구 상갈동 474-1번지 그린프라자 1층 203호","category":"레저업소 - 노 래 방"},{"name":"헬스클럽미스미스터","tel":"031-285-2882","addr":"경기도 용인시 기흥구 상갈동 474-1번지 그린프라자 3층","category":"회원제형태 - 학원"}]},{"lat":"37.263240848","long":"127.10843392","items":[{"name":"금화한의원","tel":"031-274-3663","addr":"경기도 용인시 기흥구 상갈동 481-1번지 상갈프라자 202동 203호","category":"의원 - 한의원"},{"name":"나래약국","tel":"031-286-6255","addr":"경기도 용인시 기흥구 상갈동 481-1번지 상갈프라자 102호","category":"약국 - 약국"},{"name":"달콤 아이스크림","tel":"","addr":"경기도 용인시 기흥구 상갈동 481-1번지 상갈프라자 109호","category":"음료식품 - 기타음료식품"},{"name":"민's 헤어","tel":"031-275-5556","addr":"경기도 용인시 기흥구 상갈동 481-1번지 상갈프라자 107호","category":"보건위생 - 미용원"},{"name":"블럭짱","tel":"031-283-8055","addr":"경기도 용인시 기흥구 상갈동 481-1번지 상갈프라자 2층 201호","category":"학원 - 기타 교육기관"},{"name":"삼미김밥","tel":"031-274-3552","addr":"경기도 용인시 기흥구 상갈동 481-1번지 상갈프라자 108호","category":"일반휴게음식 - 스넥"},{"name":"상갈경희태권도체육관","tel":"031-274-3131","addr":"경기도 용인시 기흥구 상갈동 481-1번지 상갈프라자 403호","category":"학원 - 예·체능계학원"},{"name":"새미소치과의원","tel":"031-274-2275","addr":"경기도 용인시 기흥구 상갈동 481-1번지 상갈프라자 301호","category":"의원 - 치과의원"},{"name":"신통치킨","tel":"031-281-3383","addr":"경기도 용인시 기흥구 상갈동 481-1번지 상갈프라자 105호","category":"일반휴게음식 - 일반한식"},{"name":"씨유용인상갈프라자점","tel":"031-275-5399","addr":"경기도 용인시 기흥구 상갈동 481-1번지 상갈프라자 1층 101호","category":"유통업 영리 - 편 의 점"},{"name":"아이엔지헤어","tel":"031-274-3133","addr":"경기도 용인시 기흥구 상갈동 481-1번지 상갈프라자 204호","category":"보건위생 - 미용재료"},{"name":"와이비엠잉글루상갈어학원","tel":"031-274-9400","addr":"경기도 용인시 기흥구 상갈동 481-1번지 상갈프라자 303호,3304호","category":"학원 - 외국어학원"},{"name":"정다운내과의원","tel":"031-274-8200","addr":"경기도 용인시 기흥구 상갈동 상갈프라자 302호","category":"의원 - 의원"},{"name":"주니어랩영어정다운학원","tel":"031-283-8009","addr":"경기도 용인시 기흥구 상갈동 481-1번지 상갈프라자 401호","category":"회원제형태 - 학원"},{"name":"커피나무숲","tel":"070-8270-0111","addr":"경기도 용인시 기흥구 상갈동 481-1번지 상갈프라자 1층 110호","category":"일반휴게음식 - 서양음식"},{"name":"큰빛약국","tel":"031-286-6255","addr":"경기도 용인시 기흥구 상갈동 481-1번지 상갈프라자 107호","category":"약국 - 약국"},{"name":"클라비어슐레피아노교습소","tel":"","addr":"경기도 용인시 기흥구 상갈동 481-1번지 상갈프라자 4층 402호","category":"학원 - 예·체능계학원"}]},{"lat":"37.270569924","long":"127.11421663","items":[{"name":"기와집","tel":"031-282-2708","addr":"경기도 용인시 기흥구 상갈동 142번지 1층","category":"일반휴게음식 - 일반한식"},{"name":"미담","tel":"031-282-2708","addr":"경기도 용인시 기흥구 상갈동 142번지 1층 일부","category":"음료식품 - 기타음료식품"}]},{"lat":"37.269486345","long":"127.10688679","items":[{"name":"김정애피부관리","tel":"031-283-6134","addr":"경기도 용인시 기흥구 상갈동 101-21번지","category":"회원제형태 - 기타4"}]},{"lat":"37.268352884","long":"127.10477698","items":[{"name":"김정훈 해물찜 아구찜 낙지볶음","tel":"031-275-0770","addr":"경기도 용인시 기흥구 상갈동 175-1번지 1,2층","category":"일반휴게음식 - 일반한식"}]},{"lat":"37.269486493","long":"127.10671768","items":[{"name":"꼬꼬치킨","tel":"031-208-2533","addr":"경기도 용인시 기흥구 상갈동 101-22번지 가동 1층 일부","category":"일반휴게음식 - 스넥"},{"name":"엘림건강원","tel":"031-282-3033","addr":"경기도 용인시 기흥구 상갈동 101-22번지","category":"건강식품 - 기타건강식품"}]},{"lat":"37.261243551","long":"127.10502668","items":[{"name":"꽃그레","tel":"031-000-0000","addr":"경기도 용인시 기흥구 상갈동 485-1번지 수호지 1층 4호","category":"음료식품 - 제과점"},{"name":"시저스맨 이용원","tel":"031-281-3255","addr":"경기도 용인시 기흥구 상갈동 485-1","category":"보건위생 - 이용원"}]},{"lat":"37.266576658","long":"127.10616126","items":[{"name":"꽃돼지삼겹살","tel":"031-283-7723","addr":"경기도 용인시 기흥구 상갈동 124-12번지 1층 일부","category":"일반휴게음식 - 일반한식"},{"name":"남대문안경.콘택트","tel":"031-283-9848","addr":"경기도 용인시 기흥구 상갈동 124-12번지","category":"보건위생 - 안경"},{"name":"마임(상갈지사)","tel":"031-287-6765","addr":"경기도 용인시 기흥구 상갈동 124-12번지","category":"회원제형태 - 건강식품"},{"name":"명동","tel":"031-286-8952","addr":"경기도 용인시 기흥구 상갈동 124-12번지 지하층","category":"보건위생 - 이용원"},{"name":"상구비어","tel":"031-284-9291","addr":"경기도 용인시 기흥구 상갈동 124-12번지 1층","category":"일반휴게음식 - 주점"}]},{"lat":"37.270021541","long":"127.11288546","items":[{"name":"노벨어린이집","tel":"031-284-2161","addr":"경기도 용인시 기흥구 상갈동 143번지","category":"기타 - 비영리/비대상"}]},{"lat":"37.269351636","long":"127.10637926","items":[{"name":"농축산직매점","tel":"031-281-8777","addr":"경기도 용인시 기흥구 상갈동 100-7번지","category":"음료식품 - 정육점"}]},{"lat":"37.269325086","long":"127.10582679","items":[{"name":"다민홈시스템(구 한울난방관리)","tel":"031-334-4402","addr":"경기도 용인시 기흥구 상갈동 100번지 105호","category":"용역 서비스 - 기타용역서비스"},{"name":"대성홈시스템","tel":"","addr":"경기도 용인시 기흥구 상갈동 100번지 105호","category":"용역 서비스 - 기타용역서비스"},{"name":"소마을","tel":"031-281-0824","addr":"경기도 용인시 기흥구 상갈동 100번지 루블루시네마 1층 115,116호","category":"일반휴게음식 - 일반한식"},{"name":"신갈타이루","tel":"031-282-5193","addr":"경기도 용인시 기흥구 상갈동 100번지","category":"건축자재 - 건축용 요업제품"},{"name":"쌍용자동차기흥대리점","tel":"031-274-3355","addr":"경기도 용인시 기흥구 상갈동 100번지 루블루시네마 107동 111호","category":"자동차판매 - 국산신차판매"},{"name":"엘에이 (LA)노래연습장","tel":"031-282-3311","addr":"경기도 용인시 기흥구 상갈동 100번지 B101호","category":"레저업소 - 노 래 방"}]},{"lat":"37.265546163","long":"127.10990271","items":[{"name":"다아 꽃봉오리","tel":"031-285-7485","addr":"경기도 용인시 기흥구 상갈동 461번지 금화마을대우현대1단지아파트","category":"문화.취미 - 화원"},{"name":"지유세라믹","tel":"031-302-6304","addr":"경기도 용인시 기흥구 상갈동 461번지 금화마을대우현대1단지아파트","category":"주방용구 - 주방용구"}]},{"lat":"37.2661258","long":"127.10655523","items":[{"name":"닥터짐휘트니스","tel":"031-548-0790","addr":"경기도 용인시 기흥구 상갈동 473번지 정진프라자 지하1층","category":"레저업소 - 헬스클럽"},{"name":"맘스터치 용인상갈점","tel":"031-284-9284","addr":"경기도 용인시 기흥구 상갈동 473번지 정진프라자 1층 02호","category":"일반휴게음식 - 서양음식"},{"name":"상갈차약국","tel":"031-282-2824","addr":"경기도 용인시 기흥구 상갈동 473번지 정진프라자 103호","category":"약국 - 약국"},{"name":"에이스치과","tel":"031-274-7522","addr":"경기도 용인시 기흥구 상갈동 473번지 정진프라자 301 에이스치과의원","category":"의원 - 치과의원"},{"name":"팬더방방","tel":"031-307-0583","addr":"경기도 용인시 기흥구 상갈동 473번지 501,502호","category":"레저업소 - 기타레져업소"},{"name":"하비스타터","tel":"031-1111-1111","addr":"경기도 용인시 기흥구 상갈동 473번지 정진프라자 B2 층","category":"서적문구 - 완구점"},{"name":"효신한의원","tel":"031-281-7582","addr":"경기도 용인시 기흥구 상갈동 473번지 정진프라자 202호","category":"의원 - 한의원"}]},{"lat":"37.267711054","long":"127.10718874","items":[{"name":"달래흑염소옻닭","tel":"031-282-2241","addr":"경기도 용인시 기흥구 상갈동 122-27번지 2층","category":"일반휴게음식 - 일반한식"},{"name":"선비파크","tel":"031-284-7007","addr":"경기도 용인시 기흥구 상갈동 122-27번지","category":"숙박업 - 여관/기타숙박업"},{"name":"선비파크","tel":"031-284-7007","addr":"경기도 용인시 기흥구 상갈동 122-27번지","category":"숙박업 - 여관/기타숙박업"}]},{"lat":"37.269846438","long":"127.10724806","items":[{"name":"대가식당","tel":"031-283-6688","addr":"경기도 용인시 기흥구 상갈동 101-9번지 1층","category":"일반휴게음식 - 일반한식"},{"name":"힐링타임","tel":"070-9144-6691","addr":"경기도 용인시 기흥구 상갈동 101-9번지 지하","category":"레저업소 - 헬스클럽"}]},{"lat":"37.269268621","long":"127.10855507","items":[{"name":"대명자동차정비공업사","tel":"031-285-5125","addr":"경기도 용인시 기흥구 상갈동 119-10번지","category":"자동차정비 유지 - 자동차부품"}]},{"lat":"37.269154399","long":"127.1052403","items":[{"name":"대박건축인테리어","tel":"031-282-9589","addr":"경기도 용인시 기흥구 상갈동 165-2번지","category":"건축자재 - 인테리어전문"},{"name":"동양카마트","tel":"031-282-9222","addr":"경기도 용인시 기흥구 상갈동 165-2번지","category":"자동차정비 유지 - 자동차시트·타이어"}]},{"lat":"37.266485924","long":"127.10688266","items":[{"name":"대박찬스복권방","tel":"031-284-5545","addr":"경기도 용인시 기흥구 상갈동 125-22번지","category":"음료식품 - 기타음료식품"},{"name":"문화서점","tel":"031-282-7934","addr":"경기도 용인시 기흥구 상갈동 125-22번지","category":"서적문구 - 일반서적"},{"name":"벨","tel":"031-274-0313","addr":"경기도 용인시 기흥구 상갈동 125-22번지 지하1층","category":"일반휴게음식 - 일반한식"},{"name":"최고네떡볶이","tel":"","addr":"경기도 용인시 기흥구 상갈동 125-22번지 1층","category":"일반휴게음식 - 스넥"},{"name":"한솥도시락 용인상갈점","tel":"031-284-0039","addr":"경기도 용인시 기흥구 상갈동 125-22번지","category":"일반휴게음식 - 일반한식"}]},{"lat":"37.26651334","long":"127.10644302","items":[{"name":"대박통신","tel":"031-287-7337","addr":"경기도 용인시 기흥구 상갈동 125-14번지 (13번지103,104호)","category":"사무통신 - 통신기기"},{"name":"마포족발","tel":"031-287-5018","addr":"경기도 용인시 기흥구 상갈동 125-14번지 1층","category":"일반휴게음식 - 일반한식"},{"name":"영참치&스시","tel":"031-282-3545","addr":"경기도 용인시 기흥구 상갈동 125-14번지 1층 102호","category":"일반휴게음식 - 일반한식"},{"name":"율's헤어","tel":"031-286-8816","addr":"경기도 용인시 기흥구 상갈동 125-14번지 한림빌딩 101호","category":"보건위생 - 미용원"}]},{"lat":"37.269576892","long":"127.10637957","items":[{"name":"대보식당","tel":"031-281-8894","addr":"경기도 용인시 기흥구 상갈동 100-4번지","category":"일반휴게음식 - 일반한식"}]},{"lat":"37.26127025","long":"127.10541","items":[{"name":"대지인테리어","tel":"031-281-7008","addr":"경기도 용인시 기흥구 상갈동 485-4번지","category":"건축자재 - 인테리어전문"}]},{"lat":"37.268685523","long":"127.10563426","items":[{"name":"대창철물점","tel":"031-274-4149","addr":"경기도 용인시 기흥구 상갈동 100-22번지","category":"건축자재 - 목재·석재·철물"},{"name":"해피트리","tel":"031-274-7811","addr":"경기도 용인시 기흥구 상갈동 100-22번지","category":"서적문구 - 완구점"}]},{"lat":"37.264379158","long":"127.1049971","items":[{"name":"대현모터스","tel":"031-283-0788","addr":"경기도 용인시 기흥구 상갈동 43-2번지 명덕자동차공업사","category":"자동차정비 유지 - 자동차정비"},{"name":"제태카","tel":"031-295-6907","addr":"경기도 용인시 기흥구 상갈동 43-2번지","category":"자동차정비 유지 - 자동차부품"}]},{"lat":"37.263874893","long":"127.10463567","items":[{"name":"대현부품","tel":"031-284-1702","addr":"경기도 용인시 기흥구 상갈동 220-1번지","category":"자동차정비 유지 - 자동차부품"},{"name":"신갈오일나라","tel":"031-322-5179","addr":"경기도 용인시 기흥구 상갈동 220-1번지","category":"자동차정비 유지 - 자동차부품"}]},{"lat":"37.267378867","long":"127.10582414","items":[{"name":"더(the)한음식 미가","tel":"031-286-0322","addr":"경기도 용인시 기흥구 상갈동 124-2번지 지하1층 일부","category":"일반휴게음식 - 일반한식"},{"name":"키헤어샵","tel":"031-278-5889","addr":"경기도 용인시 기흥구 상갈동 124-2번지","category":"보건위생 - 미용원"}]},{"lat":"37.267179616","long":"127.10699636","items":[{"name":"도토리마을","tel":"031-274-2767","addr":"경기도 용인시 기흥구 상갈동 125-2번지","category":"일반휴게음식 - 일반한식"}]},{"lat":"37.268792772","long":"127.1066378","items":[{"name":"돼박고깃집","tel":"031-281-5887","addr":"경기도 용인시 기흥구 상갈동 121번지 1층","category":"일반휴게음식 - 일반한식"},{"name":"라이야양꼬치","tel":"031-286-9950","addr":"경기도 용인시 기흥구 상갈동 121번지","category":"일반휴게음식 - 일반한식"},{"name":"발리노래연습장","tel":"031-275-0021","addr":"경기도 용인시 기흥구 상갈동 121번지","category":"레저업소 - 노 래 방"},{"name":"불로불러참숯바베큐치킨","tel":"","addr":"경기도 용인시 기흥구 상갈동 121번지 1층","category":"일반휴게음식 - 스넥"},{"name":"샹하이","tel":"031-284-1988","addr":"경기도 용인시 기흥구 상갈동 121번지 1층","category":"일반휴게음식 - 중국식"}]},{"lat":"37.268710656","long":"127.10779892","items":[{"name":"드림자동차","tel":"031-282-8345","addr":"경기도 용인시 기흥구 상갈동 121-7번지","category":"자동차정비 유지 - 자동차정비"}]},{"lat":"37.266882762","long":"127.10644353","items":[{"name":"딤(DIM)","tel":"031-321-9031","addr":"경기도 용인시 기흥구 상갈동 125-11번지 1층 101호","category":"보건위생 - 미용원"},{"name":"또봉이통닭","tel":"031-284-9933","addr":"경기도 용인시 기흥구 상갈동 125-11번지 1층 102호","category":"일반휴게음식 - 스넥"},{"name":"옛날빈대떡","tel":"031-281-5959","addr":"경기도 용인시 기흥구 상갈동 125-11번지","category":"일반휴게음식 - 일반한식"},{"name":"최가네한식","tel":"031-308-9387","addr":"경기도 용인시 기흥구 상갈동 125-11번지","category":"일반휴게음식 - 일반한식"}]},{"lat":"37.268820069","long":"127.10633344","items":[{"name":"땡큐노래연습장","tel":"031-282-6811","addr":"경기도 용인시 기흥구 상갈동 100-23번지 경일빌딩 지하호","category":"레저업소 - 노 래 방"},{"name":"백만장자","tel":"031-283-9034","addr":"경기도 용인시 기흥구 상갈동 100-23번지 경일빌딩 1층","category":"기타 - 기타 전문점"},{"name":"별밤치킨","tel":"031-283-3180","addr":"경기도 용인시 기흥구 상갈동 100-23번지","category":"일반휴게음식 - 일반한식"},{"name":"복돼지식당","tel":"031-282-0411","addr":"경기도 용인시 기흥구 상갈동 100-23번지","category":"일반휴게음식 - 일반한식"}]},{"lat":"37.265763996","long":"127.10813305","items":[{"name":"뚜레쥬르 용인상갈(2)","tel":"031-285-0028","addr":"경기도 용인시 기흥구 상갈동 466-8번지 102호","category":"음료식품 - 제과점"},{"name":"풍년떡집상갈점","tel":"031-274-0045","addr":"경기도 용인시 기흥구 상갈동 466-8,5-2블럭101","category":"음료식품 - 제과점"},{"name":"홈인테리어","tel":"031-287-0905","addr":"경기도 용인시 기흥구 상갈동 466-8번지 103호","category":"건축자재 - 인테리어전문"}]},{"lat":"37.266540784","long":"127.10596956","items":[{"name":"라온","tel":"070-9188-9400","addr":"경기도 용인시 기흥구 상갈동 124-13번지 2층","category":"레저업소 - 헬스클럽"},{"name":"컴온","tel":"031-285-1950","addr":"경기도 용인시 기흥구 상갈동 124-13번지 지하층","category":"레저업소 - 노 래 방"},{"name":"호미곶","tel":"031-285-6600","addr":"경기도 용인시 기흥구 상갈동 124-13번지 102호","category":"일반휴게음식 - 스넥"}]},{"lat":"37.269376624","long":"127.10869051","items":[{"name":"렛츠글로벌","tel":"031-111-1111","addr":"경기도 용인시 기흥구 상갈동 119-18번지 301호","category":"농업 - 비료,사료,종자"}]},{"lat":"37.268207999","long":"127.10561106","items":[{"name":"로케트보일러","tel":"031-336-9000","addr":"경기도 용인시 기흥구 상갈동 102-11번지","category":"건축자재 - 보일러·펌프·샷시"}]},{"lat":"37.270381311","long":"127.11357372","items":[{"name":"로타리가든","tel":"031-285-5030","addr":"경기도 용인시 기흥구 상갈동 143-1번지","category":"일반휴게음식 - 일반한식"}]},{"lat":"37.265021143","long":"127.11255125","items":[{"name":"루터대학교 구내식당","tel":"070-7553-7066","addr":"경기도 용인시 기흥구 상갈동 17번지 루터대학교 구내식당","category":"일반휴게음식 - 위탁급식업"}]},{"lat":"37.2661039","long":"127.11089558","items":[{"name":"리더웨이,소프트젠","tel":"","addr":"경기도 용인시 기흥구 상갈동 454번지 금화마을주공5단지아파트","category":"용역 서비스 - 소프트웨어"}]},{"lat":"37.263239644","long":"127.10977544","items":[{"name":"리듬세계음악학원","tel":"031-286-1817","addr":"경기도 용인시 기흥구 상갈동 463-1번지 주공4단지상가 202 ,203,204","category":"학원 - 예·체능계학원"},{"name":"씨매스수학교습소","tel":"031-282-2255","addr":"경기도 용인시 기흥구 상갈동 463-1번지 금화마을주공그린빌 상가동 205호","category":"학원 - 보습학원"},{"name":"여우미용실","tel":"031-274-0252","addr":"경기도 용인시 기흥구 상갈동 463-1번지 금화마을주공그린빌 104호","category":"보건위생 - 미용원"},{"name":"제일세탁소","tel":"031-286-9557","addr":"경기도 용인시 기흥구 상갈동 463-1번지 금화마을주공그린빌 상가 105호","category":"수리서비스 - 세탁소"},{"name":"진로정육","tel":"031-274-8820","addr":"경기도 용인시 기흥구 상갈동 463-1번지 금화4단지상가 지하1층 진로마트 내","category":"음료식품 - 정육점"}]},{"lat":"37.266070835","long":"127.10758106","items":[{"name":"마냐나","tel":"031-285-0206","addr":"경기도 용인시 기흥구 상갈동 466-3번지 신화빌 101호","category":"일반휴게음식 - 일반한식"},{"name":"브릭로즈 플라워","tel":"031-274-5743","addr":"경기도 용인시 기흥구 상갈동 466-3번지 신화빌 102호","category":"문화.취미 - 화원"}]},{"lat":"37.262185675","long":"127.10951467","items":[{"name":"마이포스","tel":"031-285-3316","addr":"경기도 용인시 기흥구 상갈동 463번지 금화마을주공4단지아파트","category":"사무통신 - 사무용 OA기기"}]},{"lat":"37.261658024","long":"127.10502724","items":[{"name":"마인드(MIND)감성발달힐링센터","tel":"031-281-0233","addr":"경기도 용인시 기흥구 상갈동 482-2 201-1일부(A)","category":"보건위생 - 기타대인서비스"}]},{"lat":"37.269154973","long":"127.10457513","items":[{"name":"명성건업","tel":"031-281-6204","addr":"경기도 용인시 기흥구 상갈동 173-1번지 1층","category":"용역 서비스 - 기타용역서비스"}]},{"lat":"37.265653475","long":"127.10041044","items":[{"name":"명성카크리닉","tel":"031-282-5883","addr":"경기도 용인시 기흥구 상갈동 198-4번지","category":"자동차정비 유지 - 자동차정비"}]},{"lat":"37.268712339","long":"127.10588233","items":[{"name":"모아모아","tel":"031-287-5725","addr":"경기도 용인시 기흥구 상갈동 100-20번지 유진빌딩","category":"의류 - 정장"}]},{"lat":"37.269656635","long":"127.10791298","items":[{"name":"미니슈퍼","tel":"031-282-9500","addr":"경기도 용인시 기흥구 상갈동 123-27번지","category":"유통업 영리 - 슈퍼마켓"},{"name":"주식회사 세드디자인","tel":"031-284-3865","addr":"경기도 용인시 기흥구 상갈동 123-27번지","category":"건축자재 - 기타건축자재"}]},{"lat":"37.268090207","long":"127.10636626","items":[{"name":"바다회사랑","tel":"031-283-1236","addr":"경기도 용인시 기흥구 상갈동 102-3번지 넥스빌아파트 4동 102호","category":"일반휴게음식 - 일식·회집"}]},{"lat":"37.268711392","long":"127.10696464","items":[{"name":"바디스캔","tel":"070-7804-8144","addr":"경기도 용인시 기흥구 상갈동 121-2번지 신갈종합시장 230호","category":"보건위생 - 의료용품"},{"name":"신화시스템","tel":"031-285-1359","addr":"경기도 용인시 기흥구 상갈동 121-2, 244","category":"전기제품 - 기타전기제품"},{"name":"올소원","tel":"070-4190-2828","addr":"경기도 용인시 기흥구 상갈동 121-2번지 기룡 상가 311호","category":"보건위생 - 의료용품"},{"name":"이치덴탈","tel":"","addr":"경기도 용인시 기흥구 상갈동 121-2번지 신갈종합시장 313호","category":"보건위생 - 의료용품"},{"name":"주식회사 참조은렌트카","tel":"031-693-9833","addr":"경기도 용인시 기흥구 상갈동 121-2번지 306-비호","category":"여행 - 렌터카"},{"name":"한국유통농축산물도매센터","tel":"031-285-0201","addr":"경기도 용인시 기흥구 상갈동 121-2번지 1층","category":"유통업 영리 - 슈퍼마켓"}]},{"lat":"37.267819958","long":"127.10629825","items":[{"name":"바람난여인","tel":"031-304-4332","addr":"경기도 용인시 기흥구 상갈동 102-4번지","category":"보건위생 - 미용원"},{"name":"최배달 떡순튀","tel":"031-286-7878","addr":"경기도 용인시 기흥구 상갈동 102-4번지 1층 101호","category":"일반휴게음식 - 일반한식"},{"name":"팔도노래연습장","tel":"031-284-8731","addr":"경기도 용인시 기흥구 상갈동 102-4번지 지하1층","category":"레저업소 - 노 래 방"}]},{"lat":"37.263086835","long":"127.10936938","items":[{"name":"바이앤조이","tel":"031-216-6970","addr":"경기도 용인시 기흥구 상갈동 463번지 금화마을주공그린빌 408동 203호","category":"사무통신 - 기타 사무용품"},{"name":"한국선물종합유통","tel":"031-274-2774","addr":"경기도 용인시 기흥구 상갈동 463번지 금화마을주공4단지아파트","category":"신변잡화 - 기념품점"}]},{"lat":"37.267071958","long":"127.10646633","items":[{"name":"박도수","tel":"031-284-0611","addr":"경기도 용인시 기흥구 상갈동 125-10번지 1층","category":"일반휴게음식 - 일반한식"}]},{"lat":"37.261243434","long":"127.10516196","items":[{"name":"밥집","tel":"031-287-0883","addr":"경기도 용인시 기흥구 상갈동 485-2번지 이석민피자 102호","category":"일반휴게음식 - 일반한식"}]},{"lat":"37.269657738","long":"127.10666154","items":[{"name":"버르장머리미용실","tel":"031-281-4736","addr":"경기도 용인시 기흥구 상갈동 101-1번지","category":"보건위생 - 미용원"},{"name":"앵콜노래연습장","tel":"031-281-1977","addr":"경기도 용인시 기흥구 상갈동 101-1번지 3층","category":"레저업소 - 노 래 방"}]},{"lat":"37.269430584","long":"127.10880333","items":[{"name":"버섯이랑","tel":"031-281-7880","addr":"경기도 용인시 기흥구 상갈동 119-25번지","category":"일반휴게음식 - 일반한식"}]},{"lat":"37.267990907","long":"127.10658033","items":[{"name":"별다방","tel":"031-223-3222","addr":"경기도 용인시 기흥구 상갈동 122-16번지 지하1층","category":"일반휴게음식 - 서양음식"},{"name":"풀잎향기","tel":"031-287-1811","addr":"경기도 용인시 기흥구 상갈동 122-16번지","category":"일반휴게음식 - 일반한식"}]},{"lat":"37.265935342","long":"127.10796418","items":[{"name":"브리즈커피","tel":"","addr":"경기도 용인시 기흥구 상갈동 466-6번지 통문장영어 101호","category":"일반휴게음식 - 서양음식"},{"name":"자연축산","tel":"031-282-6457","addr":"경기도 용인시 기흥구 상갈동 466-6번지 통문장영어 102호","category":"음료식품 - 정육점"}]},{"lat":"37.267099274","long":"127.10613943","items":[{"name":"블루앤아이","tel":"031-287-0069","addr":"경기도 용인시 기흥구 상갈동 124-7번지","category":"전기제품 - 가전제품"},{"name":"샤이니","tel":"031-284-2866","addr":"경기도 용인시 기흥구 상갈동 124-7번지 상갈동빌딩 419호","category":"자동차정비 유지 - 카인테리어"},{"name":"서양육식당","tel":"031-1111-1111","addr":"경기도 용인시 기흥구 상갈동 124-7번지 107,108호","category":"일반휴게음식 - 일반한식"},{"name":"연금술사","tel":"02-1234-1234","addr":"경기도 용인시 기흥구 상갈동 124-7번지 삼우프라자 1층 105,106호","category":"일반휴게음식 - 일반한식"},{"name":"올레 세계맥주","tel":"031-283-1136","addr":"경기도 용인시 기흥구 상갈동 124-7번지 상가 105,106호","category":"일반휴게음식 - 일반한식"},{"name":"와이디(YD)","tel":"","addr":"경기도 용인시 기흥구 상갈동 124-7번지 1층 109호,110호","category":"용역 서비스 - 사무서비스"},{"name":"이모내식당","tel":"070-8844-5757","addr":"경기도 용인시 기흥구 상갈동 124-7번지 삼우프라자 1층 102호","category":"일반휴게음식 - 일반한식"},{"name":"진흥서적","tel":"031-287-3344","addr":"경기도 용인시 기흥구 상갈동 124-7번지 상갈동빌딩","category":"서적문구 - 일반서적"},{"name":"황소곱창이야기","tel":"","addr":"경기도 용인시 기흥구 상갈동 124-7번지 삼우프라자 101호","category":"일반휴게음식 - 일반한식"}]},{"lat":"37.267324196","long":"127.10652305","items":[{"name":"비에치씨(bhc)치킨상갈점","tel":"031-281-1541","addr":"경기도 용인시 기흥구 상갈동 125번지 1층 103호","category":"일반휴게음식 - 스넥"},{"name":"이레식당","tel":"070-7420-2746","addr":"경기도 용인시 기흥구 상갈동 125번지 1층","category":"일반휴게음식 - 일반한식"}]},{"lat":"37.269908852","long":"127.10799225","items":[{"name":"비쿱","tel":"","addr":"경기도 용인시 기흥구 상갈동 123-1번지 202호","category":"보건위생 - 미용재료"}]},{"lat":"37.261270367","long":"127.10527472","items":[{"name":"쁘띠헤어","tel":"031-281-5313","addr":"경기도 용인시 기흥구 상갈동 485-3번지 1층","category":"보건위생 - 미용원"},{"name":"웅이네오돌뼈","tel":"031-282-1191","addr":"경기도 용인시 기흥구 상갈동 485-3번지 MUC 101호","category":"일반휴게음식 - 일반한식"}]},{"lat":"37.269568197","long":"127.10601878","items":[{"name":"산울림노래연습장","tel":"031-284-8799","addr":"경기도 용인시 기흥구 상갈동 100-1번지 축복빌딩 지하","category":"레저업소 - 노 래 방"},{"name":"인생이야기","tel":"031-284-2684","addr":"경기도 용인시 기흥구 상갈동 100-1번지 1층","category":"일반휴게음식 - 일반한식"}]},{"lat":"37.268767123","long":"127.10504812","items":[{"name":"삼대째 손두부","tel":"031-286-7620","addr":"경기도 용인시 기흥구 상갈동 165-4번지","category":"일반휴게음식 - 일반한식"}]},{"lat":"37.26937842","long":"127.10666116","items":[{"name":"상갈분식","tel":"031-283-5400","addr":"경기도 용인시 기흥구 상갈동 101-23번지 1층","category":"일반휴게음식 - 스넥"}]},{"lat":"37.26222988","long":"127.1104504","items":[{"name":"샛바람에어컨","tel":"031-111-1111","addr":"경기도 용인시 기흥구 상갈동 463번지 금화마을주공그린빌 402동 1104호","category":"용역 서비스 - 기타용역서비스"}]},{"lat":"37.261243648","long":"127.10491395","items":[{"name":"생고기가맛있는집","tel":"031-302-8818","addr":"경기도 용인시 기흥구 상갈동 485번지 1층","category":"일반휴게음식 - 일반한식"}]},{"lat":"37.263924791","long":"127.10937056","items":[{"name":"샤시앤수리","tel":"031-0000-0000","addr":"경기도 용인시 기흥구 상갈동 461번지 금화마을대우현대1단지아파트","category":"수리서비스 - 기타수리서비스"}]},{"lat":"37.265655823","long":"127.10818927","items":[{"name":"샵(#)봄헤어","tel":"031-287-3603","addr":"경기도 용인시 기흥구 상갈동 466-9번지 1층 일부","category":"보건위생 - 미용원"}]},{"lat":"37.269963303","long":"127.10755263","items":[{"name":"서울녹각삼계탕","tel":"031-285-3475","addr":"경기도 용인시 기흥구 상갈동 101-12번지","category":"일반휴게음식 - 일반한식"}]},{"lat":"37.269792555","long":"127.10704505","items":[{"name":"서울우유 신갈대리점","tel":"031-283-2555","addr":"경기도 용인시 기흥구 상갈동 101-7","category":"음료식품 - 기타음료식품"}]},{"lat":"37.270214155","long":"127.10916521","items":[{"name":"서해회바다","tel":"031-284-8811","addr":"경기도 용인시 기흥구 상갈동 123-12번지","category":"일반휴게음식 - 일식·회집"},{"name":"예감아트","tel":"031-287-3533","addr":"경기도 용인시 기흥구 상갈동 123-12번지 303호","category":"용역 서비스 - 사무서비스"}]},{"lat":"37.268378329","long":"127.10660341","items":[{"name":"성심슈퍼","tel":"031-283-5437","addr":"경기도 용인시 기흥구 상갈동 122번지 점포 1층","category":"유통업 영리 - 슈퍼마켓"}]},{"lat":"37.26918044","long":"127.10637903","items":[{"name":"세븐일레븐기흥상갈점","tel":"031-1577-0711","addr":"경기도 용인시 기흥구 상갈동 100-25번지 101호","category":"유통업 영리 - 편 의 점"},{"name":"헤어갤러리타운","tel":"031-285-6177","addr":"경기도 용인시 기흥구 상갈동 100-25번지 1층","category":"보건위생 - 미용원"}]},{"lat":"37.269018835","long":"127.10571363","items":[{"name":"셀세모 용인신갈점","tel":"031-000-0000","addr":"경기도 용인시 기흥구 상갈동 100-13번지","category":"자동차정비 유지 - 세차장"},{"name":"엔진마을","tel":"031-274-4737","addr":"경기도 용인시 기흥구 상갈동 100-13번지","category":"자동차정비 유지 - 자동차정비"}]},{"lat":"37.268930857","long":"127.11335739","items":[{"name":"소나무정원","tel":"031-283-3410","addr":"경기도 용인시 기흥구 상갈동 144-8 지층-2층","category":"일반휴게음식 - 일반한식"}]},{"lat":"37.267296898","long":"127.10682741","items":[{"name":"소망","tel":"","addr":"경기도 용인시 기흥구 상갈동 125-25번지","category":"음료식품 - 기타음료식품"}]},{"lat":"37.270097616","long":"127.10849986","items":[{"name":"속초코다리찜","tel":"031-282-0868","addr":"경기도 용인시 기흥구 상갈동 123-7번지 1층","category":"일반휴게음식 - 일반한식"}]},{"lat":"37.267216092","long":"127.10650035","items":[{"name":"수경헤어방","tel":"031-283-0221","addr":"경기도 용인시 기흥구 상갈동 125-9 1층 정면왼쪽일부","category":"보건위생 - 미용원"},{"name":"씨유용인상갈공원점","tel":"031-274-1238","addr":"경기도 용인시 기흥구 상갈동 125-9번지 1층","category":"유통업 영리 - 편 의 점"}]},{"lat":"37.265121933","long":"127.11072508","items":[{"name":"수인운수","tel":"031-274-9912","addr":"경기도 용인시 기흥구 상갈동 461번지 금화마을대우현대1단지아파트","category":"보건위생 - 화장품"}]},{"lat":"37.265683563","long":"127.10738887","items":[{"name":"술집","tel":"031-281-0282","addr":"경기도 용인시 기흥구 상갈동 467-8번지 외 1필지 평화빌 1층 108호","category":"일반휴게음식 - 일반한식"}]},{"lat":"37.266049284","long":"127.10118883","items":[{"name":"스카이카서비스","tel":"031-8005-7273","addr":"경기도 용인시 기흥구 상갈동 294-7번지","category":"자동차정비 유지 - 자동차정비"},{"name":"씨유수원IC점","tel":"031-281-7242","addr":"경기도 용인시 기흥구 상갈동 294-7번지 1층 1호","category":"유통업 영리 - 편 의 점"},{"name":"행운상사","tel":"031-282-2944","addr":"경기도 용인시 기흥구 상갈동 294-7번지 102호","category":"자동차정비 유지 - 자동차부품"}]},{"lat":"37.264516888","long":"127.10196471","items":[{"name":"스포츠콰트로","tel":"070-8186-8928","addr":"경기도 용인시 기흥구 상갈동 207-6번지","category":"회원제형태 - 레져업소"}]},{"lat":"37.265874318","long":"127.10563044","items":[{"name":"시원공조시스템","tel":"","addr":"경기도 용인시 기흥구 상갈동 469-1번지","category":"용역 서비스 - 기타용역서비스"}]},{"lat":"37.269771224","long":"127.11074298","items":[{"name":"신갈고등학교 매점","tel":"031-281-7003","addr":"경기도 용인시 기흥구 상갈동 150-1번지 신갈고등학교","category":"음료식품 - 기타음료식품"},{"name":"신갈고등학교매점","tel":"031-281-7004","addr":"경기도 용인시 기흥구 상갈동 150-1번지 신갈고등학교","category":"음료식품 - 기타음료식품"}]},{"lat":"37.267657161","long":"127.10699701","items":[{"name":"신갈라이온스","tel":"031-281-6290","addr":"경기도 용인시 기흥구 상갈동 122-26번지","category":"기타 - 비영리/비대상"},{"name":"신갈라이온스클럽","tel":"031-281-6290","addr":"경기도 용인시 기흥구 상갈동 122-26번지","category":"기타 - 비영리/대상"}]},{"lat":"37.263631876","long":"127.10433096","items":[{"name":"신갈루마썬팅","tel":"031-282-6562","addr":"경기도 용인시 기흥구 상갈동 220-21번지","category":"자동차정비 유지 - 카인테리어"},{"name":"씨엘키즈","tel":"031-693-8008","addr":"경기도 용인시 기흥구 상갈동 220-21번지 지층 1-3호 하","category":"레저업소 - 기타레져업소"}]},{"lat":"37.267605012","long":"127.10479852","items":[{"name":"신갈차유리","tel":"031-282-6888","addr":"경기도 용인시 기흥구 상갈동 106-3번지","category":"자동차정비 유지 - 자동차부품"},{"name":"신갈천연가죽시트전문점","tel":"031-8005-9876","addr":"경기도 용인시 기흥구 상갈동 106-3,1층4","category":"자동차정비 유지 - 자동차시트·타이어"},{"name":"에이지에스 AGS자동차유리","tel":"031-214-3393","addr":"경기도 용인시 기흥구 상갈동 106-3번지 1층","category":"자동차정비 유지 - 자동차부품"}]},{"lat":"37.26735166","long":"127.10602704","items":[{"name":"신기라성","tel":"031-283-1199","addr":"경기도 용인시 기흥구 상갈동 124-3번지 1층","category":"일반휴게음식 - 중국식"}]},{"lat":"37.262153014","long":"127.10569303","items":[{"name":"신순철용인대복싱클럽","tel":"031-275-5812","addr":"경기도 용인시 기흥구 상갈동 481-3번지 지하1층","category":"레저업소 - 헬스클럽"},{"name":"주공마트","tel":"031-286-3037","addr":"경기도 용인시 기흥구 상갈동 481-3번지 주공3단지금화마을 상가 101호","category":"유통업 영리 - 슈퍼마켓"}]},{"lat":"37.267874648","long":"127.10557679","items":[{"name":"신한전기","tel":"031-282-6776","addr":"경기도 용인시 기흥구 상갈동 102-8번지","category":"전기제품 - 기타전기제품"}]},{"lat":"37.269961948","long":"127.10907466","items":[{"name":"쌍용자동차기흥서비스프라자","tel":"031-282-5582","addr":"경기도 용인시 기흥구 상갈동 123-13번지","category":"자동차정비 유지 - 자동차정비"},{"name":"행복한세차장","tel":"031-283-3710","addr":"경기도 용인시 기흥구 상갈동 123-13번지","category":"자동차정비 유지 - 세차장"}]},{"lat":"37.269575101","long":"127.10840893","items":[{"name":"씨앤와이(C&Y)","tel":"031-304-5873","addr":"경기도 용인시 기흥구 상갈동 119-14번지 2층 201호","category":"용역 서비스 - 기타용역서비스"}]},{"lat":"37.264411346","long":"127.10937125","items":[{"name":"아이엠논술","tel":"031-287-8253","addr":"경기도 용인시 기흥구 상갈동 461번지 금화마을대우현대1단지아파트","category":"학원 - 기타 교육기관"}]},{"lat":"37.268712221","long":"127.10601762","items":[{"name":"아트매직페이퍼","tel":"031-8001-3041","addr":"경기도 용인시 기흥구 상갈동 100-19번지 상갈 302호","category":"사무통신 - 기타 사무용품"}]},{"lat":"37.261297017","long":"127.10571441","items":[{"name":"에덴세탁","tel":"031-283-3663","addr":"경기도 용인시 기흥구 상갈동 484번지","category":"수리서비스 - 세탁소"},{"name":"전집보고","tel":"031-281-3304","addr":"경기도 용인시 기흥구 상갈동 484상가1층3호","category":"서적문구 - 일반서적"}]},{"lat":"37.268514328","long":"127.10563403","items":[{"name":"에스지스포츠 (SG Sports)","tel":"031-263-6443","addr":"경기도 용인시 기흥구 상갈동 102번지 1층","category":"레져용품 - 스포츠·레져용품"}]},{"lat":"37.268541983","long":"127.10491252","items":[{"name":"에이스호텔","tel":"031-281-1421","addr":"경기도 용인시 기흥구 상갈동 165-5번지 호텔퍼블릭","category":"숙박업 - 여관/기타숙박업"}]},{"lat":"37.260603869","long":"127.10496945","items":[{"name":"에이치앤에이치앤","tel":"070-4670-7892","addr":"경기도 용인시 기흥구 상갈동 489번지 토우미주택 301호","category":"의류 - 정장"}]},{"lat":"37.262021266","long":"127.10169089","items":[{"name":"엠지(MG)개발","tel":"031-283-3005","addr":"경기도 용인시 기흥구 상갈동 243-1번지","category":"용역 서비스 - 기타용역서비스"}]},{"lat":"37.269270079","long":"127.10690904","items":[{"name":"예솔이네 한중식품","tel":"031-281-0978","addr":"경기도 용인시 기흥구 상갈동 120-1번지 103호","category":"음료식품 - 기타음료식품"},{"name":"칭도양꼬치","tel":"070-7804-1944","addr":"경기도 용인시 기흥구 상갈동 120-1번지","category":"일반휴게음식 - 중국식"}]},{"lat":"37.269493555","long":"127.10891616","items":[{"name":"오토 휠","tel":"","addr":"경기도 용인시 기흥구 상갈동 119-19번지 101호","category":"자동차정비 유지 - 자동차시트·타이어"}]},{"lat":"37.269100649","long":"127.10487945","items":[{"name":"용인중앙공조시스템","tel":"031-281-9911","addr":"경기도 용인시 기흥구 상갈동 173-9번지","category":"전기제품 - 냉열기기"},{"name":"제일식품","tel":"031-282-8253","addr":"경기도 용인시 기흥구 상갈동 173-9번지","category":"음료식품 - 기타음료식품"},{"name":"진화식당","tel":"031-281-7727","addr":"경기도 용인시 기흥구 상갈동 173-9번지","category":"일반휴게음식 - 일반한식"}]},{"lat":"37.265207606","long":"127.10557317","items":[{"name":"월드세차","tel":"070-8884-6663","addr":"경기도 용인시 기흥구 상갈동 471-1번지 파인빌","category":"자동차정비 유지 - 세차장"}]},{"lat":"37.270937904","long":"127.11573923","items":[{"name":"유나인(u9) 상갈점","tel":"031-693-6664","addr":"경기도 용인시 기흥구 상갈동 142-5번지 1,2층","category":"일반휴게음식 - 서양음식"}]},{"lat":"37.268019125","long":"127.10521622","items":[{"name":"윤영그린","tel":"031-274-2400","addr":"경기도 용인시 기흥구 상갈동 109-12번지","category":"농업 - 비료,사료,종자"}]},{"lat":"37.264149428","long":"127.11005856","items":[{"name":"이뮤노텍용인점","tel":"","addr":"경기도 용인시 기흥구 상갈동 461번지 금화마을대우현대1단지아파트","category":"회원제형태 - 기타4"}]},{"lat":"37.262681007","long":"127.10977465","items":[{"name":"이에프","tel":"031-274-0062","addr":"경기도 용인시 기흥구 상갈동 463번지 금화마을주공4단지아파트","category":"회원제형태 - 사무서비스"}]},{"lat":"37.260819638","long":"127.10552212","items":[{"name":"이지텍컴퓨터","tel":"031-282-1929","addr":"경기도 용인시 기흥구 상갈동 487-5번지 모아빌","category":"사무통신 - 컴퓨터"}]},{"lat":"37.269792645","long":"127.10694358","items":[{"name":"이화장","tel":"031-281-4319","addr":"경기도 용인시 기흥구 상갈동 101-4번지","category":"숙박업 - 여관/기타숙박업"},{"name":"이화장","tel":"031-281-4319","addr":"경기도 용인시 기흥구 상갈동 101-4번지","category":"숙박업 - 여관/기타숙박업"}]},{"lat":"37.267153845","long":"127.10555326","items":[{"name":"장가계","tel":"031-283-6668","addr":"경기도 용인시 기흥구 상갈동 124번지","category":"일반휴게음식 - 중국식"}]},{"lat":"37.270124305","long":"127.10888322","items":[{"name":"장어가 두근두근","tel":"031-281-9202","addr":"경기도 용인시 기흥구 상갈동 123-10번지","category":"일반휴게음식 - 일반한식"}]},{"lat":"37.268127219","long":"127.10525019","items":[{"name":"장원","tel":"031-285-2770","addr":"경기도 용인시 기흥구 상갈동 109-11번지","category":"일반휴게음식 - 일반한식"}]},{"lat":"37.260847176","long":"127.10493596","items":[{"name":"정수어패럴","tel":"031-455-7266","addr":"경기도 용인시 기흥구 상갈동 487-9번지 미성힐스 B05호","category":"의류 - 정장"}]},{"lat":"37.26653513","long":"127.1122716","items":[{"name":"조화로운숲 철학논술","tel":"031-274-5070","addr":"경기도 용인시 기흥구 상갈동 454번지 금화마을주공5단지아파트","category":"회원제형태 - 학원"}]},{"lat":"37.268658395","long":"127.10574696","items":[{"name":"주식회사 채널아이비","tel":"031-287-2277","addr":"경기도 용인시 기흥구 상갈동 100-21번지 1층","category":"의류 - 정장"}]},{"lat":"37.261074164","long":"127.10290713","items":[{"name":"주식회사 한화하우징","tel":"031-693-7711","addr":"경기도 용인시 기흥구 상갈동 261번지 하우징랜드빌딩 201호","category":"건축자재 - 기타건축자재"},{"name":"한화하우징","tel":"031-283-0661","addr":"경기도 용인시 기흥구 상갈동 261번지 (주)한화비오디에이큐 2층 1호","category":"용역 서비스 - 기타용역서비스"}]},{"lat":"37.266254628","long":"127.11354513","items":[{"name":"차와사람 세차","tel":"031-287-0051","addr":"경기도 용인시 기흥구 상갈동 454번지 금화마을주공5단지아파트","category":"자동차정비 유지 - 세차장"}]},{"lat":"37.26654098","long":"127.10574409","items":[{"name":"착한오리","tel":"031-282-5295","addr":"경기도 용인시 기흥구 상갈동 124-14번지 1층 일부호","category":"일반휴게음식 - 일반한식"},{"name":"회사모","tel":"031-284-2245","addr":"경기도 용인시 기흥구 상갈동 124-14 외15번지","category":"일반휴게음식 - 일반한식"}]},{"lat":"37.26496632","long":"127.10325049","items":[{"name":"창화유통","tel":"031-000-0000","addr":"경기도 용인시 기흥구 상갈동 212-2","category":"유통업 영리 - 기타유통업"}]},{"lat":"37.269936033","long":"127.10782317","items":[{"name":"청실장","tel":"031-283-5695","addr":"경기도 용인시 기흥구 상갈동 123번지","category":"숙박업 - 여관/기타숙박업"}]},{"lat":"37.262431001","long":"127.10721528","items":[{"name":"청아인테리어","tel":"031-281-9359","addr":"경기도 용인시 기흥구 상갈동 481번지 금화마을주공3단지아파트","category":"회원제형태 - 기타4"},{"name":"피아노 개인과외교습","tel":"","addr":"경기도 용인시 기흥구 상갈동 481번지 금화마을주공3단지아파트","category":"학원 - 기타 교육기관"}]},{"lat":"37.267324097","long":"127.10663579","items":[{"name":"치즈군고구마&카페(cafe)","tel":"","addr":"경기도 용인시 기흥구 상갈동 125-24번지 1층","category":"일반휴게음식 - 서양음식"}]},{"lat":"37.269908179","long":"127.10874763","items":[{"name":"크린21C","tel":"031-000-0000","addr":"경기도 용인시 기흥구 상갈동 123-17번지 302호","category":"용역 서비스 - 종합용역"}]},{"lat":"37.270097445","long":"127.10869152","items":[{"name":"큰마루감자탕","tel":"","addr":"경기도 용인시 기흥구 상갈동 123-8번지 효광빌딩 1층","category":"일반휴게음식 - 일반한식"},{"name":"한국KBM","tel":"031-286-9442","addr":"경기도 용인시 기흥구 상갈동 123-8번지 효광빌딩 3층 4호","category":"보건위생 - 의료용품"}]},{"lat":"37.266937335","long":"127.10585736","items":[{"name":"큰집추어탕","tel":"031-282-2877","addr":"경기도 용인시 기흥구 상갈동 124-8번지","category":"일반휴게음식 - 일반한식"}]},{"lat":"37.269404647","long":"127.1075744","items":[{"name":"탑인테리어","tel":"","addr":"경기도 용인시 기흥구 상갈동 120-8번지 201호","category":"건축자재 - 인테리어전문"}]},{"lat":"37.266071154","long":"127.1072203","items":[{"name":"파리바게트 용인상갈점","tel":"031-282-8208","addr":"경기도 용인시 기흥구 상갈동 466번지 파리바게트 102호","category":"음료식품 - 제과점"}]},{"lat":"37.268630587","long":"127.10663758","items":[{"name":"포대인 대구막창","tel":"031-274-2759","addr":"경기도 용인시 기흥구 상갈동 121-1번지 1층","category":"일반휴게음식 - 일반한식"}]},{"lat":"37.267549433","long":"127.10654591","items":[{"name":"포트오브모카 (상갈점)","tel":"031-8001-1161","addr":"경기도 용인시 기흥구 상갈동 122-31번지 1층","category":"일반휴게음식 - 서양음식"}]},{"lat":"37.268630932","long":"127.10624299","items":[{"name":"푸드월드","tel":"031-287-3334","addr":"경기도 용인시 기흥구 상갈동 100-18번지 1층","category":"일반휴게음식 - 일반한식"}]},{"lat":"37.268965203","long":"127.1052175","items":[{"name":"푸주옥","tel":"031-284-4888","addr":"경기도 용인시 기흥구 상갈동 165-3번지","category":"일반휴게음식 - 일반한식"}]},{"lat":"37.266043685","long":"127.10771631","items":[{"name":"헤어센스","tel":"031-309-7779","addr":"경기도 용인시 기흥구 상갈동 466-4번지 투다리 102호","category":"보건위생 - 미용원"}]},{"lat":"37.265854149","long":"127.1080768","items":[{"name":"헤어죤","tel":"031-285-4522","addr":"경기도 용인시 기흥구 상갈동 466-7번지 점포 3호","category":"보건위생 - 미용원"}]},{"lat":"37.268325113","long":"127.10563377","items":[{"name":"현대동물병원","tel":"031-285-6334","addr":"경기도 용인시 기흥구 상갈동 102-12번지","category":"기타의료기관 - 동물병원"}]},{"lat":"37.268406205","long":"127.10563388","items":[{"name":"현대메디","tel":"031-285-6334","addr":"경기도 용인시 기흥구 상갈동 102-13번지 1층","category":"문화.취미 - 애완동물"}]},{"lat":"37.26541042","long":"127.10013956","items":[{"name":"현대사이언스","tel":"031-286-0093","addr":"경기도 용인시 기흥구 상갈동 203-17번지","category":"서적문구 - 과학기자재"}]},{"lat":"37.264937824","long":"127.10496403","items":[{"name":"현대오토","tel":"031-283-0788","addr":"경기도 용인시 기흥구 상갈동 45-4번지","category":"자동차정비 유지 - 자동차부품"}]},{"lat":"37.26948679","long":"127.10637945","items":[{"name":"화끈한포차","tel":"031-284-1793","addr":"경기도 용인시 기흥구 상갈동 100-5번지","category":"일반휴게음식 - 일반한식"}]},{"lat":"37.266193176","long":"127.11179761","items":[{"name":"화분든남자","tel":"070-7151-2527","addr":"경기도 용인시 기흥구 상갈동 454번지 금화마을주공5단지아파트","category":"회원제형태 - 기타4"}]},{"lat":"37.269846319","long":"127.10738335","items":[{"name":"황소매운갈비찜","tel":"031-274-3222","addr":"경기도 용인시 기흥구 상갈동 101-10번지","category":"일반휴게음식 - 일반한식"}]},{"lat":"37.260459656","long":"127.10502562","items":[{"name":"희망공작소","tel":"070-8794-7090","addr":"경기도 용인시 기흥구 상갈동 489-10번지 대명주택 105호","category":"회원제형태 - 기타4"}]}]