[{"lat":"37.259918566","long":"127.6544128","items":[{"name":"경기여주지역자활센터 황후의뜰","tel":"031-881-0871","addr":"경기도 여주시 능현동 250-3번지","category":"일반휴게음식 - 일반한식"}]},{"lat":"37.258635397","long":"127.65672386","items":[{"name":"능현어린이집[아이행복]","tel":"031-883-7066","addr":"경기도 여주시 능현동 280-10번지","category":"학원 - 유아원"}]},{"lat":"37.268109606","long":"127.64933122","items":[{"name":"능현유치원[아이행복]","tel":"031-883-7066","addr":"경기도 여주시 능현동 280-10번지","category":"학원 - 유치원"}]},{"lat":"37.263472329","long":"127.65044144","items":[{"name":"디자인 스튜디오 와이케이맨","tel":"","addr":"경기도 여주시 능현동 418-22번지","category":"용역 서비스 - 사무서비스"}]},{"lat":"37.264084924","long":"127.65210385","items":[{"name":"메이드노리터","tel":"","addr":"경기도 여주시 능현동 432-1번지","category":"가구 - 기타가구"},{"name":"주주팜","tel":"031-886-7646","addr":"경기도 여주시 능현동 432-1번지","category":"학원 - 기타 교육기관"}]},{"lat":"37.257888515","long":"127.65980602","items":[{"name":"명성콘크리트","tel":"031-881-0975","addr":"경기도 여주시 능현동 194-4번지","category":"건축자재 - 기타건축자재"}]},{"lat":"37.2653376","long":"127.66022019","items":[{"name":"에스유엔건축","tel":"031-884-5525","addr":"경기도 여주시 능현동 140번지","category":"용역 서비스 - 기타용역서비스"}]},{"lat":"37.25860998","long":"127.65968829","items":[{"name":"여주군신바람영농조합법인","tel":"031-882-4545","addr":"경기도 여주시 능현동 231-1","category":"기타 - 기타 전문점"}]},{"lat":"37.259999627","long":"127.65277896","items":[{"name":"월드종합인테리어","tel":"031-884-0474","addr":"경기도 여주시 능현동 441-1번지","category":"건축자재 - 인테리어전문"}]},{"lat":"37.267556073","long":"127.65169397","items":[{"name":"즐거운체험팜스퀘어","tel":"02-3453-5451","addr":"경기도 여주시 능현동 343번지","category":"레저업소 - 기타레져업소"}]}]