[{"lat":"37.145364016","long":"127.03716712","items":[{"name":"(주) 비담채","tel":"070-7017-2725","addr":"경기도 오산시 서동 544-3번지","category":"건강식품 - 기타건강식품"}]},{"lat":"37.145670078","long":"127.03816902","items":[{"name":"(주)대원에너지동서LPG충전소","tel":"031-376-1881","addr":"경기도 오산시 서동 202-4번지","category":"연료판매점 - SK가스충전소"},{"name":"동서LPG충전소","tel":"031-376-1881","addr":"경기도 오산시 서동 202-4번지","category":"연료판매점 - SK가스충전소"}]},{"lat":"37.150030843","long":"127.03917288","items":[{"name":"(주)명성미트","tel":"031-375-7053","addr":"경기도 오산시 서동 247-2번지","category":"음료식품 - 정육점"}]},{"lat":"37.145589219","long":"127.03736982","items":[{"name":"(주)세론공영","tel":"031-376-2605","addr":"경기도 오산시 서동 544번지","category":"건축자재 - 인테리어전문"}]},{"lat":"37.154977145","long":"127.04059365","items":[{"name":"(주)통일사","tel":"031-377-5274","addr":"경기도 오산시 서동 347번지","category":"문화.취미 - 화원"},{"name":"솔향","tel":"031-377-5250","addr":"경기도 오산시 서동 347번지 솔향","category":"일반휴게음식 - 일반한식"}]},{"lat":"37.154589562","long":"127.04100997","items":[{"name":"119종합냉동","tel":"031-372-1587","addr":"경기도 오산시 서동 346-5번지","category":"용역 서비스 - 보관및 창고업"},{"name":"굿모닝약국","tel":"051-757-5252","addr":"경기도 오산시 서동 346-5번지 1층 102호","category":"약국 - 약국"}]},{"lat":"37.144976322","long":"127.03799987","items":[{"name":"Coulomb/주식회사 코제스","tel":"070-8866-7799","addr":"경기도 오산시 서동 201번지 디비엔빌딩 101호","category":"신변잡화 - 기타잡화"}]},{"lat":"37.1555265","long":"127.04147199","items":[{"name":"GS25오산서동점","tel":"","addr":"경기도 오산시 서동 342-6번지 101호","category":"유통업 영리 - 편 의 점"}]},{"lat":"37.152943036","long":"127.03266777","items":[{"name":"가람푸드 주식회사","tel":"031-663-0447","addr":"경기도 오산시 서동 425-1번지","category":"음료식품 - 농·축·수산품"}]},{"lat":"37.15331037","long":"127.04008626","items":[{"name":"강세진헤어클럽","tel":"031-375-1556","addr":"경기도 오산시 서동 307번지","category":"보건위생 - 미용원"}]},{"lat":"37.151032423","long":"127.03419793","items":[{"name":"건축디자인 숲","tel":"070-8032-4038","addr":"경기도 오산시 서동 470-3번지","category":"건축자재 - 인테리어전문"},{"name":"오산발가락","tel":"02-1544-2549","addr":"경기도 오산시 서동 470-3번지","category":"레져용품 - 스포츠·레져용품"}]},{"lat":"37.145499347","long":"127.03655936","items":[{"name":"국보안전","tel":"031-377-6584","addr":"경기도 오산시 서동 541번지","category":"용역 서비스 - 기타용역서비스"}]},{"lat":"37.155805128","long":"127.04355474","items":[{"name":"금성꽃농원","tel":"031-376-9119","addr":"경기도 오산시 서동 7-3번지 1층 1호","category":"문화.취미 - 화원"}]},{"lat":"37.152084911","long":"127.04019822","items":[{"name":"대가수산","tel":"031-374-0592","addr":"경기도 오산시 서동 284-7번지","category":"음료식품 - 농·축·수산품"}]},{"lat":"37.15211209","long":"127.03972545","items":[{"name":"대가식당","tel":"031-376-8859","addr":"경기도 오산시 서동 281-14번지","category":"일반휴게음식 - 일반한식"}]},{"lat":"37.150284664","long":"127.03378113","items":[{"name":"대상특장","tel":"031-378-0393","addr":"경기도 오산시 서동 486번지","category":"기타 - 기타 전문점"}]},{"lat":"37.146526531","long":"127.03659359","items":[{"name":"대영냉동","tel":"031-374-5475","addr":"경기도 오산시 서동 511-11번지","category":"전기제품 - 냉열기기"}]},{"lat":"37.151030918","long":"127.03945477","items":[{"name":"더블 드래곤 헬리캠","tel":"031-374-0309","addr":"경기도 오산시 서동 245번지 2층 일부 남쪽","category":"용역 서비스 - 종합용역"},{"name":"세븐일레븐오산서동점","tel":"031-1577-0711","addr":"경기도 오산시 서동 245번지 1층","category":"유통업 영리 - 편 의 점"}]},{"lat":"37.144615876","long":"127.03808974","items":[{"name":"동광중전기","tel":"031-377-5222","addr":"경기도 오산시 서동 201-3번지","category":"기타 - 기타 전문점"}]},{"lat":"37.15600325","long":"127.04387005","items":[{"name":"동상기사님식당","tel":"031-372-8786","addr":"경기도 오산시 서동 5-1번지","category":"일반휴게음식 - 일반한식"},{"name":"세광상사","tel":"031-377-5373","addr":"경기도 오산시 서동 5-1번지","category":"건축자재 - 기타건축자재"}]},{"lat":"37.154445723","long":"127.03997424","items":[{"name":"동양에프알피종합개발","tel":"031-376-6930","addr":"경기도 오산시 서동 330-1번지","category":"기타 - 기타 전문점"}]},{"lat":"37.14991482","long":"127.03533437","items":[{"name":"두향","tel":"031-372-2580","addr":"경기도 오산시 서동 477-6번지 1층","category":"일반휴게음식 - 일반한식"}]},{"lat":"37.143893065","long":"127.04420118","items":[{"name":"두형헤어코디","tel":"031-374-4975","addr":"경기도 오산시 서동 125-8신동아2차상가205","category":"보건위생 - 미용원"}]},{"lat":"37.15119495","long":"127.03289222","items":[{"name":"레드팜","tel":"070-4251-2051","addr":"경기도 오산시 서동 460-3번지","category":"음료식품 - 기타음료식품"}]},{"lat":"37.155365383","long":"127.03802718","items":[{"name":"모든공업사","tel":"031-235-3219","addr":"경기도 오산시 서동 358번지","category":"자동차정비 유지 - 자동차정비"}]},{"lat":"37.145253619","long":"127.04428071","items":[{"name":"미래숲어린이집[아이행복]","tel":"031-372-1227","addr":"경기도 오산시 서동 129-10번지","category":"학원 - 유아원"}]},{"lat":"37.149976866","long":"127.03889144","items":[{"name":"미래유통","tel":"031-373-2157","addr":"경기도 오산시 서동 247번지","category":"음료식품 - 기타음료식품"},{"name":"상봉주유소","tel":"031-376-5252","addr":"경기도 오산시 서동 247번지","category":"연료판매점 - 쌍용S-OIL"}]},{"lat":"37.143722295","long":"127.04295173","items":[{"name":"빨간돼지왕족발","tel":"031-377-3077","addr":"경기도 오산시 서동 125-5신동아상가208","category":"일반휴게음식 - 일반한식"}]},{"lat":"37.155085166","long":"127.04092016","items":[{"name":"선진호스상사","tel":"031-374-7885","addr":"경기도 오산시 서동 346-3번지 선진호스상사","category":"건축자재 - 기타건축자재"}]},{"lat":"37.146832345","long":"127.03845096","items":[{"name":"선진환경기술","tel":"031-378-1357","addr":"경기도 오산시 서동 590-4번지","category":"용역 서비스 - 기타용역서비스"},{"name":"신흥전기","tel":"031-334-4226","addr":"경기도 오산시 서동 590-4번지","category":"수리서비스 - 기타수리서비스"}]},{"lat":"37.146976479","long":"127.03856359","items":[{"name":"성실광고기획","tel":"031-375-0801","addr":"경기도 오산시 서동 590-3번지","category":"용역 서비스 - 종합용역"}]},{"lat":"37.149392296","long":"127.03503022","items":[{"name":"성운시스템","tel":"031-377-7085","addr":"경기도 오산시 서동 480-1번지","category":"건축자재 - 보일러·펌프·샷시"}]},{"lat":"37.151833305","long":"127.03794675","items":[{"name":"숲속다원유치원[아이행복]","tel":"031-378-9140","addr":"경기도 오산시 서동 275번지","category":"학원 - 유치원"}]},{"lat":"37.15416637","long":"127.04006416","items":[{"name":"스프로와","tel":"070-7399-1014","addr":"경기도 오산시 서동 330-2번지 2층","category":"일반휴게음식 - 주점"}]},{"lat":"37.144587263","long":"127.04306474","items":[{"name":"신동아유치원[아이행복]","tel":"031-373-3690","addr":"경기도 오산시 서동 125-2","category":"학원 - 유치원"}]},{"lat":"37.154751645","long":"127.04133651","items":[{"name":"신동아피.브이.시산업","tel":"031-375-7969","addr":"경기도 오산시 서동 344-3번지","category":"건축자재 - 건축용 요업제품"}]},{"lat":"37.155003882","long":"127.0415055","items":[{"name":"신진합판","tel":"031-373-0740","addr":"경기도 오산시 서동 344-12번지","category":"건축자재 - 기타건축자재"},{"name":"오산농자재","tel":"031-374-2787","addr":"경기도 오산시 서동 344-12번지","category":"농업 - 기타농업관련"}]},{"lat":"37.155310427","long":"127.04092027","items":[{"name":"오가피추어탕","tel":"031-378-7988","addr":"경기도 오산시 서동 344-4번지 다동 1층","category":"일반휴게음식 - 일반한식"}]},{"lat":"37.154753113","long":"127.03650718","items":[{"name":"우진에스티","tel":"031-374-1775","addr":"경기도 오산시 서동 361-4번지 1층","category":"기타 - 기계공구"}]},{"lat":"37.148030845","long":"127.03809133","items":[{"name":"으뜸에어컨냉동","tel":"031-377-1247","addr":"경기도 오산시 서동 222-2, 222-8","category":"전기제품 - 냉열기기"}]},{"lat":"37.150888415","long":"127.03359001","items":[{"name":"이수윤활유","tel":"031-236-5189","addr":"경기도 오산시 서동 462-1번지","category":"연료판매점 - 유류판매"},{"name":"주식회사 가온플러스","tel":"031-378-6648","addr":"경기도 오산시 서동 462-1번지 B동 1층","category":"용역 서비스 - 기타용역서비스"}]},{"lat":"37.155697743","long":"127.04133699","items":[{"name":"이에스시스템(ES SYSTEM)","tel":"031-377-4600","addr":"경기도 오산시 서동 342-8번지","category":"사무통신 - 기타 사무용품"},{"name":"큰돌감자탕","tel":"031-373-6637","addr":"경기도 오산시 서동 342-8번지 1층","category":"일반휴게음식 - 일반한식"}]},{"lat":"37.147589265","long":"127.03831624","items":[{"name":"이진아테니스아카데미(ITTC)","tel":"","addr":"경기도 오산시 서동 595-2번지","category":"레저업소 - 테니스장"}]},{"lat":"37.151526866","long":"127.03822803","items":[{"name":"전통햇살협동조합","tel":"031-375-1822","addr":"경기도 오산시 서동 273번지","category":"음료식품 - 기타음료식품"}]},{"lat":"37.151112134","long":"127.03906083","items":[{"name":"제니스카페(Jenny's Cafe)","tel":"031-378-1583","addr":"경기도 오산시 서동 246-1번지 1층","category":"일반휴게음식 - 서양음식"}]},{"lat":"37.150526384","long":"127.03928568","items":[{"name":"제일상사","tel":"031-377-1190","addr":"경기도 오산시 서동 244-1번지","category":"기타 - 기계공구"}]},{"lat":"37.149589306","long":"127.03925146","items":[{"name":"주식회사 대한마대종합상사","tel":"031-374-4321","addr":"경기도 오산시 서동 247-3번지","category":"유통업 영리 - 기타유통업"},{"name":"주식회사 주파집(JUPAZIP INC.)","tel":"031-377-5101","addr":"경기도 오산시 서동 247-3번지","category":"신변잡화 - 기타잡화"}]},{"lat":"37.152643471","long":"127.04047992","items":[{"name":"주식회사 브이앤씨","tel":"031-372-5324","addr":"경기도 오산시 서동 303-2번지","category":"전기제품 - 기타전기제품"}]},{"lat":"37.151832929","long":"127.03919625","items":[{"name":"주식회사 우창실업","tel":"031-375-0435","addr":"경기도 오산시 서동 281-11번지","category":"용역 서비스 - 기타용역서비스"}]},{"lat":"37.144868495","long":"127.03697555","items":[{"name":"주식회사 원애드컴","tel":"","addr":"경기도 오산시 서동 544-8번지","category":"서적문구 - 출판 및 인쇄물"}]},{"lat":"37.154085066","long":"127.04072829","items":[{"name":"주식회사오산배관","tel":"031-372-7535","addr":"경기도 오산시 서동 332-3 에이동","category":"건축자재 - 기타건축자재"}]},{"lat":"37.14975173","long":"127.03847484","items":[{"name":"주식회사탑산식품","tel":"031-378-2711","addr":"경기도 오산시 서동 248-5번지","category":"음료식품 - 기타음료식품"}]},{"lat":"37.149644767","long":"127.0343662","items":[{"name":"주식회사한솔","tel":"031-8285-6681","addr":"경기도 오산시 서동 482-1번지","category":"농업 - 비료,사료,종자"},{"name":"케이더블유테크(KW테크)","tel":"031-377-4524","addr":"경기도 오산시 서동 482-1번지","category":"농업 - 비료,사료,종자"},{"name":"한솔그린","tel":"031-376-6722","addr":"경기도 오산시 서동 482-1번지","category":"농업 - 비료,사료,종자"}]},{"lat":"37.155500587","long":"127.03786964","items":[{"name":"청솔농원","tel":"031-374-5565","addr":"경기도 오산시 서동 359외1필지","category":"문화.취미 - 화원"}]},{"lat":"37.145003755","long":"127.03661542","items":[{"name":"청정원(오산)","tel":"031-374-3853","addr":"경기도 오산시 서동 543-1번지 1층","category":"음료식품 - 기타음료식품"}]},{"lat":"37.147977454","long":"127.03575002","items":[{"name":"카서비스","tel":"031-376-8775","addr":"경기도 오산시 서동 511-9번지","category":"자동차정비 유지 - 자동차정비"}]},{"lat":"37.150139106","long":"127.03872267","items":[{"name":"케이바스","tel":"031-373-2097","addr":"경기도 오산시 서동 248-14번지 서동로65번길 176-1","category":"건축자재 - 건축용 요업제품"}]},{"lat":"37.145616122","long":"127.03780881","items":[{"name":"퍼펙트홈가드","tel":"080-042-0000","addr":"경기도 오산시 서동 202번지","category":"신변잡화 - 기타잡화"}]},{"lat":"37.154499637","long":"127.04044707","items":[{"name":"황금정","tel":"031-111-1111","addr":"경기도 오산시 서동 331번지 1층","category":"일반휴게음식 - 일반한식"}]}]