[{"lat":"36.915425139","long":"127.26098569","items":[{"name":"JIP ARTs","tel":"070-7722-6642","addr":"경기도 안성시 서운면 산평리 259번지","category":"문화.취미 - 화랑"}]},{"lat":"36.923538102","long":"127.2594867","items":[{"name":"규민네 포도밭","tel":"031-672-9286","addr":"경기도 안성시 서운면 산평리 7번지","category":"음료식품 - 농·축·수산품"}]},{"lat":"36.919309496","long":"127.26066211","items":[{"name":"대가포도농원","tel":"031-677-2409","addr":"경기도 안성시 서운면 산평리 197-6","category":"음료식품 - 농·축·수산품"}]},{"lat":"36.925672988","long":"127.25979688","items":[{"name":"보람농원","tel":"031-673-8403","addr":"경기도 안성시 서운면 산평리 2-1","category":"음료식품 - 농·축·수산품"}]},{"lat":"36.915198406","long":"127.26165824","items":[{"name":"산정포도나라","tel":"031-672-9719","addr":"경기도 안성시 서운면 산평리 262-5번지","category":"음료식품 - 농·축·수산품"}]},{"lat":"36.920002322","long":"127.26112457","items":[{"name":"산평초등학교","tel":"031-673-9086","addr":"경기도 안성시 서운면 산평리 160-2번지 산평초등학교","category":"학원 - 초중고교육기관"},{"name":"산평초등학교_수업료","tel":"031-673-9086","addr":"경기도 안성시 서운면 산평리 160-2번지 산평초등학교","category":"학원 - 초중고교육기관"}]},{"lat":"36.916312223","long":"127.25912583","items":[{"name":"성심농원","tel":"","addr":"경기도 안성시 서운면 산평리 230번지","category":"음료식품 - 농·축·수산품"}]},{"lat":"36.916005616","long":"127.25923702","items":[{"name":"슬기네농원","tel":"031-672-8978","addr":"경기도 안성시 서운면 산평리 252-2번지 1층","category":"음료식품 - 농·축·수산품"}]},{"lat":"36.920924973","long":"127.27171067","items":[{"name":"안성운모석캠핑장","tel":"031-236-3700","addr":"경기도 안성시 서운면 산평리 312-1번지","category":"숙박업 - 여관/기타숙박업"}]},{"lat":"36.916205158","long":"127.2586317","items":[{"name":"에덴포도농원","tel":"031-672-9723","addr":"경기도 안성시 서운면 산평리 226-6번지 1층","category":"음료식품 - 농·축·수산품"}]},{"lat":"36.914006694","long":"127.26679374","items":[{"name":"풍경","tel":"031-674-4604","addr":"경기도 안성시 서운면 산평리 275번지","category":"일반휴게음식 - 서양음식"}]}]