[{"lat":"37.083282012","long":"126.90487911","items":[{"name":"#호프광장","tel":"031-8059-0330","addr":"경기도 화성시 향남읍 구문천리 248-20번지","category":"일반휴게음식 - 주점"}]},{"lat":"37.081786986","long":"126.89532161","items":[{"name":"(주)명신이엔지","tel":"031-366-0824","addr":"경기도 화성시 향남읍 구문천리 932-17번지","category":"기타 - 기계공구"}]},{"lat":"37.080561462","long":"126.9056586","items":[{"name":"(주)청하금속","tel":"031-352-7557","addr":"경기도 화성시 향남읍 구문천리 159-2번지","category":"기타 - 기계공구"}]},{"lat":"37.086753968","long":"126.90843997","items":[{"name":"GS25구문천리점","tel":"","addr":"경기도 화성시 향남읍 구문천리 924-8번지 상신프라자 101동 102호","category":"유통업 영리 - 편 의 점"},{"name":"대성","tel":"070-9144-8038","addr":"경기도 화성시 향남읍 구문천리 924-8번지 상신프라자 4층","category":"보건위생 - 미용재료"},{"name":"뷰티플러스","tel":"070-9144-6212","addr":"경기도 화성시 향남읍 구문천리 924-8번지 상신프라자 4층 401호","category":"보건위생 - 화장품"},{"name":"주식회사 월드푸드","tel":"031-647-3170","addr":"경기도 화성시 향남읍 구문천리 924-8번지 202,203호","category":"일반휴게음식 - 일반한식"},{"name":"주영골프존","tel":"031-353-4467","addr":"경기도 화성시 향남읍 구문천리 924-8번지 상신프라자 501,502,503호","category":"회원제형태 - 레져업소"},{"name":"큐(Q)당구장","tel":"031-444-9956","addr":"경기도 화성시 향남읍 구문천리 924-8번지 301,302호","category":"레저업소 - 당 구 장"}]},{"lat":"37.086899187","long":"126.90976696","items":[{"name":"GS25테라스타워점","tel":"","addr":"경기도 화성시 향남읍 구문천리 925-8번지 A동 101호","category":"유통업 영리 - 편 의 점"},{"name":"원빈스토어(Wonbin store) 컴퓨터","tel":"","addr":"경기도 화성시 향남읍 구문천리 925-8번지 A동 103호","category":"사무통신 - 컴퓨터"}]},{"lat":"37.086898859","long":"126.90935081","items":[{"name":"골드","tel":"031-366-0667","addr":"경기도 화성시 향남읍 구문천리 925-9번지 304호","category":"레저업소 - 헬스클럽"},{"name":"만리장성","tel":"031-353-8952","addr":"경기도 화성시 향남읍 구문천리 925-9번지 1동110호~113호","category":"일반휴게음식 - 중국식"},{"name":"미니스톱 향남구문스타점","tel":"031-1577-9621","addr":"경기도 화성시 향남읍 구문천리 925-9번지","category":"유통업 영리 - 편 의 점"},{"name":"베스트 당구클럽","tel":"031-111-1111","addr":"경기도 화성시 향남읍 구문천리 925-9번지 4층 404,405호","category":"레저업소 - 당 구 장"},{"name":"육순","tel":"031-354-4377","addr":"경기도 화성시 향남읍 구문천리 925-9번지 1층 103,104호","category":"일반휴게음식 - 일반한식"},{"name":"이디야 화성발안점","tel":"031-353-2279","addr":"경기도 화성시 향남읍 구문천리 925-9번지 1층 108호","category":"일반휴게음식 - 서양음식"},{"name":"코인워시","tel":"02-0000-0000","addr":"경기도 화성시 향남읍 구문천리 925-9번지 1층","category":"수리서비스 - 세탁소"},{"name":"킹콩부대찌개(구문천리점)","tel":"031-354-2261","addr":"경기도 화성시 향남읍 구문천리 925-9번지","category":"일반휴게음식 - 일반한식"}]},{"lat":"37.086726668","long":"126.90810259","items":[{"name":"공단김밥","tel":"031-366-1888","addr":"경기도 화성시 향남읍 구문천리 924-9번지 1층","category":"일반휴게음식 - 일반한식"},{"name":"맥켄치킨","tel":"031-359-9633","addr":"경기도 화성시 향남읍 구문천리 924-9번지","category":"일반휴게음식 - 스넥"},{"name":"캡틴당구장","tel":"","addr":"경기도 화성시 향남읍 구문천리 924-9번지 2층","category":"레저업소 - 당 구 장"}]},{"lat":"37.086258137","long":"126.90812567","items":[{"name":"공단뼈다귀해장국","tel":"031-8059-4260","addr":"경기도 화성시 향남읍 구문천리 927-7번지","category":"일반휴게음식 - 일반한식"},{"name":"공단약국","tel":"031-353-3684","addr":"경기도 화성시 향남읍 구문천리 927-7번지","category":"약국 - 약국"},{"name":"구문치과","tel":"031-8059-2842","addr":"경기도 화성시 향남읍 구문천리 927-7번지","category":"의원 - 치과의원"},{"name":"드림디포 향남점","tel":"031-353-1108","addr":"경기도 화성시 향남읍 구문천리 927-7","category":"사무통신 - 기타 사무용품"},{"name":"명품의정부부대찌개","tel":"031-8059-6654","addr":"경기도 화성시 향남읍 구문천리 927-7번지 2층","category":"일반휴게음식 - 일반한식"},{"name":"씨유발안산업단지점","tel":"031-8059-0884","addr":"경기도 화성시 향남읍 구문천리 927-7번지","category":"유통업 영리 - 편 의 점"}]},{"lat":"37.086449219","long":"126.88969149","items":[{"name":"광성가설산업","tel":"031-378-7133","addr":"경기도 화성시 향남읍 구문천리 산74-5","category":"건축자재 - 기타건축자재"}]},{"lat":"37.086671217","long":"126.90638186","items":[{"name":"구문천 감자탕","tel":"031-353-7096","addr":"경기도 화성시 향남읍 구문천리 924-12번지 102호","category":"일반휴게음식 - 일반한식"},{"name":"뉴건강종합약국","tel":"031-353-0383","addr":"경기도 화성시 향남읍 구문천리 924-12번지 1층 104호","category":"약국 - 약국"},{"name":"보리네 집밥&생삼겹","tel":"031-353-7479","addr":"경기도 화성시 향남읍 구문천리 924-12번지 1층 103호","category":"일반휴게음식 - 스넥"},{"name":"신통치킨","tel":"031-352-8680","addr":"경기도 화성시 향남읍 구문천리 924-12번지","category":"일반휴게음식 - 일반한식"},{"name":"와사비","tel":"031-353-6266","addr":"경기도 화성시 향남읍 구문천리 924-12번지 109호","category":"일반휴게음식 - 일반한식"},{"name":"청소쟁이","tel":"031-366-4140","addr":"경기도 화성시 향남읍 구문천리 924-12번지 2층","category":"용역 서비스 - 종합용역"}]},{"lat":"37.077178785","long":"126.8912122","items":[{"name":"굿이동식화장실","tel":"031-366-5581","addr":"경기도 화성시 향남읍 구문천리 864-23번지","category":"건축자재 - 기타건축자재"}]},{"lat":"37.083615977","long":"126.90557597","items":[{"name":"그린세탁","tel":"031-354-3379","addr":"경기도 화성시 향남읍 구문천리 151-2번지 상가-102","category":"수리서비스 - 세탁소"},{"name":"파워볼","tel":"031-1544-5140","addr":"경기도 화성시 향남읍 구문천리 151-2번지","category":"신변잡화 - 기타잡화"}]},{"lat":"37.069399114","long":"126.89718322","items":[{"name":"기용산업","tel":"","addr":"경기도 화성시 향남읍 구문천리 601-5번지","category":"용역 서비스 - 기타용역서비스"}]},{"lat":"37.086871365","long":"126.90876599","items":[{"name":"기천정육식당","tel":"070-7425-4545","addr":"경기도 화성시 향남읍 구문천리 924-7번지 103호 101 102","category":"일반휴게음식 - 일반한식"},{"name":"김동명찌개사랑","tel":"031-354-9051","addr":"경기도 화성시 향남읍 구문천리 924-7번지 101, 102, 103호","category":"일반휴게음식 - 일반한식"},{"name":"소담비빔국수","tel":"031-354-9004","addr":"경기도 화성시 향남읍 구문천리 924-7번지 105,106호","category":"일반휴게음식 - 일반한식"}]},{"lat":"37.083562052","long":"126.90574474","items":[{"name":"까페예스플러스","tel":"031-353-3443","addr":"경기도 화성시 향남읍 구문천리 151-3번지 상가동 102호","category":"일반휴게음식 - 서양음식"},{"name":"청량양꼬치","tel":"070-8947-4490","addr":"경기도 화성시 향남읍 구문천리 151-3번지 1층 101호","category":"일반휴게음식 - 일반한식"}]},{"lat":"37.086926615","long":"126.91027304","items":[{"name":"꼬꼬마김밥","tel":"031-437-2223","addr":"경기도 화성시 향남읍 구문천리 925-6번지 트윈테라스타워 B동 107호","category":"일반휴게음식 - 스넥"},{"name":"워시스토리 셀프빨래방 경기 향남산단점","tel":"031-437-2220","addr":"경기도 화성시 향남읍 구문천리 925-6번지 B동 103,107호","category":"수리서비스 - 세탁소"}]},{"lat":"37.08365096","long":"126.90429381","items":[{"name":"뉴월드마트","tel":"031-352-4756","addr":"경기도 화성시 향남읍 구문천리 248-12번지 102동 103호","category":"유통업 영리 - 슈퍼마켓"}]},{"lat":"37.076065625","long":"126.88616459","items":[{"name":"늘푸른농원","tel":"","addr":"경기도 화성시 향남읍 구문천리 835번지 원예하우스","category":"음료식품 - 농·축·수산품"}]},{"lat":"37.081538966","long":"126.91113432","items":[{"name":"대성식당","tel":"031-354-6806","addr":"경기도 화성시 향남읍 구문천리 935-10번지","category":"일반휴게음식 - 위탁급식업"}]},{"lat":"37.080121206","long":"126.90721113","items":[{"name":"대현산업","tel":"031-227-9005","addr":"경기도 화성시 향남읍 구문천리 936-6,11-6블럭","category":"자동차정비 유지 - 자동차부품"}]},{"lat":"37.085977221","long":"126.9061578","items":[{"name":"덤비어","tel":"031-353-0620","addr":"경기도 화성시 향남읍 구문천리 927-17번지 1동 1층 103호","category":"일반휴게음식 - 주점"},{"name":"씨투(C2)","tel":"031-353-9709","addr":"경기도 화성시 향남읍 구문천리 927-17번지 1층","category":"일반휴게음식 - 서양음식"},{"name":"진미옥","tel":"031-366-2467","addr":"경기도 화성시 향남읍 구문천리 927-17번지 1동 1층 4,5호","category":"일반휴게음식 - 일반한식"},{"name":"필헤어 (Feel Hair)","tel":"031-353-2870","addr":"경기도 화성시 향남읍 구문천리 927-17번지","category":"보건위생 - 미용원"}]},{"lat":"37.081006679","long":"126.89938262","items":[{"name":"뜰아래","tel":"031-353-6518","addr":"경기도 화성시 향남읍 구문천리 441-1","category":"일반휴게음식 - 일반한식"},{"name":"초록마을맛있는도시락","tel":"031-8059-8947","addr":"경기도 화성시 향남읍 구문천리 441-1번지","category":"일반휴게음식 - 일반한식"}]},{"lat":"37.086339885","long":"126.9089466","items":[{"name":"만수곱창","tel":"031-0000-0000","addr":"경기도 화성시 향남읍 구문천리 927-9번지 다인블루 1동 105호","category":"일반휴게음식 - 일반한식"},{"name":"허브","tel":"031-8047-0117","addr":"경기도 화성시 향남읍 구문천리 927-9번지 다인블루 1동 404호","category":"보건위생 - 기타대인서비스"}]},{"lat":"37.083254271","long":"126.9040244","items":[{"name":"명동헤어클럽 (대림냉동)","tel":"031-354-1550","addr":"경기도 화성시 향남읍 구문천리 248-16번지 102호","category":"보건위생 - 미용원"}]},{"lat":"37.085836876","long":"126.89999463","items":[{"name":"명성Plating","tel":"031-366-1944","addr":"경기도 화성시 향남읍 구문천리 929-1번지 3층","category":"기타 - 기계공구"},{"name":"일신금속","tel":"031-359-8363","addr":"경기도 화성시 향남읍 구문천리 929-1번지 102호","category":"기타 - 기계공구"}]},{"lat":"37.083615746","long":"126.90529481","items":[{"name":"미니스톱 화성발안공단점","tel":"031-1577-9621","addr":"경기도 화성시 향남읍 구문천리 151-22번지 102호","category":"유통업 영리 - 편 의 점"},{"name":"배터지는생동까스","tel":"031-8059-3454","addr":"경기도 화성시 향남읍 구문천리 151-22번지 103호","category":"일반휴게음식 - 일반한식"}]},{"lat":"37.086285482","long":"126.90851928","items":[{"name":"민들레","tel":"031-353-3786","addr":"경기도 화성시 향남읍 구문천리 927-8번지","category":"일반휴게음식 - 일반한식"},{"name":"티버즈카페","tel":"","addr":"경기도 화성시 향남읍 구문천리 927-8번지 1층","category":"일반휴게음식 - 서양음식"}]},{"lat":"37.085754908","long":"126.89899376","items":[{"name":"발안정밀","tel":"031-359-8009","addr":"경기도 화성시 향남읍 구문천리 930-3번지","category":"기타 - 기계공구"}]},{"lat":"37.081560604","long":"126.90440898","items":[{"name":"브레드앤번(Bread and Bun)","tel":"070-8778-9449","addr":"경기도 화성시 향남읍 구문천리 248-59번지 1층 102호","category":"일반휴게음식 - 서양음식"}]},{"lat":"37.072176148","long":"126.89919221","items":[{"name":"사단법인송헌문화재단","tel":"031-354-5971","addr":"경기도 화성시 향남읍 구문천리 594","category":"음료식품 - 기타음료식품"},{"name":"사단법인송헌문화재단","tel":"031-353-9794","addr":"경기도 화성시 향남읍 구문천리 594","category":"음료식품 - 기타음료식품"}]},{"lat":"37.086230799","long":"126.90774331","items":[{"name":"삼보원마트","tel":"031-353-5489","addr":"경기도 화성시 향남읍 구문천리 927-6번지 108호","category":"유통업 영리 - 슈퍼마켓"},{"name":"청풍회관","tel":"031-111-1111","addr":"경기도 화성시 향남읍 구문천리 927-6번지 101,102호","category":"일반휴게음식 - 일반한식"},{"name":"향촌","tel":"031-352-8211","addr":"경기도 화성시 향남읍 구문천리 927-6번지","category":"일반휴게음식 - 일반한식"}]},{"lat":"37.084424615","long":"126.90279699","items":[{"name":"삼진식당","tel":"031-366-2089","addr":"경기도 화성시 향남읍 구문천리 929-10번지 팔안자빙산업단지 6-10","category":"일반휴게음식 - 위탁급식업"}]},{"lat":"37.086920491","long":"126.90273747","items":[{"name":"서경솔루션","tel":"031-8059-3090","addr":"경기도 화성시 향남읍 구문천리 922-7번지","category":"사무통신 - 사무용 OA기기"}]},{"lat":"37.081867947","long":"126.9056007","items":[{"name":"서연헤어","tel":"031-353-2151","addr":"경기도 화성시 향남읍 구문천리 152-8번지 102호","category":"보건위생 - 미용원"}]},{"lat":"37.084366601","long":"126.89821963","items":[{"name":"성원식당","tel":"031-353-4455","addr":"경기도 화성시 향남읍 구문천리 930-16번지 102호","category":"음료식품 - 기타음료식품"},{"name":"진테크","tel":"031-366-4975","addr":"경기도 화성시 향남읍 구문천리 930-16번지","category":"용역 서비스 - 기타용역서비스"}]},{"lat":"37.084400859","long":"126.89621766","items":[{"name":"세광금속","tel":"031-366-1081","addr":"경기도 화성시 향남읍 구문천리 930-10번지 104호","category":"기타 - 기계공구"}]},{"lat":"37.086258763","long":"126.90891296","items":[{"name":"세림당구클럽","tel":"02-1234-1234","addr":"경기도 화성시 향남읍 구문천리 927-9번지 203,204호","category":"레저업소 - 당 구 장"},{"name":"세븐일레븐화성구문천점","tel":"031-1577-0711","addr":"경기도 화성시 향남읍 구문천리 927-9번지 다인블루빌 1층 103호","category":"유통업 영리 - 편 의 점"},{"name":"시크릿","tel":"070-3574-2006","addr":"경기도 화성시 향남읍 구문천리 927-9번지 101호 다인블루","category":"일반휴게음식 - 주점"},{"name":"약손아로마","tel":"031-352-8669","addr":"경기도 화성시 향남읍 구문천리 927-9번지 1동 2층 201, 202호","category":"보건위생 - 피부미용실"},{"name":"왕서방피자치킨","tel":"031-354-6788","addr":"경기도 화성시 향남읍 구문천리 927-9번지 1층 102동","category":"일반휴게음식 - 서양음식"},{"name":"허니노래연습장","tel":"031-353-7971","addr":"경기도 화성시 향남읍 구문천리 927-9번지 다인블루 205호","category":"레저업소 - 노 래 방"}]},{"lat":"37.084341717","long":"126.90068271","items":[{"name":"송탄진버거","tel":"","addr":"경기도 화성시 향남읍 구문천리 929-7번지 A동 1층 102호","category":"일반휴게음식 - 서양음식"},{"name":"주식회사 비에이레이저","tel":"031-352-2816","addr":"경기도 화성시 향남읍 구문천리 929-7번지","category":"건축자재 - 기타건축자재"}]},{"lat":"37.08073269","long":"126.90569212","items":[{"name":"수연한식부페","tel":"031-359-9582","addr":"경기도 화성시 향남읍 구문천리 154-4번지","category":"일반휴게음식 - 일반한식"}]},{"lat":"37.085147411","long":"126.90513539","items":[{"name":"시립구문천어린이집[아이행복]","tel":"031-353-9136","addr":"경기도 화성시 향남읍 구문천리 929-18","category":"학원 - 유아원"},{"name":"시립구문천어린이집[아이행복]","tel":"031-353-9136","addr":"경기도 화성시 향남읍 구문천리 929-18번지","category":"학원 - 유아원"}]},{"lat":"37.0675358","long":"126.88946099","items":[{"name":"신니가스","tel":"031-111-1111","addr":"경기도 화성시 향남읍 구문천리 607-21번지","category":"연료판매점 - LPG 취급점"},{"name":"한일S.G","tel":"031-353-6966","addr":"경기도 화성시 향남읍 구문천리 607-21번지","category":"연료판매점 - LPG 취급점"},{"name":"한일S.G","tel":"031-353-6966","addr":"경기도 화성시 향남읍 구문천리 607-21번지","category":"연료판매점 - LPG 취급점"}]},{"lat":"37.081453535","long":"126.9056912","items":[{"name":"심통닭발","tel":"031-353-4213","addr":"경기도 화성시 향남읍 구문천리 153-2번지 1층 103호","category":"일반휴게음식 - 일반한식"},{"name":"한잔어때","tel":"031-8059-6493","addr":"경기도 화성시 향남읍 구문천리 153-2번지","category":"일반휴게음식 - 일반한식"}]},{"lat":"37.083623751","long":"126.90408016","items":[{"name":"싱싱정육점","tel":"031-8059-2706","addr":"경기도 화성시 향남읍 구문천리 248-3번지 한국유통슈퍼마켓내","category":"음료식품 - 정육점"}]},{"lat":"37.082506666","long":"126.90435152","items":[{"name":"씨유화성발안산단점","tel":"031-366-5022","addr":"경기도 화성시 향남읍 구문천리 248-30번지 1층","category":"유통업 영리 - 편 의 점"},{"name":"크린위드발안산단점","tel":"031-366-5022","addr":"경기도 화성시 향남읍 구문천리 248-30번지 1층B2호","category":"수리서비스 - 세탁소"}]},{"lat":"37.081588712","long":"126.90571352","items":[{"name":"아시안마트(ASIAN MART)","tel":"031-306-2036","addr":"경기도 화성시 향남읍 구문천리 153번지 102호","category":"유통업 영리 - 슈퍼마켓"},{"name":"양철지붕돌판구이","tel":"031-354-1983","addr":"경기도 화성시 향남읍 구문천리 153번지 101호","category":"일반휴게음식 - 일반한식"}]},{"lat":"37.086203051","long":"126.90685483","items":[{"name":"엄마손","tel":"031-353-7398","addr":"경기도 화성시 향남읍 구문천리 927-3번지","category":"일반휴게음식 - 일반한식"},{"name":"이춘식명가돌곱창","tel":"031-352-9239","addr":"경기도 화성시 향남읍 구문천리 927-3번지 청야빌딩","category":"일반휴게음식 - 일반한식"},{"name":"자금성","tel":"031-352-4804","addr":"경기도 화성시 향남읍 구문천리 927-3번지","category":"일반휴게음식 - 중국식"}]},{"lat":"37.086202759","long":"126.90649492","items":[{"name":"오빠","tel":"031-366-6533","addr":"경기도 화성시 향남읍 구문천리 927-2번지 3층 302호","category":"일반휴게음식 - 일반한식"},{"name":"이지당구클럽","tel":"031-410-2400","addr":"경기도 화성시 향남읍 구문천리 927-2번지 2층 202호,203호","category":"레저업소 - 당 구 장"},{"name":"조은터순대국","tel":"031-352-2225","addr":"경기도 화성시 향남읍 구문천리 927-2번지 1층 105호","category":"일반휴게음식 - 일반한식"},{"name":"커피식스(화성발안점)","tel":"031-352-9001","addr":"경기도 화성시 향남읍 구문천리 927-2번지 104호","category":"일반휴게음식 - 서양음식"},{"name":"파리바게뜨 발안산단점","tel":"031-354-9399","addr":"경기도 화성시 향남읍 구문천리 927-2번지 3층 102호","category":"음료식품 - 제과점"}]},{"lat":"37.085726677","long":"126.89763292","items":[{"name":"우리셀프식당","tel":"031-366-6698","addr":"경기도 화성시 향남읍 구문천리 930-2번지","category":"음료식품 - 기타음료식품"}]},{"lat":"37.086060236","long":"126.90854206","items":[{"name":"월드관광호텔","tel":"031-353-7833","addr":"경기도 화성시 향남읍 구문천리 927-10번지","category":"숙박업 - 여관/기타숙박업"}]},{"lat":"37.086896727","long":"126.90668524","items":[{"name":"윤가네토종순대국","tel":"031-353-4533","addr":"경기도 화성시 향남읍 구문천리 924-1번지","category":"일반휴게음식 - 일반한식"}]},{"lat":"37.069013889","long":"126.88982985","items":[{"name":"이쁜돼지랑 쌈이랑","tel":"031-352-6871","addr":"경기도 화성시 향남읍 구문천리 607-85번지","category":"일반휴게음식 - 일반한식"}]},{"lat":"37.08361531","long":"126.90476621","items":[{"name":"정","tel":"031-353-1883","addr":"경기도 화성시 향남읍 구문천리 248-14번지","category":"일반휴게음식 - 일반한식"}]},{"lat":"37.078203837","long":"126.90957516","items":[{"name":"정선한식부페","tel":"031-354-0242","addr":"경기도 화성시 향남읍 구문천리 96-9번지","category":"일반휴게음식 - 일반한식"}]},{"lat":"37.070509376","long":"126.88954652","items":[{"name":"주식회사 영일오엔씨 남부지사","tel":"031-8059-5143","addr":"경기도 화성시 향남읍 구문천리 875-30번지","category":"자동차정비 유지 - 윤활유 전문 판매"}]},{"lat":"37.082977464","long":"126.89652331","items":[{"name":"주식회사 우진이엔지","tel":"031-8059-3546","addr":"경기도 화성시 향남읍 구문천리 932-4번지","category":"기타 - 기계공구"}]},{"lat":"37.087449833","long":"126.90007118","items":[{"name":"주식회사 코시스","tel":"031-351-6805","addr":"경기도 화성시 향남읍 구문천리 922-2번지","category":"기타 - 기계공구"}]},{"lat":"37.070451958","long":"126.89562999","items":[{"name":"주식회사 태광이엔티","tel":"031-111-1111","addr":"경기도 화성시 향남읍 구문천리 878-16번지","category":"전기제품 - 기타전기제품"}]},{"lat":"37.083317504","long":"126.90421551","items":[{"name":"착한이모네","tel":"031-352-3105","addr":"경기도 화성시 향남읍 구문천리 248-134번지","category":"일반휴게음식 - 일반한식"}]},{"lat":"37.08684349","long":"126.9077088","items":[{"name":"카프리즘(Caprism)","tel":"070-4235-5000","addr":"경기도 화성시 향남읍 구문천리 924-4번지","category":"건축자재 - 인테리어전문"}]},{"lat":"37.081705664","long":"126.90548844","items":[{"name":"케니지","tel":"031-355-1056","addr":"경기도 화성시 향남읍 구문천리 152-9번지 101호","category":"일반휴게음식 - 주점"},{"name":"통큰마트","tel":"031-366-4132","addr":"경기도 화성시 향남읍 구문천리 152-9번지 101호","category":"유통업 영리 - 슈퍼마켓"}]},{"lat":"37.084284988","long":"126.89763491","items":[{"name":"코먼메탈","tel":"031-366-6515","addr":"경기도 화성시 향남읍 구문천리 930-13번지 B104","category":"기타 - 기계공구"}]},{"lat":"37.08189743","long":"126.89790813","items":[{"name":"쿨링시스템","tel":"031-8059-2925","addr":"경기도 화성시 향남읍 구문천리 932-13번지","category":"전기제품 - 가전제품"}]},{"lat":"37.086698986","long":"126.90729284","items":[{"name":"티스테이션발안공단점","tel":"031-366-0700","addr":"경기도 화성시 향남읍 구문천리 924-10","category":"자동차정비 유지 - 자동차정비"}]},{"lat":"37.083588492","long":"126.90502492","items":[{"name":"팔팔반점","tel":"031-354-4080","addr":"경기도 화성시 향남읍 구문천리 151-1번지 1층","category":"일반휴게음식 - 중국식"}]},{"lat":"37.083281779","long":"126.90459794","items":[{"name":"하낭","tel":"031-353-4762","addr":"경기도 화성시 향남읍 구문천리 248-19번지","category":"일반휴게음식 - 주점"}]},{"lat":"37.069567787","long":"126.89438308","items":[{"name":"한아름한식부페","tel":"031-352-2925","addr":"경기도 화성시 향남읍 구문천리 604-4번지 1층","category":"일반휴게음식 - 일반한식"}]},{"lat":"37.08495389","long":"126.90005206","items":[{"name":"향남누리","tel":"031-410-8133","addr":"경기도 화성시 향남읍 구문천리 929-3번지 아셈텍건물 C동 1층","category":"일반휴게음식 - 위탁급식업"}]},{"lat":"37.08147954","long":"126.89412994","items":[{"name":"혜성벤딩","tel":"031-352-0904","addr":"경기도 화성시 향남읍 구문천리 932-20번지","category":"기타 - 기계공구"}]},{"lat":"37.083615105","long":"126.90451879","items":[{"name":"홍대창막창","tel":"070-7520-3017","addr":"경기도 화성시 향남읍 구문천리 248-13번지 상가 101호","category":"일반휴게음식 - 일반한식"}]}]