[{"lat":"37.09842661","long":"127.06374947","items":[{"name":"GS25평택신리점","tel":"","addr":"경기도 평택시 진위면 신리 66-3번지","category":"유통업 영리 - 편 의 점"},{"name":"와이엘코퍼레이션","tel":"031-664-1872","addr":"경기도 평택시 진위면 신리 66-3번지 1층 3호","category":"레져용품 - 골프용품 전문점"},{"name":"캣앤도그","tel":"031-663-9227","addr":"경기도 평택시 진위면 신리 66-3번지","category":"문화.취미 - 애완동물"},{"name":"평택전자","tel":"031-662-7723","addr":"경기도 평택시 진위면 신리 66-3번지 102호","category":"자동차정비 유지 - 자동차부품"}]},{"lat":"37.096588568","long":"127.06353427","items":[{"name":"강남중부지사","tel":"031-611-2214","addr":"경기도 평택시 진위면 신리 61번지","category":"기타 - 기계공구"},{"name":"대박인테리어필름","tel":"","addr":"경기도 평택시 진위면 신리 61번지 1층","category":"건축자재 - 인테리어전문"},{"name":"행운 복권방","tel":"031-618-8019","addr":"경기도 평택시 진위면 신리 61번지 1층","category":"신변잡화 - 기타잡화"}]},{"lat":"37.0938671","long":"127.06408327","items":[{"name":"나누리다육","tel":"","addr":"경기도 평택시 진위면 신리 69-3번지","category":"문화.취미 - 화원"},{"name":"친구플라워","tel":"070-4118-4900","addr":"경기도 평택시 진위면 신리 69-3번지","category":"문화.취미 - 화원"}]},{"lat":"37.097624741","long":"127.06361384","items":[{"name":"두성정밀","tel":"031-666-9559","addr":"경기도 평택시 진위면 신리 66-5","category":"기타 - 기계공구"}]},{"lat":"37.096342792","long":"127.06822472","items":[{"name":"드림 판촉물 답례품","tel":"031-378-4424","addr":"경기도 평택시 진위면 신리 228-1번지","category":"유통업 영리 - 기타유통업"}]},{"lat":"37.092840082","long":"127.0637225","items":[{"name":"보령화원","tel":"031-667-1102","addr":"경기도 평택시 진위면 신리 71-1번지","category":"문화.취미 - 화원"}]},{"lat":"37.0971743","long":"127.06344475","items":[{"name":"삼승우드","tel":"031-667-3648","addr":"경기도 평택시 진위면 신리 61-7번지","category":"건축자재 - 기타건축자재"}]},{"lat":"37.096536432","long":"127.07608763","items":[{"name":"상상농원","tel":"031-663-0447","addr":"경기도 평택시 진위면 신리 329-1번지","category":"음료식품 - 농·축·수산품"}]},{"lat":"37.091480021","long":"127.06267537","items":[{"name":"새송탄로타리클럽","tel":"031-666-5333","addr":"경기도 평택시 진위면 신리 49-1번지 윤당빌딩 3층","category":"기타 - 비영리/대상"},{"name":"송탄민들레로타리클럽","tel":"031-666-5790","addr":"경기도 평택시 진위면 신리 49-1번지 윤당빌딩 3층","category":"기타 - 비영리/비대상"}]},{"lat":"37.099984077","long":"127.066338","items":[{"name":"성원사","tel":"031-666-0870","addr":"경기도 평택시 진위면 신리 93-2","category":"보건위생 - 기타대인서비스"}]},{"lat":"37.092816253","long":"127.0571199","items":[{"name":"수희네옷","tel":"031-691-1316","addr":"경기도 평택시 진위면 신리 407-1번지","category":"의류 - 정장"}]},{"lat":"37.095594437","long":"127.0690902","items":[{"name":"아르미네","tel":"031-664-3816","addr":"경기도 평택시 진위면 신리 231-4번지","category":"의류 - 정장"}]},{"lat":"37.096090098","long":"127.0689444","items":[{"name":"주식회사 스마트웜(SMART WARM)","tel":"031-667-0181","addr":"경기도 평택시 진위면 신리 222-4번지 2동","category":"농업 - 기타농업관련"}]},{"lat":"37.09698318","long":"127.06705541","items":[{"name":"주식회사 해찬솔","tel":"031-667-9011","addr":"경기도 평택시 진위면 신리 175-1번지","category":"주방용구 - 주방용구"}]},{"lat":"37.099783546","long":"127.07049998","items":[{"name":"진위천야생화","tel":"031-666-0221","addr":"경기도 평택시 진위면 신리 263-3","category":"문화.취미 - 화원"}]},{"lat":"37.09673366","long":"127.07769636","items":[{"name":"천지수산","tel":"031-665-3007","addr":"경기도 평택시 진위면 신리 361-1번지","category":"음료식품 - 농·축·수산품"}]},{"lat":"37.098120234","long":"127.06378297","items":[{"name":"타이어드림","tel":"031-611-3121","addr":"경기도 평택시 진위면 신리 377-4번지 1층","category":"자동차정비 유지 - 자동차시트·타이어"}]},{"lat":"37.096675564","long":"127.06933861","items":[{"name":"포토박스","tel":"031-667-3611","addr":"경기도 평택시 진위면 신리 223-3번지 2층","category":"광학제품 - 사진관"}]}]