[{"lat":"37.678684426","long":"126.77268465","items":[{"name":"관인후곡연세음악학원","tel":"031-916-0599","addr":"경기도 고양시 일산서구 강선로","category":"회원제형태 - 학원"},{"name":"뉴포르테음악교습소","tel":"031-947-0893","addr":"경기도 고양시 일산서구 강선로","category":"학원 - 예·체능계학원"}]},{"lat":"37.669459844","long":"126.76426899","items":[{"name":"롯데이용원","tel":"031-915-7223","addr":"경기도 고양시 일산서구 강선로","category":"보건위생 - 이용원"},{"name":"유진피부과의원","tel":"031-917-6749","addr":"경기도 고양시 일산서구 강선로","category":"의원 - 의원"}]},{"lat":"37.678406868","long":"126.76899004","items":[{"name":"아이스토리 어린이집[아이행복]","tel":"031-911-3100","addr":"경기도 고양시 일산서구 강선로","category":"학원 - 유아원"}]},{"lat":"37.676408311","long":"126.76978979","items":[{"name":"아크로국어논술학원","tel":"031-913-0977","addr":"경기도 고양시 일산서구 강선로","category":"학원 - 보습학원"},{"name":"일등급수학","tel":"031-936-8300","addr":"경기도 고양시 일산서구 강선로","category":"학원 - 보습학원"}]},{"lat":"37.671493809","long":"126.76765156","items":[{"name":"오션키즈주엽센터","tel":"031-923-2999","addr":"경기도 고양시 일산서구 강선로","category":"레저업소 - 기타레져업소"}]},{"lat":"37.666629016","long":"126.76338266","items":[{"name":"코스트플러스피자","tel":"031-921-3057","addr":"경기도 고양시 일산서구 강선로","category":"일반휴게음식 - 서양음식"}]},{"lat":"37.673406525","long":"126.7689944","items":[{"name":"크리스탈","tel":"031-813-0133","addr":"경기도 고양시 일산서구 강선로","category":"보건위생 - 피부미용실"}]},{"lat":"37.672169777","long":"126.76329685","items":[{"name":"하늘꿈별어린이집[아이행복]","tel":"070-7504-1060","addr":"경기도 고양시 일산서구 강선로","category":"학원 - 유아원"}]},{"lat":"37.667776666","long":"126.76064744","items":[{"name":"해가람어린이집[아이행복]","tel":"070-7799-7701","addr":"경기도 고양시 일산서구 강선로","category":"학원 - 유아원"}]},{"lat":"37.667440363","long":"126.76361807","items":[{"name":"현대방수","tel":"031-917-0300","addr":"경기도 고양시 일산서구 강선로","category":"회원제형태 - 기타4"}]}]