[{"lat":"37.166892664","long":"126.97956464","items":[{"name":"(주)강산애","tel":"031-353-8554","addr":"경기도 화성시 정남면 신리 48-3번지 파크빌 202호","category":"용역 서비스 - 기타용역서비스"},{"name":"따봉식당","tel":"031-352-3385","addr":"경기도 화성시 정남면 신리 48-3번지 양지타운파크빌 102호","category":"일반휴게음식 - 일반한식"}]},{"lat":"37.164333962","long":"126.98095023","items":[{"name":"(주)수원열처리","tel":"031-352-8003","addr":"경기도 화성시 정남면 신리 98-6번지 1층","category":"기타 - 기계공구"}]},{"lat":"37.164747412","long":"126.97595127","items":[{"name":"(주)제우스아이엔씨","tel":"031-352-5916","addr":"경기도 화성시 정남면 신리 278-3번지","category":"전기제품 - 기타전기제품"}]},{"lat":"37.15838705","long":"126.98087315","items":[{"name":"(주)토탈물류기계","tel":"031-8059-6170","addr":"경기도 화성시 정남면 신리 207-3번지","category":"자동차판매 - 기타운송"}]},{"lat":"37.167280075","long":"126.97937312","items":[{"name":"GS25정남신리점","tel":"","addr":"경기도 화성시 정남면 신리 51-13번지","category":"유통업 영리 - 편 의 점"},{"name":"무한리필뷔페","tel":"031-366-3625","addr":"경기도 화성시 정남면 신리 51-13번지 (2동 1층 전체)","category":"일반휴게음식 - 일반한식"}]},{"lat":"37.160718844","long":"126.97226005","items":[{"name":"VIP당구장","tel":"031-1111-1111","addr":"경기도 화성시 정남면 신리 260번지 301호","category":"레저업소 - 당 구 장"},{"name":"김대섭치과","tel":"031-359-8280","addr":"경기도 화성시 정남면 신리 260번지 3층 305호","category":"의원 - 치과의원"},{"name":"돈가네옛날돼지김치찌개","tel":"031-354-4985","addr":"경기도 화성시 정남면 신리 260번지","category":"일반휴게음식 - 일반한식"},{"name":"문학농자재","tel":"031-353-5648","addr":"경기도 화성시 정남면 신리 260번지 112호","category":"농업 - 기타농업관련"},{"name":"서진OA","tel":"031-354-3360","addr":"경기도 화성시 정남면 신리 260번지 304호","category":"사무통신 - 사무용 OA기기"},{"name":"시리폰(SIRIPHORN)","tel":"031-352-9890","addr":"경기도 화성시 정남면 신리 260번지 (지하층b-1)","category":"일반휴게음식 - 일반한식"},{"name":"신의주찹쌀순대","tel":"031-352-1233","addr":"경기도 화성시 정남면 신리 260번지 108호","category":"일반휴게음식 - 일반한식"},{"name":"에스지 골프","tel":"031-353-7958","addr":"경기도 화성시 정남면 신리 260번지","category":"레저업소 - 스크린골프"},{"name":"일광상사","tel":"031-8059-2277","addr":"경기도 화성시 정남면 신리 260번지","category":"건축자재 - 페인트"}]},{"lat":"37.165225213","long":"126.97706571","items":[{"name":"감로수유통","tel":"031-354-8447","addr":"경기도 화성시 정남면 신리 70-5번지","category":"유통업 영리 - 기타유통업"}]},{"lat":"37.163468307","long":"126.97767427","items":[{"name":"경기카센타","tel":"031-352-9585","addr":"경기도 화성시 정남면 신리 143-1번지","category":"자동차정비 유지 - 카인테리어"}]},{"lat":"37.167108838","long":"126.97918177","items":[{"name":"공간세라믹","tel":"031-354-4461","addr":"경기도 화성시 정남면 신리 51-12번지","category":"건축자재 - 인테리어전문"}]},{"lat":"37.16130475","long":"126.97314921","items":[{"name":"공구공구","tel":"031-352-1886","addr":"경기도 화성시 정남면 신리 259-5번지 C동 104호","category":"기타 - 기계공구"},{"name":"그린마트세탁소","tel":"031-354-2434","addr":"경기도 화성시 정남면 신리 259-5번지","category":"수리서비스 - 세탁소"},{"name":"금광기획","tel":"02-3462-0475","addr":"경기도 화성시 정남면 신리 259-5번지 A동 1층 2호","category":"서적문구 - 출판 및 인쇄물"},{"name":"남산수리공구","tel":"","addr":"경기도 화성시 정남면 신리 259-5번지 C동 104호","category":"기타 - 기계공구"},{"name":"우정한식뷔페","tel":"031-354-6736","addr":"경기도 화성시 정남면 신리 259-5번지 B동","category":"일반휴게음식 - 일반한식"}]},{"lat":"37.162719979","long":"126.97559172","items":[{"name":"그루","tel":"031-352-4848","addr":"경기도 화성시 정남면 신리 143-7번지","category":"일반휴게음식 - 서양음식"},{"name":"용궁옛날짜장","tel":"031-352-7789","addr":"경기도 화성시 정남면 신리 143-7번지 1층","category":"일반휴게음식 - 중국식"}]},{"lat":"37.158918858","long":"126.98193123","items":[{"name":"금오식당","tel":"031-354-7471","addr":"경기도 화성시 정남면 신리 197-3번지","category":"일반휴게음식 - 일반한식"},{"name":"돈천년","tel":"031-354-9240","addr":"경기도 화성시 정남면 신리 197-3번지","category":"일반휴게음식 - 일반한식"},{"name":"우경소곱창구이","tel":"031-352-0727","addr":"경기도 화성시 정남면 신리 197-3번지 1층","category":"일반휴게음식 - 일반한식"}]},{"lat":"37.166830343","long":"126.98376425","items":[{"name":"꽃무지개 굼뱅이 농장","tel":"031-354-7345","addr":"경기도 화성시 정남면 신리 37-1번지","category":"음료식품 - 농·축·수산품"}]},{"lat":"37.161638288","long":"126.97375702","items":[{"name":"끼니끼니한식부페","tel":"031-353-4293","addr":"경기도 화성시 정남면 신리 259-9번지","category":"일반휴게음식 - 일반한식"},{"name":"우진축산유통","tel":"031-352-5201","addr":"경기도 화성시 정남면 신리 259-9번지 1층","category":"음료식품 - 정육점"},{"name":"정남자동차유리","tel":"031-366-3709","addr":"경기도 화성시 정남면 신리 259-9번지","category":"자동차정비 유지 - 자동차부품"},{"name":"지에스스크린골프","tel":"031-8059-3355","addr":"경기도 화성시 정남면 신리 259-9번지","category":"레저업소 - 스크린골프"}]},{"lat":"37.167974531","long":"126.98293079","items":[{"name":"농민생산","tel":"070-5099-0840","addr":"경기도 화성시 정남면 신리 25-1번지","category":"음료식품 - 농·축·수산품"}]},{"lat":"37.167416003","long":"126.98365152","items":[{"name":"농업회사법인 주식회사 대연","tel":"031-354-7345","addr":"경기도 화성시 정남면 신리 29-3번지","category":"음료식품 - 기타음료식품"},{"name":"태광분식","tel":"031-352-2438","addr":"경기도 화성시 정남면 신리 29-3번지 2층","category":"일반휴게음식 - 스넥"}]},{"lat":"37.162081575","long":"126.98220055","items":[{"name":"능통학원","tel":"031-353-2110","addr":"경기도 화성시 정남면 신리 111-35번지 2층","category":"학원 - 보습학원"}]},{"lat":"37.16266621","long":"126.97689771","items":[{"name":"다나한부페","tel":"031-353-2606","addr":"경기도 화성시 정남면 신리 160-2번지","category":"일반휴게음식 - 일반한식"},{"name":"삼광정밀","tel":"031-366-3056","addr":"경기도 화성시 정남면 신리 160-2","category":"건축자재 - 기타건축자재"}]},{"lat":"37.166721236","long":"126.97842754","items":[{"name":"다정미용실","tel":"","addr":"경기도 화성시 정남면 신리 55-1번지 1층","category":"보건위생 - 미용원"}]},{"lat":"37.163558581","long":"126.97848485","items":[{"name":"대성베크라이트","tel":"031-352-3000","addr":"경기도 화성시 정남면 신리 141-3번지","category":"건축자재 - 기타건축자재"}]},{"lat":"37.162557962","long":"126.97634609","items":[{"name":"대성카인테리어","tel":"031-353-7577","addr":"경기도 화성시 정남면 신리 160-5번지","category":"자동차정비 유지 - 카인테리어"}]},{"lat":"37.162557617","long":"126.97484873","items":[{"name":"대성케이블","tel":"031-352-3809","addr":"경기도 화성시 정남면 신리 149-22번지","category":"전기제품 - 기타전기제품"},{"name":"대진베어링","tel":"031-352-4346","addr":"경기도 화성시 정남면 신리 149-22번지","category":"기타 - 기계공구"},{"name":"현대천막","tel":"031-354-6543","addr":"경기도 화성시 정남면 신리 149-22번지","category":"직물 - 카페트,커튼,천막,지물"}]},{"lat":"37.162972863","long":"126.97829364","items":[{"name":"대원연마","tel":"031-366-4930","addr":"경기도 화성시 정남면 신리 134-4번지","category":"용역 서비스 - 기타용역서비스"}]},{"lat":"37.161691354","long":"126.96995173","items":[{"name":"대한육가공","tel":"031-366-3344","addr":"경기도 화성시 정남면 신리 306-1번지","category":"음료식품 - 기타음료식품"}]},{"lat":"37.163054176","long":"126.97937443","items":[{"name":"대현E.D.M","tel":"031-8059-0705","addr":"경기도 화성시 정남면 신리 136-15","category":"기타 - 기타 전문점"},{"name":"우림산업","tel":"031-354-9693","addr":"경기도 화성시 정남면 신리 136-15","category":"기타 - 기계공구"}]},{"lat":"37.161665063","long":"126.97273252","items":[{"name":"더행복한밥상한식뷔페","tel":"031-353-1158","addr":"경기도 화성시 정남면 신리 149-10번지","category":"일반휴게음식 - 일반한식"}]},{"lat":"37.163892107","long":"126.97917151","items":[{"name":"도화루","tel":"031-359-9551","addr":"경기도 화성시 정남면 신리 139번지","category":"일반휴게음식 - 중국식"},{"name":"신성가든","tel":"031-354-9978","addr":"경기도 화성시 정남면 신리 139번지","category":"일반휴게음식 - 일반한식"}]},{"lat":"37.162802511","long":"126.98278579","items":[{"name":"돌아온돼지","tel":"031-297-3401","addr":"경기도 화성시 정남면 신리 111-4번지 101동일부","category":"일반휴게음식 - 일반한식"},{"name":"본가왕뼈감자탕","tel":"031-354-7830","addr":"경기도 화성시 정남면 신리 111-4번지 101동 1층","category":"일반휴게음식 - 일반한식"}]},{"lat":"37.164531463","long":"126.97731364","items":[{"name":"동광에어","tel":"","addr":"경기도 화성시 정남면 신리 73-17번지","category":"신변잡화 - 기타잡화"}]},{"lat":"37.164586236","long":"126.98084883","items":[{"name":"동아방전조각","tel":"031-223-9159","addr":"경기도 화성시 정남면 신리 98-9번지 B동","category":"기타 - 기계공구"},{"name":"화천기술서비스","tel":"031-366-1895","addr":"경기도 화성시 정남면 신리 98-9","category":"기타 - 기계공구"}]},{"lat":"37.163468717","long":"126.97967828","items":[{"name":"동우상사","tel":"041-358-7705","addr":"경기도 화성시 정남면 신리 136-12","category":"건축자재 - 페인트"},{"name":"한올마대나라","tel":"031-353-4686","addr":"경기도 화성시 정남면 신리 136-12","category":"신변잡화 - 기타잡화"}]},{"lat":"37.163864885","long":"126.97823706","items":[{"name":"동현금속","tel":"031-352-4178","addr":"경기도 화성시 정남면 신리 141-2번지 나동","category":"기타 - 기계공구"},{"name":"부영연마","tel":"031-352-6387","addr":"경기도 화성시 정남면 신리 141-2","category":"기타 - 기계공구"},{"name":"새롬정공","tel":"031-353-7626","addr":"경기도 화성시 정남면 신리 141-2 D동","category":"기타 - 기계공구"},{"name":"성은빠우","tel":"031-352-8999","addr":"경기도 화성시 정남면 신리 141-2번지","category":"기타 - 기계공구"}]},{"lat":"37.161531844","long":"126.98167157","items":[{"name":"드림","tel":"031-1688-8865","addr":"경기도 화성시 정남면 신리 114번지 1층","category":"음료식품 - 기타음료식품"}]},{"lat":"37.167307891","long":"126.98373036","items":[{"name":"뚱이소주방","tel":"031-8059-6889","addr":"경기도 화성시 정남면 신리 29-4번지 101호","category":"일반휴게음식 - 일반한식"},{"name":"불로불러참숯바베큐치킨","tel":"031-353-5408","addr":"경기도 화성시 정남면 신리 29-4번지","category":"일반휴게음식 - 일반한식"},{"name":"에이치앤제이(H&J)헤어","tel":"070-3265-0538","addr":"경기도 화성시 정남면 신리 29-4번지 101호","category":"보건위생 - 미용원"}]},{"lat":"37.16374865","long":"126.98303323","items":[{"name":"레드호프","tel":"031-353-1510","addr":"경기도 화성시 정남면 신리 108-5번지 지하1층","category":"일반휴게음식 - 주점"},{"name":"블루노래연습장","tel":"","addr":"경기도 화성시 정남면 신리 108-5번지 지하1층","category":"레저업소 - 노 래 방"},{"name":"썬마트","tel":"070-8869-0098","addr":"경기도 화성시 정남면 신리 108-5번지","category":"신변잡화 - 기타잡화"}]},{"lat":"37.163829418","long":"126.98117555","items":[{"name":"마루한식부페","tel":"031-354-2849","addr":"경기도 화성시 정남면 신리 119-2번지","category":"일반휴게음식 - 일반한식"},{"name":"산골전통남원추어탕","tel":"031-353-8965","addr":"경기도 화성시 정남면 신리 119-2번지 나동 1층","category":"일반휴게음식 - 일반한식"},{"name":"서해종합히타","tel":"031-8059-4425","addr":"경기도 화성시 정남면 신리 119-2 1층나동사무실","category":"전기제품 - 냉열기기"}]},{"lat":"37.162469063","long":"126.98242561","items":[{"name":"명품","tel":"031-354-7833","addr":"경기도 화성시 정남면 신리 111-23번지 2층","category":"보건위생 - 화장품"},{"name":"열무PC방","tel":"031-353-0786","addr":"경기도 화성시 정남면 신리 111-23번지 지하1층","category":"레저업소 - 기타레져업소"},{"name":"정남이야기","tel":"031-353-4598","addr":"경기도 화성시 정남면 신리 111-23번지","category":"일반휴게음식 - 서양음식"}]},{"lat":"37.161333614","long":"126.98167162","items":[{"name":"명품셀프식당","tel":"031-663-0447","addr":"경기도 화성시 정남면 신리 114-4번지 나동 1층","category":"일반휴게음식 - 일반한식"},{"name":"정남어시장","tel":"031-354-7833","addr":"경기도 화성시 정남면 신리 114-4번지","category":"음료식품 - 농·축·수산품"},{"name":"태마노래연습장","tel":"031-366-6546","addr":"경기도 화성시 정남면 신리 114-4번지 1층","category":"레저업소 - 노 래 방"},{"name":"황제노래연습장","tel":"031-366-6546","addr":"경기도 화성시 정남면 신리 114-4번지 1층","category":"레저업소 - 노 래 방"}]},{"lat":"37.166694489","long":"126.97984617","items":[{"name":"목우촌또래오래정남점","tel":"031-354-8247","addr":"경기도 화성시 정남면 신리 48-6번지","category":"일반휴게음식 - 스넥"},{"name":"주식회사 아리솔","tel":"","addr":"경기도 화성시 정남면 신리 48-6번지 103호","category":"음료식품 - 농·축·수산품"}]},{"lat":"37.161079306","long":"126.97242878","items":[{"name":"미니스톱화성본점","tel":"031-1577-9621","addr":"경기도 화성시 정남면 신리 261-1번지","category":"유통업 영리 - 편 의 점"}]},{"lat":"37.163973677","long":"126.98168214","items":[{"name":"미래전기","tel":"031-8059-5084","addr":"경기도 화성시 정남면 신리 119-12번지 A동1호,2호","category":"전기제품 - 기타전기제품"},{"name":"아주프로파일","tel":"031-359-8123","addr":"경기도 화성시 정남면 신리 119-12 B동 1-4호","category":"건축자재 - 기타건축자재"},{"name":"올포카 JN","tel":"031-8059-6459","addr":"경기도 화성시 정남면 신리 119-12번지","category":"자동차정비 유지 - 자동차부품"},{"name":"푸른카멀티샵","tel":"070-7503-4584","addr":"경기도 화성시 정남면 신리 119-12번지","category":"자동차정비 유지 - 자동차부품"}]},{"lat":"37.162918658","long":"126.97761816","items":[{"name":"미래천막사","tel":"031-352-5404","addr":"경기도 화성시 정남면 신리 143-14번지","category":"직물 - 카페트,커튼,천막,지물"},{"name":"용선웰딩","tel":"031-366-3917","addr":"경기도 화성시 정남면 신리 143-14번지 3,4호","category":"기타 - 기계공구"},{"name":"원(one)볼트","tel":"031-8059-4387","addr":"경기도 화성시 정남면 신리 143-14번지","category":"기타 - 기계공구"}]},{"lat":"37.163665862","long":"126.97467944","items":[{"name":"미르자동차정비공업사","tel":"","addr":"경기도 화성시 정남면 신리 273-3번지","category":"자동차정비 유지 - 자동차정비"}]},{"lat":"37.158107931","long":"126.98201025","items":[{"name":"믿음타이어정비","tel":"031-353-5236","addr":"경기도 화성시 정남면 신리 213-5번지","category":"자동차정비 유지 - 자동차정비"}]},{"lat":"37.166667484","long":"126.97998129","items":[{"name":"바다공조","tel":"070-4871-3610","addr":"경기도 화성시 정남면 신리 20-16번지 301호","category":"용역 서비스 - 기타용역서비스"}]},{"lat":"37.163973823","long":"126.98251527","items":[{"name":"본치과","tel":"031-8059-0072","addr":"경기도 화성시 정남면 신리 109외3필지","category":"의원 - 치과의원"},{"name":"오션스크린골프","tel":"031-354-0464","addr":"경기도 화성시 정남면 신리 109번지 외3필지 202호","category":"회원제형태 - 레져업소"},{"name":"주식회사에이치티에스정남점","tel":"031-354-9330","addr":"경기도 화성시 정남면 신리 109번지 1층","category":"일반휴게음식 - 서양음식"},{"name":"프린스 당구장","tel":"031-271-4119","addr":"경기도 화성시 정남면 신리 109번지 4층","category":"레저업소 - 당 구 장"},{"name":"화성옥 (정남점)","tel":"031-366-6141","addr":"경기도 화성시 정남면 신리 109번지 1층","category":"일반휴게음식 - 일반한식"}]},{"lat":"37.163439915","long":"126.97193246","items":[{"name":"북두 M. K.","tel":"031-000-0000","addr":"경기도 화성시 정남면 신리 270-23번지","category":"기타 - 기계공구"}]},{"lat":"37.16046864","long":"126.98184073","items":[{"name":"비바체음악학원","tel":"031-352-5316","addr":"경기도 화성시 정남면 신리 191-11번지 2층 201호","category":"학원 - 예·체능계학원"},{"name":"세븐일레븐화성신리점","tel":"","addr":"경기도 화성시 정남면 신리 191-11번지","category":"유통업 영리 - 편 의 점"},{"name":"에스엠카오디오","tel":"031-352-1884","addr":"경기도 화성시 정남면 신리 191-11번지 104호","category":"자동차정비 유지 - 자동차부품"},{"name":"진스포츠","tel":"031-352-7593","addr":"경기도 화성시 정남면 신리 191-11번지","category":"레져용품 - 스포츠·레져용품"}]},{"lat":"37.165035932","long":"126.97678431","items":[{"name":"빵빵슈퍼","tel":"031-000-0000","addr":"경기도 화성시 정남면 신리 71-5번지 길민빌라 가동 101호","category":"유통업 영리 - 슈퍼마켓"}]},{"lat":"37.163252444","long":"126.97956576","items":[{"name":"삼성빠우","tel":"031-354-5073","addr":"경기도 화성시 정남면 신리 136-2","category":"건축자재 - 기타건축자재"},{"name":"예영S.T","tel":"031-352-8849","addr":"경기도 화성시 정남면 신리 136-2","category":"건축자재 - 기타건축자재"}]},{"lat":"37.165440371","long":"126.97246081","items":[{"name":"성지카센타","tel":"031-359-9476","addr":"경기도 화성시 정남면 신리 293번지 1층","category":"자동차정비 유지 - 자동차정비"}]},{"lat":"37.165503513","long":"126.97273099","items":[{"name":"세종산업","tel":"031-353-8788","addr":"경기도 화성시 정남면 신리 289","category":"농업 - 비료,사료,종자"}]},{"lat":"37.166198262","long":"126.9767051","items":[{"name":"세화상회","tel":"031-352-3012","addr":"경기도 화성시 정남면 신리 66-6번지","category":"유통업 영리 - 슈퍼마켓"}]},{"lat":"37.163415292","long":"126.98320219","items":[{"name":"센스노래연습장","tel":"031-366-2780","addr":"경기도 화성시 정남면 신리 111-5번지 2층","category":"레저업소 - 노 래 방"},{"name":"양평해장국 정남점","tel":"031-366-3230","addr":"경기도 화성시 정남면 신리 111-5번지","category":"일반휴게음식 - 일반한식"}]},{"lat":"37.159333203","long":"126.98117684","items":[{"name":"센트럴 곤충 생태농장","tel":"031-8015-5011","addr":"경기도 화성시 정남면 신리 194-2번지","category":"농업 - 기타농업관련"}]},{"lat":"37.161448407","long":"126.97117897","items":[{"name":"소나무가든","tel":"031-354-5455","addr":"경기도 화성시 정남면 신리 304-24","category":"일반휴게음식 - 일반한식"},{"name":"장원식당","tel":"031-354-5455","addr":"경기도 화성시 정남면 신리 304-24번지 외1필지","category":"일반휴게음식 - 일반한식"}]},{"lat":"37.164162656","long":"126.98037609","items":[{"name":"스피드모터","tel":"031-366-0124","addr":"경기도 화성시 정남면 신리 137-1번지","category":"자동차정비 유지 - 자동차부품"},{"name":"주식회사 유경베어링화성","tel":"031-352-1733","addr":"경기도 화성시 정남면 신리 137-1번지","category":"기타 - 기계공구"}]},{"lat":"37.163198219","long":"126.97875517","items":[{"name":"신한종합산업","tel":"031-354-9942","addr":"경기도 화성시 정남면 신리 134번지","category":"직물 - 기타직물"}]},{"lat":"37.162801002","long":"126.97528771","items":[{"name":"신후지플랜트","tel":"031-352-5271","addr":"경기도 화성시 정남면 신리 143-23","category":"기타 - 기계공구"}]},{"lat":"37.163531322","long":"126.97740404","items":[{"name":"씨유화성신리점","tel":"031-8059-6684","addr":"경기도 화성시 정남면 신리 143-41번지","category":"유통업 영리 - 편 의 점"}]},{"lat":"37.159225214","long":"126.98193114","items":[{"name":"씨유화성현준점","tel":"031-354-0535","addr":"경기도 화성시 정남면 신리 197-2번지","category":"유통업 영리 - 편 의 점"},{"name":"알라스카참치","tel":"031-366-1881","addr":"경기도 화성시 정남면 신리 197-2번지 덕진 상가 102호","category":"일반휴게음식 - 일식·회집"},{"name":"연세치과의원","tel":"031-366-2875","addr":"경기도 화성시 정남면 신리 197-2번지 2층 덕신상가","category":"의원 - 치과의원"}]},{"lat":"37.16299929","long":"126.97553533","items":[{"name":"아호민스틸","tel":"031-247-1134","addr":"경기도 화성시 정남면 신리 143-34번지","category":"건축자재 - 기타건축자재"}]},{"lat":"37.165856529","long":"126.97990272","items":[{"name":"에스알리빙","tel":"031-8059-2979","addr":"경기도 화성시 정남면 신리 94-1번지","category":"신변잡화 - 기타잡화"}]},{"lat":"37.162026333","long":"126.97628998","items":[{"name":"에이지테크","tel":"031-353-6571","addr":"경기도 화성시 정남면 신리 158-1번지","category":"기타 - 기계공구"},{"name":"청산조각","tel":"031-366-4647","addr":"경기도 화성시 정남면 신리 158-1번지 (A동일부)","category":"건축자재 - 목재·석재·철물"}]},{"lat":"37.161440313","long":"126.97481537","items":[{"name":"엘더스 주식회사","tel":"031-366-3714","addr":"경기도 화성시 정남면 신리 152-2번지","category":"건축자재 - 조명기구"}]},{"lat":"37.163054842","long":"126.98301089","items":[{"name":"오렌지노래연습장","tel":"031-352-7519","addr":"경기도 화성시 정남면 신리 111-27번지","category":"레저업소 - 노 래 방"},{"name":"피플","tel":"031-0000-0000","addr":"경기도 화성시 정남면 신리 111-27번지","category":"일반휴게음식 - 일반한식"}]},{"lat":"37.166414562","long":"126.9769302","items":[{"name":"와이앤지(Y&G)모터스","tel":"031-352-7187","addr":"경기도 화성시 정남면 신리 61번지 1층","category":"자동차정비 유지 - 자동차정비"}]},{"lat":"37.162278505","long":"126.97576075","items":[{"name":"우리동네 출장배터리","tel":"031-8077-4788","addr":"경기도 화성시 정남면 신리 156-3번지 가동","category":"자동차정비 유지 - 자동차부품"},{"name":"창우건설","tel":"031-352-1105","addr":"경기도 화성시 정남면 신리 156-3번지 102호","category":"용역 서비스 - 기타용역서비스"},{"name":"한양볼트","tel":"042-638-5000","addr":"경기도 화성시 정남면 신리 156-3번지 외2필지 1층","category":"기타 - 기계공구"}]},{"lat":"37.162025684","long":"126.97354297","items":[{"name":"울엄마김치찌개전문점","tel":"031-353-5786","addr":"경기도 화성시 정남면 신리 149-8번지","category":"일반휴게음식 - 일반한식"}]},{"lat":"37.166468745","long":"126.97748187","items":[{"name":"원진엔진보링","tel":"031-8750-2750","addr":"경기도 화성시 정남면 신리 56-3번지","category":"자동차정비 유지 - 자동차정비"}]},{"lat":"37.162828919","long":"126.97939701","items":[{"name":"유니메탈 (Uni Metal)","tel":"031-353-7456","addr":"경기도 화성시 정남면 신리 136-13번지","category":"건축자재 - 기타건축자재"}]},{"lat":"37.164693455","long":"126.97642415","items":[{"name":"유피테크놀로지","tel":"031-352-6526","addr":"경기도 화성시 정남면 신리 72-1번지 나동","category":"기타 - 기계공구"}]},{"lat":"37.163719274","long":"126.97206745","items":[{"name":"유한정밀","tel":"031-445-8714","addr":"경기도 화성시 정남면 신리 270-15번지 혜성정밀 D동","category":"전기제품 - 기타전기제품"}]},{"lat":"37.158414158","long":"126.98128968","items":[{"name":"은행나무집","tel":"031-366-2781","addr":"경기도 화성시 정남면 신리 211번지","category":"일반휴게음식 - 일반한식"}]},{"lat":"37.162586241","long":"126.98267326","items":[{"name":"이경희헤어라인","tel":"031-353-1619","addr":"경기도 화성시 정남면 신리 111-22번지 1층 전부호","category":"보건위생 - 미용원"}]},{"lat":"37.156864428","long":"126.98167287","items":[{"name":"이마트24 화성신리점","tel":"031-000-0000","addr":"경기도 화성시 정남면 신리 201-7번지 외3필지","category":"유통업 영리 - 편 의 점"}]},{"lat":"37.16336114","long":"126.98267306","items":[{"name":"이화수 정남신리점","tel":"031-352-6030","addr":"경기도 화성시 정남면 신리 108-13번지 1층","category":"일반휴게음식 - 일반한식"}]},{"lat":"37.162585604","long":"126.97922821","items":[{"name":"장보고식품&양파세상","tel":"031-366-1725","addr":"경기도 화성시 정남면 신리 136-4번지 2동공장","category":"음료식품 - 농·축·수산품"}]},{"lat":"37.167830434","long":"126.98334741","items":[{"name":"정남건강원","tel":"031-352-7375","addr":"경기도 화성시 정남면 신리 25-3번지 1층","category":"음료식품 - 기타음료식품"},{"name":"팡팡 노래연습장","tel":"031-223-9159","addr":"경기도 화성시 정남면 신리 25-3번지 2층","category":"레저업소 - 노 래 방"}]},{"lat":"37.160081187","long":"126.98181833","items":[{"name":"정남기똥찬족발","tel":"031-366-2230","addr":"경기도 화성시 정남면 신리 196-4번지 1층 전체","category":"일반휴게음식 - 일반한식"}]},{"lat":"37.166414641","long":"126.97729049","items":[{"name":"정남기업","tel":"031-354-4204","addr":"경기도 화성시 정남면 신리 56-2","category":"용역 서비스 - 기타용역서비스"}]},{"lat":"37.164279992","long":"126.98145689","items":[{"name":"정남대성","tel":"031-354-0554","addr":"경기도 화성시 정남면 신리 104-3","category":"유통업 영리 - 기타유통업"}]},{"lat":"37.166252824","long":"126.97906944","items":[{"name":"정남스크린골프","tel":"031-366-5848","addr":"경기도 화성시 정남면 신리 49-12번지 2층","category":"회원제형태 - 레져업소"},{"name":"정남스크린골프","tel":"031-366-5848","addr":"경기도 화성시 정남면 신리 49-12번지","category":"회원제형태 - 레져업소"}]},{"lat":"37.161945452","long":"126.97725822","items":[{"name":"정남영농조합법인","tel":"031-352-2254","addr":"경기도 화성시 정남면 신리 161-2번지","category":"음료식품 - 농·축·수산품"}]},{"lat":"37.15755828","long":"126.9819316","items":[{"name":"정남종합상사","tel":"031-8059-0984","addr":"경기도 화성시 정남면 신리 200-1","category":"유통업 영리 - 기타유통업"},{"name":"큰집설렁탕","tel":"031-352-9676","addr":"경기도 화성시 정남면 신리 200-1","category":"일반휴게음식 - 일반한식"}]},{"lat":"37.165721088","long":"126.97848415","items":[{"name":"정남중학교","tel":"031-352-3014","addr":"경기도 화성시 정남면 신리 85번지 정남중학교","category":"학원 - 초중고교육기관"}]},{"lat":"37.161997962","long":"126.97087477","items":[{"name":"정남행복한어린이집[아이행복]","tel":"031-353-8942","addr":"경기도 화성시 정남면 신리 304-32번지","category":"학원 - 유아원"}]},{"lat":"37.165692866","long":"126.97326008","items":[{"name":"제일수지","tel":"031-366-4030","addr":"경기도 화성시 정남면 신리 288번지","category":"기타 - 기계공구"}]},{"lat":"37.163081835","long":"126.98278572","items":[{"name":"종합약국","tel":"031-352-5880","addr":"경기도 화성시 정남면 신리 111-10","category":"약국 - 약국"}]},{"lat":"37.165279099","long":"126.97626632","items":[{"name":"주식회사 엠디에스코리아","tel":"070-4283-8300","addr":"경기도 화성시 정남면 신리 279-5번지","category":"기타 - 기계공구"}]},{"lat":"37.162196444","long":"126.97182038","items":[{"name":"주식회사비엔큐브","tel":"031-204-2880","addr":"경기도 화성시 정남면 신리 304-38번지","category":"전기제품 - 기타전기제품"}]},{"lat":"37.159693721","long":"126.98172837","items":[{"name":"즐거운한식부페","tel":"031-353-0667","addr":"경기도 화성시 정남면 신리 196-5번지","category":"일반휴게음식 - 일반한식"}]},{"lat":"37.163559398","long":"126.98284188","items":[{"name":"카페루체","tel":"070-0000-0000","addr":"경기도 화성시 정남면 신리 108-2번지 1층","category":"일반휴게음식 - 서양음식"}]},{"lat":"37.162999449","long":"126.97623335","items":[{"name":"케이원판넬","tel":"031-267-1151","addr":"경기도 화성시 정남면 신리 143-24번지","category":"건축자재 - 기타건축자재"}]},{"lat":"37.161169502","long":"126.972789","items":[{"name":"코리아퀵화물","tel":"031-354-3377","addr":"경기도 화성시 정남면 신리 261-5","category":"용역 서비스 - 기타용역서비스"}]},{"lat":"37.16372118","long":"126.98056762","items":[{"name":"콩맛","tel":"031-366-4338","addr":"경기도 화성시 정남면 신리 136-11","category":"일반휴게음식 - 일반한식"}]},{"lat":"37.163530611","long":"126.97428544","items":[{"name":"태광기업사","tel":"031-353-5955","addr":"경기도 화성시 정남면 신리 271-1번지","category":"직물 - 카페트,커튼,천막,지물"}]},{"lat":"37.158639548","long":"126.98201011","items":[{"name":"태일전기조명","tel":"031-354-5839","addr":"경기도 화성시 정남면 신리 213-2","category":"건축자재 - 조명기구"}]},{"lat":"37.164081412","long":"126.97959928","items":[{"name":"평안도찹쌀순대 화성점","tel":"031-352-3524","addr":"경기도 화성시 정남면 신리 138-3번지 1층","category":"일반휴게음식 - 일반한식"}]},{"lat":"37.157530993","long":"126.98053567","items":[{"name":"포그니","tel":"070-7724-2558","addr":"경기도 화성시 정남면 신리 205-11번지 1층","category":"직물 - 침구·수예점"}]},{"lat":"37.167551114","long":"126.98337","items":[{"name":"하나유통","tel":"031-8059-2326","addr":"경기도 화성시 정남면 신리 29-2번지 2층","category":"의류 - 정장"}]},{"lat":"37.165026774","long":"126.97612005","items":[{"name":"한국이에이씨 수원대리점","tel":"031-354-1986","addr":"경기도 화성시 정남면 신리 279-7번지","category":"자동차정비 유지 - 자동차부품"}]},{"lat":"37.165306034","long":"126.97583848","items":[{"name":"해낸물산","tel":"031-353-9305","addr":"경기도 화성시 정남면 신리 279-1번지","category":"음료식품 - 기타음료식품"}]},{"lat":"37.160892108","long":"126.98170552","items":[{"name":"행복한밥상협동조합","tel":"031-204-3446","addr":"경기도 화성시 정남면 신리 190-15번지","category":"일반휴게음식 - 스넥"}]},{"lat":"37.160024806","long":"126.97137095","items":[{"name":"화성시니어클럽 노노카페 정남면사무소점","tel":"031-8059-4349","addr":"경기도 화성시 정남면 신리 260-1번지 1층","category":"일반휴게음식 - 서양음식"}]},{"lat":"37.161414263","long":"126.97931864","items":[{"name":"화이시스","tel":"070-7755-4616","addr":"경기도 화성시 정남면 신리 182번지","category":"신변잡화 - 기타잡화"}]},{"lat":"37.160025931","long":"126.97593043","items":[{"name":"휘테크","tel":"031-236-7977","addr":"경기도 화성시 정남면 신리 238-16번지","category":"전기제품 - 기타전기제품"}]}]