[{"lat":"37.400805584","long":"126.96909068","items":[{"name":"가츠라인덕원점","tel":"031-463-3027","addr":"경기도 안양시 동안구 학의로","category":"일반휴게음식 - 스넥"},{"name":"금강펜테리움IT타워CEO협의회","tel":"031-463-1114","addr":"경기도 안양시 동안구 학의로","category":"자동차정비 유지 - 주차장"},{"name":"김밥천국 (금강펜테리움점)","tel":"031-463-3005","addr":"경기도 안양시 동안구 학의로","category":"일반휴게음식 - 스넥"},{"name":"대경.TEX","tel":"031-391-3441","addr":"경기도 안양시 동안구 학의로","category":"직물 - 옷감·직물"},{"name":"명성그래픽","tel":"031-427-0940","addr":"경기도 안양시 동안구 학의로","category":"용역 서비스 - 사무서비스"},{"name":"모든카피","tel":"031-381-2065","addr":"경기도 안양시 동안구 학의로","category":"용역 서비스 - 사무서비스"},{"name":"에스티에이코퍼레이션주식회사","tel":"02-884-4557","addr":"경기도 안양시 동안구 학의로","category":"서적문구 - 과학기자재"},{"name":"원테크놀로지","tel":"031-337-5433","addr":"경기도 안양시 동안구 학의로","category":"전기제품 - 기타전기제품"},{"name":"자연환경알앤디(주)","tel":"031-450-2730","addr":"경기도 안양시 동안구 학의로","category":"용역 서비스 - 종합용역"},{"name":"주식회사 에코팜","tel":"031-463-1021","addr":"경기도 안양시 동안구 학의로","category":"농업 - 비료,사료,종자"},{"name":"주식회사 제이앤비컴퍼니","tel":"031-337-5151","addr":"경기도 안양시 동안구 학의로","category":"용역 서비스 - 소프트웨어"},{"name":"주식회사디자인나무","tel":"031-445-0607","addr":"경기도 안양시 동안구 학의로","category":"서적문구 - 출판 및 인쇄물"},{"name":"코리아트","tel":"031-426-1123","addr":"경기도 안양시 동안구 학의로","category":"전기제품 - 기타전기제품"}]},{"lat":"37.394722606","long":"126.94331157","items":[{"name":"라임수학교습소","tel":"031-341-8001","addr":"경기도 안양시 동안구 학의로","category":"회원제형태 - 학원"},{"name":"알칸수학교습소","tel":"031-381-2650","addr":"경기도 안양시 동안구 학의로","category":"회원제형태 - 학원"},{"name":"연세지성의원","tel":"031-387-0931","addr":"경기도 안양시 동안구 학의로","category":"의원 - 의원"},{"name":"평촌관악타운점(크린토피아)","tel":"031-385-7772","addr":"경기도 안양시 동안구 학의로","category":"수리서비스 - 세탁소"}]},{"lat":"37.394527864","long":"126.97848922","items":[{"name":"샬롬어린이집[아이행복]","tel":"031-424-0367","addr":"경기도 안양시 동안구 학의로","category":"학원 - 유아원"}]},{"lat":"37.398248955","long":"126.95050273","items":[{"name":"스마일세탁소","tel":"031-383-2139","addr":"경기도 안양시 동안구 학의로","category":"수리서비스 - 세탁소"}]},{"lat":"37.398302946","long":"126.95034459","items":[{"name":"아름드리어린이집[아이행복]","tel":"031-346-2303","addr":"경기도 안양시 동안구 학의로","category":"학원 - 유아원"}]},{"lat":"37.394983208","long":"126.9419562","items":[{"name":"아이생각어린이집[아이행복]","tel":"070-7534-9212","addr":"경기도 안양시 동안구 학의로","category":"학원 - 유아원"}]},{"lat":"37.401805004","long":"126.96672978","items":[{"name":"클라트 주식회사","tel":"031-596-6220","addr":"경기도 안양시 동안구 학의로","category":"전기제품 - 기타전기제품"},{"name":"한스커피","tel":"070-8881-4670","addr":"경기도 안양시 동안구 학의로","category":"일반휴게음식 - 서양음식"}]},{"lat":"37.394780223","long":"126.9788618","items":[{"name":"헤어 by 현","tel":"031-423-7422","addr":"경기도 안양시 동안구 학의로","category":"보건위생 - 미용원"}]},{"lat":"37.396417492","long":"126.94530913","items":[{"name":"혜리헤어","tel":"031-385-7530","addr":"경기도 안양시 동안구 학의로","category":"보건위생 - 미용원"}]}]