[{"lat":"37.007553813","long":"127.26782459","items":[{"name":"(주)바이더웨이-안성하평플리스점","tel":"031-671-0582","addr":"경기도 안성시 석정동 22-1번지 하평플리스 107호","category":"유통업 영리 - 편 의 점"},{"name":"강남성모안과의원","tel":"031-671-1505","addr":"경기도 안성시 석정동 22-1번지 하평플러스 2층 203호","category":"의원 - 의원"},{"name":"고려재활의학과의원","tel":"031-676-9152","addr":"경기도 안성시 석정동 22-1번지 하평플리스 204호,205호","category":"의원 - 의원"},{"name":"기린약국","tel":"031-675-2825","addr":"경기도 안성시 석정동 22-1번지 하평플러스 3층 307호","category":"약국 - 약국"},{"name":"나무그늘한의원","tel":"031-674-1075","addr":"경기도 안성시 석정동 22-1번지 하평플러스 304호","category":"의원 - 한의원"},{"name":"메디칼보룡약국","tel":"031-672-1306","addr":"경기도 안성시 석정동 22-1번지 하평플리스","category":"약국 - 약국"},{"name":"복음보청기 안성점","tel":"031-672-1999","addr":"경기도 안성시 석정동 22-1번지 하평플리스 103호","category":"보건위생 - 의료용품"},{"name":"사모당","tel":"031-673-4704","addr":"경기도 안성시 석정동 22-1번지","category":"신변잡화 - 시계"},{"name":"세븐일레븐안성하평플리스점","tel":"031-1577-0711","addr":"경기도 안성시 석정동 22-1번지 하평플리스 107호","category":"유통업 영리 - 편 의 점"},{"name":"아모레 카운셀러","tel":"031-677-7943","addr":"경기도 안성시 석정동 22-1번지 하평플리스 503호","category":"보건위생 - 화장품"},{"name":"아모레 카운셀러","tel":"031-677-7943","addr":"경기도 안성시 석정동 22-1번지","category":"보건위생 - 화장품"},{"name":"아모레 카운셀러","tel":"031-677-7943","addr":"경기도 안성시 석정동 22-1번지 하평플리스 503호","category":"보건위생 - 화장품"},{"name":"아모레외판","tel":"031-677-4567","addr":"경기도 안성시 석정동 22-1번지 하평플러스 503호","category":"보건위생 - 화장품"},{"name":"아모레카운셀러","tel":"031-677-4567","addr":"경기도 안성시 석정동 22-1번지 하평플리스 503호","category":"보건위생 - 화장품"},{"name":"아모레카운셀러","tel":"031-677-4567","addr":"경기도 안성시 석정동 22-1번지 하평플리스 503호","category":"보건위생 - 화장품"},{"name":"아모레카운셀러","tel":"031-677-4567","addr":"경기도 안성시 석정동 22-1번지 하평플리스 503호","category":"보건위생 - 화장품"},{"name":"아모레카운셀러","tel":"031-677-4567","addr":"경기도 안성시 석정동 22-1번지 하평플리스 503호","category":"보건위생 - 화장품"},{"name":"아모레카운셀러","tel":"031-677-4567","addr":"경기도 안성시 석정동 22-1번지 하평플러스 503호","category":"보건위생 - 화장품"},{"name":"아모레카운셀러","tel":"031-677-4567","addr":"경기도 안성시 석정동 22-1번지 하평플러스 503호","category":"보건위생 - 화장품"},{"name":"아모레카운셀러","tel":"031-677-4567","addr":"경기도 안성시 석정동 22-1번지 하평프라자 503호","category":"보건위생 - 화장품"},{"name":"아모레카운셀러","tel":"031-677-4567","addr":"경기도 안성시 석정동 22-1번지 하평플러스 503호","category":"보건위생 - 화장품"},{"name":"아모레카운셀러","tel":"031-677-4567","addr":"경기도 안성시 석정동 22-1번지 하평플리스 503호","category":"보건위생 - 화장품"},{"name":"아모레카운셀러","tel":"031-677-7943","addr":"경기도 안성시 석정동 22-1번지 하평플리스 5층 503호","category":"보건위생 - 화장품"},{"name":"아모레카운셀러","tel":"031-677-4567","addr":"경기도 안성시 석정동 22-1번지 하평플러스 503호","category":"보건위생 - 화장품"},{"name":"아모레카운셀러","tel":"031-677-7943","addr":"경기도 안성시 석정동 22-1번지 하평플리스 503호","category":"보건위생 - 화장품"},{"name":"아모레카운셀러","tel":"031-677-4567","addr":"경기도 안성시 석정동 22-1번지 하평플러스 503호","category":"보건위생 - 화장품"},{"name":"아모레카운셀러","tel":"031-677-4567","addr":"경기도 안성시 석정동 22-1번지 하평플러스 503호","category":"보건위생 - 화장품"},{"name":"아모레카운셀러","tel":"031-677-4567","addr":"경기도 안성시 석정동 22-1번지 하평플러스 503호","category":"보건위생 - 화장품"},{"name":"아모레카운셀러","tel":"031-677-4567","addr":"경기도 안성시 석정동 22-1번지","category":"보건위생 - 화장품"},{"name":"아모레카운셀러","tel":"031-677-4567","addr":"경기도 안성시 석정동 22-1번지 하평플러스 503호","category":"보건위생 - 화장품"},{"name":"아모레카운셀러","tel":"031-677-4567","addr":"경기도 안성시 석정동 22-1번지 하평플러스 503호","category":"보건위생 - 화장품"},{"name":"아모레카운셀러","tel":"031-677-4567","addr":"경기도 안성시 석정동 22-1번지 하평플러스 503호","category":"보건위생 - 화장품"},{"name":"아모레카운셀러","tel":"031-677-4567","addr":"경기도 안성시 석정동 22-1번지 하평플리스 503호","category":"보건위생 - 화장품"},{"name":"아모레카운셀러","tel":"031-677-7943","addr":"경기도 안성시 석정동 22-1번지 하평플리스 503호","category":"보건위생 - 화장품"},{"name":"아모레카운셀러","tel":"031-677-7943","addr":"경기도 안성시 석정동 22-1번지 하평플리스 503호","category":"보건위생 - 화장품"},{"name":"아모레카운셀러","tel":"031-677-7943","addr":"경기도 안성시 석정동 22-1번지 503,504호일부","category":"보건위생 - 화장품"},{"name":"아모레카운셀러","tel":"031-677-4567","addr":"경기도 안성시 석정동 22-1번지 하평플러스","category":"보건위생 - 화장품"},{"name":"아모레카운셀러","tel":"031-677-4567","addr":"경기도 안성시 석정동 22-1번지 하평플러스 503호","category":"보건위생 - 화장품"},{"name":"아모레카운셀러","tel":"031-677-4567","addr":"경기도 안성시 석정동 22-1번지 하평플러스 503호","category":"보건위생 - 화장품"},{"name":"아모레카운셀러","tel":"031-677-7943","addr":"경기도 안성시 석정동 22-1번지 하평플러스 503호","category":"보건위생 - 화장품"},{"name":"아모레카운셀러","tel":"031-677-7943","addr":"경기도 안성시 석정동 22-1번지 하평플리스 503호","category":"보건위생 - 화장품"},{"name":"아모레카운셀러","tel":"031-677-4567","addr":"경기도 안성시 석정동 22-1번지 하평플리스 503호","category":"보건위생 - 화장품"},{"name":"아모레카운셀러","tel":"031-677-4567","addr":"경기도 안성시 석정동 22-1번지 하평플리스 503호","category":"보건위생 - 화장품"},{"name":"아모레카운셀러","tel":"031-677-4567","addr":"경기도 안성시 석정동 22-1번지 하평플리스 503호","category":"보건위생 - 화장품"},{"name":"아모레카운셀러","tel":"031-677-4567","addr":"경기도 안성시 석정동 22-1번지 하평플러스 503호","category":"보건위생 - 화장품"},{"name":"아모레카운셀러","tel":"031-677-4567","addr":"경기도 안성시 석정동 22-1번지 하평플리스 5층 503호","category":"보건위생 - 화장품"},{"name":"아모레카운셀러","tel":"031-677-7943","addr":"경기도 안성시 석정동 22-1번지 하평플러스 5층 503호","category":"보건위생 - 화장품"},{"name":"아모레카운셀러","tel":"031-676-1998","addr":"경기도 안성시 석정동 22-1번지 하평플리스 503호","category":"의류 - 정장"},{"name":"아모레카운셀러","tel":"031-677-7943","addr":"경기도 안성시 석정동 22-1번지 5층","category":"보건위생 - 화장품"},{"name":"아모레카운셀러","tel":"031-677-7943","addr":"경기도 안성시 석정동 22-1번지 하평플리스 503호","category":"보건위생 - 화장품"},{"name":"아모레카운셀러","tel":"031-677-4567","addr":"경기도 안성시 석정동 22-1번지 하평플러스 503호","category":"보건위생 - 화장품"},{"name":"아모레카운셀러","tel":"031-677-7943","addr":"경기도 안성시 석정동 22-1번지 하평플러스 503호","category":"보건위생 - 화장품"},{"name":"아모레카운셀러","tel":"031-677-7943","addr":"경기도 안성시 석정동 22-1번지 하평플러스 503호","category":"보건위생 - 화장품"},{"name":"아모레카운셀러","tel":"031-677-4567","addr":"경기도 안성시 석정동 22-1번지 하평플러스 503호","category":"보건위생 - 화장품"},{"name":"아모레카운셀러","tel":"031-677-4567","addr":"경기도 안성시 석정동 22-1번지 하평플리스 503호","category":"보건위생 - 화장품"},{"name":"아모레퍼시픽","tel":"031-677-4567","addr":"경기도 안성시 석정동 22-1번지 하평플리스 503호","category":"보건위생 - 화장품"},{"name":"아모레퍼시픽 안성제일특약점","tel":"031-677-7943","addr":"경기도 안성시 석정동 22-1번지 5층, 503호전체,504호일부","category":"보건위생 - 화장품"},{"name":"아모레퍼시픽 안성제일특약점","tel":"031-677-7943","addr":"경기도 안성시 석정동 22-1번지","category":"보건위생 - 화장품"},{"name":"엘레강스스포츠","tel":"031-675-4679","addr":"경기도 안성시 석정동 22-1번지 1층 108하평플리스","category":"레져용품 - 스포츠·레져용품"},{"name":"자연말이김밥카페","tel":"031-674-4774","addr":"경기도 안성시 석정동 22-1번지 하평플리스 1층 104호","category":"일반휴게음식 - 일반한식"},{"name":"잠언의료기","tel":"031-674-7599","addr":"경기도 안성시 석정동 22-1번지 하평플리스 301호","category":"보건위생 - 의료용품"},{"name":"장수약국","tel":"031-672-4615","addr":"경기도 안성시 석정동 22-1번지 하평플러스 207호","category":"약국 - 약국"},{"name":"정다운약국","tel":"031-673-7286","addr":"경기도 안성시 석정동 22-1번지 하평프리스 410호","category":"약국 - 약국"},{"name":"정중희치과의원","tel":"031-672-2805","addr":"경기도 안성시 석정동 22-1번지","category":"의원 - 치과의원"},{"name":"중부축산물도매센터","tel":"031-673-9792","addr":"경기도 안성시 석정동 22-1번지","category":"음료식품 - 정육점"},{"name":"하나정신건강의학과의원","tel":"031-671-0075","addr":"경기도 안성시 석정동 22-1번지 하평플리스 206호","category":"의원 - 의원"},{"name":"하얀피부과의원","tel":"031-674-5592","addr":"경기도 안성시 석정동 22-1번지 4층","category":"의원 - 의원"}]},{"lat":"37.012524647","long":"127.2568529","items":[{"name":"(주)삼원스틸","tel":"031-677-3586","addr":"경기도 안성시 석정동 146-1","category":"기타 - 기타 전문점"}]},{"lat":"37.010775632","long":"127.26146503","items":[{"name":"(주)청담코디센 안성점","tel":"","addr":"경기도 안성시 석정동 247-5번지","category":"직물 - 침구·수예점"},{"name":"이브자리 한경대점","tel":"031-677-7141","addr":"경기도 안성시 석정동 247-5번지","category":"직물 - 침구·수예점"},{"name":"이브자리코디센 안성점","tel":"031-677-7141","addr":"경기도 안성시 석정동 247-5번지","category":"직물 - 침구·수예점"},{"name":"코아본점","tel":"031-673-1300","addr":"경기도 안성시 석정동 247-5번지","category":"서적문구 - 문구용품"}]},{"lat":"37.008357384","long":"127.26709707","items":[{"name":"(주)카블스톤에듀케이션(지점)","tel":"031-1577-3515","addr":"경기도 안성시 석정동 10-2번지 2층","category":"학원 - 보습학원"},{"name":"삼성시스템","tel":"031-677-3119","addr":"경기도 안성시 석정동 10-2번지","category":"사무통신 - 컴퓨터"},{"name":"샤넬","tel":"031-677-1231","addr":"경기도 안성시 석정동 10-2번지","category":"보건위생 - 화장품"},{"name":"쩡아Bar","tel":"031-674-3336","addr":"경기도 안성시 석정동 10-2번지","category":"일반휴게음식 - 주점"}]},{"lat":"37.008077129","long":"127.26751181","items":[{"name":"(주)해정관광","tel":"031-675-7550","addr":"경기도 안성시 석정동 13-5","category":"여행 - 관광여행"},{"name":"마들렌헤어살롱","tel":"031-673-0078","addr":"경기도 안성시 석정동 13-5번지 2층","category":"보건위생 - 미용원"},{"name":"홍홍분식","tel":"031-673-8555","addr":"경기도 안성시 석정동 13-5번지","category":"일반휴게음식 - 스넥"}]},{"lat":"37.010965526","long":"127.25698254","items":[{"name":"100번지 연탄구이","tel":"031-672-8822","addr":"경기도 안성시 석정동 382번지 104호","category":"일반휴게음식 - 일반한식"},{"name":"곱창가","tel":"031-674-0223","addr":"경기도 안성시 석정동 382번지 1동 1층","category":"일반휴게음식 - 일반한식"},{"name":"더(THE) 이루다헤어","tel":"031-656-7644","addr":"경기도 안성시 석정동 382번지","category":"보건위생 - 미용원"}]},{"lat":"37.008104962","long":"127.26307389","items":[{"name":"10분샵힐링캠프","tel":"031-673-4367","addr":"경기도 안성시 석정동 264-23번지 2층","category":"건강식품 - 기타건강식품"},{"name":"벤허","tel":"031-674-2671","addr":"경기도 안성시 석정동 264-23번지","category":"일반휴게음식 - 일반한식"}]},{"lat":"37.009190917","long":"127.26093158","items":[{"name":"38번가","tel":"031-678-3478","addr":"경기도 안성시 석정동 260-10번지 세종 103호","category":"일반휴게음식 - 주점"},{"name":"엘불리","tel":"031-672-3376","addr":"경기도 안성시 석정동 260-10번지","category":"일반휴게음식 - 서양음식"},{"name":"여우눈썹","tel":"070-8815-0447","addr":"경기도 안성시 석정동 260-10번지 1층","category":"보건위생 - 미용원"},{"name":"파티크라운","tel":"031-675-5077","addr":"경기도 안성시 석정동 260-10번지 세종 102호","category":"용역 서비스 - 혼례서비스"},{"name":"호두나무","tel":"031-354-9207","addr":"경기도 안성시 석정동 260-10번지 세종 1동 1층","category":"일반휴게음식 - 일반한식"}]},{"lat":"37.01210951","long":"127.25715489","items":[{"name":"CGV 안성","tel":"02-1544-1122","addr":"경기도 안성시 석정동 139-1번지","category":"문화.취미 - 영화관"},{"name":"스시대장","tel":"","addr":"경기도 안성시 석정동 139-1번지 106호","category":"일반휴게음식 - 일식·회집"},{"name":"신미소씨지비(CGV)","tel":"031-677-3027","addr":"경기도 안성시 석정동 139-1번지 1동 1층 107호","category":"일반휴게음식 - 일반한식"},{"name":"찰바스","tel":"031-111-1111","addr":"경기도 안성시 석정동 139-1번지 2층 203호","category":"일반휴게음식 - 서양음식"},{"name":"피자헛 안성석정점","tel":"031-672-2201","addr":"경기도 안성시 석정동 139-1번지 1층 108,109호","category":"일반휴게음식 - 서양음식"}]},{"lat":"37.007995157","long":"127.26790477","items":[{"name":"GOPHOTO","tel":"031-677-3516","addr":"경기도 안성시 석정동 5-3번지","category":"광학제품 - 사진관"},{"name":"쁘띠까또","tel":"031-676-1379","addr":"경기도 안성시 석정동 5-3번지","category":"음료식품 - 제과점"}]},{"lat":"37.008744295","long":"127.26326707","items":[{"name":"GS25안성내혜홀점","tel":"080-555-2525","addr":"경기도 안성시 석정동 266-29번지","category":"유통업 영리 - 편 의 점"},{"name":"살롱제이","tel":"031-674-2008","addr":"경기도 안성시 석정동 266-29번지 2층","category":"보건위생 - 미용원"},{"name":"석정마트","tel":"031-674-9822","addr":"경기도 안성시 석정동 266-29번지","category":"유통업 영리 - 슈퍼마켓"}]},{"lat":"37.007717056","long":"127.26735327","items":[{"name":"GS25안성타워점","tel":"02-2006-2118","addr":"경기도 안성시 석정동 24-1번지 크리스탈빌딩 101호","category":"유통업 영리 - 편 의 점"},{"name":"밝은미소SN치과의원","tel":"031-671-2275","addr":"경기도 안성시 석정동 24-1번지 크리스탈빌딩201호,202호,203호","category":"의원 - 치과의원"},{"name":"사진마을","tel":"031-674-4651","addr":"경기도 안성시 석정동 24-1번지 크리스탈빌딩 1001호","category":"광학제품 - 사진관"},{"name":"착한술집","tel":"031-674-4651","addr":"경기도 안성시 석정동 24-1번지 크리스탈빌딩 1001호, 1002호","category":"일반휴게음식 - 주점"}]},{"lat":"37.012023014","long":"127.26379512","items":[{"name":"GS25한경대기숙사점","tel":"","addr":"경기도 안성시 석정동 63-1번지 BTL기숙사내 매점 1층","category":"유통업 영리 - 편 의 점"},{"name":"레디언티","tel":"","addr":"경기도 안성시 석정동 63-1번지 한경대학교 산학협력관동 5층 506-2호","category":"문화.취미 - 애완동물"},{"name":"블루포트 한경대점/(주)씨앤코컴퍼니","tel":"02-465-1121","addr":"경기도 안성시 석정동 63-1번지 한경대학교학생휴게공간","category":"일반휴게음식 - 서양음식"},{"name":"셀루스원 주식회사","tel":"031-678-9890","addr":"경기도 안성시 석정동 63-1번지 한경대학교 D동 208-1호","category":"음료식품 - 기타음료식품"},{"name":"씨유한경대점","tel":"080-080-3663","addr":"경기도 안성시 석정동 63-1번지 한경대학교학생휴게공간 1층","category":"유통업 영리 - 편 의 점"},{"name":"안성맞춤지역자활센터","tel":"031-9072-6014","addr":"경기도 안성시 석정동 63-1번지 한경대학교 산학협력관 508호","category":"음료식품 - 농·축·수산품"},{"name":"에이스엠자임","tel":"031-601-6316","addr":"경기도 안성시 석정동 63-1번지 한경대학교 산학협력관 403호","category":"건강식품 - 기타건강식품"},{"name":"엔젤아로마스토리(Angel Aroma Story)","tel":"070-7803-3767","addr":"경기도 안성시 석정동 63-1번지 한경대학교 1층 산학협력관","category":"보건위생 - 화장품"},{"name":"연우스토리","tel":"","addr":"경기도 안성시 석정동 63-1번지 1층 한경대학교 산업협력관","category":"보건위생 - 화장품"},{"name":"인 커뮤니케이션","tel":"","addr":"경기도 안성시 석정동 63-1번지 한경대학교 506-1호 산업협력관","category":"신변잡화 - 기타잡화"},{"name":"주식회사클론","tel":"031-670-5104","addr":"경기도 안성시 석정동 67 한경대학교아이동320호","category":"용역 서비스 - 사무서비스"},{"name":"투린","tel":"031-111-1111","addr":"경기도 안성시 석정동 63-1번지 한경대학교 산학협력관 1층","category":"서적문구 - 과학기자재"},{"name":"한경대 매표소","tel":"031-671-5050","addr":"경기도 안성시 석정동 63-1번지 한경대학교","category":"음료식품 - 기타음료식품"},{"name":"한경대학교","tel":"031-670-5532","addr":"경기도 안성시 석정동 63-1번지 한경대학교","category":"서적문구 - 과학기자재"},{"name":"한경대학교","tel":"031-670-5532","addr":"경기도 안성시 석정동 63-1번지 한경대학교","category":"음료식품 - 기타음료식품"},{"name":"한경대학교","tel":"031-670-5532","addr":"경기도 안성시 석정동 67 한경대학교 제1농학관102호(농업과학교육원)","category":"학원 - 대학등록금"},{"name":"한경대학교","tel":"031-670-5532","addr":"경기도 안성시 석정동 63-1번지","category":"음료식품 - 기타음료식품"},{"name":"한경대학교","tel":"031-670-5532","addr":"경기도 안성시 석정동 63-1번지","category":"학원 - 기타 교육기관"},{"name":"한경대학교 직장어린이집[아이행복]","tel":"031-678-4923","addr":"경기도 안성시 석정동 63-1번지","category":"학원 - 유아원"},{"name":"한경대학교/경리팀","tel":"031-670-5532","addr":"경기도 안성시 석정동 63-1번지 경리팀","category":"학원 - 대학등록금"},{"name":"한경대학교산학협력단","tel":"031-420-4517","addr":"경기도 안성시 석정동 63-1번지 한경대학교","category":"일반휴게음식 - 스넥"}]},{"lat":"37.008194402","long":"127.26337755","items":[{"name":"HAIR&LEE","tel":"031-672-3733","addr":"경기도 안성시 석정동 269-25","category":"보건위생 - 미용원"},{"name":"운현정","tel":"031-671-3377","addr":"경기도 안성시 석정동 269-25번지","category":"보건위생 - 사우나"},{"name":"운현정 샵","tel":"031-671-8818","addr":"경기도 안성시 석정동 269-25번지","category":"회원제형태 - 기타4"}]},{"lat":"37.010801126","long":"127.26626283","items":[{"name":"H커피로스터스","tel":"031-674-6040","addr":"경기도 안성시 석정동 81번지","category":"일반휴게음식 - 서양음식"},{"name":"윤슬이네 네일샵","tel":"070-7603-1322","addr":"경기도 안성시 석정동 81번지 한경타운 106호","category":"보건위생 - 피부미용실"}]},{"lat":"37.008250306","long":"127.2666248","items":[{"name":"JDX 안성점","tel":"031-675-1951","addr":"경기도 안성시 석정동 16번지","category":"레져용품 - 스포츠·레져용품"},{"name":"가자주류","tel":"031-675-1311","addr":"경기도 안성시 석정동 16번지","category":"음료식품 - 기타음료식품"}]},{"lat":"37.007436179","long":"127.26398168","items":[{"name":"Juno Table","tel":"031-674-3761","addr":"경기도 안성시 석정동 270-33번지 1층","category":"음료식품 - 제과점"},{"name":"S영어 교습소","tel":"031-8052-6005","addr":"경기도 안성시 석정동 270-33번지 2층","category":"학원 - 외국어학원"}]},{"lat":"37.008414042","long":"127.26592877","items":[{"name":"LG오휘","tel":"031-671-3442","addr":"경기도 안성시 석정동 21-1번지 3층","category":"보건위생 - 화장품"},{"name":"LG화장품 오휘","tel":"031-671-3442","addr":"경기도 안성시 석정동 21-1번지 현대자동차 3층","category":"보건위생 - 화장품"},{"name":"LG화장품/권경희","tel":"031-671-3442","addr":"경기도 안성시 석정동 21-1번지","category":"보건위생 - 화장품"},{"name":"LG화장품/임선영","tel":"031-671-3442","addr":"경기도 안성시 석정동 21-1번지 3층","category":"보건위생 - 화장품"},{"name":"YS코퍼레이션","tel":"070-8052-0007","addr":"경기도 안성시 석정동 21-1번지 원형빌딩","category":"사무통신 - 통신기기"},{"name":"더플랜컴퓨터아트회계학원","tel":"031-676-7900","addr":"경기도 안성시 석정동 21-1번지","category":"학원 - 기능학원"},{"name":"엘지오휘화장품안성지사","tel":"031-671-3442","addr":"경기도 안성시 석정동 21-1번지 3층","category":"보건위생 - 화장품"},{"name":"헤어명가","tel":"031-673-3131","addr":"경기도 안성시 석정동 21-1번지 원형빌딩 1층","category":"보건위생 - 미용원"}]},{"lat":"37.009605405","long":"127.26093298","items":[{"name":"M.J(마중)","tel":"031-111-1111","addr":"경기도 안성시 석정동 255-4번지 강스빌 1층 101호","category":"의류 - 정장"},{"name":"맥주가게끝판왕","tel":"031-672-7310","addr":"경기도 안성시 석정동 255-4번지 강스빌 가동 2층","category":"일반휴게음식 - 주점"},{"name":"안성화로닭발","tel":"070-0000-0000","addr":"경기도 안성시 석정동 255-4번지 강스빌 가동 101호","category":"일반휴게음식 - 일반한식"}]},{"lat":"37.011248304","long":"127.25956775","items":[{"name":"S.K보습학원","tel":"031-676-4321","addr":"경기도 안성시 석정동 343번지 우남 상가 201호","category":"학원 - 보습학원"},{"name":"TO(투)","tel":"031-675-1128","addr":"경기도 안성시 석정동 343번지 한빛마을우남퍼스트빌","category":"일반휴게음식 - 서양음식"},{"name":"굽네치킨","tel":"031-672-9492","addr":"경기도 안성시 석정동 343번지 한빛마을우남퍼스트빌 상가동 1층 102호","category":"일반휴게음식 - 스넥"},{"name":"김정희헤어리더","tel":"031-673-4664","addr":"경기도 안성시 석정동 343번지 한빛마을우남퍼스트빌 상가 203호","category":"보건위생 - 미용원"},{"name":"꿈스꿈스","tel":"031-671-9233","addr":"경기도 안성시 석정동 343번지 우남퍼스트빌 상가 101호","category":"일반휴게음식 - 주점"},{"name":"뽕뜨락피자","tel":"031-674-1171","addr":"경기도 안성시 석정동 343번지 한빛마을우남퍼스트빌 상가동 1층 103호","category":"일반휴게음식 - 서양음식"},{"name":"세이스윗","tel":"","addr":"경기도 안성시 석정동 343번지 한빛마을우남퍼스트빌 105호","category":"일반휴게음식 - 서양음식"},{"name":"스케치북미술교습소","tel":"031-675-1128","addr":"경기도 안성시 석정동 343번지 한빛마을우남퍼스트빌 107호","category":"학원 - 예·체능계학원"},{"name":"쎈수학러닝센터우남수학교습소","tel":"031-671-4014","addr":"경기도 안성시 석정동 343번지 한빛마을우남퍼스트빌 상가동 304호","category":"학원 - 보습학원"},{"name":"우남드라이크리닝","tel":"031-671-8845","addr":"경기도 안성시 석정동 343번지 우남퍼스트빌단지 상가 108호","category":"수리서비스 - 세탁소"},{"name":"카페,ㅂㅁ","tel":"031-1111-1111","addr":"경기도 안성시 석정동 343번지 한빛마을우남퍼스트빌 상가 1층 109호","category":"일반휴게음식 - 서양음식"},{"name":"한빛우남어린이집[아이행복]","tel":"031-673-9994","addr":"경기도 안성시 석정동 343번지 한빛마을우남퍼스트빌 관리동 1층","category":"학원 - 유아원"}]},{"lat":"37.007999431","long":"127.26598352","items":[{"name":"S2정보통신","tel":"031-675-1019","addr":"경기도 안성시 석정동 33-5번지 정림빌딩 1층","category":"사무통신 - 통신기기"},{"name":"다비치안경","tel":"031-677-0702","addr":"경기도 안성시 석정동 33-5번지","category":"보건위생 - 안경"},{"name":"안성상사","tel":"031-675-3544","addr":"경기도 안성시 석정동 33-5번지 정림빌딩","category":"직물 - 옷감·직물"},{"name":"유디치과의원","tel":"031-675-1771","addr":"경기도 안성시 석정동 33-5번지","category":"의원 - 치과의원"},{"name":"처음스튜디오","tel":"031-672-6770","addr":"경기도 안성시 석정동 33-5번지 정림빌딩4층","category":"광학제품 - 사진관"}]},{"lat":"37.008131869","long":"127.26720864","items":[{"name":"T.G.O미용실","tel":"031-672-2971","addr":"경기도 안성시 석정동 11-3번지","category":"보건위생 - 미용원"},{"name":"경희마취통증의학과의원","tel":"031-675-7319","addr":"경기도 안성시 석정동 11-3번지","category":"의원 - 의원"},{"name":"미림화원","tel":"031-673-0915","addr":"경기도 안성시 석정동 11-3번지","category":"문화.취미 - 화원"}]},{"lat":"37.009940674","long":"127.26006896","items":[{"name":"TOP헤어","tel":"031-671-4728","addr":"경기도 안성시 석정동 232-11번지 CS빌리지 상가동 103호","category":"보건위생 - 미용원"},{"name":"세븐일레븐석정점","tel":"031-1577-0711","addr":"경기도 안성시 석정동 232-11번지 1층 101호","category":"유통업 영리 - 편 의 점"},{"name":"앨리트해법학원","tel":"031-671-0916","addr":"경기도 안성시 석정동 232-11번지","category":"학원 - 보습학원"},{"name":"참치 먹는 날","tel":"","addr":"경기도 안성시 석정동 232-11번지 104호","category":"음료식품 - 농·축·수산품"}]},{"lat":"37.00933357","long":"127.26162868","items":[{"name":"VIP스크린","tel":"031-671-3373","addr":"경기도 안성시 석정동 255-6번지","category":"레저업소 - 스크린골프"},{"name":"국민야시장","tel":"031-674-5325","addr":"경기도 안성시 석정동 255-6번지 1층","category":"일반휴게음식 - 일반한식"},{"name":"팔팔장어 주식회사","tel":"031-675-8855","addr":"경기도 안성시 석정동 255-6번지","category":"일반휴게음식 - 일반한식"}]},{"lat":"37.009966805","long":"127.26048477","items":[{"name":"Ym Total Beauty Salon","tel":"031-677-6985","addr":"경기도 안성시 석정동 232-1번지","category":"보건위생 - 미용원"},{"name":"도작가안성한경대점","tel":"031-671-0369","addr":"경기도 안성시 석정동 232-1번지 1층 중앙호","category":"일반휴게음식 - 서양음식"},{"name":"뷰티코리아","tel":"031-671-6151","addr":"경기도 안성시 석정동 232-1번지 1층","category":"보건위생 - 화장품"},{"name":"안성 초밥집","tel":"031-671-8213","addr":"경기도 안성시 석정동 232-1번지 1층 좌측호","category":"일반휴게음식 - 일식·회집"},{"name":"태영스크린","tel":"031-674-7800","addr":"경기도 안성시 석정동 232-1 (중앙로302번길 13) 외2필지","category":"회원제형태 - 레져업소"}]},{"lat":"37.007274485","long":"127.26782362","items":[{"name":"가방나라","tel":"031-674-9955","addr":"경기도 안성시 석정동 26-8번지","category":"신변잡화 - 가방"},{"name":"고향만두","tel":"031-672-1948","addr":"경기도 안성시 석정동 26-8번지","category":"일반휴게음식 - 일반한식"},{"name":"음성여인숙","tel":"031-676-2916","addr":"경기도 안성시 석정동 26-8번지","category":"숙박업 - 여관/기타숙박업"}]},{"lat":"37.008277962","long":"127.26634401","items":[{"name":"가자주류.크레빅","tel":"031-675-1951","addr":"경기도 안성시 석정동 17-1번지","category":"의류 - 정장"}]},{"lat":"37.010136981","long":"127.26095725","items":[{"name":"갈비명가두툼한숯불갈비","tel":"031-676-8250","addr":"경기도 안성시 석정동 254-6번지","category":"일반휴게음식 - 일반한식"},{"name":"동현피트니스","tel":"031-674-9813","addr":"경기도 안성시 석정동 254-6번지 2층","category":"레저업소 - 헬스클럽"},{"name":"반값소(안성점)","tel":"031-671-9293","addr":"경기도 안성시 석정동 254-6번지 1층","category":"일반휴게음식 - 일반한식"},{"name":"안성극동볼링경기장","tel":"031-677-3500","addr":"경기도 안성시 석정동 254-6번지","category":"레저업소 - 볼 링 장"},{"name":"준이네정육점","tel":"031-671-9293","addr":"경기도 안성시 석정동 254-6번지","category":"음료식품 - 정육점"}]},{"lat":"37.008554014","long":"127.26781682","items":[{"name":"갈샘갤러리","tel":"031-8052-4775","addr":"경기도 안성시 석정동 7번지 2층","category":"문화.취미 - 화랑"},{"name":"영자제주몽흑돼지","tel":"","addr":"경기도 안성시 석정동 7번지","category":"일반휴게음식 - 일반한식"},{"name":"이현주무용학원","tel":"031-675-6992","addr":"경기도 안성시 석정동 7번지","category":"학원 - 예·체능계학원"}]},{"lat":"37.008053918","long":"127.2657927","items":[{"name":"감성텔레콤","tel":"031-674-4458","addr":"경기도 안성시 석정동 33-7번지 101호","category":"사무통신 - 통신기기"},{"name":"우경한복연구실","tel":"031-677-4930","addr":"경기도 안성시 석정동 33-7번지","category":"의류 - 맞춤복점"},{"name":"주식회사주광(피자헛안성점)","tel":"031-671-6300","addr":"경기도 안성시 석정동 33-7번지","category":"유통업 영리 - 인터넷 Mall"},{"name":"주식회사주광(피자헛안성점)","tel":"031-671-6300","addr":"경기도 안성시 석정동 33-7번지","category":"일반휴게음식 - 칵테일바"}]},{"lat":"37.009189401","long":"127.26162819","items":[{"name":"고기자리","tel":"031-675-3000","addr":"경기도 안성시 석정동 260-24번지","category":"일반휴게음식 - 일반한식"},{"name":"착한곱한우곱창","tel":"031-676-8892","addr":"경기도 안성시 석정동 260-24번지 1층","category":"일반휴게음식 - 일반한식"}]},{"lat":"37.008274485","long":"127.26790574","items":[{"name":"고향밥상","tel":"031-676-7172","addr":"경기도 안성시 석정동 3-4번지","category":"일반휴게음식 - 일반한식"},{"name":"못된송아지","tel":"031-677-8605","addr":"경기도 안성시 석정동 3-4번지","category":"일반휴게음식 - 일반한식"},{"name":"비겐의료기","tel":"031-677-7589","addr":"경기도 안성시 석정동 3-4번지 2층","category":"보건위생 - 의료용품"},{"name":"비겐의료기 안성센터","tel":"031-677-7589","addr":"경기도 안성시 석정동 3-4번지 2층","category":"보건위생 - 의료용품"}]},{"lat":"37.008133395","long":"127.26243356","items":[{"name":"골드노래연습장","tel":"031-673-7773","addr":"경기도 안성시 석정동 264-12번지 2층","category":"레저업소 - 노 래 방"},{"name":"골드노래연습장","tel":"031-673-7773","addr":"경기도 안성시 석정동 264-12번지","category":"레저업소 - 노 래 방"},{"name":"김밥나라","tel":"031-674-4544","addr":"경기도 안성시 석정동 264-12번지","category":"일반휴게음식 - 스넥"},{"name":"라무","tel":"031-674-1771","addr":"경기도 안성시 석정동 264-12번지","category":"일반휴게음식 - 일반한식"},{"name":"심포니음악학원","tel":"031-673-3327","addr":"경기도 안성시 석정동 264-12번지","category":"학원 - 예·체능계학원"},{"name":"아양당구클럽","tel":"031-676-5534","addr":"경기도 안성시 석정동 264-12번지","category":"레저업소 - 당 구 장"},{"name":"육회한연어","tel":"031-111-1111","addr":"경기도 안성시 석정동 264-12번지","category":"일반휴게음식 - 일반한식"}]},{"lat":"37.008603541","long":"127.26170485","items":[{"name":"골드문","tel":"031-674-0658","addr":"경기도 안성시 석정동 262-10번지 2층","category":"일반휴게음식 - 중국식"},{"name":"동안성로타리클럽","tel":"031-677-3600","addr":"경기도 안성시 석정동 262-10번지","category":"기타 - 비영리/대상"},{"name":"명품왕족발","tel":"031-677-6116","addr":"경기도 안성시 석정동 262-10번지","category":"일반휴게음식 - 일반한식"},{"name":"세븐일레븐안성석정중앙점","tel":"","addr":"경기도 안성시 석정동 262-10번지","category":"유통업 영리 - 편 의 점"},{"name":"한신포차 안성석정점","tel":"031-675-1827","addr":"경기도 안성시 석정동 262-10번지 석수 상가 1층","category":"일반휴게음식 - 일반한식"}]},{"lat":"37.008215031","long":"127.26218666","items":[{"name":"곱창고","tel":"031-677-8292","addr":"경기도 안성시 석정동 264-14번지 석정빌딩","category":"일반휴게음식 - 일반한식"},{"name":"다래향염소마을","tel":"031-671-4533","addr":"경기도 안성시 석정동 264-14번지","category":"일반휴게음식 - 일반한식"},{"name":"도리끼","tel":"031-674-1048","addr":"경기도 안성시 석정동 264-14번지","category":"일반휴게음식 - 일반한식"},{"name":"빅 점프빅","tel":"031-674-7077","addr":"경기도 안성시 석정동 264-14번지 지하","category":"레저업소 - 기타레져업소"},{"name":"안성당구클럽","tel":"031-677-6868","addr":"경기도 안성시 석정동 264-14번지 석정빌딩","category":"레저업소 - 당 구 장"},{"name":"이에프씨 피씨 존(EFC PC ZONE)","tel":"","addr":"경기도 안성시 석정동 264-14번지 석정빌딩 2층","category":"레저업소 - 기타레져업소"},{"name":"홍춘천치즈닭갈비","tel":"031-677-0996","addr":"경기도 안성시 석정동 264-14번지 석정빌딩 1층","category":"일반휴게음식 - 일반한식"}]},{"lat":"37.014244439","long":"127.26160038","items":[{"name":"관인오퍼스음악학원","tel":"031-671-1245","addr":"경기도 안성시 석정동 332-2번지","category":"회원제형태 - 학원"},{"name":"단미헤어","tel":"031-672-7644","addr":"경기도 안성시 석정동 332-2번지 준건빌딩 1층","category":"보건위생 - 미용원"},{"name":"몰캉(molkang)","tel":"","addr":"경기도 안성시 석정동 332-2번지","category":"일반휴게음식 - 서양음식"},{"name":"비룡분식","tel":"031-0000-0000","addr":"경기도 안성시 석정동 332-2번지 준건빌딩","category":"일반휴게음식 - 스넥"},{"name":"석봉토스트한경대점","tel":"031-674-2455","addr":"경기도 안성시 석정동 332-2번지 준건빌딩 1층 103호","category":"일반휴게음식 - 일반한식"},{"name":"최강학원","tel":"031-677-2395","addr":"경기도 안성시 석정동 332-2번지 준건빌딩 2층 205호","category":"학원 - 보습학원"}]},{"lat":"37.010131938","long":"127.2591258","items":[{"name":"구노포차 아양점","tel":"","addr":"경기도 안성시 석정동 233-6번지 107,108호","category":"일반휴게음식 - 주점"}]},{"lat":"37.007158725","long":"127.26720527","items":[{"name":"국제제분","tel":"031-672-2239","addr":"경기도 안성시 석정동 28-2번지","category":"음료식품 - 기타음료식품"},{"name":"신짬뽕상회","tel":"031-677-6669","addr":"경기도 안성시 석정동 28-2번지","category":"일반휴게음식 - 중국식"}]},{"lat":"37.012213133","long":"127.25504285","items":[{"name":"굴이야기","tel":"031-676-0078","addr":"경기도 안성시 석정동 153-9번지","category":"일반휴게음식 - 일반한식"},{"name":"사또추어탕","tel":"031-693-2357","addr":"경기도 안성시 석정동 153-9번지","category":"일반휴게음식 - 일반한식"}]},{"lat":"37.0071592","long":"127.2669918","items":[{"name":"굿모닝 GYM","tel":"031-674-3488","addr":"경기도 안성시 석정동 28-6번지 3층","category":"레저업소 - 헬스클럽"},{"name":"바다","tel":"031-675-6716","addr":"경기도 안성시 석정동 28-6번지","category":"레져용품 - 스포츠·레져용품"},{"name":"바다","tel":"031-675-6716","addr":"경기도 안성시 석정동 28-6번지","category":"음료식품 - 미곡상"},{"name":"안성한의원","tel":"031-635-7800","addr":"경기도 안성시 석정동 28-6번지","category":"의원 - 한의원"},{"name":"해피안의료기 안성지점","tel":"031-677-7585","addr":"경기도 안성시 석정동 28-6번지 2층 1호","category":"보건위생 - 의료용품"},{"name":"효성장수원","tel":"031-677-1550","addr":"경기도 안성시 석정동 28-6번지","category":"건강식품 - 기타건강식품"}]},{"lat":"37.007662517","long":"127.26756655","items":[{"name":"굿모닝약국","tel":"031-677-9733","addr":"경기도 안성시 석정동 23번지 모아빌딩","category":"약국 - 약국"},{"name":"모아산후조리원","tel":"031-674-7759","addr":"경기도 안성시 석정동 23번지 (25-17층)","category":"기타의료기관 - 산후조리원"},{"name":"불닭발땡초동대문엽기떡볶이","tel":"031-672-8592","addr":"경기도 안성시 석정동 23번지 모아빌딩 가동 1층 101호","category":"일반휴게음식 - 일반한식"},{"name":"웰의원","tel":"031-671-6400","addr":"경기도 안성시 석정동 23번지 모아빌딩","category":"의원 - 의원"},{"name":"티티","tel":"031-672-8249","addr":"경기도 안성시 석정동 23번지 모아빌딩 2층","category":"보건위생 - 화장품"}]},{"lat":"37.006910368","long":"127.26542923","items":[{"name":"굿프라이스","tel":"031-258-4236","addr":"경기도 안성시 석정동 278-29번지 101호","category":"신변잡화 - 기타잡화"}]},{"lat":"37.007384415","long":"127.26701505","items":[{"name":"그랜드파크","tel":"031-671-1232","addr":"경기도 안성시 석정동 27-2번지","category":"숙박업 - 여관/기타숙박업"}]},{"lat":"37.006575184","long":"127.26623702","items":[{"name":"그린마을","tel":"031-677-3379","addr":"경기도 안성시 석정동 280-5번지","category":"일반휴게음식 - 일반한식"},{"name":"연일유리","tel":"031-676-2206","addr":"경기도 안성시 석정동 280-5번지","category":"건축자재 - 유리"},{"name":"예촌식당","tel":"031-674-4914","addr":"경기도 안성시 석정동 280-5번지","category":"일반휴게음식 - 일반한식"},{"name":"팝콘헤어샵","tel":"031-672-3096","addr":"경기도 안성시 석정동 280-5번지 1층","category":"보건위생 - 미용원"}]},{"lat":"37.009103633","long":"127.26376267","items":[{"name":"글라스스토리안경원","tel":"031-673-4949","addr":"경기도 안성시 석정동 268-11번지","category":"보건위생 - 안경"}]},{"lat":"37.009132661","long":"127.26285268","items":[{"name":"글로버피씨랩안성한경대점","tel":"070-6455-5824","addr":"경기도 안성시 석정동 266-8번지 2층","category":"레저업소 - 기타레져업소"},{"name":"연탄돼지갈비 안성점","tel":"031-674-4118","addr":"경기도 안성시 석정동 266-8번지","category":"일반휴게음식 - 일반한식"}]},{"lat":"37.007720401","long":"127.26584773","items":[{"name":"기운찬 한의원","tel":"031-672-1144","addr":"경기도 안성시 석정동 276번지 S TOWER 201호","category":"의원 - 한의원"},{"name":"아드레날린 전자담배","tel":"","addr":"경기도 안성시 석정동 276번지","category":"기타 - 기타 전문점"},{"name":"평수네 휴대폰","tel":"031-675-2011","addr":"경기도 안성시 석정동 276번지","category":"사무통신 - 통신기기"}]},{"lat":"37.00929946","long":"127.26074094","items":[{"name":"꼬지사께안성석정점","tel":"031-676-0595","addr":"경기도 안성시 석정동 258-4번지","category":"일반휴게음식 - 주점"},{"name":"무드문(MOODMOON)","tel":"031-111-1111","addr":"경기도 안성시 석정동 258-4번지 3층","category":"일반휴게음식 - 서양음식"}]},{"lat":"37.014073825","long":"127.26133013","items":[{"name":"꽃샘어림이집[아이행복]","tel":"031-677-0445","addr":"경기도 안성시 석정동 117-5번지 영림빌라 1동 107호","category":"학원 - 유아원"}]},{"lat":"37.014298625","long":"127.26154438","items":[{"name":"꽃처럼","tel":"","addr":"경기도 안성시 석정동 332번지 한보빌리지 1층 3호","category":"문화.취미 - 화원"},{"name":"로니헤어","tel":"070-4763-5091","addr":"경기도 안성시 석정동 332번지","category":"보건위생 - 미용원"},{"name":"바른학원","tel":"031-674-8205","addr":"경기도 안성시 석정동 332번지 한보빌리지 1층","category":"학원 - 외국어학원"},{"name":"시매쓰","tel":"031-672-8683","addr":"경기도 안성시 석정동 332번지 한보빌리지 2층 1호","category":"서적문구 - 기타서적문구"},{"name":"타카푸나영어원서교실","tel":"","addr":"경기도 안성시 석정동 332번지 한보빌리지 201호","category":"학원 - 외국어학원"},{"name":"토프레소 안성비룡점","tel":"031-673-0633","addr":"경기도 안성시 석정동 332번지 한보빌리지 1층","category":"일반휴게음식 - 서양음식"}]},{"lat":"37.011935679","long":"127.25837904","items":[{"name":"나비살롱","tel":"031-672-7644","addr":"경기도 안성시 석정동 131-3번지 가동 201호","category":"보건위생 - 미용원"},{"name":"동네고기집","tel":"031-676-5800","addr":"경기도 안성시 석정동 131-3번지 가동 1층","category":"일반휴게음식 - 일반한식"}]},{"lat":"37.008158902","long":"127.26313025","items":[{"name":"남동현참치","tel":"031-673-7009","addr":"경기도 안성시 석정동 264-9번지 1층","category":"일반휴게음식 - 일식·회집"}]},{"lat":"37.00886126","long":"127.26334612","items":[{"name":"내혜홀포차","tel":"031-672-1002","addr":"경기도 안성시 석정동 267-7번지 1층","category":"일반휴게음식 - 일반한식"}]},{"lat":"37.008776926","long":"127.2648177","items":[{"name":"넘버원","tel":"031-671-2882","addr":"경기도 안성시 석정동 339-1번지 2층","category":"보건위생 - 피부미용실"}]},{"lat":"37.00749955","long":"127.26384707","items":[{"name":"노노","tel":"031-672-7797","addr":"경기도 안성시 석정동 270-7번지 가동 1층","category":"일반휴게음식 - 일반한식"}]},{"lat":"37.007889027","long":"127.26292709","items":[{"name":"놀란돼지","tel":"031-674-6225","addr":"경기도 안성시 석정동 264-44번지","category":"일반휴게음식 - 일반한식"}]},{"lat":"37.009074771","long":"127.264594","items":[{"name":"농협지하가구","tel":"031-676-2912","addr":"경기도 안성시 석정동 339번지","category":"가구 - 일반가구"},{"name":"안성농업협동조합석정지점","tel":"031-676-0731","addr":"경기도 안성시 석정동 339번지","category":"음료식품 - 농·축·수산품"},{"name":"안성농업협동조합석정지점","tel":"031-676-0492","addr":"경기도 안성시 석정동 339번지","category":"유통업 비영리 - 농,축협 직영매장"}]},{"lat":"37.007582223","long":"127.26720674","items":[{"name":"뉴목련헤어라인","tel":"031-673-5965","addr":"경기도 안성시 석정동 25-5번지","category":"보건위생 - 미용원"},{"name":"먹보식당","tel":"031-673-5962","addr":"경기도 안성시 석정동 25-5번지","category":"일반휴게음식 - 일반한식"}]},{"lat":"37.00732689","long":"127.26450937","items":[{"name":"뉴팜유산균일일구판촉","tel":"031-677-7966","addr":"경기도 안성시 석정동 274-5번지","category":"건강식품 - 기타건강식품"},{"name":"둥글돈","tel":"031-671-9266","addr":"경기도 안성시 석정동 274-5번지","category":"일반휴게음식 - 일반한식"},{"name":"수궁낙지탕","tel":"031-671-9266","addr":"경기도 안성시 석정동 274-5번지 1층","category":"일반휴게음식 - 일반한식"}]},{"lat":"37.008785978","long":"127.26068303","items":[{"name":"다사랑어린이집[아이행복]","tel":"031-675-2810","addr":"경기도 안성시 석정동 355번지 신원아침도시 103동 103호","category":"학원 - 유아원"}]},{"lat":"37.009777826","long":"127.26037178","items":[{"name":"다사랑한경대점","tel":"031-671-9244","addr":"경기도 안성시 석정동 214-10번지","category":"일반휴게음식 - 스넥"},{"name":"용인대정도태권도체육관","tel":"031-673-0294","addr":"경기도 안성시 석정동 214-10번지 2층","category":"학원 - 예·체능계학원"}]},{"lat":"37.007193766","long":"127.26765481","items":[{"name":"담다디노래연습장,담다디전열ENG","tel":"031-676-0510","addr":"경기도 안성시 석정동 26-4번지","category":"레저업소 - 노 래 방"},{"name":"담다디전열ENG","tel":"031-676-0510","addr":"경기도 안성시 석정동 26-4번지","category":"전기제품 - 냉열기기"},{"name":"동명식품","tel":"031-674-5304","addr":"경기도 안성시 석정동 26-4번지","category":"음료식품 - 기타음료식품"},{"name":"새로나당구장","tel":"031-673-1579","addr":"경기도 안성시 석정동 26-4번지","category":"레저업소 - 당 구 장"},{"name":"시장부페","tel":"031-673-9196","addr":"경기도 안성시 석정동 26-4번지","category":"일반휴게음식 - 일반한식"},{"name":"차차차노래연습장","tel":"031-676-0510","addr":"경기도 안성시 석정동 26-4번지","category":"레저업소 - 노 래 방"}]},{"lat":"37.008936075","long":"127.26209922","items":[{"name":"대동국수(안성점)","tel":"","addr":"경기도 안성시 석정동 261-1번지 1층 우측호","category":"일반휴게음식 - 일반한식"},{"name":"레전드스크린야구안성점","tel":"031-673-7700","addr":"경기도 안성시 석정동 261-1번지 2층","category":"레저업소 - 기타레져업소"},{"name":"메밀촌막국수","tel":"031-674-2260","addr":"경기도 안성시 석정동 261-1번지","category":"일반휴게음식 - 일반한식"},{"name":"스트라이크존 안성한경대구장","tel":"","addr":"경기도 안성시 석정동 261-1번지 나동","category":"레저업소 - 기타레져업소"},{"name":"으뜸통닭","tel":"031-677-9696","addr":"경기도 안성시 석정동 261-1번지 좌측호 나동 1층","category":"일반휴게음식 - 스넥"}]},{"lat":"37.007356958","long":"127.26720596","items":[{"name":"대신장 여관","tel":"031-675-7733","addr":"경기도 안성시 석정동 27-1번지 2층","category":"숙박업 - 여관/기타숙박업"}]},{"lat":"37.00680157","long":"127.26573221","items":[{"name":"대원갈비","tel":"031-675-5982","addr":"경기도 안성시 석정동 279-7번지","category":"일반휴게음식 - 일반한식"}]},{"lat":"37.012330886","long":"127.25896464","items":[{"name":"더 슈가 (the sugar)","tel":"070-4333-4331","addr":"경기도 안성시 석정동 127-28번지 2층 201호","category":"보건위생 - 피부미용실"},{"name":"멜리데","tel":"031-673-8205","addr":"경기도 안성시 석정동 127-28번지 1층 103호","category":"일반휴게음식 - 서양음식"},{"name":"안성캐리어","tel":"031-677-4747","addr":"경기도 안성시 석정동 127-28번지","category":"전기제품 - 냉열기기"}]},{"lat":"37.012661774","long":"127.25593199","items":[{"name":"더카페이마트안성점","tel":"070-7769-9616","addr":"경기도 안성시 석정동 149-3번지 이마트","category":"일반휴게음식 - 서양음식"},{"name":"안성스피드서비스","tel":"031-671-4215","addr":"경기도 안성시 석정동 149-3번지 안성E-MART","category":"건축자재 - 목재·석재·철물"}]},{"lat":"37.007331101","long":"127.26667781","items":[{"name":"더힐링케어","tel":"031-675-5571","addr":"경기도 안성시 석정동 314번지 지층","category":"보건위생 - 피부미용실"}]},{"lat":"37.009828614","long":"127.26187754","items":[{"name":"도쿄술집","tel":"031-676-3567","addr":"경기도 안성시 석정동 256-16번지 2층","category":"일반휴게음식 - 주점"},{"name":"안성돼지집","tel":"031-671-8213","addr":"경기도 안성시 석정동 256-16번지 1층","category":"일반휴게음식 - 일반한식"}]},{"lat":"37.007943312","long":"127.26282616","items":[{"name":"도쿄스테이크한경대점","tel":"031-677-5915","addr":"경기도 안성시 석정동 264-19번지 1층","category":"일반휴게음식 - 일식·회집"},{"name":"미남축산","tel":"070-4922-1261","addr":"경기도 안성시 석정동 264-19번지 1층","category":"음료식품 - 정육점"},{"name":"본데로 옷수선","tel":"031-674-3076","addr":"경기도 안성시 석정동 264-19번지 2층","category":"수리서비스 - 세탁소"},{"name":"파리바게뜨(안성아양점)","tel":"031-676-0505","addr":"경기도 안성시 석정동 264-19번지 1층","category":"음료식품 - 제과점"}]},{"lat":"37.007801073","long":"127.26603901","items":[{"name":"돌아가는 삼각지포차","tel":"031-677-3330","addr":"경기도 안성시 석정동 33-4번지","category":"일반휴게음식 - 일반한식"}]},{"lat":"37.008023324","long":"127.26332079","items":[{"name":"동화나라어린이집[아이행복]","tel":"031-677-1959","addr":"경기도 안성시 석정동 264-7번지","category":"학원 - 유아원"}]},{"lat":"37.006888282","long":"127.26726051","items":[{"name":"두부사랑","tel":"031-674-6100","addr":"경기도 안성시 석정동 283-2번지","category":"음료식품 - 기타음료식품"},{"name":"민재유통","tel":"031-675-7766","addr":"경기도 안성시 석정동 283-2번지","category":"음료식품 - 농·축·수산품"},{"name":"삼도수산","tel":"031-677-1924","addr":"경기도 안성시 석정동 283-2번지","category":"음료식품 - 농·축·수산품"}]},{"lat":"37.007548204","long":"127.26629655","items":[{"name":"드림디포 안성점","tel":"031-672-0000","addr":"경기도 안성시 석정동 32-2번지","category":"서적문구 - 문구용품"},{"name":"채워드림","tel":"031-672-0000","addr":"경기도 안성시 석정동 32-2번지","category":"서적문구 - 문구용품"}]},{"lat":"37.013192547","long":"127.26051813","items":[{"name":"디자인캐스트","tel":"070-4106-4856","addr":"경기도 안성시 석정동 330-10번지 201호","category":"서적문구 - 출판 및 인쇄물"},{"name":"아일린","tel":"031-677-5449","addr":"경기도 안성시 석정동 330-10번지 401호","category":"학원 - 기타 교육기관"},{"name":"한씨네 한정식","tel":"031-671-3366","addr":"경기도 안성시 석정동 330-10번지","category":"일반휴게음식 - 일반한식"},{"name":"한씨네한정식","tel":"031-671-3366","addr":"경기도 안성시 석정동 330-10번지","category":"일반휴게음식 - 일반한식"}]},{"lat":"37.013245463","long":"127.26104641","items":[{"name":"디자인허브","tel":"031-676-6990","addr":"경기도 안성시 석정동 330-4번지 A","category":"용역 서비스 - 종합용역"},{"name":"피자나라 치킨공주 한경대점","tel":"031-677-9282","addr":"경기도 안성시 석정동 330-4번지 1층","category":"일반휴게음식 - 서양음식"}]},{"lat":"37.009469341","long":"127.26134824","items":[{"name":"디저트39","tel":"031-674-1139","addr":"경기도 안성시 석정동 255-9번지","category":"일반휴게음식 - 서양음식"},{"name":"언니네미장원","tel":"031-673-8259","addr":"경기도 안성시 석정동 255-9번지 가동 2층","category":"보건위생 - 미용원"}]},{"lat":"37.00882571","long":"127.26312129","items":[{"name":"또래노래방","tel":"031-677-1704","addr":"경기도 안성시 석정동 266-25번지","category":"레저업소 - 노 래 방"},{"name":"선영이네","tel":"031-672-0417","addr":"경기도 안성시 석정동 266-25번지","category":"건강식품 - 기타건강식품"},{"name":"안성칼국수 만두","tel":"031-675-8082","addr":"경기도 안성시 석정동 266-25번지","category":"일반휴게음식 - 일반한식"}]},{"lat":"37.010664411","long":"127.25873433","items":[{"name":"또봉이통닭","tel":"031-672-9982","addr":"경기도 안성시 석정동 236-2번지 가동 1층","category":"일반휴게음식 - 스넥"},{"name":"스쿠알렌 석정점","tel":"","addr":"경기도 안성시 석정동 236-2번지 1층 104호","category":"건강식품 - 기타건강식품"},{"name":"크린&드라이","tel":"031-671-7780","addr":"경기도 안성시 석정동 236-2번지 가동 201호","category":"수리서비스 - 세탁소"}]},{"lat":"37.009857823","long":"127.26087766","items":[{"name":"뚱보집","tel":"031-674-8209","addr":"경기도 안성시 석정동 256-14번지 1층 103호","category":"일반휴게음식 - 일반한식"},{"name":"미술관 안성점","tel":"031-673-6636","addr":"경기도 안성시 석정동 256-14번지","category":"일반휴게음식 - 일반한식"},{"name":"족황상제","tel":"031-673-1982","addr":"경기도 안성시 석정동 256-14번지","category":"일반휴게음식 - 일반한식"},{"name":"킹","tel":"","addr":"경기도 안성시 석정동 256-14번지","category":"보건위생 - 화장품"}]},{"lat":"37.010887788","long":"127.25540926","items":[{"name":"러빈(LUVBIN)","tel":"","addr":"경기도 안성시 석정동 373-13번지 1층 101호","category":"일반휴게음식 - 서양음식"}]},{"lat":"37.006690224","long":"127.26718118","items":[{"name":"럭셔리갤러리","tel":"031-672-2023","addr":"경기도 안성시 석정동 286-1번지 안성농업협동조합 B동 1호","category":"가구 - 기타가구"},{"name":"모범닭집","tel":"031-675-5584","addr":"경기도 안성시 석정동 286-1번지","category":"음료식품 - 정육점"},{"name":"성남방앗간","tel":"031-674-1063","addr":"경기도 안성시 석정동 286-1번지","category":"음료식품 - 기타음료식품"},{"name":"수민수산","tel":"031-674-0789","addr":"경기도 안성시 석정동 286-1번지 안성농협협동조합 B동 1층","category":"일반휴게음식 - 일식·회집"},{"name":"스마일 침구","tel":"031-677-2249","addr":"경기도 안성시 석정동 286-1번지","category":"직물 - 침구·수예점"},{"name":"안성농업협동조합","tel":"031-8046-3603","addr":"경기도 안성시 석정동 286-1번지","category":"자동차정비 유지 - 주차장"},{"name":"안성농업협동조합","tel":"031-677-1981","addr":"경기도 안성시 석정동 286-1번지","category":"유통업 비영리 - 농,축협 직영매장"},{"name":"안성농업협동조합","tel":"031-677-1981","addr":"경기도 안성시 석정동 286-1번지","category":"용역 서비스 - 가례서비스업"},{"name":"주식회사그린로즈","tel":"031-677-4542","addr":"경기도 안성시 석정동 286-1번지 2층","category":"용역 서비스 - 혼례서비스"},{"name":"커피지애","tel":"031-675-1020","addr":"경기도 안성시 석정동 286-1번지 1층","category":"일반휴게음식 - 서양음식"},{"name":"쿠우쿠우 (안성점)","tel":"031-673-6274","addr":"경기도 안성시 석정동 286-1번지 2층","category":"일반휴게음식 - 일식·회집"},{"name":"페리도트&휴대폰면세점","tel":"070-7862-1697","addr":"경기도 안성시 석정동 286-1번지 안성농업협동조합 B동 1층 4호","category":"일반휴게음식 - 서양음식"}]},{"lat":"37.011854946","long":"127.25821023","items":[{"name":"레시피나인안성점","tel":"031-676-0979","addr":"경기도 안성시 석정동 131-9번지","category":"일반휴게음식 - 서양음식"},{"name":"연가중앙스넥","tel":"070-7776-3795","addr":"경기도 안성시 석정동 131-9번지 1층 중앙호","category":"일반휴게음식 - 일반한식"},{"name":"왕빈자삼파전","tel":"031-676-4545","addr":"경기도 안성시 석정동 131-9번지 1층 좌측호","category":"일반휴게음식 - 일반한식"},{"name":"크레인PC","tel":"","addr":"경기도 안성시 석정동 131-9번지 가동 3층","category":"레저업소 - 기타레져업소"}]},{"lat":"37.007301768","long":"127.26771136","items":[{"name":"로얄파크","tel":"031-675-2393","addr":"경기도 안성시 석정동 26-1번지","category":"숙박업 - 여관/기타숙박업"},{"name":"짱순대","tel":"031-673-0063","addr":"경기도 안성시 석정동 26-1번지","category":"일반휴게음식 - 일반한식"}]},{"lat":"37.009604133","long":"127.26151724","items":[{"name":"로커스","tel":"031-676-9892","addr":"경기도 안성시 석정동 256-38번지","category":"일반휴게음식 - 일반한식"},{"name":"불초찜닭안성점","tel":"031-672-7484","addr":"경기도 안성시 석정동 256-38번지 1층 102호","category":"일반휴게음식 - 일반한식"},{"name":"신나는상상","tel":"031-000-0000","addr":"경기도 안성시 석정동 256-38번지 2층","category":"일반휴게음식 - 일반한식"},{"name":"안성돌곱창","tel":"031-672-7999","addr":"경기도 안성시 석정동 256-38번지 1층 좌측호","category":"일반휴게음식 - 일반한식"}]},{"lat":"37.012885263","long":"127.25676421","items":[{"name":"로퍼슨로봇영재학원","tel":"031-673-2698","addr":"경기도 안성시 석정동 145-8번지 2층","category":"회원제형태 - 학원"},{"name":"명가한의원","tel":"031-674-9777","addr":"경기도 안성시 석정동 145-8번지 YH빌딩","category":"의원 - 한의원"},{"name":"별소아청소년과의원","tel":"031-672-9607","addr":"경기도 안성시 석정동 145-8번지","category":"의원 - 의원"},{"name":"삼원철강","tel":"031-675-3585","addr":"경기도 안성시 석정동 145-8번지","category":"건축자재 - 기타건축자재"},{"name":"이씨엠(ECM)","tel":"031-677-4445","addr":"경기도 안성시 석정동 145-8번지","category":"기타 - 기타 전문점"},{"name":"장서연치과의원","tel":"031-674-6743","addr":"경기도 안성시 석정동 145-8번지 광산 상가 2층","category":"의원 - 치과의원"},{"name":"한솔약국","tel":"031-673-5311","addr":"경기도 안성시 석정동 145-8번지","category":"약국 - 약국"},{"name":"헤나킹","tel":"031-671-1141","addr":"경기도 안성시 석정동 145-8번지 가동 1층 103호","category":"보건위생 - 미용원"}]},{"lat":"37.007609555","long":"127.26707201","items":[{"name":"루비파크여관","tel":"031-675-1443","addr":"경기도 안성시 석정동 25-2번지","category":"숙박업 - 여관/기타숙박업"}]},{"lat":"37.009775089","long":"127.26163017","items":[{"name":"루츠댄스학원","tel":"031-673-3950","addr":"경기도 안성시 석정동 256-23번지","category":"학원 - 예·체능계학원"},{"name":"뿌리아트홀","tel":"031-673-3950","addr":"경기도 안성시 석정동 256-23번지","category":"용역 서비스 - 사무서비스"}]},{"lat":"37.010741198","long":"127.2565436","items":[{"name":"마라도회집","tel":"031-676-2006","addr":"경기도 안성시 석정동 373-7번지","category":"일반휴게음식 - 일식·회집"}]},{"lat":"37.010971546","long":"127.25837581","items":[{"name":"마쇼","tel":"","addr":"경기도 안성시 석정동 226-13번지 가동 1층 104호","category":"음료식품 - 제과점"},{"name":"썸네일(Thumb nail)","tel":"031-671-3556","addr":"경기도 안성시 석정동 226-13번지 가동 1층 102호","category":"보건위생 - 피부미용실"}]},{"lat":"37.009194652","long":"127.26334726","items":[{"name":"맘스터치 안성한경대점","tel":"031-674-1212","addr":"경기도 안성시 석정동 266-6번지 1동 1층 101호","category":"일반휴게음식 - 일반한식"},{"name":"세븐일레븐안성석정제일점","tel":"031-1577-0711","addr":"경기도 안성시 석정동 266-6번지","category":"유통업 영리 - 편 의 점"},{"name":"헌터PC 한경대점","tel":"070-7761-7741","addr":"경기도 안성시 석정동 266-6번지 2층","category":"레저업소 - 기타레져업소"}]},{"lat":"37.013694181","long":"127.26187942","items":[{"name":"맘씨좋은커피 비룡점","tel":"031-677-5678","addr":"경기도 안성시 석정동 333번지 중앙연립 3동 1층","category":"일반휴게음식 - 서양음식"}]},{"lat":"37.009606015","long":"127.26065209","items":[{"name":"맛있는한상","tel":"031-674-9800","addr":"경기도 안성시 석정동 260-6번지 2층","category":"일반휴게음식 - 일식·회집"},{"name":"보레이오프리를레","tel":"","addr":"경기도 안성시 석정동 260-6번지 1층","category":"일반휴게음식 - 서양음식"}]},{"lat":"37.007415706","long":"127.26509391","items":[{"name":"머슬핏 피트니스","tel":"031-674-4162","addr":"경기도 안성시 석정동 270-24번지 삼원빌딩 501호","category":"레저업소 - 헬스클럽"}]},{"lat":"37.00794437","long":"127.26643275","items":[{"name":"메가스카이학원","tel":"031-673-1295","addr":"경기도 안성시 석정동 30-1번지 6층","category":"학원 - 보습학원"},{"name":"모아산부인과의원","tel":"031-674-0808","addr":"경기도 안성시 석정동 30-1번지","category":"의원 - 의원"},{"name":"바다약국","tel":"031-671-0131","addr":"경기도 안성시 석정동 30-1번지","category":"약국 - 약국"},{"name":"서울정형외과의원","tel":"031-671-1588","addr":"경기도 안성시 석정동 30-1번지","category":"의원 - 의원"},{"name":"예인스튜디오","tel":"031-676-3302","addr":"경기도 안성시 석정동 30-1번지 3층","category":"광학제품 - 사진관"},{"name":"윤소아과의원","tel":"031-671-0130","addr":"경기도 안성시 석정동 30-1번지","category":"의원 - 의원"},{"name":"전주명가콩나물국밥24시","tel":"031-8052-8010","addr":"경기도 안성시 석정동 30-1번지 1층 우측호","category":"일반휴게음식 - 일반한식"}]},{"lat":"37.008685958","long":"127.26109841","items":[{"name":"멕시카나치킨","tel":"031-677-2221","addr":"경기도 안성시 석정동 356번지 신원아침도시 상가동 101호","category":"일반휴게음식 - 스넥"},{"name":"얼룩빼기이박사","tel":"031-677-5079","addr":"경기도 안성시 석정동 356번지 신원아침도시 상가 103호","category":"수리서비스 - 세탁소"},{"name":"오땅비어","tel":"070-8885-4295","addr":"경기도 안성시 석정동 356번지 신원아침도시 상가동 1층 102호","category":"일반휴게음식 - 주점"},{"name":"이정미아티션","tel":"031-675-5933","addr":"경기도 안성시 석정동 356번지 신원아침도시상가701동108호109호","category":"보건위생 - 미용원"},{"name":"크린토피아","tel":"031-676-5600","addr":"경기도 안성시 석정동 356번지 신원아침도시 상가동 701동 107호","category":"수리서비스 - 세탁소"},{"name":"투다리","tel":"031-676-8775","addr":"경기도 안성시 석정동 356번지 신원아침도시 104동 701호","category":"일반휴게음식 - 주점"}]},{"lat":"37.007076628","long":"127.2676544","items":[{"name":"명가만두","tel":"031-677-8969","addr":"경기도 안성시 석정동 26-2번지 1층","category":"일반휴게음식 - 일반한식"},{"name":"서울떡집","tel":"031-676-0400","addr":"경기도 안성시 석정동 26-2번지 1층","category":"음료식품 - 제과점"},{"name":"안성반찬","tel":"031-675-7423","addr":"경기도 안성시 석정동 26-2번지","category":"음료식품 - 기타음료식품"},{"name":"안성반찬","tel":"031-675-7423","addr":"경기도 안성시 석정동 26-2번지 1층","category":"음료식품 - 기타음료식품"},{"name":"충북상회","tel":"031-673-7246","addr":"경기도 안성시 석정동 26-2번지","category":"음료식품 - 농·축·수산품"},{"name":"형제떡방아간","tel":"031-677-1388","addr":"경기도 안성시 석정동 26-2번지","category":"음료식품 - 제과점"}]},{"lat":"37.008444581","long":"127.26840069","items":[{"name":"명보여관","tel":"031-677-7170","addr":"경기도 안성시 석정동 1-4번지","category":"숙박업 - 여관/기타숙박업"},{"name":"베비라","tel":"031-672-1907","addr":"경기도 안성시 석정동 1-4번지","category":"의류 - 아동의류"}]},{"lat":"37.009188003","long":"127.26226861","items":[{"name":"명태고집","tel":"","addr":"경기도 안성시 석정동 256-12번지 101호","category":"일반휴게음식 - 일반한식"}]},{"lat":"37.00907781","long":"127.26321203","items":[{"name":"모로미","tel":"031-677-8792","addr":"경기도 안성시 석정동 266-43번지","category":"일반휴게음식 - 주점"}]},{"lat":"37.007826609","long":"127.26671322","items":[{"name":"모바일면세점2","tel":"031-673-6030","addr":"경기도 안성시 석정동 29-2","category":"사무통신 - 통신기기"},{"name":"폰살롱","tel":"031-672-0096","addr":"경기도 안성시 석정동 29-2번지 엘리시아 1층 106호","category":"사무통신 - 통신기기"}]},{"lat":"37.010107734","long":"127.26606943","items":[{"name":"무쇠한판","tel":"031-674-7383","addr":"경기도 안성시 석정동 42-10번지","category":"음료식품 - 정육점"},{"name":"무쇠한판","tel":"031-676-1015","addr":"경기도 안성시 석정동 42-10번지","category":"일반휴게음식 - 일반한식"}]},{"lat":"37.007799102","long":"127.2669266","items":[{"name":"미소드림","tel":"031-673-3666","addr":"경기도 안성시 석정동 29-1번지 2층","category":"보건위생 - 피부미용실"},{"name":"북새통","tel":"031-673-7058","addr":"경기도 안성시 석정동 29-1번지","category":"일반휴게음식 - 일반한식"},{"name":"튼튼영어 안성공도지사","tel":"031-676-0579","addr":"경기도 안성시 석정동 29-1번지","category":"서적문구 - 기타서적문구"}]},{"lat":"37.006747307","long":"127.26582191","items":[{"name":"미앤나미용실","tel":"031-675-1769","addr":"경기도 안성시 석정동 279-6번지","category":"보건위생 - 미용원"}]},{"lat":"37.007218317","long":"127.26471123","items":[{"name":"민들레처럼","tel":"031-671-2522","addr":"경기도 안성시 석정동 274-9번지 1층","category":"일반휴게음식 - 일반한식"},{"name":"비발디","tel":"031-676-0595","addr":"경기도 안성시 석정동 274-9번지","category":"일반휴게음식 - 주점"},{"name":"상구네막창","tel":"031-677-1995","addr":"경기도 안성시 석정동 274-9번지","category":"일반휴게음식 - 일반한식"},{"name":"아이짐유아어린이스포츠클럽","tel":"031-675-7007","addr":"경기도 안성시 석정동 274-9번지","category":"레저업소 - 기타레져업소"},{"name":"연화식당","tel":"031-674-8599","addr":"경기도 안성시 석정동 274-9번지","category":"일반휴게음식 - 일반한식"},{"name":"중앙포차","tel":"031-677-1995","addr":"경기도 안성시 석정동 274-9번지","category":"일반휴게음식 - 일반한식"},{"name":"천운식당","tel":"031-674-8599","addr":"경기도 안성시 석정동 274-9번지","category":"일반휴게음식 - 일반한식"}]},{"lat":"37.009030969","long":"127.25989736","items":[{"name":"바다별어린이집[아이행복]","tel":"031-673-5335","addr":"경기도 안성시 석정동 355번지 신원아침도시 관리동","category":"학원 - 유아원"}]},{"lat":"37.008213764","long":"127.26684939","items":[{"name":"바른이치과교정과치과의원","tel":"031-674-2874","addr":"경기도 안성시 석정동 15-1번지","category":"의원 - 치과의원"},{"name":"삼성전자판매(주)안성중앙모바일","tel":"031-673-9595","addr":"경기도 안성시 석정동 15-1번지","category":"전기제품 - 가전제품"},{"name":"삼성전자판매(주)휴대폰안성중앙로점","tel":"031-677-9847","addr":"경기도 안성시 석정동 15-1번지","category":"전기제품 - 가전제품"}]},{"lat":"37.007913635","long":"127.26809549","items":[{"name":"박내과의원","tel":"031-676-1669","addr":"경기도 안성시 석정동 5번지","category":"의원 - 의원"},{"name":"안성보룡약국","tel":"031-677-0905","addr":"경기도 안성시 석정동 5번지 황성빌딩 1층","category":"약국 - 약국"},{"name":"한동인치과의원","tel":"031-676-0101","addr":"경기도 안성시 석정동 5번지","category":"의원 - 치과의원"}]},{"lat":"37.00902313","long":"127.26349274","items":[{"name":"본도시락(안성점)","tel":"031-672-4282","addr":"경기도 안성시 석정동 267-6번지","category":"일반휴게음식 - 일반한식"},{"name":"새천년노래방","tel":"031-676-8077","addr":"경기도 안성시 석정동 267-6","category":"레저업소 - 노 래 방"},{"name":"수누리 뼈다귀 감자탕","tel":"031-673-9277","addr":"경기도 안성시 석정동 267-6번지","category":"일반휴게음식 - 일반한식"},{"name":"안성문화사","tel":"031-673-8894","addr":"경기도 안성시 석정동 267-6번지","category":"용역 서비스 - 사무서비스"},{"name":"안성제일복싱클럽","tel":"031-676-0985","addr":"경기도 안성시 석정동 267-6","category":"회원제형태 - 레져업소"}]},{"lat":"37.012801493","long":"127.25801114","items":[{"name":"비비꼬마김밥","tel":"031-674-3361","addr":"경기도 안성시 석정동 142-16번지 1층","category":"일반휴게음식 - 일반한식"},{"name":"비비푸드","tel":"031-674-3361","addr":"경기도 안성시 석정동 142-16번지 1층","category":"음료식품 - 기타음료식품"},{"name":"송월타월안성중앙점","tel":"031-674-3921","addr":"경기도 안성시 석정동 142-16번지 1층","category":"직물 - 옷감·직물"}]},{"lat":"37.013164123","long":"127.2611585","items":[{"name":"빨간펜수학의달인SM학원","tel":"031-671-1525","addr":"경기도 안성시 석정동 330-8번지 3층","category":"학원 - 보습학원"},{"name":"세븐일레븐안성한경스타점","tel":"","addr":"경기도 안성시 석정동 330-8번지","category":"유통업 영리 - 편 의 점"}]},{"lat":"37.007302394","long":"127.26743048","items":[{"name":"산들애","tel":"031-677-9398","addr":"경기도 안성시 석정동 27-5번지","category":"일반휴게음식 - 일반한식"}]},{"lat":"37.007937277","long":"127.26556759","items":[{"name":"산타바이크","tel":"031-673-2003","addr":"경기도 안성시 석정동 275-11번지","category":"레져용품 - 스포츠·레져용품"}]},{"lat":"37.012610408","long":"127.25887569","items":[{"name":"삼성전자서비스(주)모바일안성센터","tel":"031-225-9147","addr":"경기도 안성시 석정동 129-6번지","category":"수리서비스 - 가정용품수리"},{"name":"삼성전자판매(주)안성점","tel":"031-671-0091","addr":"경기도 안성시 석정동 129-6번지","category":"전기제품 - 가전제품"}]},{"lat":"37.009715166","long":"127.26018056","items":[{"name":"생고기일번가","tel":"031-672-9582","addr":"경기도 안성시 석정동 258-3번지","category":"일반휴게음식 - 일반한식"},{"name":"역전할머니 맥주 안성석정점","tel":"031-672-5664","addr":"경기도 안성시 석정동 258-3번지","category":"일반휴게음식 - 주점"},{"name":"위너PC","tel":"","addr":"경기도 안성시 석정동 258-3번지 2층","category":"레저업소 - 기타레져업소"}]},{"lat":"37.006466009","long":"127.26670852","items":[{"name":"서울신경외과의원","tel":"031-672-7497","addr":"경기도 안성시 석정동 278-14번지","category":"의원 - 의원"},{"name":"시골장터국밥","tel":"031-671-5122","addr":"경기도 안성시 석정동 278-14번지","category":"일반휴게음식 - 일반한식"},{"name":"안성행복을심는치과","tel":"031-672-2877","addr":"경기도 안성시 석정동 278-14번지 3층","category":"의원 - 치과의원"},{"name":"영운전자","tel":"031-672-4019","addr":"경기도 안성시 석정동 278-14번지","category":"전기제품 - 가전제품"},{"name":"우리아들네 푸주간","tel":"031-676-4592","addr":"경기도 안성시 석정동 278-14번지 금사빌딩","category":"음료식품 - 정육점"},{"name":"우리지업사","tel":"031-676-7706","addr":"경기도 안성시 석정동 278-14번지","category":"직물 - 카페트,커튼,천막,지물"},{"name":"한성에너텍안성대리점","tel":"031-675-8088","addr":"경기도 안성시 석정동 278-14번지","category":"건축자재 - 보일러·펌프·샷시"}]},{"lat":"37.0084365","long":"127.26798495","items":[{"name":"선비만두","tel":"031-673-8980","addr":"경기도 안성시 석정동 3-3번지","category":"일반휴게음식 - 일반한식"}]},{"lat":"37.008273556","long":"127.26832145","items":[{"name":"선비촌식당","tel":"031-673-9877","addr":"경기도 안성시 석정동 1-2번지","category":"일반휴게음식 - 일반한식"},{"name":"하늘담쟁이","tel":"031-673-1001","addr":"경기도 안성시 석정동 1-2번지","category":"문화.취미 - 화원"}]},{"lat":"37.007439103","long":"127.26673436","items":[{"name":"세븐모터스","tel":"031-676-1400","addr":"경기도 안성시 석정동 32-1번지","category":"자동차정비 유지 - 세차장"}]},{"lat":"37.008111617","long":"127.26820853","items":[{"name":"수시스템","tel":"031-674-8668","addr":"경기도 안성시 석정동 4-1번지 명성빌딩 1층","category":"사무통신 - 통신기기"},{"name":"옷바구니","tel":"031-674-7812","addr":"경기도 안성시 석정동 4-1번지 명성빌딩 1층","category":"의류 - 정장"},{"name":"행복한의원","tel":"031-673-7975","addr":"경기도 안성시 석정동 4-1번지 명성빌딩 2층","category":"의원 - 한의원"}]},{"lat":"37.008277712","long":"127.26645637","items":[{"name":"스카이모바일","tel":"031-677-2836","addr":"경기도 안성시 석정동 17-2번지 스카이모바일","category":"사무통신 - 통신기기"}]},{"lat":"37.00810828","long":"127.26565806","items":[{"name":"스카이학원","tel":"031-673-1295","addr":"경기도 안성시 석정동 33-9번지 승석빌딩 2층","category":"학원 - 보습학원"},{"name":"정관장 안성점","tel":"031-676-2304","addr":"경기도 안성시 석정동 33-9번지","category":"건강식품 - 홍삼제품"},{"name":"정관장경기안성점(신2)","tel":"031-676-2304","addr":"경기도 안성시 석정동 33-9번지","category":"건강식품 - 홍삼제품"},{"name":"정관장경기안성점(신2)","tel":"031-676-2304","addr":"경기도 안성시 석정동 33-9번지","category":"건강식품 - 홍삼제품"},{"name":"하늘보습학원","tel":"031-673-2218","addr":"경기도 안성시 석정동 33-9번지 3층","category":"학원 - 보습학원"}]},{"lat":"37.011774141","long":"127.25807513","items":[{"name":"스타점핑","tel":"031-671-7787","addr":"경기도 안성시 석정동 131-26번지 301호","category":"레저업소 - 헬스클럽"},{"name":"오픈스탠스","tel":"031-676-1253","addr":"경기도 안성시 석정동 131-26번지","category":"일반휴게음식 - 서양음식"},{"name":"한남동 그집","tel":"","addr":"경기도 안성시 석정동 131-26번지 가동 1층","category":"일반휴게음식 - 일반한식"}]},{"lat":"37.006856106","long":"127.26551893","items":[{"name":"승민네분식","tel":"031-677-7400","addr":"경기도 안성시 석정동 278-5번지","category":"일반휴게음식 - 일반한식"},{"name":"오빠네과일","tel":"031-676-6295","addr":"경기도 안성시 석정동 278-5번지","category":"음료식품 - 농·축·수산품"},{"name":"이모네감자탕","tel":"031-677-7549","addr":"경기도 안성시 석정동 278-5번지 1층","category":"일반휴게음식 - 일반한식"}]},{"lat":"37.008525601","long":"127.26843468","items":[{"name":"시민정육점","tel":"031-675-6963","addr":"경기도 안성시 석정동 1-3번지","category":"음료식품 - 정육점"}]},{"lat":"37.013802626","long":"127.26173371","items":[{"name":"신안전기제어","tel":"031-676-9605","addr":"경기도 안성시 석정동 333번지 중앙빌라 1동 103호","category":"용역 서비스 - 기타용역서비스"}]},{"lat":"37.012074718","long":"127.2565705","items":[{"name":"심's 조개전골.칼국수","tel":"031-8057-0079","addr":"경기도 안성시 석정동 148번지 1층","category":"일반휴게음식 - 일반한식"}]},{"lat":"37.009298629","long":"127.26112295","items":[{"name":"씨유안성석정원룸점","tel":"031-898-6568","addr":"경기도 안성시 석정동 260-17번지 101호","category":"유통업 영리 - 편 의 점"}]},{"lat":"37.009156485","long":"127.26018991","items":[{"name":"아기둥지어린이집[아이행복]","tel":"031-677-9093","addr":"경기도 안성시 석정동 355번지 신원아침도시 102동 102호","category":"학원 - 유아원"}]},{"lat":"37.013110548","long":"127.2609336","items":[{"name":"아더왕과 원탁의김밥","tel":"031-673-5449","addr":"경기도 안성시 석정동 330-6번지 보보스 B동 1층","category":"일반휴게음식 - 스넥"}]},{"lat":"37.008965237","long":"127.26112182","items":[{"name":"아브아저씨","tel":"031-677-0450","addr":"경기도 안성시 석정동 258-9번지 가동 1층","category":"일반휴게음식 - 서양음식"},{"name":"엔젤스 코인노래연습장","tel":"","addr":"경기도 안성시 석정동 258-9번지 201,202호","category":"레저업소 - 노 래 방"},{"name":"올후레쉬","tel":"031-672-6977","addr":"경기도 안성시 석정동 258-9번지 가동 1호","category":"음료식품 - 농·축·수산품"},{"name":"화","tel":"","addr":"경기도 안성시 석정동 258-9번지 가동 2층","category":"일반휴게음식 - 주점"}]},{"lat":"37.011220605","long":"127.25568002","items":[{"name":"아양식당","tel":"031-671-2860","addr":"경기도 안성시 석정동 372-1번지 101호","category":"일반휴게음식 - 일반한식"}]},{"lat":"37.009772659","long":"127.2627425","items":[{"name":"아이센스리그PC방 한경대정문점","tel":"","addr":"경기도 안성시 석정동 252-12번지 드림빌 2층","category":"레저업소 - 기타레져업소"},{"name":"항아리보쌈 한경대점","tel":"031-675-5533","addr":"경기도 안성시 석정동 252-12번지 드림빌 1동 1층","category":"일반휴게음식 - 일반한식"}]},{"lat":"37.007135011","long":"127.26571089","items":[{"name":"안성농협하나로마트","tel":"031-677-1887","addr":"경기도 안성시 석정동 278-1번지","category":"유통업 비영리 - 농,축협 직영매장"},{"name":"자연흙침대","tel":"031-567-8878","addr":"경기도 안성시 석정동 278-1번지 하나로마트 지하1층","category":"가구 - 일반가구"}]},{"lat":"37.008659466","long":"127.26496335","items":[{"name":"안성도매문구사","tel":"031-677-0161","addr":"경기도 안성시 석정동 339-2번지","category":"서적문구 - 문구용품"}]},{"lat":"37.010215039","long":"127.26235075","items":[{"name":"안성모터스","tel":"031-676-0430","addr":"경기도 안성시 석정동 252-9번지","category":"자동차정비 유지 - 세차장"}]},{"lat":"37.007968426","long":"127.26776985","items":[{"name":"안성미소치과의원","tel":"031-672-2879","addr":"경기도 안성시 석정동 6-4번지 2층","category":"의원 - 치과의원"},{"name":"제일안경원","tel":"031-675-4041","addr":"경기도 안성시 석정동 6-4번지","category":"보건위생 - 안경"}]},{"lat":"37.010884126","long":"127.26129685","items":[{"name":"안성세차장","tel":"031-673-2456","addr":"경기도 안성시 석정동 247-3번지","category":"자동차정비 유지 - 세차장"}]},{"lat":"37.011412549","long":"127.25439975","items":[{"name":"안성신동아식당","tel":"070-4159-2257","addr":"경기도 안성시 석정동 158-1번지, 신동아건설 현장 내 식당 (산 378)","category":"일반휴게음식 - 일반한식"}]},{"lat":"37.008524009","long":"127.26509772","items":[{"name":"안성으뜸광고","tel":"031-675-9039","addr":"경기도 안성시 석정동 339-4번지","category":"용역 서비스 - 종합용역"},{"name":"형콜렉션","tel":"031-677-7278","addr":"경기도 안성시 석정동 339-4번지","category":"레져용품 - 스포츠·레져용품"}]},{"lat":"37.010025644","long":"127.26242876","items":[{"name":"안성자동차정비공업사","tel":"031-675-7553","addr":"경기도 안성시 석정동 252-8번지","category":"자동차정비 유지 - 자동차정비"}]},{"lat":"37.007362858","long":"127.26454319","items":[{"name":"안성준멀티짐","tel":"031-673-8205","addr":"경기도 안성시 석정동 274-5번지 내혜홀 A동 2층","category":"학원 - 예·체능계학원"}]},{"lat":"37.008437052","long":"127.26773777","items":[{"name":"알레르망,우먼로드","tel":"031-675-2198","addr":"경기도 안성시 석정동 7-4번지 1층","category":"직물 - 침구·수예점"}]},{"lat":"37.008103409","long":"127.26784897","items":[{"name":"얼마요","tel":"031-111-1111","addr":"경기도 안성시 석정동 5-4번지 1층","category":"음료식품 - 기타음료식품"},{"name":"코리아파크","tel":"031-675-2355","addr":"경기도 안성시 석정동 5-4번지","category":"숙박업 - 여관/기타숙박업"},{"name":"황제추어탕","tel":"031-676-8182","addr":"경기도 안성시 석정동 5-4번지","category":"일반휴게음식 - 일반한식"}]},{"lat":"37.00679995","long":"127.2664625","items":[{"name":"엄마 인테리어","tel":"031-677-8982","addr":"경기도 안성시 석정동 281-6번지","category":"건축자재 - 인테리어전문"}]},{"lat":"37.010552456","long":"127.25631825","items":[{"name":"연안식당 안성아양점","tel":"031-675-2233","addr":"경기도 안성시 석정동 375-3번지 1층","category":"일반휴게음식 - 일반한식"}]},{"lat":"37.008329","long":"127.26770369","items":[{"name":"영자클럽 석정점","tel":"031-672-6308","addr":"경기도 안성시 석정동 12번지 1층","category":"보건위생 - 피부미용실"}]},{"lat":"37.007131368","long":"127.26735124","items":[{"name":"예스텔","tel":"031-673-8255","addr":"경기도 안성시 석정동 28-1번지","category":"숙박업 - 여관/기타숙박업"}]},{"lat":"37.009881278","long":"127.26251816","items":[{"name":"우리and(엔드)아이반찬","tel":"031-441-4467","addr":"경기도 안성시 석정동 252-14번지","category":"음료식품 - 기타음료식품"},{"name":"채선당","tel":"031-677-3979","addr":"경기도 안성시 석정동 252-14번지","category":"일반휴게음식 - 일반한식"}]},{"lat":"37.00892","long":"127.26343","items":[{"name":"우리숙성삼겹살","tel":"031-672-1002","addr":"경기도 안성시 석정동 267-7번지 1층","category":"일반휴게음식 - 일반한식"}]},{"lat":"37.00791537","long":"127.26324177","items":[{"name":"울엄마양평해장국안성석정점","tel":"031-677-1006","addr":"경기도 안성시 석정동 264-37번지 영남빌딩 1층","category":"일반휴게음식 - 일반한식"}]},{"lat":"37.012966257","long":"127.26098929","items":[{"name":"은혜네복사마을","tel":"031-676-5468","addr":"경기도 안성시 석정동 330-5번지 1층","category":"용역 서비스 - 사무서비스"},{"name":"카페드풀로르","tel":"031-674-3500","addr":"경기도 안성시 석정동 330-5번지 501호","category":"일반휴게음식 - 스넥"}]},{"lat":"37.007637086","long":"127.26684739","items":[{"name":"이비스텔","tel":"031-677-1500","addr":"경기도 안성시 석정동 31-3번지","category":"숙박업 - 여관/기타숙박업"}]},{"lat":"37.009248173","long":"127.26359463","items":[{"name":"이삭한경대점","tel":"031-676-0744","addr":"경기도 안성시 석정동 267-2번지","category":"유통업 영리 - 슈퍼마켓"}]},{"lat":"37.007833238","long":"127.26371338","items":[{"name":"이화미술센터학원","tel":"031-6752-8121","addr":"경기도 안성시 석정동 269-10번지 1층","category":"학원 - 예·체능계학원"},{"name":"이화아트센터","tel":"031-675-8121","addr":"경기도 안성시 석정동 269-10번지 1층","category":"문화.취미 - 문화취미기타"}]},{"lat":"37.008103961","long":"127.26760179","items":[{"name":"장미용실","tel":"031-671-4874","addr":"경기도 안성시 석정동 13-4번지","category":"보건위생 - 미용원"},{"name":"지구별다방 안성본점","tel":"","addr":"경기도 안성시 석정동 13-4번지","category":"일반휴게음식 - 서양음식"}]},{"lat":"37.009609755","long":"127.26306778","items":[{"name":"재현카센타","tel":"031-673-2969","addr":"경기도 안성시 석정동 266-15번지","category":"자동차정비 유지 - 자동차정비"}]},{"lat":"37.012214305","long":"127.25870582","items":[{"name":"정씨함박","tel":"","addr":"경기도 안성시 석정동 129-16번지 101호","category":"일반휴게음식 - 서양음식"}]},{"lat":"37.012079558","long":"127.25851436","items":[{"name":"족발꾼 안성한경대점","tel":"","addr":"경기도 안성시 석정동 129-9번지 가동 101호","category":"일반휴게음식 - 일반한식"},{"name":"지금보고싶다 안성점","tel":"","addr":"경기도 안성시 석정동 129-9번지 1층 102호","category":"일반휴게음식 - 주점"},{"name":"피에스타PC방","tel":"02-2222-2222","addr":"경기도 안성시 석정동 129-9번지 301호","category":"레저업소 - 기타레져업소"}]},{"lat":"37.008908279","long":"127.26653719","items":[{"name":"주식회사 시민","tel":"031-675-0922","addr":"경기도 안성시 석정동 42-25번지","category":"서적문구 - 출판 및 인쇄물"}]},{"lat":"37.008466615","long":"127.26251334","items":[{"name":"차병원카센타","tel":"031-675-8114","addr":"경기도 안성시 석정동 261-5번지","category":"자동차정비 유지 - 자동차정비"}]},{"lat":"37.0083322","long":"127.26626555","items":[{"name":"청기와뼈해장국감자탕","tel":"031-677-9928","addr":"경기도 안성시 석정동 17번지","category":"일반휴게음식 - 일반한식"}]},{"lat":"37.008746013","long":"127.26657034","items":[{"name":"카페룰루랄라","tel":"031-677-4782","addr":"경기도 안성시 석정동 18번지 1층","category":"일반휴게음식 - 서양음식"}]},{"lat":"37.009775946","long":"127.26123692","items":[{"name":"카페소월","tel":"031-111-1111","addr":"경기도 안성시 석정동 256-1번지 대보아르누빌 103,104","category":"일반휴게음식 - 서양음식"}]},{"lat":"37.00777162","long":"127.26712875","items":[{"name":"커피에반하다","tel":"031-674-5011","addr":"경기도 안성시 석정동 24-4번지 1층 일부호","category":"일반휴게음식 - 서양음식"}]},{"lat":"37.009519156","long":"127.26329219","items":[{"name":"탐앤탐스","tel":"031-673-9890","addr":"경기도 안성시 석정동 267-10번지 2층","category":"일반휴게음식 - 서양음식"}]},{"lat":"37.008102983","long":"127.26803997","items":[{"name":"테마모텔","tel":"031-676-1133","addr":"경기도 안성시 석정동 4-3번지 외2필지","category":"숙박업 - 여관/기타숙박업"}]},{"lat":"37.012519769","long":"127.25912258","items":[{"name":"투썸플레이스 안성한경대점","tel":"031-677-8792","addr":"경기도 안성시 석정동 127-21번지","category":"일반휴게음식 - 서양음식"}]},{"lat":"37.007940918","long":"127.26798323","items":[{"name":"폰샵","tel":"031-675-5656","addr":"경기도 안성시 석정동 5-2번지","category":"사무통신 - 통신기기"}]},{"lat":"37.010332874","long":"127.26612639","items":[{"name":"피다(Pida)","tel":"031-673-4407","addr":"경기도 안성시 석정동 42-8번지","category":"일반휴게음식 - 서양음식"}]},{"lat":"37.00696473","long":"127.2652946","items":[{"name":"한솔학원","tel":"031-671-1341","addr":"경기도 안성시 석정동 278-6번지 2동","category":"학원 - 보습학원"}]},{"lat":"37.008599652","long":"127.25934537","items":[{"name":"한양자연애어린이집[아이행복]","tel":"031-675-8791","addr":"경기도 안성시 석정동 355번지 신원아침도시 105동 104호","category":"학원 - 유아원"}]},{"lat":"37.011165704","long":"127.2560731","items":[{"name":"헤브(Reve)","tel":"070-4922-1261","addr":"경기도 안성시 석정동 372-3번지 1층 101호","category":"일반휴게음식 - 서양음식"}]},{"lat":"37.007104086","long":"127.2674635","items":[{"name":"화성식당","tel":"031-675-3675","addr":"경기도 안성시 석정동 28-7번지","category":"일반휴게음식 - 일반한식"}]}]