[{"lat":"37.941260449","long":"126.8773014","items":[{"name":"38종합화물","tel":"031-958-8585","addr":"경기도 파주시 파평면 덕천리 114번지","category":"용역 서비스 - 사무서비스"}]},{"lat":"37.935708149","long":"126.86685703","items":[{"name":"GS25파평에이스점","tel":"","addr":"경기도 파주시 파평면 덕천리 289-35번지","category":"유통업 영리 - 편 의 점"},{"name":"에이스마트","tel":"031-959-3326","addr":"경기도 파주시 파평면 덕천리 289-35번지","category":"유통업 영리 - 슈퍼마켓"}]},{"lat":"37.940989636","long":"126.87680132","items":[{"name":"그린노래방","tel":"031-959-2938","addr":"경기도 파주시 파평면 덕천리 114-5","category":"레저업소 - 노 래 방"},{"name":"그린힐사이드","tel":"031-958-9085","addr":"경기도 파주시 파평면 덕천리 114-5번지","category":"일반휴게음식 - 서양음식"}]},{"lat":"37.941874609","long":"126.87874513","items":[{"name":"꿀꿀이연탄갈비","tel":"031-958-7723","addr":"경기도 파주시 파평면 덕천리 122-3번지","category":"일반휴게음식 - 일반한식"}]},{"lat":"37.940294307","long":"126.87530089","items":[{"name":"나들가게","tel":"031-958-9121","addr":"경기도 파주시 파평면 덕천리 111-14,114-16","category":"유통업 영리 - 슈퍼마켓"}]},{"lat":"37.939851466","long":"126.87402756","items":[{"name":"명동하우스","tel":"031-958-9977","addr":"경기도 파주시 파평면 덕천리 243-8번지","category":"일반휴게음식 - 일반한식"},{"name":"장빈희헤어","tel":"031-958-5249","addr":"경기도 파주시 파평면 덕천리 243-8번지","category":"보건위생 - 미용원"}]},{"lat":"37.939815939","long":"126.87449403","items":[{"name":"미니스톱 파주파평점","tel":"031-1577-9621","addr":"경기도 파주시 파평면 덕천리 249-1번지","category":"유통업 영리 - 편 의 점"},{"name":"미니펫","tel":"070-4789-2381","addr":"경기도 파주시 파평면 덕천리 249-1번지","category":"문화.취미 - 애완동물"}]},{"lat":"37.938207397","long":"126.87008309","items":[{"name":"샘그린 협동조합","tel":"031-958-4222","addr":"경기도 파주시 파평면 덕천리 408-3번지","category":"음료식품 - 농·축·수산품"},{"name":"샘내손두부","tel":"","addr":"경기도 파주시 파평면 덕천리 408-3번지","category":"일반휴게음식 - 일반한식"}]},{"lat":"37.940545997","long":"126.87477716","items":[{"name":"서울식당","tel":"031-958-3054","addr":"경기도 파주시 파평면 덕천리 244-1","category":"일반휴게음식 - 일반한식"}]},{"lat":"37.937679146","long":"126.84369285","items":[{"name":"세븐일레븐파주파평점","tel":"031-1577-0711","addr":"경기도 파주시 파평면 덕천리 653-1번지","category":"유통업 영리 - 편 의 점"}]},{"lat":"37.9359338","long":"126.86722062","items":[{"name":"소문난 장어","tel":"031-958-2629","addr":"경기도 파주시 파평면 덕천리 289-3번지","category":"음료식품 - 농·축·수산품"},{"name":"소문난장어","tel":"031-958-2629","addr":"경기도 파주시 파평면 덕천리 289-3번지","category":"일반휴게음식 - 일반한식"}]},{"lat":"37.94187344","long":"126.87764165","items":[{"name":"송가네 백반","tel":"031-959-1152","addr":"경기도 파주시 파평면 덕천리 131-1번지","category":"일반휴게음식 - 일반한식"},{"name":"스머프리빙","tel":"031-000-0000","addr":"경기도 파주시 파평면 덕천리 131-1번지","category":"학원 - 독서실"}]},{"lat":"37.934094824","long":"126.86627988","items":[{"name":"송지가든","tel":"031-959-1378","addr":"경기도 파주시 파평면 덕천리 278-2번지","category":"일반휴게음식 - 일반한식"}]},{"lat":"37.938768578","long":"126.8724141","items":[{"name":"양자강","tel":"031-958-9552","addr":"경기도 파주시 파평면 덕천리 253-9번지","category":"일반휴게음식 - 중국식"}]},{"lat":"37.939906762","long":"126.87516505","items":[{"name":"유림여관","tel":"031-000-0000","addr":"경기도 파주시 파평면 덕천리 110-11번지","category":"숙박업 - 여관/기타숙박업"}]},{"lat":"37.937568177","long":"126.87047101","items":[{"name":"임진강 리조트(주)","tel":"031-959-2222","addr":"경기도 파주시 파평면 덕천리 254-4번지","category":"일반휴게음식 - 일반한식"},{"name":"임진강리조트","tel":"031-959-2222","addr":"경기도 파주시 파평면 덕천리 254-4번지","category":"일반휴게음식 - 일반한식"},{"name":"임진강리조트","tel":"031-959-2222","addr":"경기도 파주시 파평면 덕천리 254-4번지","category":"일반휴게음식 - 일반한식"},{"name":"임진강리조트매점","tel":"031-959-2222","addr":"경기도 파주시 파평면 덕천리 254-4번지","category":"음료식품 - 기타음료식품"},{"name":"허브아우라","tel":"031-959-9327","addr":"경기도 파주시 파평면 덕천리 254-4번지","category":"신변잡화 - 기타잡화"}]},{"lat":"37.936457772","long":"126.86847094","items":[{"name":"임진강폭포어장(주)","tel":"","addr":"경기도 파주시 파평면 덕천리 289-1번지","category":"레저업소 - 골프연습장"}]},{"lat":"37.932708912","long":"126.90377363","items":[{"name":"주식회사 국제에너지","tel":"031-958-7732","addr":"경기도 파주시 파평면 덕천리 11-11번지","category":"연료판매점 - LPG 취급점"}]},{"lat":"37.94276096","long":"126.88205415","items":[{"name":"청송로668부대찌개","tel":"031-958-3008","addr":"경기도 파주시 파평면 덕천리 69-24번지","category":"일반휴게음식 - 일반한식"}]},{"lat":"37.939824227","long":"126.87383421","items":[{"name":"파주장단콩연구회영농조합법인","tel":"031-958-3661","addr":"경기도 파주시 파평면 덕천리 243-7번지","category":"음료식품 - 미곡상"}]},{"lat":"37.940122042","long":"126.87430011","items":[{"name":"흥부농약사","tel":"031-958-3661","addr":"경기도 파주시 파평면 덕천리 244-3번지","category":"농업 - 비료,사료,종자"}]}]