[{"lat":"37.812786732","long":"127.15203601","items":[{"name":"(주)온수텍","tel":"031-534-5607","addr":"경기도 포천시 소흘읍 초가팔리 173-4번지","category":"건축자재 - 기타건축자재"}]},{"lat":"37.82192462","long":"127.15019172","items":[{"name":"GS25포천상운","tel":"","addr":"경기도 포천시 소흘읍 초가팔리 279-2번지","category":"편의점 - 편의점"},{"name":"GS25포천상운점","tel":"","addr":"경기도 포천시 소흘읍 초가팔리 279-2번지","category":"유통업 영리 - 편 의 점"},{"name":"극동타이어","tel":"031-111-1111","addr":"경기도 포천시 소흘읍 초가팔리 279-2번지","category":"자동차정비 유지 - 자동차시트·타이어"},{"name":"동해바다호프","tel":"031-542-9535","addr":"경기도 포천시 소흘읍 초가팔리 279-2번지 1층","category":"일반휴게음식 - 주점"},{"name":"산천초목","tel":"031-541-9697","addr":"경기도 포천시 소흘읍 초가팔리 279-2번지","category":"일반휴게음식 - 일반한식"},{"name":"술통","tel":"031-542-7442","addr":"경기도 포천시 소흘읍 초가팔리 279-2번지","category":"일반휴게음식 - 주점"}]},{"lat":"37.818394807","long":"127.1557838","items":[{"name":"NJ","tel":"031-543-6660","addr":"경기도 포천시 소흘읍 초가팔리 462","category":"주방용구 - 주방용구"}]},{"lat":"37.813480477","long":"127.15897618","items":[{"name":"SM테크","tel":"","addr":"경기도 포천시 소흘읍 초가팔리 53-7번지","category":"가구 - 일반가구"}]},{"lat":"37.809567208","long":"127.1545051","items":[{"name":"The트럭","tel":"","addr":"경기도 포천시 소흘읍 초가팔리 94-3번지","category":"자동차정비 유지 - 자동차부품"}]},{"lat":"37.816926892","long":"127.15530378","items":[{"name":"골드편의점","tel":"031-543-9520","addr":"경기도 포천시 소흘읍 초가팔리 10-2번지","category":"음료식품 - 기타음료식품"}]},{"lat":"37.817731083","long":"127.14625384","items":[{"name":"그린골프클럽","tel":"031-542-0752","addr":"경기도 포천시 소흘읍 초가팔리 368번지 외","category":"회원제형태 - 레져업소"},{"name":"그린스크린골프","tel":"031-542-4080","addr":"경기도 포천시 소흘읍 초가팔리 368번지 1층","category":"레져용품 - 골프용품 전문점"}]},{"lat":"37.819755934","long":"127.14810901","items":[{"name":"까꼬뽀꼬헤어","tel":"070-8811-2253","addr":"경기도 포천시 소흘읍 초가팔리 336번지 상운 상가 203호","category":"보건위생 - 미용원"},{"name":"더반한떡더반한청","tel":"031-5017-4013","addr":"경기도 포천시 소흘읍 초가팔리 336번지 상운 상가 1층 114호","category":"음료식품 - 제과점"},{"name":"롯데슈퍼999","tel":"543-2520","addr":"경기도 포천시 소흘읍 초가팔리 336번지 포천상운아파트","category":"소매업 - 잡화"},{"name":"상운식당","tel":"541-3701","addr":"경기도 포천시 소흘읍 초가팔리 336번지 포천상운아파트","category":"음식 - 한식"},{"name":"선우공인중개사사무소","tel":"536-3332","addr":"경기도 포천시 소흘읍 초가팔리 336번지 포천상운아파트","category":"부동산 - 부동산중개업"},{"name":"소라아트","tel":"543-8612","addr":"경기도 포천시 소흘읍 초가팔리 336번지 포천상운아파트 2층207","category":"서비스 - 공방"},{"name":"컴퓨터플러스","tel":"542-7070","addr":"경기도 포천시 소흘읍 초가팔리 336번지 포천상운아파트 117호","category":"소매업 - 컴퓨터주변기기외"}]},{"lat":"37.813727483","long":"127.14902843","items":[{"name":"남매카센타","tel":"031-543-8232","addr":"경기도 포천시 소흘읍 초가팔리 189-2번지 카센타","category":"자동차정비 유지 - 자동차정비"},{"name":"남매카센터","tel":"031-543-8253","addr":"경기도 포천시 소흘읍 초가팔리 189-2번지","category":"서비스 - 자동차정비"}]},{"lat":"37.817092151","long":"127.15289644","items":[{"name":"남양유업송우가정대리","tel":"031-543-0548","addr":"경기도 포천시 소흘읍 초가팔리 212-1번지","category":"음료식품 - 기타음료식품"}]},{"lat":"37.825061857","long":"127.14861917","items":[{"name":"대한모터스","tel":"031-543-9116","addr":"경기도 포천시 소흘읍 초가팔리 309-14번지","category":"자동차판매 - 중고자동차판매"},{"name":"에스카컴퍼니(Escar Company)","tel":"031-543-5001","addr":"경기도 포천시 소흘읍 초가팔리 309-14번지","category":"자동차판매 - 중고자동차판매"},{"name":"친절한자동차매매상사","tel":"031-544-8922","addr":"경기도 포천시 소흘읍 초가팔리 309-14번지","category":"자동차판매 - 중고자동차판매"}]},{"lat":"37.814061521","long":"127.14847262","items":[{"name":"대한자동차공업사","tel":"031-5445-080","addr":"경기도 포천시 소흘읍 초가팔리 386-12","category":"자동차정비 유지 - 자동차부품"}]},{"lat":"37.815591282","long":"127.15700455","items":[{"name":"부흥사","tel":"031-543-0300","addr":"경기도 포천시 소흘읍 초가팔리 20-7번지","category":"전기제품 - 기타전기제품"}]},{"lat":"37.825674088","long":"127.14894976","items":[{"name":"붕붕자동차매매상사","tel":"031-542-3989","addr":"경기도 포천시 소흘읍 초가팔리 309번지","category":"자동차판매 - 중고자동차판매"},{"name":"세계모터스","tel":"031-543-7723","addr":"경기도 포천시 소흘읍 초가팔리 309번지","category":"자동차판매 - 중고자동차판매"},{"name":"송우상사","tel":"031-543-7207","addr":"경기도 포천시 소흘읍 초가팔리 309번지","category":"자동차판매 - 중고자동차판매"},{"name":"태양모터스","tel":"070-4225-4199","addr":"경기도 포천시 소흘읍 초가팔리 309번지","category":"자동차판매 - 중고자동차판매"},{"name":"포천중고차","tel":"031-544-9315","addr":"경기도 포천시 소흘읍 초가팔리 309번지","category":"자동차판매 - 중고자동차판매"}]},{"lat":"37.816085697","long":"127.15083882","items":[{"name":"삼성가스","tel":"031-543-3301","addr":"경기도 포천시 소흘읍 초가팔리 225-5","category":"연료판매점 - LPG 취급점"}]},{"lat":"37.81178585","long":"127.15269265","items":[{"name":"삼우기계","tel":"031-541-3463","addr":"경기도 포천시 소흘읍 초가팔리 147-1","category":"기타 - 기계공구"}]},{"lat":"37.818648279","long":"127.14769798","items":[{"name":"상아탑아카데미학원","tel":"031-541-2752","addr":"경기도 포천시 소흘읍 초가팔리 290-7번지","category":"학원 - 예·체능계학원"}]},{"lat":"37.816032067","long":"127.15049801","items":[{"name":"세라믹솔","tel":"031-543-2624","addr":"경기도 포천시 소흘읍 초가팔리 226-14번지 1","category":"문화.취미 - 민예·공예품"}]},{"lat":"37.813725902","long":"127.15733001","items":[{"name":"스마트퍼니처","tel":"070-8882-8608","addr":"경기도 포천시 소흘읍 초가팔리 43-3번지","category":"가구 - 일반가구"}]},{"lat":"37.813453472","long":"127.15200328","items":[{"name":"신광기계","tel":"031-544-7035","addr":"경기도 포천시 소흘읍 초가팔리 156-37번지","category":"기타 - 기계공구"}]},{"lat":"37.811837012","long":"127.15495263","items":[{"name":"신대동공사","tel":"031-829-2277","addr":"경기도 포천시 소흘읍 초가팔리 89-1번지","category":"기타 - 기타 전문점"}]},{"lat":"37.809616261","long":"127.15135963","items":[{"name":"신에너지뱅크","tel":"02-1899-4427","addr":"경기도 포천시 소흘읍 초가팔리 143-2번지","category":"연료판매점 - LPG 취급점"},{"name":"주식회사 에스케이종합가스","tel":"031-541-5959","addr":"경기도 포천시 소흘읍 초가팔리 143-2번지","category":"연료판매점 - LPG 취급점"},{"name":"주식회사 영흥특수가스","tel":"02-571-6767","addr":"경기도 포천시 소흘읍 초가팔리 143-2번지","category":"연료판매점 - 기타연료"},{"name":"착한가스","tel":"02-1600-6227","addr":"경기도 포천시 소흘읍 초가팔리 143-2번지","category":"연료판매점 - 기타연료"},{"name":"착한가스","tel":"","addr":"경기도 포천시 소흘읍 초가팔리 143-2번지","category":"연료판매점 - 기타연료"},{"name":"착한가스","tel":"031-541-5959","addr":"경기도 포천시 소흘읍 초가팔리 143-2번지","category":"연료판매점 - LPG 취급점"}]},{"lat":"37.821475325","long":"127.14924815","items":[{"name":"씨유포천상운점","tel":"031-543-2281","addr":"경기도 포천시 소흘읍 초가팔리 283-3번지 1층","category":"유통업 영리 - 편 의 점"}]},{"lat":"37.809893756","long":"127.15277968","items":[{"name":"에이스상사","tel":"031-573-5968","addr":"경기도 포천시 소흘읍 초가팔리 134-2번지","category":"자동차정비 유지 - 자동차정비"},{"name":"주식회사케이에스케미칼(KS chemical)","tel":"031-544-7441","addr":"경기도 포천시 소흘읍 초가팔리 134-2번지","category":"건축자재 - 페인트"}]},{"lat":"37.816232453","long":"127.14874945","items":[{"name":"온리원","tel":"070-0000-0000","addr":"경기도 포천시 소흘읍 초가팔리 242-1번지","category":"직물 - 옷감·직물"}]},{"lat":"37.812867732","long":"127.15905439","items":[{"name":"외풍차단 미세방충망 미래샷시","tel":"02-3666-8100","addr":"경기도 포천시 소흘읍 초가팔리 57-2번지","category":"건축자재 - 기타건축자재"}]},{"lat":"37.813364224","long":"127.15133307","items":[{"name":"우리창호","tel":"031-535-9677","addr":"경기도 포천시 소흘읍 초가팔리 172번지","category":"건축자재 - 기타건축자재"},{"name":"원형정공","tel":"031-542-4623","addr":"경기도 포천시 소흘읍 초가팔리 172번지","category":"기타 - 기계공구"}]},{"lat":"37.817202835","long":"127.15086376","items":[{"name":"육격탄","tel":"031-542-5969","addr":"경기도 포천시 소흘읍 초가팔리 226-4번지 1층","category":"일반휴게음식 - 일반한식"},{"name":"육격탄","tel":"542-5969","addr":"경기도 포천시 소흘읍 초가팔리 226-4번지","category":"음식 - 한식"},{"name":"천하장사","tel":"031-542-5969","addr":"경기도 포천시 소흘읍 초가팔리 226-4번지","category":"일반휴게음식 - 일반한식"}]},{"lat":"37.819421279","long":"127.14916459","items":[{"name":"인창식당","tel":"031-534-9887","addr":"경기도 포천시 소흘읍 초가팔리 288-18번지 1층 101호","category":"일반휴게음식 - 일반한식"},{"name":"인창즐거운노래연습장","tel":"031-544-9525","addr":"경기도 포천시 소흘읍 초가팔리 288-18번지 지하1층","category":"레저업소 - 노 래 방"},{"name":"인창치킨","tel":"031-543-8882","addr":"경기도 포천시 소흘읍 초가팔리 288-18번지","category":"일반휴게음식 - 스넥"}]},{"lat":"37.819730702","long":"127.14664386","items":[{"name":"지니","tel":"542-9875","addr":"경기도 포천시 소흘읍 초가팔리 338-4번지","category":"음식 - 커피 등"},{"name":"지니","tel":"031-542-9875","addr":"경기도 포천시 소흘읍 초가팔리 338-4번지","category":"일반휴게음식 - 서양음식"}]},{"lat":"37.822699429","long":"127.15019326","items":[{"name":"청량포도농원","tel":"031-866-0058","addr":"경기도 포천시 소흘읍 초가팔리 304-2번지","category":"음료식품 - 농·축·수산품"}]},{"lat":"37.81409219","long":"127.15275409","items":[{"name":"친환경에너지제로하우스제조업 협동조합","tel":"031-534-5607","addr":"경기도 포천시 소흘읍 초가팔리 156번지","category":"건축자재 - 인테리어전문"}]},{"lat":"37.816530213","long":"127.15550739","items":[{"name":"카페콤마","tel":"031-543-0210","addr":"경기도 포천시 소흘읍 초가팔리 24-3번지 1층","category":"일반휴게음식 - 서양음식"}]},{"lat":"37.816338416","long":"127.1504759","items":[{"name":"키즈우드","tel":"031-543-4820","addr":"경기도 포천시 소흘읍 초가팔리 235-1번지","category":"가구 - 일반가구"}]},{"lat":"37.818092702","long":"127.15250097","items":[{"name":"태화섬유","tel":"02-2264-2215","addr":"경기도 포천시 소흘읍 초가팔리 212-2번지","category":"유통업 영리 - 기타유통업"}]},{"lat":"37.81564322","long":"127.15164427","items":[{"name":"한성한식뷔페","tel":"031-543-8799","addr":"경기도 포천시 소흘읍 초가팔리 198-3번지","category":"유통업 영리 - 슈퍼마켓"}]},{"lat":"37.824005623","long":"127.15033216","items":[{"name":"현천식품","tel":"031-542-4052","addr":"경기도 포천시 소흘읍 초가팔리 294번지","category":"유통업 영리 - 기타유통업"},{"name":"현천유통","tel":"031-848-6700","addr":"경기도 포천시 소흘읍 초가팔리 294번지","category":"음료식품 - 농·축·수산품"},{"name":"현천푸드","tel":"","addr":"경기도 포천시 소흘읍 초가팔리 294번지","category":"음료식품 - 농·축·수산품"}]}]