[{"lat":"37.081770335","long":"127.44213066","items":[{"name":"GS25죽산로드점","tel":"","addr":"경기도 안성시 일죽면 월정리 942-3번지","category":"유통업 영리 - 편 의 점"}]},{"lat":"37.080600142","long":"127.43691695","items":[{"name":"가마솥 민속두부","tel":"031-676-9958","addr":"경기도 안성시 일죽면 월정리 998번지","category":"일반휴게음식 - 일반한식"}]},{"lat":"37.08768079","long":"127.45660611","items":[{"name":"경기카공업사","tel":"031-671-4992","addr":"경기도 안성시 일죽면 월정리 527번지 1층","category":"자동차정비 유지 - 자동차정비"},{"name":"주식회사 아남","tel":"031-674-7322","addr":"경기도 안성시 일죽면 월정리 527번지","category":"신변잡화 - 기타잡화"}]},{"lat":"37.086267418","long":"127.45390967","items":[{"name":"고려인삼유기농협동조합","tel":"031-672-6224","addr":"경기도 안성시 일죽면 월정리 1642번지","category":"건강식품 - 인삼제품"}]},{"lat":"37.084015369","long":"127.4489928","items":[{"name":"광장LPG충전소","tel":"031-676-1557","addr":"경기도 안성시 일죽면 월정리 718-1번지","category":"연료판매점 - SK가스충전소"},{"name":"광장카인테리어","tel":"031-676-6780","addr":"경기도 안성시 일죽면 월정리 718-1","category":"자동차정비 유지 - 자동차부품"},{"name":"광장휴게소","tel":"031-675-6558","addr":"경기도 안성시 일죽면 월정리 718-1번지 광장휴게소","category":"일반휴게음식 - 일반한식"},{"name":"바지락짬뽕","tel":"031-677-8501","addr":"경기도 안성시 일죽면 월정리 718-1번지 외","category":"일반휴게음식 - 중국식"},{"name":"삼미상사(주) 광장셀프주유소","tel":"031-676-1557","addr":"경기도 안성시 일죽면 월정리 718-1번지","category":"연료판매점 - SK주유소"},{"name":"스마트하우스","tel":"031-672-5923","addr":"경기도 안성시 일죽면 월정리 718-1번지 광장휴게소 A동 1층","category":"일반휴게음식 - 일반한식"},{"name":"씨유광장휴게소점","tel":"031-675-5689","addr":"경기도 안성시 일죽면 월정리 718-1번지 광장휴게소","category":"유통업 영리 - 편 의 점"},{"name":"애경개발 광장주유소","tel":"031-676-1557","addr":"경기도 안성시 일죽면 월정리 718-1번지","category":"연료판매점 - SK주유소"},{"name":"큐디피패션","tel":"070-8966-6992","addr":"경기도 안성시 일죽면 월정리 718-1번지","category":"의류 - 정장"}]},{"lat":"37.088126448","long":"127.46021913","items":[{"name":"나이스","tel":"031-674-8022","addr":"경기도 안성시 일죽면 월정리 481-4번지","category":"레져용품 - 골프용품 전문점"},{"name":"달보드레","tel":"070-4100-1998","addr":"경기도 안성시 일죽면 월정리 481-4번지 1층","category":"일반휴게음식 - 서양음식"},{"name":"세븐일레븐안성일죽휴게소점","tel":"","addr":"경기도 안성시 일죽면 월정리 481-4번지","category":"유통업 영리 - 편 의 점"},{"name":"추어골어죽","tel":"","addr":"경기도 안성시 일죽면 월정리 481-4번지 1층","category":"일반휴게음식 - 일반한식"},{"name":"현진상회","tel":"031-673-4700","addr":"경기도 안성시 일죽면 월정리 481-4번지","category":"음료식품 - 기타음료식품"}]},{"lat":"37.081431627","long":"127.43868735","items":[{"name":"남현특수산업","tel":"031-676-3282","addr":"경기도 안성시 일죽면 월정리 972-13번지","category":"건축자재 - 기타건축자재"}]},{"lat":"37.081938738","long":"127.44288513","items":[{"name":"다올","tel":"031-677-2277","addr":"경기도 안성시 일죽면 월정리 894-6번지 2층","category":"일반휴게음식 - 일반한식"},{"name":"성모기사식당","tel":"031-676-1218","addr":"경기도 안성시 일죽면 월정리 894-6 외1필지가동(1층3,4호)","category":"일반휴게음식 - 일반한식"}]},{"lat":"37.084989961","long":"127.44860487","items":[{"name":"동화산업 일죽점","tel":"031-673-4006","addr":"경기도 안성시 일죽면 월정리 713-6번지","category":"자동차정비 유지 - 자동차부품"},{"name":"호이스트&냉동","tel":"031-881-1192","addr":"경기도 안성시 일죽면 월정리 713-6번지","category":"자동차정비 유지 - 중장비수리"}]},{"lat":"37.087433679","long":"127.45760563","items":[{"name":"두부마을과돌솥밥","tel":"031-672-1656","addr":"경기도 안성시 일죽면 월정리 507-2번지","category":"일반휴게음식 - 일반한식"}]},{"lat":"37.086157606","long":"127.4471946","items":[{"name":"별장파크","tel":"031-676-8810","addr":"경기도 안성시 일죽면 월정리 712-6번지","category":"숙박업 - 여관/기타숙박업"}]},{"lat":"37.087348004","long":"127.45171164","items":[{"name":"블루베리 호두찐빵","tel":"","addr":"경기도 안성시 일죽면 월정리 1379-3번지 1층","category":"일반휴게음식 - 일반한식"},{"name":"숙이네꽃게한상","tel":"031-675-8001","addr":"경기도 안성시 일죽면 월정리 1379-3번지","category":"일반휴게음식 - 일반한식"}]},{"lat":"37.087631069","long":"127.45546985","items":[{"name":"산정자동차공업사","tel":"031-671-1687","addr":"경기도 안성시 일죽면 월정리 537-5번지","category":"자동차정비 유지 - 자동차정비"}]},{"lat":"37.081658523","long":"127.44069049","items":[{"name":"상일철망휀스","tel":"031-676-7745","addr":"경기도 안성시 일죽면 월정리 1579번지","category":"건축자재 - 목재·석재·철물"}]},{"lat":"37.084737969","long":"127.44852467","items":[{"name":"서울해장국","tel":"031-671-1080","addr":"경기도 안성시 일죽면 월정리 713-7번지","category":"일반휴게음식 - 일반한식"}]},{"lat":"37.09740616","long":"127.46282832","items":[{"name":"선진컴퍼니","tel":"031-674-3177","addr":"경기도 안성시 일죽면 월정리 30-1번지","category":"주방용구 - 주방용구"}]},{"lat":"37.080935936","long":"127.43871826","items":[{"name":"성원디자인","tel":"031-676-7778","addr":"경기도 안성시 일죽면 월정리 991-3번지 1층","category":"용역 서비스 - 사무서비스"},{"name":"춘추식당","tel":"070-8785-7130","addr":"경기도 안성시 일죽면 월정리 991-3번지 1,2층","category":"일반휴게음식 - 일반한식"}]},{"lat":"37.089714337","long":"127.45968879","items":[{"name":"소나무","tel":"","addr":"경기도 안성시 일죽면 월정리 478번지","category":"일반휴게음식 - 일반한식"}]},{"lat":"37.086549277","long":"127.45560963","items":[{"name":"월정농원","tel":"031-673-6588","addr":"경기도 안성시 일죽면 월정리 539-5번지","category":"음료식품 - 농·축·수산품"}]},{"lat":"37.087180469","long":"127.45548967","items":[{"name":"이포천서리막국수","tel":"031-674-2002","addr":"경기도 안성시 일죽면 월정리 537-1번지","category":"일반휴게음식 - 일반한식"}]},{"lat":"37.087548402","long":"127.46057556","items":[{"name":"일죽LPG충전소","tel":"031-673-6022","addr":"경기도 안성시 일죽면 월정리 482-3번지","category":"연료판매점 - E1가스충전소"},{"name":"일죽LPG충전소","tel":"031-673-6022","addr":"경기도 안성시 일죽면 월정리 482-3번지","category":"연료판매점 - E1가스충전소"}]},{"lat":"37.085268223","long":"127.44888767","items":[{"name":"일죽금호타이어","tel":"031-675-6932","addr":"경기도 안성시 일죽면 월정리 713-1번지","category":"자동차정비 유지 - 자동차시트·타이어"}]},{"lat":"37.08079808","long":"127.43699681","items":[{"name":"일죽전자","tel":"031-675-5858","addr":"경기도 안성시 일죽면 월정리 997-3번지","category":"자동차정비 유지 - 자동차부품"},{"name":"티아라 펫(TIARA PET)","tel":"031-223-4746","addr":"경기도 안성시 일죽면 월정리 997-3번지 2층","category":"문화.취미 - 애완동물"}]},{"lat":"37.08096152","long":"127.43911202","items":[{"name":"주식회사펫클럽/안성2호점","tel":"031-595-3051","addr":"경기도 안성시 일죽면 월정리 991-9번지","category":"문화.취미 - 애완동물"}]},{"lat":"37.08157732","long":"127.43827208","items":[{"name":"죽산대형부품","tel":"031-675-1261","addr":"경기도 안성시 일죽면 월정리 952-2번지","category":"자동차정비 유지 - 자동차부품"}]},{"lat":"37.087772141","long":"127.45863115","items":[{"name":"청명시스템","tel":"031-673-6455","addr":"경기도 안성시 일죽면 월정리 504-3","category":"건축자재 - 기타건축자재"}]},{"lat":"37.082406283","long":"127.44557572","items":[{"name":"현대오일뱅크 일죽IC 주유소","tel":"031-675-9950","addr":"경기도 안성시 일죽면 월정리 891-24번지","category":"연료판매점 - 현대정유(오일뱅크)"}]},{"lat":"37.087075566","long":"127.45227238","items":[{"name":"혜승","tel":"031-677-0576","addr":"경기도 안성시 일죽면 월정리 1382번지 A동","category":"의류 - 스포츠의류"}]}]