[{"lat":"37.37709488","long":"127.2952558","items":[{"name":"(주)맵플러스아이엠티보습학원","tel":"031-765-0744","addr":"경기도 광주시 초월읍 쌍동리 253-111번지 2층","category":"학원 - 보습학원"},{"name":"(주)맵플러스아이엠티보습학원","tel":"031-765-0744","addr":"경기도 광주시 초월읍 쌍동리 253-111번지 2층","category":"학원 - 보습학원"},{"name":"맵플러스아이엠티보습학원","tel":"031-765-0745","addr":"경기도 광주시 초월읍 쌍동리 253-111번지","category":"학원 - 보습학원"},{"name":"발레아트발레전문학원","tel":"031-3526-3526","addr":"경기도 광주시 초월읍 쌍동리 253-111번지 3층","category":"학원 - 예·체능계학원"},{"name":"제이에이치(JH)아카데미학원","tel":"031-765-0744","addr":"경기도 광주시 초월읍 쌍동리 253-111번지 2층","category":"학원 - 보습학원"}]},{"lat":"37.36476345","long":"127.3046677","items":[{"name":"(주)원페인팅","tel":"031-4124-7848","addr":"경기도 광주시 초월읍 쌍동리 58번지","category":"자동차정비 유지 - 카인테리어"}]},{"lat":"37.3712883","long":"127.3005054","items":[{"name":"(주)제이엠밸브","tel":"031-769-3030","addr":"경기도 광주시 초월읍 쌍동리 198-2번지","category":"기타 - 기계공구"}]},{"lat":"37.37451084","long":"127.298136","items":[{"name":"(주)현대건장","tel":"031-767-6324","addr":"경기도 광주시 초월읍 쌍동리 261-3번지","category":"건축자재 - 기타건축자재"}]},{"lat":"37.37064565","long":"127.3016657","items":[{"name":"BUBBLE MAX","tel":"031-762-2785","addr":"경기도 광주시 초월읍 쌍동리 178-9번지","category":"자동차정비 유지 - 세차장"}]},{"lat":"37.36717779","long":"127.297667","items":[{"name":"Felix 펠릭스","tel":"","addr":"경기도 광주시 초월읍 쌍동리 81-4번지 1층","category":"기타 - 기타 전문점"}]},{"lat":"37.37011603","long":"127.3008846","items":[{"name":"GS25광주도곡점","tel":"","addr":"경기도 광주시 초월읍 쌍동리 181-25번지","category":"유통업 영리 - 편 의 점"},{"name":"GS25광주도곡점","tel":"","addr":"경기도 광주시 초월읍 쌍동리 181-25번지","category":"유통업 영리 - 상품권전문판매"},{"name":"그리다미술교습소","tel":"031-767-9397","addr":"경기도 광주시 초월읍 쌍동리 181-25번지","category":"학원 - 예·체능계학원"},{"name":"아이엘피아노음악교습소","tel":"031-769-7754","addr":"경기도 광주시 초월읍 쌍동리 181-25번지 102호","category":"학원 - 예·체능계학원"},{"name":"카페로운","tel":"070-4259-3443","addr":"경기도 광주시 초월읍 쌍동리 181-25번지 1층","category":"일반휴게음식 - 서양음식"}]},{"lat":"37.37334078","long":"127.2976347","items":[{"name":"GS25광주쌍동점","tel":"","addr":"경기도 광주시 초월읍 쌍동리 355-6번지 1층 101호","category":"유통업 영리 - 편 의 점"},{"name":"마이마이","tel":"","addr":"경기도 광주시 초월읍 쌍동리 355-6번지 드림하우스 1층 102호","category":"일반휴게음식 - 서양음식"}]},{"lat":"37.37764991","long":"127.2930563","items":[{"name":"H2 hair(에이치투헤어)","tel":"031-769-4894","addr":"경기도 광주시 초월읍 쌍동리 287-3번지","category":"보건위생 - 미용원"},{"name":"J뷰티샵","tel":"031-764-0712","addr":"경기도 광주시 초월읍 쌍동리 287-3번지 104호","category":"보건위생 - 피부미용실"},{"name":"광주 하남 보육사","tel":"031-762-7480","addr":"경기도 광주시 초월읍 쌍동리 287-3번지","category":"서적문구 - 기타서적문구"},{"name":"선우데이타시스템","tel":"031-766-4854","addr":"경기도 광주시 초월읍 쌍동리 287-3번지 재인상가2","category":"사무통신 - 사무용 OA기기"}]},{"lat":"37.37161776","long":"127.3020534","items":[{"name":"K-골프피팅","tel":"031-766-0606","addr":"경기도 광주시 초월읍 쌍동리 179-7번지 2층 201호","category":"수리서비스 - 레져용품수리"},{"name":"광주전자통신","tel":"070-4144-7771","addr":"경기도 광주시 초월읍 쌍동리 179-7번지 101호","category":"자동차정비 유지 - 자동차부품"},{"name":"몬머스카페(monmouth cafe)","tel":"031-769-7778","addr":"경기도 광주시 초월읍 쌍동리 179-7번지 1층","category":"일반휴게음식 - 서양음식"},{"name":"육감만족 초월점","tel":"031-764-9211","addr":"경기도 광주시 초월읍 쌍동리 179-7번지 1층","category":"일반휴게음식 - 일반한식"},{"name":"자운스크린골프","tel":"031-761-0770","addr":"경기도 광주시 초월읍 쌍동리 179-7번지","category":"레저업소 - 스크린골프"},{"name":"코다리밥상","tel":"031-768-1405","addr":"경기도 광주시 초월읍 쌍동리 179-7번지 1층","category":"일반휴게음식 - 일반한식"}]},{"lat":"37.37503564","long":"127.2972461","items":[{"name":"NF공간","tel":"","addr":"경기도 광주시 초월읍 쌍동리 260-28번지","category":"직물 - 카페트,커튼,천막,지물"},{"name":"우리산삼 자연약초","tel":"031-762-2586","addr":"경기도 광주시 초월읍 쌍동리 260-28번지","category":"약국 - 한약방"}]},{"lat":"37.36826221","long":"127.3035528","items":[{"name":"S 헤어","tel":"031-762-0055","addr":"경기도 광주시 초월읍 쌍동리 165-7번지 101호","category":"보건위생 - 미용원"}]},{"lat":"37.37084345","long":"127.3018358","items":[{"name":"TIMO outlet","tel":"031-763-2526","addr":"경기도 광주시 초월읍 쌍동리 178-8번지 1층","category":"의류 - 정장"},{"name":"세사리빙 초월역점","tel":"031-767-8471","addr":"경기도 광주시 초월읍 쌍동리 178-8번지","category":"직물 - 침구·수예점"},{"name":"제이에스패션","tel":"031-765-1552","addr":"경기도 광주시 초월읍 쌍동리 178-8번지","category":"레져용품 - 스포츠·레져용품"}]},{"lat":"37.37619773","long":"127.2900024","items":[{"name":"e편한마트","tel":"031-797-7202","addr":"경기도 광주시 초월읍 쌍동리 393번지 107호 (초월이-편한세상)","category":"유통업 영리 - 슈퍼마켓"},{"name":"굽네치킨 초월점","tel":"031-765-9492","addr":"경기도 광주시 초월읍 쌍동리 393번지 초월이-편한세상 B106호","category":"일반휴게음식 - 스넥"},{"name":"굽네치킨(초월점)","tel":"031-765-9492","addr":"경기도 광주시 초월읍 쌍동리 393번지 초월이-편한세상 B106호","category":"일반휴게음식 - 스넥"}]},{"lat":"37.37242211","long":"127.3010857","items":[{"name":"가장맛있는족발 초월역점","tel":"031-765-5848","addr":"경기도 광주시 초월읍 쌍동리 199-1번지 청파빌딩 1층","category":"일반휴게음식 - 일반한식"},{"name":"뮤엠교육 경기광주센터","tel":"031-762-0565","addr":"경기도 광주시 초월읍 쌍동리 199-1번지 2층 202호","category":"서적문구 - 기타서적문구"}]},{"lat":"37.37869986","long":"127.2947766","items":[{"name":"강릉먹거리타운","tel":"031-797-0514","addr":"경기도 광주시 초월읍 쌍동리 271-2번지 1층","category":"일반휴게음식 - 일반한식"},{"name":"강릉수산","tel":"","addr":"경기도 광주시 초월읍 쌍동리 271-2번지 1층","category":"음료식품 - 농·축·수산품"}]},{"lat":"37.37661494","long":"127.2962249","items":[{"name":"강산하늘이네","tel":"031-768-4488","addr":"경기도 광주시 초월읍 쌍동리 253-95번지 2층","category":"일반휴게음식 - 중국식"},{"name":"올래 노래연습장","tel":"031-765-6868","addr":"경기도 광주시 초월읍 쌍동리 253-95번지","category":"레저업소 - 노 래 방"},{"name":"용지장어숯불구이","tel":"031-766-8198","addr":"경기도 광주시 초월읍 쌍동리 253-95번지","category":"일반휴게음식 - 일반한식"}]},{"lat":"37.36545338","long":"127.3061718","items":[{"name":"건원","tel":"031-766-7554","addr":"경기도 광주시 초월읍 쌍동리 48-3","category":"용역 서비스 - 종합용역"}]},{"lat":"37.37262628","long":"127.2987157","items":[{"name":"경기동부상가로","tel":"031-797-9879","addr":"경기도 광주시 초월읍 쌍동리 389번지 롯데낙천대아파트","category":"용역 서비스 - 종합용역"}]},{"lat":"37.37578684","long":"127.2958943","items":[{"name":"경기사랑 공인중개사 사무소","tel":"031-766-9517","addr":"경기도 광주시 초월읍 쌍동리 253-59번지","category":"용역 서비스 - 부동산 중개·임대"},{"name":"다온상사","tel":"031-798-0295","addr":"경기도 광주시 초월읍 쌍동리 253-59번지","category":"건축자재 - 목재·석재·철물"},{"name":"쌍동 복권방","tel":"031-762-1822","addr":"경기도 광주시 초월읍 쌍동리 253-59번지 초월상가 1층 8호","category":"음료식품 - 기타음료식품"},{"name":"에이스침대곤지암대리점","tel":"031-767-4501","addr":"경기도 광주시 초월읍 쌍동리 253-59번지","category":"가구 - 일반가구"},{"name":"욕실마스터 경기광주지점","tel":"","addr":"경기도 광주시 초월읍 쌍동리 253-59번지 초월상가 1층 5호","category":"건축자재 - 인테리어전문"},{"name":"이조혼수마트","tel":"031-765-7540","addr":"경기도 광주시 초월읍 쌍동리 253-59번지","category":"직물 - 침구·수예점"}]},{"lat":"37.37901561","long":"127.298244","items":[{"name":"곤지암전국대리운전","tel":"070-8833-7652","addr":"경기도 광주시 초월읍 쌍동리 268-29번지 초월역드림하우스3차 8동 302호","category":"보건위생 - 기타대인서비스"}]},{"lat":"37.36825907","long":"127.3047833","items":[{"name":"곤지암점기아오토큐","tel":"031-764-1959","addr":"경기도 광주시 초월읍 쌍동리 14-2번지","category":"자동차정비 유지 - 자동차정비"}]},{"lat":"37.36603462","long":"127.30789","items":[{"name":"광주꽃집하장","tel":"031-765-3212","addr":"경기도 광주시 초월읍 쌍동리 386번지","category":"문화.취미 - 화원"},{"name":"선화다육","tel":"031-767-8522","addr":"경기도 광주시 초월읍 쌍동리 386번지","category":"문화.취미 - 화원"}]},{"lat":"37.37670423","long":"127.2965527","items":[{"name":"광주우가네본가","tel":"031-763-3778","addr":"경기도 광주시 초월읍 쌍동리 253-28번지 1층","category":"일반휴게음식 - 일반한식"}]},{"lat":"37.37848287","long":"127.2950806","items":[{"name":"국가대표 자동차유리","tel":"031-767-2882","addr":"경기도 광주시 초월읍 쌍동리 271-47번지 2층","category":"자동차정비 유지 - 자동차정비"}]},{"lat":"37.37006767","long":"127.302194","items":[{"name":"그린디자인","tel":"031-765-8957","addr":"경기도 광주시 초월읍 쌍동리 129-3번지 2층 202호","category":"용역 서비스 - 사무서비스"},{"name":"까까머리","tel":"031-766-2125","addr":"경기도 광주시 초월읍 쌍동리 129-3번지","category":"보건위생 - 미용원"},{"name":"달빛도곡포차","tel":"031-766-4903","addr":"경기도 광주시 초월읍 쌍동리 129-3번지 2동 1층","category":"일반휴게음식 - 일반한식"},{"name":"도담도담식빵 (초월점)","tel":"031-699-8763","addr":"경기도 광주시 초월읍 쌍동리 129-3번지","category":"음료식품 - 제과점"},{"name":"인사이트쌍동어학원","tel":"031-768-7991","addr":"경기도 광주시 초월읍 쌍동리 129-3번지 2층","category":"회원제형태 - 학원"},{"name":"하늘소리 음악학원","tel":"031-797-7081","addr":"경기도 광주시 초월읍 쌍동리 129-3번지 2층","category":"학원 - 예·체능계학원"}]},{"lat":"37.37250607","long":"127.2963331","items":[{"name":"그린샷","tel":"031-2157-3456","addr":"경기도 광주시 초월읍 쌍동리 237번지","category":"레져용품 - 스포츠·레져용품"}]},{"lat":"37.37414917","long":"127.2986426","items":[{"name":"기억","tel":"031-764-0601","addr":"경기도 광주시 초월읍 쌍동리 261-1번지 2층","category":"광학제품 - 사진관"}]},{"lat":"37.36981833","long":"127.3010302","items":[{"name":"김우상베이커리","tel":"031-763-1530","addr":"경기도 광주시 초월읍 쌍동리 127-1번지 초광빌딩","category":"음료식품 - 제과점"},{"name":"맷돌","tel":"","addr":"경기도 광주시 초월읍 쌍동리 127-1번지 초광빌딩 1층","category":"일반휴게음식 - 일반한식"},{"name":"샘터지앤비영어학원","tel":"031-766-2110","addr":"경기도 광주시 초월읍 쌍동리 127-1번지 초광빌딩 3층","category":"학원 - 외국어학원"},{"name":"샘터학원","tel":"031-766-2110","addr":"경기도 광주시 초월읍 쌍동리 127-1번지","category":"학원 - 기타 교육기관"},{"name":"현진문구","tel":"031-766-4370","addr":"경기도 광주시 초월읍 쌍동리 127-1","category":"일반휴게음식 - 스넥"}]},{"lat":"37.36762318","long":"127.3032793","items":[{"name":"김은숙헤어","tel":"031-764-7307","addr":"경기도 광주시 초월읍 쌍동리 151-1번지","category":"보건위생 - 미용원"},{"name":"샘터에듀학원","tel":"031-766-2110","addr":"경기도 광주시 초월읍 쌍동리 151-1번지 2층","category":"학원 - 보습학원"},{"name":"카페드림 (cafe drim)","tel":"031-4765-6380","addr":"경기도 광주시 초월읍 쌍동리 151-1번지 1층","category":"일반휴게음식 - 서양음식"}]},{"lat":"37.37769947","long":"127.2948856","items":[{"name":"깡통숯불구이","tel":"031-797-9977","addr":"경기도 광주시 초월읍 쌍동리 279-4번지 1층","category":"일반휴게음식 - 일반한식"}]},{"lat":"37.37640479","long":"127.2900709","items":[{"name":"꽃다올","tel":"","addr":"경기도 광주시 초월읍 쌍동리 393번지 초월이-편한세상","category":"신변잡화 - 액세서리"},{"name":"런스팀","tel":"031-717-2013","addr":"경기도 광주시 초월읍 쌍동리 393번지 초월이-편한세상","category":"서적문구 - 완구점"},{"name":"한국향기렌탈서비스","tel":"031-1800-6210","addr":"경기도 광주시 초월읍 쌍동리 393번지 초월이-편한세상","category":"회원제형태 - 기타4"},{"name":"현민에어컨","tel":"031-000-0000","addr":"경기도 광주시 초월읍 쌍동리 393번지 초월이-편한세상","category":"용역 서비스 - 기타용역서비스"}]},{"lat":"37.3714208","long":"127.2979658","items":[{"name":"꿈꾸는로블","tel":"031-764-3619","addr":"경기도 광주시 초월읍 쌍동리 222번지 초월팰리스 A동 101호","category":"학원 - 기타 교육기관"}]},{"lat":"37.37200668","long":"127.3014679","items":[{"name":"나이키골프곤지암","tel":"031-361-6405","addr":"경기도 광주시 초월읍 쌍동리 199-17","category":"레져용품 - 스포츠·레져용품"}]},{"lat":"37.37295574","long":"127.3002749","items":[{"name":"남산애견","tel":"031-765-3212","addr":"경기도 광주시 초월읍 쌍동리 208-1번지","category":"문화.취미 - 애완동물"}]},{"lat":"37.37009055","long":"127.303831","items":[{"name":"남석식품 듬박이화로숯불구이","tel":"031-766-1158","addr":"경기도 광주시 초월읍 쌍동리 170-1번지","category":"일반휴게음식 - 일반한식"}]},{"lat":"37.37797953","long":"127.2945818","items":[{"name":"농부네들밥쌈밥","tel":"031-798-4549","addr":"경기도 광주시 초월읍 쌍동리 279-2번지 1층 동리빌딩","category":"일반휴게음식 - 일반한식"},{"name":"한우농가","tel":"031-798-4549","addr":"경기도 광주시 초월읍 쌍동리 279-2번지 동리빌딩","category":"음료식품 - 정육점"}]},{"lat":"37.36983726","long":"127.300669","items":[{"name":"니네먹","tel":"031-767-1171","addr":"경기도 광주시 초월읍 쌍동리 125-8번지 민주빌딩 1층","category":"일반휴게음식 - 일반한식"},{"name":"젠헤어플러스","tel":"031-766-8115","addr":"경기도 광주시 초월읍 쌍동리 125-8번지 (1층3호~4호)","category":"보건위생 - 미용원"},{"name":"초은학원특별관","tel":"031-768-5620","addr":"경기도 광주시 초월읍 쌍동리 125-8번지","category":"학원 - 보습학원"}]},{"lat":"37.37230432","long":"127.2977548","items":[{"name":"다다미(DADAME)","tel":"","addr":"경기도 광주시 초월읍 쌍동리 389번지 롯데낙천대아파트","category":"의류 - 정장"},{"name":"디에치(DH)크린 광주지사","tel":"","addr":"경기도 광주시 초월읍 쌍동리 389번지 롯데낙천대아파트","category":"용역 서비스 - 종합용역"}]},{"lat":"37.37114985","long":"127.2982244","items":[{"name":"다올","tel":"031-765-9953","addr":"경기도 광주시 초월읍 쌍동리 184번지 1층","category":"일반휴게음식 - 스넥"},{"name":"롯데할인마트","tel":"02-1111-1111","addr":"경기도 광주시 초월읍 쌍동리 184번지 1층 6호","category":"유통업 영리 - 슈퍼마켓"},{"name":"비비큐","tel":"031-111-1111","addr":"경기도 광주시 초월읍 쌍동리 184번지 104호","category":"일반휴게음식 - 스넥"},{"name":"삼성영어도곡학원","tel":"031-765-0255","addr":"경기도 광주시 초월읍 쌍동리 184번지 2층456동","category":"회원제형태 - 학원"},{"name":"손가락놀이터","tel":"","addr":"경기도 광주시 초월읍 쌍동리 184번지 1층 106호","category":"일반휴게음식 - 서양음식"},{"name":"애니캔학원","tel":"031-767-5437","addr":"경기도 광주시 초월읍 쌍동리 184번지 2층","category":"학원 - 보습학원"},{"name":"에이펙스영어수학학원","tel":"","addr":"경기도 광주시 초월읍 쌍동리 184번지 2층","category":"학원 - 보습학원"},{"name":"헤어캐슬","tel":"031-766-3324","addr":"경기도 광주시 초월읍 쌍동리 184번지","category":"보건위생 - 미용원"}]},{"lat":"37.36967157","long":"127.302057","items":[{"name":"다중지능 적성평가원","tel":"","addr":"경기도 광주시 초월읍 쌍동리 130-3번지 201호","category":"용역 서비스 - 사무서비스"}]},{"lat":"37.37133996","long":"127.2978639","items":[{"name":"대니버거 (초월역점)","tel":"031-761-0082","addr":"경기도 광주시 초월읍 쌍동리 222번지 초월팰리스 A동 지101호","category":"일반휴게음식 - 서양음식"},{"name":"대니버거 초월역점","tel":"031-761-0082","addr":"경기도 광주시 초월읍 쌍동리 222번지 초월팰리스","category":"일반휴게음식 - 일반한식"}]},{"lat":"37.36795684","long":"127.3031677","items":[{"name":"대성상회","tel":"031-765-3589","addr":"경기도 광주시 초월읍 쌍동리 154-1","category":"신변잡화 - 기타잡화"},{"name":"오렌지분식","tel":"031-1111-1111","addr":"경기도 광주시 초월읍 쌍동리 154-1번지 1층","category":"일반휴게음식 - 스넥"}]},{"lat":"37.36750731","long":"127.3027821","items":[{"name":"대현","tel":"031-766-3878","addr":"경기도 광주시 초월읍 쌍동리 157-2","category":"자동차정비 유지 - 자동차부품"}]},{"lat":"37.37431594","long":"127.296803","items":[{"name":"더 쿱 월드 멀티샵","tel":"031-766-8365","addr":"경기도 광주시 초월읍 쌍동리 260-10","category":"의류 - 스포츠의류"},{"name":"맹골추어탕","tel":"031-766-7140","addr":"경기도 광주시 초월읍 쌍동리 260-10번지","category":"일반휴게음식 - 일반한식"}]},{"lat":"37.37372835","long":"127.2975797","items":[{"name":"더휴","tel":"031-763-7116","addr":"경기도 광주시 초월읍 쌍동리 260-15번지","category":"보건위생 - 미용원"},{"name":"백제약국","tel":"031-763-6846","addr":"경기도 광주시 초월읍 쌍동리 260-15번지 SM프라자 1층","category":"약국 - 약국"},{"name":"서울휴내과이비인후과의원","tel":"031-8027-2222","addr":"경기도 광주시 초월읍 쌍동리 260-15번지 3층 1,2,3호","category":"의원 - 의원"},{"name":"올바른치과의원","tel":"031-365-3605","addr":"경기도 광주시 초월읍 쌍동리 260-15번지 2층","category":"의원 - 치과의원"},{"name":"주식회사 에스오에스","tel":"02-1111-1111","addr":"경기도 광주시 초월읍 쌍동리 260-15번지 1층","category":"용역 서비스 - 종합용역"},{"name":"천진세무회계","tel":"031-762-0097","addr":"경기도 광주시 초월읍 쌍동리 260-15번지 SM프라자","category":"용역 서비스 - 법률회계서비스(개인)"}]},{"lat":"37.36839474","long":"127.3045806","items":[{"name":"도곡밧데리","tel":"031-765-5178","addr":"경기도 광주시 초월읍 쌍동리 15번지","category":"자동차정비 유지 - 자동차정비"}]},{"lat":"37.3702844","long":"127.3020029","items":[{"name":"도곡식당","tel":"031-762-8130","addr":"경기도 광주시 초월읍 쌍동리 177-2번지","category":"일반휴게음식 - 일반한식"},{"name":"커피오즈","tel":"031-766-7921","addr":"경기도 광주시 초월읍 쌍동리 177-2번지 1층","category":"일반휴게음식 - 서양음식"}]},{"lat":"37.3710384","long":"127.2995561","items":[{"name":"도곡이화음악학원","tel":"031-767-7943","addr":"경기도 광주시 초월읍 쌍동리 187-1번지 1층","category":"학원 - 예·체능계학원"},{"name":"올플러스수학학원","tel":"031-767-7674","addr":"경기도 광주시 초월읍 쌍동리 187-1번지","category":"학원 - 보습학원"},{"name":"통큰딱따구리","tel":"031-765-6005","addr":"경기도 광주시 초월읍 쌍동리 187-1번지 1층","category":"서적문구 - 문구용품"},{"name":"한국체대중앙태권도","tel":"031-765-1199","addr":"경기도 광주시 초월읍 쌍동리 187-1","category":"학원 - 예·체능계학원"}]},{"lat":"37.36922656","long":"127.3034437","items":[{"name":"도골오리농장","tel":"031-761-5967","addr":"경기도 광주시 초월읍 쌍동리 167-3번지","category":"일반휴게음식 - 일반한식"},{"name":"아리아콩나물국밥","tel":"031-762-0443","addr":"경기도 광주시 초월읍 쌍동리 167-3번지","category":"일반휴게음식 - 일반한식"}]},{"lat":"37.37631728","long":"127.2963592","items":[{"name":"도담전자","tel":"031-767-0510","addr":"경기도 광주시 초월읍 쌍동리 253-37번지 1층","category":"전기제품 - 기타전기제품"},{"name":"무봉리토종순대국","tel":"031-765-6630","addr":"경기도 광주시 초월읍 쌍동리 253-37","category":"일반휴게음식 - 일반한식"}]},{"lat":"37.36778608","long":"127.3029977","items":[{"name":"도소리노래방","tel":"031-761-8759","addr":"경기도 광주시 초월읍 쌍동리 155-1","category":"레저업소 - 노 래 방"},{"name":"와와한식뷔페정식","tel":"031-761-4213","addr":"경기도 광주시 초월읍 쌍동리 155-1번지 1층","category":"일반휴게음식 - 일반한식"}]},{"lat":"37.36895555","long":"127.3037249","items":[{"name":"도야지한식부페","tel":"","addr":"경기도 광주시 초월읍 쌍동리 166-1번지","category":"일반휴게음식 - 일반한식"},{"name":"초원갈비","tel":"031-1111-1111","addr":"경기도 광주시 초월읍 쌍동리 166-1번지","category":"일반휴게음식 - 일반한식"},{"name":"초원생고기","tel":"031-767-2998","addr":"경기도 광주시 초월읍 쌍동리 166-1번지 1층","category":"일반휴게음식 - 일반한식"}]},{"lat":"37.37856166","long":"127.2960067","items":[{"name":"디자인가구","tel":"031-768-9199","addr":"경기도 광주시 초월읍 쌍동리 271-50번지","category":"가구 - 일반가구"}]},{"lat":"37.36981086","long":"127.3039767","items":[{"name":"디즈니골프곤지암점","tel":"031-762-3787","addr":"경기도 광주시 초월읍 쌍동리 170-9번지","category":"의류 - 스포츠의류"},{"name":"올포유 곤지암점","tel":"031-763-3818","addr":"경기도 광주시 초월읍 쌍동리 170-9번지","category":"의류 - 스포츠의류"},{"name":"와이드앵글곤지암점","tel":"031-762-3787","addr":"경기도 광주시 초월읍 쌍동리 170-9번지 1층","category":"의류 - 스포츠의류"},{"name":"해신","tel":"031-766-3358","addr":"경기도 광주시 초월읍 쌍동리 170-9번지 1층","category":"일반휴게음식 - 일반한식"}]},{"lat":"37.37601057","long":"127.2965048","items":[{"name":"라임스킨케어","tel":"031-769-1201","addr":"경기도 광주시 초월읍 쌍동리 253-39","category":"회원제형태 - 기타4"},{"name":"세븐일레븐경기광주쌍동점","tel":"","addr":"경기도 광주시 초월읍 쌍동리 253-39번지","category":"유통업 영리 - 편 의 점"},{"name":"세븐일레븐경기광주쌍동점","tel":"","addr":"경기도 광주시 초월읍 쌍동리 253-39","category":"유통업 영리 - 편 의 점"}]},{"lat":"37.37453849","long":"127.2978877","items":[{"name":"라자가구광주점","tel":"031-766-5207","addr":"경기도 광주시 초월읍 쌍동리 260-26번지","category":"가구 - 일반가구"}]},{"lat":"37.37147654","long":"127.30089","items":[{"name":"롯데골프연습장","tel":"031-765-7275","addr":"경기도 광주시 초월읍 쌍동리 198-4","category":"회원제형태 - 레져업소"},{"name":"쉬패션","tel":"070-4337-1254","addr":"경기도 광주시 초월읍 쌍동리 198-4번지 가동 3호","category":"의류 - 스포츠의류"},{"name":"페리카나초월점","tel":"031-767-4166","addr":"경기도 광주시 초월읍 쌍동리 198-4번지","category":"일반휴게음식 - 스넥"},{"name":"현우유통(주)","tel":"031-767-1913","addr":"경기도 광주시 초월읍 쌍동리 198-4번지","category":"레져용품 - 스포츠·레져용품"}]},{"lat":"37.37248201","long":"127.2951363","items":[{"name":"명성골프,영레져골프","tel":"031-766-6331","addr":"경기도 광주시 초월읍 쌍동리 236-7","category":"레져용품 - 골프용품 전문점"}]},{"lat":"37.37464703","long":"127.2977188","items":[{"name":"명품가구갤러리","tel":"031-766-5206","addr":"경기도 광주시 초월읍 쌍동리 260-27번지","category":"가구 - 일반가구"}]},{"lat":"37.36990013","long":"127.3043044","items":[{"name":"목포는항구다","tel":"031-000-0000","addr":"경기도 광주시 초월읍 쌍동리 3-11번지 초월리버빌","category":"일반휴게음식 - 일반한식"}]},{"lat":"37.37112093","long":"127.3025594","items":[{"name":"문곡16형 명세재 한의원","tel":"031-765-2030","addr":"경기도 광주시 초월읍 쌍동리 175번지 2층","category":"의원 - 한의원"},{"name":"주식회사 준하우징","tel":"031-767-0490","addr":"경기도 광주시 초월읍 쌍동리 175번지 태진빌딩 1층","category":"직물 - 카페트,커튼,천막,지물"},{"name":"행복한이브자리곤지암점","tel":"031-797-5950","addr":"경기도 광주시 초월읍 쌍동리 175번지 1필지","category":"직물 - 침구·수예점"}]},{"lat":"37.36797741","long":"127.3021631","items":[{"name":"미래온돌침대","tel":"031-763-5568","addr":"경기도 광주시 초월읍 쌍동리 157-1번지","category":"가구 - 일반가구"}]},{"lat":"37.36875635","long":"127.3041079","items":[{"name":"백마 노래연습장","tel":"031-763-7933","addr":"경기도 광주시 초월읍 쌍동리 18-2번지","category":"레저업소 - 노 래 방"},{"name":"오징어 나라","tel":"031-764-5898","addr":"경기도 광주시 초월읍 쌍동리 18-2번지 2층","category":"일반휴게음식 - 일반한식"},{"name":"중화촌","tel":"031-767-7750","addr":"경기도 광주시 초월읍 쌍동리 18-2번지","category":"일반휴게음식 - 중국식"},{"name":"해안","tel":"031-765-2974","addr":"경기도 광주시 초월읍 쌍동리 18-2번지","category":"음료식품 - 농·축·수산품"}]},{"lat":"37.37501944","long":"127.2891625","items":[{"name":"비욘샵","tel":"031-798-3171","addr":"경기도 광주시 초월읍 쌍동리 394번지 초월이-편한세상","category":"의류 - 기타의류"}]},{"lat":"37.37145351","long":"127.2992981","items":[{"name":"빅터상사","tel":"031-766-2112","addr":"경기도 광주시 초월읍 쌍동리 390번지 초월롯데캐슬아파트","category":"회원제형태 - 기타4"}]},{"lat":"37.37620495","long":"127.2944169","items":[{"name":"성광인테리어","tel":"031-764-9328","addr":"경기도 광주시 초월읍 쌍동리 392번지 광주초월동광모닝스카이","category":"회원제형태 - 기타4"}]},{"lat":"37.37622634","long":"127.2966976","items":[{"name":"셀 아로마 (Cell Aroma)","tel":"070-4307-0123","addr":"경기도 광주시 초월읍 쌍동리 253-67번지","category":"문화.취미 - 문화취미기타"}]},{"lat":"37.36764901","long":"127.3037535","items":[{"name":"수도설비변기하수구막힘","tel":"031-702-0691","addr":"경기도 광주시 초월읍 쌍동리 152-6번지 201호","category":"용역 서비스 - 기타용역서비스"}]},{"lat":"37.37264289","long":"127.2992802","items":[{"name":"씨유초월롯데점","tel":"080-080-3663","addr":"경기도 광주시 초월읍 쌍동리 391번지 상가동 101호 외 1필지","category":"유통업 영리 - 편 의 점"}]},{"lat":"37.37403161","long":"127.2988115","items":[{"name":"아모텍주식회사","tel":"031-768-1358","addr":"경기도 광주시 초월읍 쌍동리 262번지","category":"자동차정비 유지 - 자동차부품"}]},{"lat":"37.36978257","long":"127.3044733","items":[{"name":"안숙소곱창전골","tel":"031-764-8856","addr":"경기도 광주시 초월읍 쌍동리 3-7번지 1층","category":"일반휴게음식 - 일반한식"}]},{"lat":"37.37133774","long":"127.3023345","items":[{"name":"알레르망곤지암점","tel":"031-766-1331","addr":"경기도 광주시 초월읍 쌍동리 175-3번지 1층","category":"직물 - 침구·수예점"},{"name":"엘르골프 초월역 복합점","tel":"031-767-8273","addr":"경기도 광주시 초월읍 쌍동리 175-3번지","category":"레져용품 - 스포츠·레져용품"}]},{"lat":"37.37559209","long":"127.2981177","items":[{"name":"알앤비 주식회사","tel":"031-768-4467","addr":"경기도 광주시 초월읍 쌍동리 257-2번지 부강 306호","category":"건축자재 - 기타건축자재"}]},{"lat":"37.37414542","long":"127.2965314","items":[{"name":"얼리버드","tel":"031-766-5004","addr":"경기도 광주시 초월읍 쌍동리 260-13번지 1층","category":"일반휴게음식 - 서양음식"}]},{"lat":"37.37631422","long":"127.2975898","items":[{"name":"에어닥터플러스","tel":"","addr":"경기도 광주시 초월읍 쌍동리 253-122번지 402호","category":"용역 서비스 - 종합용역"}]},{"lat":"37.36783922","long":"127.3033592","items":[{"name":"에임하이영어교습소","tel":"031-766-9030","addr":"경기도 광주시 초월읍 쌍동리 152-9번지 101호","category":"학원 - 외국어학원"}]},{"lat":"37.37288005","long":"127.2981183","items":[{"name":"여가 이벤트","tel":"031-767-1189","addr":"경기도 광주시 초월읍 쌍동리 389번지 롯데낙천대아파트","category":"용역 서비스 - 종합용역"}]},{"lat":"37.36892534","long":"127.3014218","items":[{"name":"여울목","tel":"031-764-6446","addr":"경기도 광주시 초월읍 쌍동리 133-2번지","category":"일반휴게음식 - 일반한식"}]},{"lat":"37.37770022","long":"127.2945807","items":[{"name":"여주헤어갤러리","tel":"031-765-2978","addr":"경기도 광주시 초월읍 쌍동리 279-8번지","category":"보건위생 - 미용원"}]},{"lat":"37.37764198","long":"127.292616","items":[{"name":"연지삼겹살","tel":"031-769-8009","addr":"경기도 광주시 초월읍 쌍동리 287-7","category":"일반휴게음식 - 일반한식"}]},{"lat":"37.37151172","long":"127.2976388","items":[{"name":"영피아노교습소","tel":"031-764-7716","addr":"경기도 광주시 초월읍 쌍동리 220-3번지","category":"학원 - 예·체능계학원"},{"name":"오땡큐","tel":"031-805-4959","addr":"경기도 광주시 초월읍 쌍동리 220-3번지 1층 101호","category":"보건위생 - 미용원"},{"name":"크린토피아 광주초월낙천대점","tel":"","addr":"경기도 광주시 초월읍 쌍동리 220-3번지 1층 104호","category":"수리서비스 - 세탁소"}]},{"lat":"37.3741732","long":"127.2962267","items":[{"name":"올푸드식자재마켓","tel":"031-769-6622","addr":"경기도 광주시 초월읍 쌍동리 259-8번지 8,14-4","category":"유통업 영리 - 슈퍼마켓"},{"name":"커피인더스트리 초월점","tel":"031-457-8178","addr":"경기도 광주시 초월읍 쌍동리 259-8번지 영신프라자 A동 1층","category":"음료식품 - 기타음료식품"}]},{"lat":"37.36925669","long":"127.3022246","items":[{"name":"와라 편의점","tel":"031-768-8288","addr":"경기도 광주시 초월읍 쌍동리 332-5번지","category":"유통업 영리 - 슈퍼마켓"},{"name":"치킨선생","tel":"031-797-0688","addr":"경기도 광주시 초월읍 쌍동리 332-5번지 1층","category":"일반휴게음식 - 스넥"}]},{"lat":"37.37056056","long":"127.3032459","items":[{"name":"유주희손만두국칼국수","tel":"","addr":"경기도 광주시 초월읍 쌍동리 130-18번지 1층","category":"일반휴게음식 - 일반한식"},{"name":"타임브릿지커피","tel":"031-797-0711","addr":"경기도 광주시 초월읍 쌍동리 130-18번지 1호동동 3층","category":"일반휴게음식 - 서양음식"}]},{"lat":"37.3725427","long":"127.2997088","items":[{"name":"유진테크","tel":"031-761-8910","addr":"경기도 광주시 초월읍 쌍동리 390번지 초월롯데캐슬아파트","category":"유통업 영리 - 기타유통업"}]},{"lat":"37.36708955","long":"127.3040787","items":[{"name":"인스수학전문학원","tel":"031-766-6954","addr":"경기도 광주시 초월읍 쌍동리 151-3번지 2층","category":"학원 - 보습학원"},{"name":"행복나무예술심리센터","tel":"031-769-1068","addr":"경기도 광주시 초월읍 쌍동리 151-3번지","category":"보건위생 - 기타대인서비스"}]},{"lat":"37.36667662","long":"127.3070008","items":[{"name":"정글의 법칙","tel":"070-4219-0063","addr":"경기도 광주시 초월읍 쌍동리 380번지","category":"문화.취미 - 화원"}]},{"lat":"37.36522992","long":"127.305471","items":[{"name":"제일구내식당","tel":"031-528-8126","addr":"경기도 광주시 초월읍 쌍동리 48-7","category":"일반휴게음식 - 위탁급식업"}]},{"lat":"37.36489863","long":"127.3081676","items":[{"name":"제일냉동","tel":"","addr":"경기도 광주시 초월읍 쌍동리 39번지 103동 201호","category":"용역 서비스 - 기타용역서비스"}]},{"lat":"37.36851227","long":"127.304423","items":[{"name":"주식회사 동방골드라이팅","tel":"031-797-2637","addr":"경기도 광주시 초월읍 쌍동리 16-23번지","category":"건축자재 - 조명기구"}]},{"lat":"37.37692463","long":"127.291202","items":[{"name":"주식회사 생각틀","tel":"031-797-3409","addr":"경기도 광주시 초월읍 쌍동리 301-5번지 301호","category":"서적문구 - 일반서적"},{"name":"주식회사 크렌비텍","tel":"031-8027-2121","addr":"경기도 광주시 초월읍 쌍동리 301-5번지","category":"기타 - 기계공구"}]},{"lat":"37.36853973","long":"127.3006978","items":[{"name":"주식회사 이원재패션","tel":"031-792-8173","addr":"경기도 광주시 초월읍 쌍동리 120-10","category":"의류 - 정장"}]},{"lat":"37.37115041","long":"127.3015887","items":[{"name":"주식회사 제이엠유통","tel":"031-766-7913","addr":"경기도 광주시 초월읍 쌍동리 179-10번지","category":"레져용품 - 스포츠·레져용품"}]},{"lat":"37.37003958","long":"127.3026116","items":[{"name":"지에스칼텍스(주)경기고속주유소","tel":"031-765-5805","addr":"경기도 광주시 초월읍 쌍동리 130-14번지","category":"연료판매점 - GS주유소"}]},{"lat":"37.37911782","long":"127.2970024","items":[{"name":"지한필름","tel":"031-990-6796","addr":"경기도 광주시 초월읍 쌍동리 271-107번지 라임하우스 102동 301호","category":"직물 - 카페트,커튼,천막,지물"}]},{"lat":"37.37225571","long":"127.2991771","items":[{"name":"청하농산물","tel":"02-0000-0000","addr":"경기도 광주시 초월읍 쌍동리 390번지 초월롯데캐슬아파트","category":"음료식품 - 농·축·수산품"}]},{"lat":"37.36895471","long":"127.3040523","items":[{"name":"초월 몬스터 킥복싱 체육관","tel":"031-769-7008","addr":"경기도 광주시 초월읍 쌍동리 16-5번지 3층","category":"레저업소 - 헬스클럽"}]},{"lat":"37.3712267","long":"127.2999181","items":[{"name":"초월도곡윤선생영어교습소","tel":"031-798-4083","addr":"경기도 광주시 초월읍 쌍동리 194-1번지 102호","category":"학원 - 외국어학원"},{"name":"코코네일","tel":"070-7783-2500","addr":"경기도 광주시 초월읍 쌍동리 194-1번지 해뜨는집 101호","category":"보건위생 - 피부미용실"},{"name":"프라임아트미술학원","tel":"031-797-8747","addr":"경기도 광주시 초월읍 쌍동리 194-1번지 103,104, 105호","category":"학원 - 예·체능계학원"}]},{"lat":"37.37312342","long":"127.2944501","items":[{"name":"초월사슴목장","tel":"031-66-1124","addr":"경기도 광주시 초월읍 쌍동리 243-4번지","category":"음료식품 - 농·축·수산품"}]},{"lat":"37.37780834","long":"127.2945812","items":[{"name":"초월포차","tel":"031-765-4431","addr":"경기도 광주시 초월읍 쌍동리 279-6번지","category":"일반휴게음식 - 일반한식"}]},{"lat":"37.37083737","long":"127.300673","items":[{"name":"초월헬스","tel":"031-766-4567","addr":"경기도 광주시 초월읍 쌍동리 181-8번지 4층","category":"레저업소 - 헬스클럽"},{"name":"현무용아카데미학원","tel":"031-767-7049","addr":"경기도 광주시 초월읍 쌍동리 181-8번지 202호","category":"학원 - 예·체능계학원"}]},{"lat":"37.37739469","long":"127.2978876","items":[{"name":"카페첼코바","tel":"031-766-1050","addr":"경기도 광주시 초월읍 쌍동리 255-1번지 느티나무하우스 1층","category":"일반휴게음식 - 서양음식"}]},{"lat":"37.37814989","long":"127.2949212","items":[{"name":"컴퓨터MT","tel":"070-4084-3057","addr":"경기도 광주시 초월읍 쌍동리 271-57번지 화승빌라 1층","category":"수리서비스 - 사무·통신기기수리"}]},{"lat":"37.37196084","long":"127.2981937","items":[{"name":"태극목재","tel":"031-761-8027","addr":"경기도 광주시 초월읍 쌍동리 389번지 롯데낙천대아파트","category":"건축자재 - 목재·석재·철물"}]},{"lat":"37.36956653","long":"127.3043934","items":[{"name":"태능참숯숯불구이","tel":"031-762-1268","addr":"경기도 광주시 초월읍 쌍동리 3-2번지 2층","category":"음료식품 - 정육점"},{"name":"태능참숯숯불구이","tel":"031-762-1268","addr":"경기도 광주시 초월읍 쌍동리 3-2번지 2층","category":"일반휴게음식 - 일반한식"},{"name":"태능참숯화로구이","tel":"031-762-1268","addr":"경기도 광주시 초월읍 쌍동리 3-2번지 1층","category":"일반휴게음식 - 일반한식"}]},{"lat":"37.37217835","long":"127.3012766","items":[{"name":"태산 카 모터스","tel":"031-769-7249","addr":"경기도 광주시 초월읍 쌍동리 199-9번지 태산카모터스 1동","category":"자동차정비 유지 - 자동차정비"}]},{"lat":"37.37689632","long":"127.2953905","items":[{"name":"풍요마을수산시장","tel":"031-768-5555","addr":"경기도 광주시 초월읍 쌍동리 253-32번지","category":"일반휴게음식 - 일식·회집"}]},{"lat":"37.37578201","long":"127.2978361","items":[{"name":"프리모로소","tel":"031-1111-1111","addr":"경기도 광주시 초월읍 쌍동리 257-9번지","category":"자동차정비 유지 - 세차장"}]},{"lat":"37.36853454","long":"127.3027524","items":[{"name":"한국상사","tel":"031-756-8926","addr":"경기도 광주시 초월읍 쌍동리 163-2번지","category":"자동차정비 유지 - 자동차부품"}]},{"lat":"37.37166221","long":"127.2987119","items":[{"name":"한성테크","tel":"031-762-8184","addr":"경기도 광주시 초월읍 쌍동리 390번지 초월롯데캐슬아파트","category":"용역 서비스 - 소프트웨어"}]},{"lat":"37.37242409","long":"127.296694","items":[{"name":"합동포장기계","tel":"031-766-4359","addr":"경기도 광주시 초월읍 쌍동리 238-6번지","category":"기타 - 기계공구"}]},{"lat":"37.36881765","long":"127.301252","items":[{"name":"해장국(감자탕)","tel":"031-797-7880","addr":"경기도 광주시 초월읍 쌍동리 133-6번지","category":"일반휴게음식 - 일반한식"}]},{"lat":"37.3732603","long":"127.297386","items":[{"name":"해피방","tel":"031-797-3409","addr":"경기도 광주시 초월읍 쌍동리 260-16번지 2층 203호","category":"의류 - 아동의류"}]},{"lat":"37.36895183","long":"127.3016364","items":[{"name":"허가네 흑염소","tel":"031-765-5844","addr":"경기도 광주시 초월읍 쌍동리 332-6번지 1층","category":"일반휴게음식 - 일반한식"}]}]