[{"lat":"37.196044229","long":"126.77214205","items":[{"name":"(주) 디엔씨 (D&C..Ltd)","tel":"031-356-0981","addr":"경기도 화성시 마도면 석교리 488번지","category":"자동차판매 - 기타운송"}]},{"lat":"37.200355181","long":"126.77420149","items":[{"name":"(주)삼원피엔디","tel":"031-362-6535","addr":"경기도 화성시 마도면 석교리 160번지","category":"유통업 영리 - 기타유통업"}]},{"lat":"37.204737669","long":"126.77133833","items":[{"name":"GS25마도타운점","tel":"","addr":"경기도 화성시 마도면 석교리 238-71번지","category":"유통업 영리 - 편 의 점"}]},{"lat":"37.195880637","long":"126.7714217","items":[{"name":"RM엔지니어링","tel":"031-357-8670","addr":"경기도 화성시 마도면 석교리 474-2","category":"기타 - 기계공구"}]},{"lat":"37.203299938","long":"126.76875192","items":[{"name":"가인미용","tel":"031-356-7349","addr":"경기도 화성시 마도면 석교리 243-78번지","category":"회원제형태 - 기타4"}]},{"lat":"37.204543432","long":"126.77338907","items":[{"name":"갈비어천가","tel":"031-356-4282","addr":"경기도 화성시 마도면 석교리 212-8번지 외1필지","category":"일반휴게음식 - 일반한식"},{"name":"헤어클럽","tel":"031-355-6593","addr":"경기도 화성시 마도면 석교리 212-8번지","category":"보건위생 - 미용원"}]},{"lat":"37.205074822","long":"126.77327482","items":[{"name":"경희대석사 승리태권도장","tel":"031-356-9034","addr":"경기도 화성시 마도면 석교리 238-14번지","category":"학원 - 예·체능계학원"},{"name":"마도농원","tel":"031-356-1415","addr":"경기도 화성시 마도면 석교리 238-14번지","category":"농업 - 비료,사료,종자"},{"name":"세화","tel":"031-357-6602","addr":"경기도 화성시 마도면 석교리 238-14번지","category":"용역 서비스 - 기타용역서비스"},{"name":"태명인&샵","tel":"031-357-5455","addr":"경기도 화성시 마도면 석교리 238-14번지","category":"용역 서비스 - 기타용역서비스"}]},{"lat":"37.2054353","long":"126.77330752","items":[{"name":"골목식당","tel":"031-356-9319","addr":"경기도 화성시 마도면 석교리 237-7번지","category":"일반휴게음식 - 일반한식"}]},{"lat":"37.204325523","long":"126.77253363","items":[{"name":"곰한식부페","tel":"031-357-9749","addr":"경기도 화성시 마도면 석교리 246-3번지 1층","category":"일반휴게음식 - 일반한식"},{"name":"마음,감각Cafe","tel":"031-355-0553","addr":"경기도 화성시 마도면 석교리 246-3번지 1층","category":"일반휴게음식 - 서양음식"},{"name":"센사티블룸(SENSATIE BLOEM)","tel":"031-357-5223","addr":"경기도 화성시 마도면 석교리 246-3번지","category":"문화.취미 - 화원"}]},{"lat":"37.2065699","long":"126.77294361","items":[{"name":"그린벨리세탁마도점","tel":"031-357-3959","addr":"경기도 화성시 마도면 석교리 229-14번지","category":"수리서비스 - 세탁소"}]},{"lat":"37.19927284","long":"126.77833856","items":[{"name":"금성철거","tel":"031-972-7476","addr":"경기도 화성시 마도면 석교리 98","category":"건축자재 - 목재·석재·철물"}]},{"lat":"37.204351414","long":"126.7719478","items":[{"name":"날돈삼겹살","tel":"031-358-8509","addr":"경기도 화성시 마도면 석교리 242-33번지","category":"일반휴게음식 - 일반한식"},{"name":"솔잎건강원","tel":"031-356-1237","addr":"경기도 화성시 마도면 석교리 242-33번지","category":"건강식품 - 기타건강식품"}]},{"lat":"37.203937751","long":"126.77236584","items":[{"name":"넌짬뽕난짜장","tel":"031-335-5502","addr":"경기도 화성시 마도면 석교리 249-3번지","category":"일반휴게음식 - 중국식"}]},{"lat":"37.206435728","long":"126.77345093","items":[{"name":"늘봄식당","tel":"031-357-0149","addr":"경기도 화성시 마도면 석교리 229-6번지","category":"일반휴게음식 - 일반한식"}]},{"lat":"37.205877176","long":"126.77349768","items":[{"name":"늘봄호프","tel":"031-357-7950","addr":"경기도 화성시 마도면 석교리 234-4번지","category":"일반휴게음식 - 주점"}]},{"lat":"37.205689571","long":"126.77433184","items":[{"name":"다소곳","tel":"031-111-1111","addr":"경기도 화성시 마도면 석교리 224-1번지 1층","category":"의류 - 정장"}]},{"lat":"37.197464712","long":"126.77052705","items":[{"name":"대림퍼니쳐","tel":"031-355-0895","addr":"경기도 화성시 마도면 석교리 527-2번지","category":"가구 - 일반가구"}]},{"lat":"37.20727286","long":"126.76842423","items":[{"name":"대보산업","tel":"031-357-1216","addr":"경기도 화성시 마도면 석교리 243-44","category":"건축자재 - 목재·석재·철물"}]},{"lat":"37.206409547","long":"126.77389034","items":[{"name":"대성오토바이.자전거총판","tel":"031-357-3392","addr":"경기도 화성시 마도면 석교리 229-1번지","category":"자동차판매 - 이륜차판매"},{"name":"스피드홈크린","tel":"","addr":"경기도 화성시 마도면 석교리 229-1번지","category":"용역 서비스 - 기타용역서비스"},{"name":"일하는소망건강원","tel":"031-356-7334","addr":"경기도 화성시 마도면 석교리 229-1번지","category":"건강식품 - 기타건강식품"}]},{"lat":"37.194242755","long":"126.77245163","items":[{"name":"대양푸드","tel":"031-355-4556","addr":"경기도 화성시 마도면 석교리 437-1번지","category":"음료식품 - 기타음료식품"}]},{"lat":"37.207157195","long":"126.76916807","items":[{"name":"동현가설산업","tel":"031-355-7886","addr":"경기도 화성시 마도면 석교리 243-41","category":"건축자재 - 기타건축자재"}]},{"lat":"37.192739627","long":"126.77327838","items":[{"name":"두리테크","tel":"031-355-2017","addr":"경기도 화성시 마도면 석교리 447-7번지","category":"건축자재 - 기타건축자재"}]},{"lat":"37.194491239","long":"126.77514275","items":[{"name":"로즈벨케이크","tel":"031-000-0000","addr":"경기도 화성시 마도면 석교리 421-11번지","category":"음료식품 - 제과점"}]},{"lat":"37.205743307","long":"126.7741627","items":[{"name":"리치헤어","tel":"031-355-6222","addr":"경기도 화성시 마도면 석교리 221-1번지","category":"보건위생 - 미용원"}]},{"lat":"37.206738662","long":"126.77169269","items":[{"name":"마도광고","tel":"031-356-1121","addr":"경기도 화성시 마도면 석교리 243-66번지","category":"건축자재 - 인테리어전문"},{"name":"송담추어탕(마도점)","tel":"031-366-7929","addr":"경기도 화성시 마도면 석교리 243-66번지","category":"일반휴게음식 - 일반한식"},{"name":"커피에 반하다 화성마도점","tel":"031-226-6404","addr":"경기도 화성시 마도면 석교리 243-66번지 1층 101호","category":"일반휴게음식 - 서양음식"}]},{"lat":"37.204022598","long":"126.77430307","items":[{"name":"마도어린이집[아이행복]","tel":"031-357-6744","addr":"경기도 화성시 마도면 석교리 211-1번지","category":"학원 - 유아원"}]},{"lat":"37.207326587","long":"126.76825509","items":[{"name":"마도오일","tel":"031-356-5142","addr":"경기도 화성시 마도면 석교리 243-40번지","category":"자동차정비 유지 - 윤활유 전문 판매"},{"name":"배관공구24(송산점)","tel":"031-356-9883","addr":"경기도 화성시 마도면 석교리 243-40번지","category":"건축자재 - 기타건축자재"}]},{"lat":"37.206327168","long":"126.77322596","items":[{"name":"마도오토바이","tel":"031-356-3609","addr":"경기도 화성시 마도면 석교리 229-8번지","category":"자동차판매 - 이륜차판매"},{"name":"토마토식당","tel":"031-318-5195","addr":"경기도 화성시 마도면 석교리 229-8번지 1층 2호","category":"일반휴게음식 - 일반한식"}]},{"lat":"37.205625868","long":"126.77400535","items":[{"name":"마도음악학원","tel":"031-356-4489","addr":"경기도 화성시 마도면 석교리 218-1번지 2층","category":"학원 - 예·체능계학원"}]},{"lat":"37.204904717","long":"126.77383856","items":[{"name":"마도점 쪽찌","tel":"","addr":"경기도 화성시 마도면 석교리 214번지 1층","category":"일반휴게음식 - 일반한식"}]},{"lat":"37.20382217","long":"126.77316597","items":[{"name":"마도초등학교","tel":"031-356-2094","addr":"경기도 화성시 마도면 석교리 248번지 마도초등학교","category":"학원 - 초중고교육기관"}]},{"lat":"37.203546278","long":"126.77030565","items":[{"name":"명가","tel":"031-357-5476","addr":"경기도 화성시 마도면 석교리 251-4번지","category":"일반휴게음식 - 일반한식"}]},{"lat":"37.205905884","long":"126.77436498","items":[{"name":"명성포차","tel":"031-356-7978","addr":"경기도 화성시 마도면 석교리 232-1번지","category":"일반휴게음식 - 일반한식"}]},{"lat":"37.205239229","long":"126.77442331","items":[{"name":"모닝글로리 마도점","tel":"031-356-9218","addr":"경기도 화성시 마도면 석교리 224-12번지","category":"서적문구 - 문구용품"}]},{"lat":"37.203050179","long":"126.77466646","items":[{"name":"반석전기","tel":"031-355-3326","addr":"경기도 화성시 마도면 석교리 209-4번지 101호","category":"용역 서비스 - 기타용역서비스"}]},{"lat":"37.205382415","long":"126.77391597","items":[{"name":"복","tel":"031-000-0000","addr":"경기도 화성시 마도면 석교리 218-3번지","category":"일반휴게음식 - 일반한식"}]},{"lat":"37.201462962","long":"126.78346849","items":[{"name":"상록요양병원","tel":"031-355-1872","addr":"경기도 화성시 마도면 석교리 20-1번지 지층,1,2층","category":"병원 - 병원"},{"name":"상록요양원","tel":"031-355-1872","addr":"경기도 화성시 마도면 석교리 20-1번지 3층,4층,5층","category":"기타의료기관 - 기타의료기관 및 기타"}]},{"lat":"37.207077035","long":"126.76964145","items":[{"name":"서경산업","tel":"031-357-5364","addr":"경기도 화성시 마도면 석교리 243-53번지","category":"기타 - 기계공구"}]},{"lat":"37.205904316","long":"126.77355392","items":[{"name":"서해식당","tel":"031-356-4306","addr":"경기도 화성시 마도면 석교리 234-11번지 외1필지","category":"일반휴게음식 - 일반한식"}]},{"lat":"37.206210841","long":"126.77364311","items":[{"name":"신제일정육점","tel":"031-356-5944","addr":"경기도 화성시 마도면 석교리 231-2번지","category":"음료식품 - 정육점"}]},{"lat":"37.20451699","long":"126.77369329","items":[{"name":"씨유화성마도석교로점","tel":"031-898-6568","addr":"경기도 화성시 마도면 석교리 213-2번지","category":"유통업 영리 - 편 의 점"}]},{"lat":"37.206796032","long":"126.77339352","items":[{"name":"씨유화성석교점","tel":"080-080-3663","addr":"경기도 화성시 마도면 석교리 229-10번지 102호","category":"유통업 영리 - 편 의 점"}]},{"lat":"37.204768209","long":"126.77314057","items":[{"name":"유신정밀","tel":"","addr":"경기도 화성시 마도면 석교리 238-24번지","category":"기타 - 기계공구"}]},{"lat":"37.205292639","long":"126.77408521","items":[{"name":"이모네","tel":"031-000-0000","addr":"경기도 화성시 마도면 석교리 224-13번지","category":"일반휴게음식 - 일반한식"},{"name":"페리카나마도점","tel":"031-355-0019","addr":"경기도 화성시 마도면 석교리 224-13","category":"일반휴게음식 - 주점"}]},{"lat":"37.204715217","long":"126.77369269","items":[{"name":"제이카페","tel":"031-355-6110","addr":"경기도 화성시 마도면 석교리 213번지","category":"일반휴게음식 - 서양음식"}]},{"lat":"37.1952988","long":"126.77339453","items":[{"name":"주식회사 컨텍코리아","tel":"031-683-4996","addr":"경기도 화성시 마도면 석교리 434-2번지 2동","category":"전기제품 - 냉열기기"}]},{"lat":"37.205435737","long":"126.77353281","items":[{"name":"출장밧데리, 열쇠탁송대리","tel":"","addr":"경기도 화성시 마도면 석교리 236-12번지","category":"자동차정비 유지 - 자동차정비"}]},{"lat":"37.206571079","long":"126.7735519","items":[{"name":"파라다이스","tel":"031-357-3118","addr":"경기도 화성시 마도면 석교리 229-22번지 외2필지","category":"일반휴게음식 - 주점"}]},{"lat":"37.19518777","long":"126.78133539","items":[{"name":"팜코리아","tel":"031-1800-1353","addr":"경기도 화성시 마도면 석교리 403","category":"기타 - 기계공구"}]},{"lat":"37.205939659","long":"126.77319334","items":[{"name":"한솥삼계탕","tel":"031-355-0719","addr":"경기도 화성시 마도면 석교리 238-1번지 101호","category":"일반휴게음식 - 일반한식"}]},{"lat":"37.205600011","long":"126.77461373","items":[{"name":"해피홈","tel":"031-355-9240","addr":"경기도 화성시 마도면 석교리 212-1번지","category":"일반휴게음식 - 서양음식"}]},{"lat":"37.204798245","long":"126.77469499","items":[{"name":"화도중학교","tel":"031-356-6622","addr":"경기도 화성시 마도면 석교리 212번지 화도중학교","category":"학원 - 초중고교육기관"}]},{"lat":"37.203320228","long":"126.77453048","items":[{"name":"화성시 재활용센터","tel":"031-357-7289","addr":"경기도 화성시 마도면 석교리 210-2번지","category":"신변잡화 - 기타잡화"}]},{"lat":"37.207237131","long":"126.76858205","items":[{"name":"화성싱크대&토탈퍼시스","tel":"031-355-3969","addr":"경기도 화성시 마도면 석교리 243-45번지","category":"주방용구 - 주방용구"}]},{"lat":"37.206793603","long":"126.77214312","items":[{"name":"회식하는날","tel":"031-356-3612","addr":"경기도 화성시 마도면 석교리 243-67번지","category":"일반휴게음식 - 일반한식"},{"name":"회식하는날","tel":"031-356-3612","addr":"경기도 화성시 마도면 석교리 243-67번지 1층","category":"일반휴게음식 - 일반한식"}]},{"lat":"37.203467897","long":"126.77169141","items":[{"name":"흑돈연가","tel":"031-355-9220","addr":"경기도 화성시 마도면 석교리 249-7번지 B동 1호","category":"일반휴게음식 - 일반한식"}]}]