[{"lat":"37.769813245","long":"127.05512487","items":[{"name":"(주)우드마스터","tel":"031-000-0000","addr":"경기도 양주시 마전동 353-4번지","category":"가구 - 일반가구"}]},{"lat":"37.778147492","long":"127.05409779","items":[{"name":"153조명","tel":"031-847-0153","addr":"경기도 양주시 마전동 156-1번지","category":"건축자재 - 조명기구"},{"name":"주식회사크린플러스","tel":"031-7781-8282","addr":"경기도 양주시 마전동 156-1번지 (4~5호)","category":"용역 서비스 - 종합용역"},{"name":"향기구포국시","tel":"031-840-9474","addr":"경기도 양주시 마전동 156-1번지 1층","category":"일반휴게음식 - 일반한식"}]},{"lat":"37.765399919","long":"127.05201212","items":[{"name":"76","tel":"031-840-1234","addr":"경기도 양주시 마전동 420-28번지 1층 일부","category":"일반휴게음식 - 서양음식"}]},{"lat":"37.782702994","long":"127.06120712","items":[{"name":"Get Oil","tel":"070-8124-5109","addr":"경기도 양주시 마전동 36-1번지 101,102,103호","category":"자동차정비 유지 - 윤활유 전문 판매"},{"name":"겟워시","tel":"031-111-1111","addr":"경기도 양주시 마전동 36-1번지 106호","category":"자동차정비 유지 - 세차장"},{"name":"경기철망휀스","tel":"031-854-0070","addr":"경기도 양주시 마전동 36-1번지 105호","category":"용역 서비스 - 기타용역서비스"}]},{"lat":"37.767624312","long":"127.05426078","items":[{"name":"고산흑염소","tel":"031-848-6001","addr":"경기도 양주시 마전동 396-2번지 2층","category":"일반휴게음식 - 일반한식"},{"name":"농업회사법인행복로컬푸드주식회사","tel":"031-874-7112","addr":"경기도 양주시 마전동 396-2번지","category":"음료식품 - 미곡상"}]},{"lat":"37.77465267","long":"127.05206364","items":[{"name":"군남농장","tel":"02-111-1111","addr":"경기도 양주시 마전동 249-3","category":"음료식품 - 농·축·수산품"}]},{"lat":"37.778841272","long":"127.05398476","items":[{"name":"금강세차장","tel":"031-840-2255","addr":"경기도 양주시 마전동 168-2번지","category":"자동차정비 유지 - 세차장"}]},{"lat":"37.781978659","long":"127.04893545","items":[{"name":"꽃피는산골","tel":"031-848-7994","addr":"경기도 양주시 마전동 106-10 (106-8)","category":"문화.취미 - 화원"}]},{"lat":"37.766347485","long":"127.04809726","items":[{"name":"넘버원NO1.풋살클럽","tel":"","addr":"경기도 양주시 마전동 434번지","category":"레저업소 - 기타레져업소"}]},{"lat":"37.768230772","long":"127.04731529","items":[{"name":"대월농원","tel":"","addr":"경기도 양주시 마전동 291-32번지","category":"음료식품 - 농·축·수산품"}]},{"lat":"37.782312143","long":"127.0485951","items":[{"name":"돌틈새야생화","tel":"031-845-6668","addr":"경기도 양주시 마전동 107-3번지","category":"문화.취미 - 화원"}]},{"lat":"37.766092802","long":"127.05401004","items":[{"name":"뜨락가든","tel":"031-842-2004","addr":"경기도 양주시 마전동 411번지","category":"일반휴게음식 - 일반한식"}]},{"lat":"37.769597381","long":"127.05429619","items":[{"name":"막줄래국시","tel":"031-840-6759","addr":"경기도 양주시 마전동 332-2번지 1층","category":"일반휴게음식 - 일반한식"}]},{"lat":"37.77829155","long":"127.05431356","items":[{"name":"명가시스템에어컨","tel":"031-841-1300","addr":"경기도 양주시 마전동 156-11번지","category":"용역 서비스 - 기타용역서비스"},{"name":"설악푸드 온라인총판","tel":"031-826-8953","addr":"경기도 양주시 마전동 156-11번지 1층","category":"일반휴게음식 - 일반한식"},{"name":"주식회사 김떡배푸드","tel":"031-1666-1302","addr":"경기도 양주시 마전동 156-11번지","category":"음료식품 - 기타음료식품"}]},{"lat":"37.764734833","long":"127.04796009","items":[{"name":"민들레","tel":"031-841-0814","addr":"경기도 양주시 마전동 453-5번지","category":"일반휴게음식 - 일반한식"}]},{"lat":"37.778730779","long":"127.0592062","items":[{"name":"보일러스토리","tel":"","addr":"경기도 양주시 마전동 184-2번지","category":"용역 서비스 - 기타용역서비스"}]},{"lat":"37.772426803","long":"127.05328799","items":[{"name":"세현정보","tel":"031-871-6488","addr":"경기도 양주시 마전동 235-23번지","category":"사무통신 - 사무용 OA기기"}]},{"lat":"37.778343971","long":"127.05793459","items":[{"name":"수림상사","tel":"031-842-8727","addr":"경기도 양주시 마전동 182번지","category":"농업 - 비료,사료,종자"}]},{"lat":"37.78420433","long":"127.04809678","items":[{"name":"양주다육LOVE HOUSE","tel":"031-846-5028","addr":"경기도 양주시 마전동 75-2번지","category":"문화.취미 - 화원"}]},{"lat":"37.783978016","long":"127.05082111","items":[{"name":"양주에어컨설치","tel":"02-1111-1111","addr":"경기도 양주시 마전동 98번지","category":"용역 서비스 - 기타용역서비스"}]},{"lat":"37.783177656","long":"127.04701774","items":[{"name":"양주조경","tel":"031-821-7788","addr":"경기도 양주시 마전동 80-1번지","category":"문화.취미 - 화원"},{"name":"청죽조경화원","tel":"031-844-1344","addr":"경기도 양주시 마전동 80-1번지","category":"건축자재 - 인테리어전문"}]},{"lat":"37.771230664","long":"127.04804348","items":[{"name":"양주지역산림조합 임산물종합유통센터","tel":"031-843-1663","addr":"경기도 양주시 마전동 294-2번지","category":"음료식품 - 농·축·수산품"},{"name":"크룸커피","tel":"","addr":"경기도 양주시 마전동 294-2번지","category":"일반휴게음식 - 서양음식"}]},{"lat":"37.773733615","long":"127.05226734","items":[{"name":"양주풋살제2구장","tel":"031-840-5335","addr":"경기도 양주시 마전동 241번지","category":"레저업소 - 기타레져업소"}]},{"lat":"37.776679373","long":"127.05309791","items":[{"name":"양주풋살파크","tel":"031-840-5335","addr":"경기도 양주시 마전동 143-15번지","category":"레저업소 - 기타레져업소"}]},{"lat":"37.773345928","long":"127.0529254","items":[{"name":"어울림","tel":"031-111-1111","addr":"경기도 양주시 마전동 235-4번지","category":"일반휴게음식 - 서양음식"}]},{"lat":"37.769789491","long":"127.04712328","items":[{"name":"에이치에너지산업(주)","tel":"031-847-0843","addr":"경기도 양주시 마전동 291-28번지","category":"연료판매점 - SK가스충전소"}]},{"lat":"37.787734712","long":"127.05145927","items":[{"name":"예건씰링","tel":"031-1111-1111","addr":"경기도 양주시 마전동 51-1번지","category":"용역 서비스 - 기타용역서비스"}]},{"lat":"37.782122847","long":"127.04884472","items":[{"name":"예뜰화원","tel":"031-840-2050","addr":"경기도 양주시 마전동 106-8 10","category":"문화.취미 - 화원"}]},{"lat":"37.76620202","long":"127.05139979","items":[{"name":"유월의아침","tel":"031-848-8799","addr":"경기도 양주시 마전동 420-3번지","category":"일반휴게음식 - 서양음식"}]},{"lat":"37.782563882","long":"127.04993476","items":[{"name":"은행나무집","tel":"031-840-3308","addr":"경기도 양주시 마전동 104","category":"일반휴게음식 - 일반한식"}]},{"lat":"37.768453734","long":"127.0529902","items":[{"name":"주식회사드림하우스","tel":"031-842-9597","addr":"경기도 양주시 마전동 419-3","category":"건축자재 - 기타건축자재"}]},{"lat":"37.785483868","long":"127.04759807","items":[{"name":"중앙화원","tel":"031-840-9652","addr":"경기도 양주시 마전동 78-1","category":"문화.취미 - 화원"}]},{"lat":"37.784897859","long":"127.0486194","items":[{"name":"참블루베리","tel":"070-8690-5872","addr":"경기도 양주시 마전동 75-1번지","category":"레저업소 - 기타레져업소"}]},{"lat":"37.783036058","long":"127.06178632","items":[{"name":"철원양평해장국","tel":"031-840-1131","addr":"경기도 양주시 마전동 21번지","category":"일반휴게음식 - 일반한식"}]},{"lat":"37.767480135","long":"127.05431742","items":[{"name":"청도납닥바위","tel":"031-842-2473","addr":"경기도 양주시 마전동 397-7번지","category":"일반휴게음식 - 일반한식"}]}]