[{"lat":"37.220489974","long":"127.04605689","items":[{"name":"(주)기산자동차서비스","tel":"031-223-1198","addr":"경기도 화성시 기산동 146-2번지","category":"자동차정비 유지 - 자동차정비"}]},{"lat":"37.225077527","long":"127.04238626","items":[{"name":"(주)에스지엠/원격지","tel":"031-225-7526","addr":"경기도 화성시 기산동 362-2번지","category":"기타 - 기타 전문점"},{"name":"농업회사법인 주식회사 대박식품","tel":"031-234-8199","addr":"경기도 화성시 기산동 362-2번지","category":"음료식품 - 기타음료식품"}]},{"lat":"37.225185227","long":"127.04363703","items":[{"name":"(주)한그린이엔이/원격지","tel":"031-267-2607","addr":"경기도 화성시 기산동 369-28번지 201호","category":"기타 - 기타 전문점"}]},{"lat":"37.225156732","long":"127.04769336","items":[{"name":"25시배터리","tel":"031-202-4649","addr":"경기도 화성시 기산동 222-2번지","category":"자동차정비 유지 - 자동차부품"},{"name":"피크(peak)","tel":"031-222-0677","addr":"경기도 화성시 기산동 222-2번지 1층","category":"자동차정비 유지 - 자동차부품"}]},{"lat":"37.214963957","long":"127.05283595","items":[{"name":"9 to 9 헤어","tel":"031-238-0409","addr":"경기도 화성시 기산동 48-2번지 108호","category":"보건위생 - 미용원"},{"name":"라온어린이수영장","tel":"031-223-8582","addr":"경기도 화성시 기산동 48-2번지 지하1층","category":"레저업소 - 수 영 장"},{"name":"마이(My)드로잉미술학원","tel":"032-111-1111","addr":"경기도 화성시 기산동 48-2번지 대림프라자 303호","category":"학원 - 예·체능계학원"},{"name":"몽 카페","tel":"02-521-1269","addr":"경기도 화성시 기산동 48-2번지 대림프라자 1층 109호","category":"일반휴게음식 - 서양음식"},{"name":"스터디온2관학원","tel":"031-224-8545","addr":"경기도 화성시 기산동 48-2번지 301호","category":"학원 - 보습학원"},{"name":"이츠글라시스 기산점","tel":"031-222-1017","addr":"경기도 화성시 기산동 48-2번지 1층 105-107호","category":"보건위생 - 안경"}]},{"lat":"37.225661434","long":"127.04736689","items":[{"name":"C&M디자인","tel":"031-232-1155","addr":"경기도 화성시 기산동 224-2번지","category":"건축자재 - 인테리어전문"},{"name":"박지성길한우도매센터","tel":"031-239-9940","addr":"경기도 화성시 기산동 224-2","category":"음료식품 - 정육점"}]},{"lat":"37.228824673","long":"127.0457236","items":[{"name":"GS25기산대우점","tel":"02-2006-2485","addr":"경기도 화성시 기산동 466 대우푸르지오@ 101호","category":"유통업 영리 - 편 의 점"},{"name":"푸르지오수학전과목해법영어학원","tel":"031-237-1332","addr":"경기도 화성시 기산동 466번지 상가동302호~303호 302호 상가","category":"회원제형태 - 학원"}]},{"lat":"37.222462231","long":"127.04875089","items":[{"name":"GS25기산래미안점","tel":"","addr":"경기도 화성시 기산동 464번지 행림마을삼성래미안1차 상가동 108호","category":"유통업 영리 - 편 의 점"},{"name":"네츄럴코스메틱","tel":"","addr":"경기도 화성시 기산동 464번지 행림마을삼성래미안1차 상가동 105호","category":"보건위생 - 화장품"},{"name":"두별미술","tel":"031-233-3898","addr":"경기도 화성시 기산동 464번지 행림마을삼성래미안1차 상가 3층 303호","category":"학원 - 예·체능계학원"},{"name":"삼성인테리어","tel":"031-236-5747","addr":"경기도 화성시 기산동 464번지 행림마을삼성래미안1차 상가 102호","category":"건축자재 - 인테리어전문"},{"name":"영렘브란트미술교육학원","tel":"","addr":"경기도 화성시 기산동 464번지 행림마을삼성래미안1차 상가동 402호","category":"학원 - 예·체능계학원"},{"name":"윤선생우리집앞영어교실기산학원","tel":"031-235-7298","addr":"경기도 화성시 기산동 464번지 행림마을삼성래미안1차 202호 상가","category":"학원 - 외국어학원"},{"name":"이삭줍기","tel":"031-225-6217","addr":"경기도 화성시 기산동 464번지 삼성래미안1차 단지내상가 106호","category":"의류 - 정장"}]},{"lat":"37.215720211","long":"127.05427852","items":[{"name":"GS25기산뷰파크점","tel":"","addr":"경기도 화성시 기산동 45-1번지 102호","category":"유통업 영리 - 편 의 점"}]},{"lat":"37.216856005","long":"127.05314139","items":[{"name":"GS25신동탄SK","tel":"","addr":"경기도 화성시 기산동 476번지 에스케이뷰파크2차 1층 101호 근린생활시설","category":"유통업 영리 - 편 의 점"},{"name":"GS25신동탄SK점","tel":"","addr":"경기도 화성시 기산동 476번지 에스케이뷰파크2차 상가동 101호","category":"유통업 영리 - 편 의 점"},{"name":"SK행복한어린이집[아이행복]","tel":"031-225-1631","addr":"경기도 화성시 기산동 476번지 에스케이뷰파크2차 209동 101호","category":"학원 - 유아원"},{"name":"신동탄빅스맘어린이집[아이행복]","tel":"031-308-1833","addr":"경기도 화성시 기산동 476번지 에스케이뷰파크2차 205동 103호","category":"학원 - 유아원"},{"name":"에스케이(SK)이화음악학원","tel":"031-223-7279","addr":"경기도 화성시 기산동 476번지 에스케이뷰파크2차 203호","category":"학원 - 예·체능계학원"},{"name":"우리공부방","tel":"","addr":"경기도 화성시 기산동 476번지 에스케이뷰파크2차 212동 904호","category":"학원 - 기타 교육기관"},{"name":"유니아트미술학원","tel":"031-223-7279","addr":"경기도 화성시 기산동 476번지 에스케이뷰파크2차 근린생활시설 204호","category":"학원 - 예·체능계학원"},{"name":"코이헤어 (Coi Hair)","tel":"031-224-5242","addr":"경기도 화성시 기산동 476번지 에스케이뷰파크2차 1층 102호","category":"보건위생 - 미용원"},{"name":"크린토피아 SK뷰2차점","tel":"031-302-6619","addr":"경기도 화성시 기산동 476번지 에스케이뷰파크2차 상가동 109호","category":"수리서비스 - 세탁소"},{"name":"피터팬어린이집[아이행복]","tel":"031-000-0000","addr":"경기도 화성시 기산동 476번지 에스케이뷰파크2차 210동 103호","category":"학원 - 유아원"}]},{"lat":"37.222524713","long":"127.05024947","items":[{"name":"LK(엘케이) GLOBAL","tel":"031-223-5460","addr":"경기도 화성시 기산동 187번지","category":"건축자재 - 조명기구"},{"name":"더나은디자인","tel":"031-235-6987","addr":"경기도 화성시 기산동 187번지 102호103호","category":"건축자재 - 기타건축자재"},{"name":"루트수학학원","tel":"031-878-1538","addr":"경기도 화성시 기산동 187번지 301호","category":"학원 - 보습학원"},{"name":"튼튼영어마스터클럽화성기산학원","tel":"031-226-7905","addr":"경기도 화성시 기산동 187번지 201호","category":"회원제형태 - 학원"}]},{"lat":"37.224462573","long":"127.04863942","items":[{"name":"OK머신","tel":"031-241-0011","addr":"경기도 화성시 기산동 220-3번지","category":"기타 - 기계공구"},{"name":"주식회사윙윙시스템","tel":"02-1577-6975","addr":"경기도 화성시 기산동 220-3번지","category":"자동차판매 - 기타운송"}]},{"lat":"37.219164917","long":"127.04749828","items":[{"name":"P.K(평강)에프엔비","tel":"031-233-8588","addr":"경기도 화성시 기산동 96번지","category":"음료식품 - 기타음료식품"},{"name":"마루플러스","tel":"031-232-9931","addr":"경기도 화성시 기산동 96번지","category":"건축자재 - 기타건축자재"}]},{"lat":"37.218134454","long":"127.05549695","items":[{"name":"가구일번지","tel":"031-377-8985","addr":"경기도 화성시 기산동 22번지","category":"가구 - 일반가구"}]},{"lat":"37.220490295","long":"127.04516681","items":[{"name":"건국오토","tel":"031-224-2973","addr":"경기도 화성시 기산동 296-2번지","category":"자동차정비 유지 - 자동차부품"}]},{"lat":"37.215216176","long":"127.05300511","items":[{"name":"경인문구","tel":"031-233-5272","addr":"경기도 화성시 기산동 47-1번지","category":"서적문구 - 문구용품"},{"name":"에몬스가구(동탄점)","tel":"031-223-4495","addr":"경기도 화성시 기산동 47-1번지","category":"가구 - 일반가구"}]},{"lat":"37.22112982","long":"127.04575305","items":[{"name":"그린모비스(주)","tel":"031-226-5788","addr":"경기도 화성시 기산동 288-3번지","category":"자동차정비 유지 - 자동차부품"}]},{"lat":"37.223742672","long":"127.04617142","items":[{"name":"그린푸드","tel":"031-221-5518","addr":"경기도 화성시 기산동 257번지","category":"일반휴게음식 - 일반한식"}]},{"lat":"37.224770997","long":"127.04291568","items":[{"name":"그린플로우테크","tel":"031-221-4617","addr":"경기도 화성시 기산동 361-6번지","category":"서적문구 - 과학기자재"}]},{"lat":"37.215721339","long":"127.05160843","items":[{"name":"꽃뜨락","tel":"031-225-4710","addr":"경기도 화성시 기산동 137-1번지","category":"문화.취미 - 화원"},{"name":"참누리화원","tel":"031-222-2253","addr":"경기도 화성시 기산동 137-1번지","category":"문화.취미 - 화원"}]},{"lat":"37.215523153","long":"127.0515069","items":[{"name":"꽃이야기","tel":"031-224-8188","addr":"경기도 화성시 기산동 138번지","category":"문화.취미 - 화원"},{"name":"꽃이야기","tel":"031-224-8188","addr":"경기도 화성시 기산동 138번지","category":"문화.취미 - 화원"},{"name":"산들꽃조경","tel":"031-221-2544","addr":"경기도 화성시 기산동 138번지","category":"문화.취미 - 화원"}]},{"lat":"37.225257361","long":"127.04349059","items":[{"name":"낙원","tel":"031-267-2245","addr":"경기도 화성시 기산동 369-2번지 1동 2층","category":"일반휴게음식 - 일반한식"}]},{"lat":"37.227187551","long":"127.03724918","items":[{"name":"남양신병점대리점","tel":"031-898-7766","addr":"경기도 화성시 기산동 430-5번지","category":"음료식품 - 기타음료식품"}]},{"lat":"37.21837959","long":"127.05113694","items":[{"name":"네비마켓","tel":"031-222-3949","addr":"경기도 화성시 기산동 170-1번지","category":"자동차정비 유지 - 자동차부품"},{"name":"네비마켓","tel":"031-222-4805","addr":"경기도 화성시 기산동 170-1번지","category":"자동차정비 유지 - 자동차부품"},{"name":"에이치 아이 테크","tel":"031-233-3818","addr":"경기도 화성시 기산동 170-1번지","category":"건축자재 - 목재·석재·철물"}]},{"lat":"37.222506921","long":"127.04967483","items":[{"name":"다섯콩어린이집[아이행복]","tel":"031-238-4102","addr":"경기도 화성시 기산동 464번지 행림마을삼성래미안1차 102동 103호","category":"학원 - 유아원"}]},{"lat":"37.220580209","long":"127.0456964","items":[{"name":"다정마트","tel":"070-4207-4647","addr":"경기도 화성시 기산동 295-3번지","category":"유통업 영리 - 슈퍼마켓"}]},{"lat":"37.22421925","long":"127.04875195","items":[{"name":"대림샤링","tel":"031-222-5521","addr":"경기도 화성시 기산동 214-11번지 외1필지 A동","category":"건축자재 - 기타건축자재"}]},{"lat":"37.226961285","long":"127.04056185","items":[{"name":"대성ESC","tel":"031-232-4881","addr":"경기도 화성시 기산동 418-5번지","category":"건축자재 - 보일러·펌프·샷시"}]},{"lat":"37.22763578","long":"127.0443933","items":[{"name":"대우고급세탁","tel":"031-267-3955","addr":"경기도 화성시 기산동 370","category":"수리서비스 - 세탁소"},{"name":"카네기음악학원","tel":"031-239-5079","addr":"경기도 화성시 기산동 370번지 대우푸르지오 상가 401호","category":"학원 - 예·체능계학원"}]},{"lat":"37.21621719","long":"127.0509215","items":[{"name":"대진플라워","tel":"031-296-8818","addr":"경기도 화성시 기산동 130-1번지","category":"문화.취미 - 화원"},{"name":"수정꽃집","tel":"031-225-4711","addr":"경기도 화성시 기산동 130-1번지","category":"문화.취미 - 화원"},{"name":"한나하우스식물원","tel":"031-224-2003","addr":"경기도 화성시 기산동 130-1번지","category":"문화.취미 - 화원"}]},{"lat":"37.224688535","long":"127.04678041","items":[{"name":"대현상사","tel":"031-334-0940","addr":"경기도 화성시 기산동 247번지","category":"기타 - 기계공구"},{"name":"한국타이어영통대리점","tel":"031-224-4984","addr":"경기도 화성시 기산동 247번지","category":"자동차정비 유지 - 자동차시트·타이어"}]},{"lat":"37.215135674","long":"127.05158552","items":[{"name":"데코브라인드","tel":"031-231-1725","addr":"경기도 화성시 기산동 139번지","category":"건축자재 - 인테리어전문"},{"name":"유리꽃농원","tel":"031-206-3882","addr":"경기도 화성시 기산동 139번지","category":"문화.취미 - 화원"}]},{"lat":"37.218801155","long":"127.05564388","items":[{"name":"동네개카페","tel":"031-222-2808","addr":"경기도 화성시 기산동 20번지 2층","category":"문화.취미 - 애완동물"},{"name":"애견샵독특","tel":"031-221-0810","addr":"경기도 화성시 기산동 20번지 3층","category":"문화.취미 - 애완동물"}]},{"lat":"37.221715168","long":"127.04664348","items":[{"name":"동양사무용가구","tel":"031-221-7696","addr":"경기도 화성시 기산동 195-5번지","category":"가구 - 일반가구"}]},{"lat":"37.221218767","long":"127.04884027","items":[{"name":"동일공조","tel":"031-224-8339","addr":"경기도 화성시 기산동 195-4","category":"전기제품 - 냉열기기"},{"name":"씨유기산SK뷰3차점","tel":"02-1577-8007","addr":"경기도 화성시 기산동 150번지 단지내상가동 1층 106호,107호,108호","category":"유통업 영리 - 편 의 점"},{"name":"아카엘침구","tel":"","addr":"경기도 화성시 기산동 150번지 신동탄SK뷰파크3차 113동 1001호","category":"직물 - 침구·수예점"},{"name":"에스케이(SK)세탁소","tel":"031-225-4987","addr":"경기도 화성시 기산동 150번지 신동탄SK뷰파크3차 상가동 103호","category":"수리서비스 - 세탁소"},{"name":"최강 e해법 셀파 수학학원","tel":"031-223-3014","addr":"경기도 화성시 기산동 150번지 에스케이뷰파크3차 상가동 201, 202호","category":"학원 - 보습학원"},{"name":"파크빅스맘어린이집[아이행복]","tel":"031-221-0061","addr":"경기도 화성시 기산동 150번지 신동탄SK뷰파크3차","category":"학원 - 유아원"}]},{"lat":"37.215910543","long":"127.05164235","items":[{"name":"뜨락","tel":"031-225-4716","addr":"경기도 화성시 기산동 137","category":"문화.취미 - 화원"}]},{"lat":"37.221470357","long":"127.05060935","items":[{"name":"레고헤어","tel":"031-221-2303","addr":"경기도 화성시 기산동 183번지","category":"보건위생 - 미용원"},{"name":"셀프zone PC","tel":"070-4443-0402","addr":"경기도 화성시 기산동 183번지 201호","category":"레저업소 - 기타레져업소"},{"name":"영화노래연습장","tel":"031-222-3697","addr":"경기도 화성시 기산동 183번지 2층","category":"레저업소 - 노 래 방"},{"name":"진로마트","tel":"031-222-4966","addr":"경기도 화성시 기산동 183번지","category":"유통업 영리 - 슈퍼마켓"},{"name":"친구숯불구이","tel":"031-898-7992","addr":"경기도 화성시 기산동 183 외4필지106호~108호","category":"일반휴게음식 - 일반한식"},{"name":"훌랄라참숯바베큐","tel":"031-226-0852","addr":"경기도 화성시 기산동 183번지 형제프라자 1층 110호","category":"일반휴게음식 - 일반한식"}]},{"lat":"37.223552687","long":"127.04822198","items":[{"name":"레몬 이벤트","tel":"","addr":"경기도 화성시 기산동 212-6번지 외1필지","category":"용역 서비스 - 종합용역"},{"name":"수납공간","tel":"031-225-1718","addr":"경기도 화성시 기산동 212-6","category":"가구 - 일반가구"}]},{"lat":"37.220496644","long":"127.05206218","items":[{"name":"마니또 김밥","tel":"031-223-2047","addr":"경기도 화성시 기산동 1-3번지 1층 일부호","category":"일반휴게음식 - 스넥"},{"name":"아이러브피자기산점","tel":"031-223-9280","addr":"경기도 화성시 기산동 1-3번지 1층","category":"일반휴게음식 - 서양음식"},{"name":"참누리세탁","tel":"031-226-1577","addr":"경기도 화성시 기산동 1-3번지","category":"수리서비스 - 세탁소"}]},{"lat":"37.222940485","long":"127.04689207","items":[{"name":"만석꾼FS","tel":"031-206-8585","addr":"경기도 화성시 기산동 205-1번지","category":"음료식품 - 미곡상"},{"name":"사계절우리김치","tel":"031-226-8964","addr":"경기도 화성시 기산동 205-1번지","category":"음료식품 - 기타음료식품"}]},{"lat":"37.224490046","long":"127.04747888","items":[{"name":"명품","tel":"031-238-1616","addr":"경기도 화성시 기산동 218-1번지","category":"일반휴게음식 - 중국식"}]},{"lat":"37.224851299","long":"127.04519177","items":[{"name":"미성","tel":"031-226-9659","addr":"경기도 화성시 기산동 259-1번지","category":"일반휴게음식 - 일반한식"}]},{"lat":"37.215360213","long":"127.05330939","items":[{"name":"베루샤디자인가구","tel":"031-224-2066","addr":"경기도 화성시 기산동 46번지 1층","category":"가구 - 일반가구"}]},{"lat":"37.22515827","long":"127.04342293","items":[{"name":"산천식당","tel":"031-267-2245","addr":"경기도 화성시 기산동 369-2번지","category":"일반휴게음식 - 일반한식"}]},{"lat":"37.224661699","long":"127.04625082","items":[{"name":"삼성윤활유상사","tel":"031-203-8306","addr":"경기도 화성시 기산동 250-3번지","category":"연료판매점 - 유류판매"}]},{"lat":"37.215963309","long":"127.05469554","items":[{"name":"석산광고","tel":"031-226-1116","addr":"경기도 화성시 기산동 44-1번지","category":"건축자재 - 인테리어전문"},{"name":"에스에스원","tel":"031-232-6854","addr":"경기도 화성시 기산동 44-1번지 타이어프로","category":"자동차정비 유지 - 자동차정비"},{"name":"창&하우스","tel":"031-221-7706","addr":"경기도 화성시 기산동 44-1번지 1층","category":"직물 - 카페트,커튼,천막,지물"},{"name":"평창강화도어","tel":"031-267-0686","addr":"경기도 화성시 기산동 44-1번지","category":"건축자재 - 유리"}]},{"lat":"37.220192674","long":"127.04594406","items":[{"name":"선진경정비카센타","tel":"031-235-9269","addr":"경기도 화성시 기산동 146-3번지","category":"자동차정비 유지 - 자동차정비"}]},{"lat":"37.222147167","long":"127.04797326","items":[{"name":"선하어린이집[아이행복]","tel":"031-302-4032","addr":"경기도 화성시 기산동 464번지 행림마을삼성래미안1차 109동 102호","category":"학원 - 유아원"}]},{"lat":"37.226106586","long":"127.03627967","items":[{"name":"수원델코","tel":"031-203-1071","addr":"경기도 화성시 기산동 435-23번지 1층","category":"자동차정비 유지 - 자동차부품"}]},{"lat":"37.214721174","long":"127.05164158","items":[{"name":"시몬스","tel":"031-432-7698","addr":"경기도 화성시 기산동 140번지","category":"가구 - 일반가구"}]},{"lat":"37.227464078","long":"127.04581297","items":[{"name":"시온핸디워크","tel":"","addr":"경기도 화성시 기산동 382-3번지 2동","category":"자동차정비 유지 - 자동차부품"}]},{"lat":"37.226629074","long":"127.03667427","items":[{"name":"시티머신즈/원격지","tel":"031-232-4119","addr":"경기도 화성시 기산동 439-2번지","category":"기타 - 기타 전문점"}]},{"lat":"37.220939274","long":"127.04927951","items":[{"name":"씨유기산프리미엄점","tel":"02-1577-8007","addr":"경기도 화성시 기산동 162-14번지 1층","category":"유통업 영리 - 편 의 점"},{"name":"오레시피기산점","tel":"031-223-6786","addr":"경기도 화성시 기산동 162-14번지 102호","category":"음료식품 - 기타음료식품"}]},{"lat":"37.220243558","long":"127.05394358","items":[{"name":"아름다운어린이집[아이행복]","tel":"031-231-2544","addr":"경기도 화성시 기산동 11-2번지","category":"학원 - 유아원"}]},{"lat":"37.220243872","long":"127.05321124","items":[{"name":"아이노리어린이집[아이행복]","tel":"031-307-1126","addr":"경기도 화성시 기산동 468번지 울트라참누리2단지 202동 101호","category":"학원 - 유아원"}]},{"lat":"37.222020464","long":"127.04941538","items":[{"name":"앙상블보컬","tel":"","addr":"경기도 화성시 기산동 464번지 행림마을삼성래미안1차 103동 502호","category":"보건위생 - 기타대인서비스"}]},{"lat":"37.221271408","long":"127.05236689","items":[{"name":"어드벤처화성지사","tel":"031-8015-1434","addr":"경기도 화성시 기산동 2-8번지","category":"회원제형태 - 서적"}]},{"lat":"37.219018076","long":"127.05411176","items":[{"name":"에스엠손세차","tel":"031-221-0951","addr":"경기도 화성시 기산동 13번지","category":"자동차정비 유지 - 세차장"}]},{"lat":"37.217936578","long":"127.05469689","items":[{"name":"에스지골프 동탄스크린","tel":"031-253-0753","addr":"경기도 화성시 기산동 25번지","category":"레저업소 - 스크린골프"}]},{"lat":"37.22743879","long":"127.0406973","items":[{"name":"에이스메카트로닉스","tel":"031-222-8081","addr":"경기도 화성시 기산동 417번지","category":"기타 - 기계공구"}]},{"lat":"37.222110866","long":"127.04864927","items":[{"name":"에이스코리아","tel":"031-274-5456","addr":"경기도 화성시 기산동 464번지 행림마을삼성래미안1차 106동 602호","category":"레져용품 - 스포츠·레져용품"}]},{"lat":"37.226077885","long":"127.04175579","items":[{"name":"엘에스(LS)안전산업","tel":"","addr":"경기도 화성시 기산동 407-4번지 2층","category":"기타 - 기계공구"},{"name":"한길축산","tel":"031-238-5350","addr":"경기도 화성시 기산동 407-4번지","category":"음료식품 - 정육점"}]},{"lat":"37.222858638","long":"127.04887507","items":[{"name":"열매어린이집[아이행복]","tel":"031-304-3851","addr":"경기도 화성시 기산동 464번지 행림마을삼성래미안1차 105동 102호","category":"학원 - 유아원"}]},{"lat":"37.223968143","long":"127.04558564","items":[{"name":"영민수지","tel":"031-8025-4788","addr":"경기도 화성시 기산동 258-2번지 나동","category":"건축자재 - 기타건축자재"}]},{"lat":"37.22268844","long":"127.04622716","items":[{"name":"오미한식부페","tel":"031-248-6332","addr":"경기도 화성시 기산동 281-6번지 1층","category":"일반휴게음식 - 일반한식"}]},{"lat":"37.218245088","long":"127.0495032","items":[{"name":"우리산업","tel":"031-222-7388","addr":"경기도 화성시 기산동 88-2번지","category":"가구 - 일반가구"}]},{"lat":"37.219300405","long":"127.04660829","items":[{"name":"웰빙꽃","tel":"031-226-4288","addr":"경기도 화성시 기산동 93번지","category":"문화.취미 - 화원"}]},{"lat":"37.22543708","long":"127.04488787","items":[{"name":"위너스베이스볼","tel":"031-7199-5546","addr":"경기도 화성시 기산동 368번지","category":"학원 - 예·체능계학원"}]},{"lat":"37.227076493","long":"127.04619586","items":[{"name":"자동차를좋아하는사람들","tel":"031-202-9876","addr":"경기도 화성시 기산동 461","category":"자동차정비 유지 - 자동차정비"}]},{"lat":"37.227323221","long":"127.03542384","items":[{"name":"장수마트","tel":"031-234-0686","addr":"경기도 화성시 기산동 442-1번지","category":"음료식품 - 기타음료식품"}]},{"lat":"37.224409602","long":"127.0457211","items":[{"name":"재호산업","tel":"031-253-9875","addr":"경기도 화성시 기산동 254-2번지","category":"건축자재 - 기타건축자재"}]},{"lat":"37.224717101","long":"127.04241988","items":[{"name":"제이엠정밀/원격지","tel":"","addr":"경기도 화성시 기산동 361-9번지","category":"기타 - 기타 전문점"}]},{"lat":"37.223687468","long":"127.04919106","items":[{"name":"조은문","tel":"031-221-5944","addr":"경기도 화성시 기산동 212-14번지","category":"건축자재 - 기타건축자재"},{"name":"한일에어쇼바","tel":"031-311-3341","addr":"경기도 화성시 기산동 212-14번지","category":"자동차정비 유지 - 자동차부품"}]},{"lat":"37.225989333","long":"127.03669652","items":[{"name":"주식회사 거상종합","tel":"031-225-6260","addr":"경기도 화성시 기산동 435-101번지","category":"음료식품 - 기타음료식품"}]},{"lat":"37.226212831","long":"127.04238686","items":[{"name":"주식회사 모아유통산업","tel":"031-213-1030","addr":"경기도 화성시 기산동 402-1번지","category":"신변잡화 - 기타잡화"}]},{"lat":"37.224850422","long":"127.0475805","items":[{"name":"주식회사제이인스트루먼트(J-INSTRUMENT In","tel":"031-225-8652","addr":"경기도 화성시 기산동 222-15번지","category":"기타 - 기계공구"},{"name":"주식회사제이인스트루먼트/원격지","tel":"031-225-8652","addr":"경기도 화성시 기산동 222-15번지","category":"기타 - 기타 전문점"}]},{"lat":"37.216938064","long":"127.0508093","items":[{"name":"중앙건설현장 급식소","tel":"070-4339-5704","addr":"경기도 화성시 기산동 477번지 반월1초등학교 신축현장내","category":"일반휴게음식 - 일반한식"}]},{"lat":"37.224518384","long":"127.04386202","items":[{"name":"진성E,N,G","tel":"031-232-8243","addr":"경기도 화성시 기산동 361-1번지","category":"기타 - 기타 전문점"}]},{"lat":"37.220246907","long":"127.04547088","items":[{"name":"청운퍼니처","tel":"031-253-8981","addr":"경기도 화성시 기산동 295-7번지","category":"주방용구 - 주방용구"}]},{"lat":"37.227215066","long":"127.03553647","items":[{"name":"청정나라","tel":"031-8058-3671","addr":"경기도 화성시 기산동 442-11번지 103호","category":"신변잡화 - 기타잡화"}]},{"lat":"37.227328742","long":"127.04630869","items":[{"name":"청학동국밥","tel":"031-244-0611","addr":"경기도 화성시 기산동 380-2번지 1층","category":"일반휴게음식 - 일반한식"}]},{"lat":"37.221109259","long":"127.05227665","items":[{"name":"커피트리","tel":"031-202-0551","addr":"경기도 화성시 기산동 2-2번지","category":"일반휴게음식 - 일반한식"}]},{"lat":"37.225328022","long":"127.04744557","items":[{"name":"투데이컴퓨터","tel":"031-226-2528","addr":"경기도 화성시 기산동 224-12번지","category":"사무통신 - 컴퓨터"}]},{"lat":"37.216271841","long":"127.04944565","items":[{"name":"트리앤플라워","tel":"031-225-2261","addr":"경기도 화성시 기산동 127-2번지","category":"문화.취미 - 화원"}]},{"lat":"37.214053805","long":"127.0530832","items":[{"name":"판다팜백화점","tel":"031-222-6132","addr":"경기도 화성시 기산동 107번지","category":"신변잡화 - 기타잡화"}]},{"lat":"37.22688087","long":"127.03836457","items":[{"name":"하림테크","tel":"031-224-4755","addr":"경기도 화성시 기산동 426-14번지","category":"기타 - 기계공구"}]},{"lat":"37.227382866","long":"127.0461397","items":[{"name":"한국마트","tel":"031-231-1211","addr":"경기도 화성시 기산동 382번지 1층","category":"유통업 영리 - 슈퍼마켓"}]},{"lat":"37.226691843","long":"127.03772221","items":[{"name":"한양종합브라인드(주)","tel":"031-223-6222","addr":"경기도 화성시 기산동 435-105번지","category":"직물 - 카페트,커튼,천막,지물"}]},{"lat":"37.221137392","long":"127.04956131","items":[{"name":"행복어린이집[아이행복]","tel":"031-222-5959","addr":"경기도 화성시 기산동 162-15번지","category":"학원 - 유아원"},{"name":"행복어린이집[아이행복]","tel":"031-222-5959","addr":"경기도 화성시 기산동 162-15번지","category":"학원 - 유아원"}]},{"lat":"37.225463354","long":"127.04697241","items":[{"name":"현대카페트","tel":"031-296-8172","addr":"경기도 화성시 기산동 244번지","category":"수리서비스 - 세탁소"}]},{"lat":"37.223795482","long":"127.04947281","items":[{"name":"홍하루","tel":"031-267-3131","addr":"경기도 화성시 기산동 214-1번지","category":"일반휴게음식 - 중국식"}]},{"lat":"37.227134081","long":"127.03514206","items":[{"name":"홍화","tel":"031-252-3893","addr":"경기도 화성시 기산동 443-1번지","category":"신변잡화 - 기타잡화"}]}]