[{"lat":"37.027487759","long":"126.86763946","items":[{"name":"겟터치(Get Touch)","tel":"","addr":"경기도 평택시 포승읍 홍원리 988-2번지","category":"문화.취미 - 애완동물"}]},{"lat":"37.006320079","long":"126.89215858","items":[{"name":"그린에너지","tel":"031-683-7143","addr":"경기도 평택시 포승읍 홍원리 9-48번지","category":"소매업 - 산업용가스"}]},{"lat":"37.007906198","long":"126.89241469","items":[{"name":"다래복","tel":"","addr":"경기도 평택시 포승읍 홍원리 9-27번지 2층","category":"일반휴게음식 - 일반한식"},{"name":"영산강","tel":"031-618-2468","addr":"경기도 평택시 포승읍 홍원리 9-27번지","category":"일반휴게음식 - 일반한식"}]},{"lat":"37.013679012","long":"126.88015873","items":[{"name":"리화","tel":"031-684-0356","addr":"경기도 평택시 포승읍 홍원리 143-16번지","category":"일반휴게음식 - 일반한식"}]},{"lat":"37.013602825","long":"126.86036046","items":[{"name":"여왕벌건강원","tel":"031-683-7779","addr":"경기도 평택시 포승읍 홍원리 285","category":"건강식품 - 기타건강식품"}]},{"lat":"37.01034715","long":"126.87363607","items":[{"name":"유한회사 진성그래픽","tel":"031-682-2486","addr":"경기도 평택시 포승읍 홍원리 153-9번지","category":"서적문구 - 출판 및 인쇄물"}]},{"lat":"37.015238711","long":"126.86454864","items":[{"name":"조현옥건강원","tel":"031-683-3030","addr":"경기도 평택시 포승읍 홍원리 272번지","category":"건강식품 - 기타건강식품"}]},{"lat":"37.011298383","long":"126.88733112","items":[{"name":"코라스상사","tel":"","addr":"경기도 평택시 포승읍 홍원리 40-32번지","category":"보건위생 - 화장품"}]},{"lat":"37.01843371","long":"126.86910509","items":[{"name":"토랑도예공방","tel":"031-683-6736","addr":"경기도 평택시 포승읍 홍원리 196-12","category":"문화.취미 - 문화취미기타"}]},{"lat":"37.01807168","long":"126.86768986","items":[{"name":"평택참숯가마","tel":"031-686-6779","addr":"경기도 평택시 포승읍 홍원리 266-85번지","category":"서비스업 - 목욕탕"}]},{"lat":"37.014319152","long":"126.88052851","items":[{"name":"한국환경시스템","tel":"031-684-9224","addr":"경기도 평택시 포승읍 홍원리 137","category":"신변잡화 - 기타잡화"}]},{"lat":"37.007518791","long":"126.89247143","items":[{"name":"홍원식당","tel":"031-682-5517","addr":"경기도 평택시 포승읍 홍원리 9-42번지","category":"음식점 - 한식"},{"name":"홍원식당","tel":"031-683-3472","addr":"경기도 평택시 포승읍 홍원리 9-42번지 외3필지","category":"일반휴게음식 - 일반한식"}]},{"lat":"37.013544859","long":"126.88113651","items":[{"name":"홍원정미소","tel":"031-611-0441","addr":"경기도 평택시 포승읍 홍원리 143-5번지","category":"음료식품 - 미곡상"}]},{"lat":"37.014075705","long":"126.88943936","items":[{"name":"홍원초등학교","tel":"031-683-9484","addr":"경기도 평택시 포승읍 홍원리 58-4번지 홍원초등학교","category":"학원 - 초중고교육기관"},{"name":"홍원초등학교병설유치원[아이행복]","tel":"031-683-1910","addr":"경기도 평택시 포승읍 홍원리 58-4번지","category":"학원 - 유치원"}]}]