[{"lat":"37.174967887","long":"127.05017473","items":[{"name":"(주)엠수학학원","tel":"031-8050-7766","addr":"경기도 오산시 금암동 502-2번지 503,504호","category":"학원 - 보습학원"},{"name":"글라스스토리 세교점","tel":"031-375-0294","addr":"경기도 오산시 금암동 502-2번지 무한메디컬빌딩 104호","category":"보건위생 - 안경"},{"name":"나오미키친","tel":"031-376-1855","addr":"경기도 오산시 금암동 502-2번지 무한메디컬빌딩","category":"일반휴게음식 - 스넥"},{"name":"드림아트미술학원","tel":"031-373-7027","addr":"경기도 오산시 금암동 502-2번지 무한타워 505호","category":"학원 - 예·체능계학원"},{"name":"린바","tel":"02-1111-1111","addr":"경기도 오산시 금암동 502-2번지 무한메디컬빌딩 402호","category":"일반휴게음식 - 일반한식"},{"name":"새렘아동심리발달센터","tel":"031-374-7579","addr":"경기도 오산시 금암동 502-2번지 404,405","category":"보건위생 - 기타대인서비스"},{"name":"세교미소치과의원","tel":"031-372-7587","addr":"경기도 오산시 금암동 502-2번지 401호","category":"의원 - 치과의원"},{"name":"세교요양병원","tel":"031-373-3500","addr":"경기도 오산시 금암동 502-2번지 무한메디컬센타310-302,601-5,701-5호","category":"병원 - 병원"},{"name":"신불떡볶이","tel":"031-372-0094","addr":"경기도 오산시 금암동 502-2번지 무한메디컬빌딩 103호","category":"일반휴게음식 - 일반한식"},{"name":"요거프레소(YOGERPRESSO)오산세교점","tel":"","addr":"경기도 오산시 금암동 502-2번지 1층 102호","category":"일반휴게음식 - 서양음식"},{"name":"정철어학원","tel":"031-373-0582","addr":"경기도 오산시 금암동 502-2번지 무한타워 501호","category":"회원제형태 - 학원"},{"name":"큰맘할매순대국세교점","tel":"031-373-1239","addr":"경기도 오산시 금암동 502-2번지 무한메디컬빌딩 108호","category":"일반휴게음식 - 일반한식"},{"name":"킹 당구클럽","tel":"031-375-8482","addr":"경기도 오산시 금암동 502-2번지 403호","category":"레저업소 - 당 구 장"},{"name":"킹당구클럽","tel":"031-375-8482","addr":"경기도 오산시 금암동 502-2번지 무한메디칼 403호","category":"레저업소 - 당 구 장"},{"name":"파컷헤어","tel":"031-372-8887","addr":"경기도 오산시 금암동 502-2번지 1층 107호","category":"보건위생 - 미용원"},{"name":"홍대불닭발세교점","tel":"031-373-5165","addr":"경기도 오산시 금암동 502-2번지 무한메디컬빌딩 110호","category":"일반휴게음식 - 일반한식"},{"name":"화성옥","tel":"031-374-2504","addr":"경기도 오산시 금암동 502-2번지 무한메디컬빌딩","category":"일반휴게음식 - 일반한식"}]},{"lat":"37.174670421","long":"127.05047857","items":[{"name":"24시누름돌생고기김치찌개세교점","tel":"031-378-8885","addr":"경기도 오산시 금암동 502-4번지 105,106호","category":"일반휴게음식 - 일반한식"},{"name":"미스사이공오산세교점","tel":"031-376-3420","addr":"경기도 오산시 금암동 502-4번지 삼성프라자 107,108호","category":"일반휴게음식 - 서양음식"},{"name":"삼성드림소아청소년과의원","tel":"031-373-3988","addr":"경기도 오산시 금암동 502-4번지 302호","category":"의원 - 의원"},{"name":"삼성플란트치과","tel":"031-111-1111","addr":"경기도 오산시 금암동 502-4번지 301호","category":"의원 - 치과의원"},{"name":"세교삼성내과의원","tel":"031-377-1919","addr":"경기도 오산시 금암동 502-4번지","category":"의원 - 의원"},{"name":"세교삼성한의원","tel":"031-374-0301","addr":"경기도 오산시 금암동 502-4번지 401호","category":"의원 - 한의원"},{"name":"세교중앙약국","tel":"031-376-8570","addr":"경기도 오산시 금암동 502-4번지","category":"약국 - 약국"},{"name":"여의도떡집","tel":"031-373-7531","addr":"경기도 오산시 금암동 502-4번지 101호","category":"음료식품 - 제과점"},{"name":"한솥도시락 세교점","tel":"031-376-1038","addr":"경기도 오산시 금암동 502-4번지 세교삼성프라자 102호","category":"일반휴게음식 - 일반한식"}]},{"lat":"37.174418043","long":"127.05069235","items":[{"name":"59쌀피자(오산세교점)","tel":"031-377-5919","addr":"경기도 오산시 금암동 502-5번지 인피니트타워 1층 109호","category":"일반휴게음식 - 서양음식"},{"name":"RED공인중개사사무소","tel":"031-373-1116","addr":"경기도 오산시 금암동 502-5번지 인피니트타워 101호","category":"용역 서비스 - 부동산 중개·임대"},{"name":"꿀마니닭강정","tel":"","addr":"경기도 오산시 금암동 502-5번지 인피니트타워 1층 109호","category":"일반휴게음식 - 일반한식"},{"name":"뉴풀타임PC방","tel":"","addr":"경기도 오산시 금암동 502-5번지 인피니트타워 403,404호","category":"레저업소 - 기타레져업소"},{"name":"또봉이통닭세교점","tel":"031-226-1212","addr":"경기도 오산시 금암동 502-5번지 인피니트타워 107호","category":"일반휴게음식 - 일반한식"},{"name":"바른생갈비세교점","tel":"031-372-9271","addr":"경기도 오산시 금암동 502-5번지 인피니트타워2층201호,202호 2층","category":"일반휴게음식 - 일반한식"},{"name":"바자헤어","tel":"031-375-0987","addr":"경기도 오산시 금암동 502-5번지 인피니트타워 302호","category":"보건위생 - 미용원"},{"name":"백화원 양곱창","tel":"031-378-7979","addr":"경기도 오산시 금암동 502-5번지 인피니트타워","category":"일반휴게음식 - 일반한식"},{"name":"불닭발땡초동대문엽기떡볶이오산세교점","tel":"031-373-8592","addr":"경기도 오산시 금암동 502-5번지 인피니트타워 103호","category":"일반휴게음식 - 일반한식"},{"name":"세교연대와이티어학원","tel":"031-373-0007","addr":"경기도 오산시 금암동 502-5 인피니트타워603호일부,604호","category":"회원제형태 - 학원"},{"name":"스시사까에세교점","tel":"031-377-2434","addr":"경기도 오산시 금암동 502-5번지 인피니트타워 1층 110호","category":"일반휴게음식 - 일식·회집"},{"name":"씨유오산인피니트점","tel":"031-377-4706","addr":"경기도 오산시 금암동 502-5번지 인피니트타워 1층 102호","category":"유통업 영리 - 편 의 점"},{"name":"열린문고","tel":"031-377-9121","addr":"경기도 오산시 금암동 502-5번지 인피니트타워 3층 301호","category":"서적문구 - 일반서적"},{"name":"제주오겹살왕돌판구이","tel":"031-378-5025","addr":"경기도 오산시 금암동 502-5번지 인피니트타워 108호","category":"일반휴게음식 - 일반한식"},{"name":"준노래연습장","tel":"031-374-5668","addr":"경기도 오산시 금암동 502-5번지 인피니트타워 2층 204호","category":"레저업소 - 노 래 방"},{"name":"티앤비뮤직학원","tel":"031-372-1505","addr":"경기도 오산시 금암동 502-5번지 인피니트타워 504호","category":"학원 - 예·체능계학원"},{"name":"파리바게트 오산휴먼시아점","tel":"031-373-8269","addr":"경기도 오산시 금암동 502-5번지 인피니트타워 105호","category":"음료식품 - 제과점"},{"name":"펀펀점핑키즈카페","tel":"031-377-2866","addr":"경기도 오산시 금암동 502-5번지 인피니트타워 303호,304호","category":"일반휴게음식 - 서양음식"},{"name":"피티이","tel":"031-372-5698","addr":"경기도 오산시 금암동 502-5번지 인피니트타워 401호","category":"보건위생 - 피부미용실"},{"name":"흥실발사랑","tel":"031-372-5698","addr":"경기도 오산시 금암동 502-5번지 인피니트타워 401호","category":"보건위생 - 화장품"}]},{"lat":"37.175193238","long":"127.04994966","items":[{"name":"60계치킨 세교궐동점","tel":"031-377-6082","addr":"경기도 오산시 금암동 502-1번지 1층 105호","category":"일반휴게음식 - 스넥"},{"name":"GS25오산리치점","tel":"","addr":"경기도 오산시 금암동 502-1번지 1층 107호","category":"유통업 영리 - 편 의 점"},{"name":"다시봄날의원","tel":"031-8078-7777","addr":"경기도 오산시 금암동 502-1번지 304,305호","category":"의원 - 의원"},{"name":"대박폰(가온텔레콤)","tel":"031-377-6730","addr":"경기도 오산시 금암동 502-1번지 1층 106호","category":"사무통신 - 통신기기"},{"name":"모어겐필라테스 (morgen pilates)","tel":"031-375-4552","addr":"경기도 오산시 금암동 502-1번지 704,705호","category":"레저업소 - 헬스클럽"},{"name":"미장원바이헤어","tel":"031-374-1355","addr":"경기도 오산시 금암동 502-1번지 성민리치 103호","category":"보건위생 - 미용원"},{"name":"배부장찌개 세교점","tel":"031-372-8851","addr":"경기도 오산시 금암동 502-1번지 110호","category":"일반휴게음식 - 일반한식"},{"name":"비허밍 스터디카페(오산점)","tel":"","addr":"경기도 오산시 금암동 502-1번지 4층 401호,402호","category":"용역 서비스 - 사무서비스"},{"name":"서민반찬세교점","tel":"031-372-0947","addr":"경기도 오산시 금암동 502-1번지 108호","category":"음료식품 - 기타음료식품"},{"name":"서울성모이비인후과의원","tel":"031-111-1111","addr":"경기도 오산시 금암동 502-1번지 3층 303호","category":"의원 - 의원"},{"name":"센느 약국","tel":"031-376-4569","addr":"경기도 오산시 금암동 502-1번지 104호","category":"약국 - 약국"},{"name":"센느약국","tel":"031-376-4569","addr":"경기도 오산시 금암동 502-1번지 104호","category":"약국 - 약국"},{"name":"숨","tel":"","addr":"경기도 오산시 금암동 502-1번지 4층 405호","category":"보건위생 - 피부미용실"},{"name":"어가반상","tel":"031-377-9592","addr":"경기도 오산시 금암동 502-1번지 203호","category":"일반휴게음식 - 일반한식"},{"name":"엘렌랭어에듀학원/주식회사 이엘에듀","tel":"031-377-7748","addr":"경기도 오산시 금암동 502-1번지 5층 501호","category":"학원 - 외국어학원"},{"name":"위더스동물의료센터","tel":"031-373-2975","addr":"경기도 오산시 금암동 502-1번지 101, 201, 202호","category":"기타의료기관 - 동물병원"},{"name":"위더스펫","tel":"","addr":"경기도 오산시 금암동 502-1번지 102호","category":"문화.취미 - 애완동물"},{"name":"주앤차이","tel":"031-1111-1111","addr":"경기도 오산시 금암동 502-1번지 204,205호","category":"일반휴게음식 - 중국식"},{"name":"크린토피아 오산세교9단지점","tel":"031-377-7651","addr":"경기도 오산시 금암동 502-1번지 크린토피아 109호","category":"수리서비스 - 세탁소"}]},{"lat":"37.175138649","long":"127.05125581","items":[{"name":"79대포오산세교점","tel":"070-8882-2684","addr":"경기도 오산시 금암동 500-5번지 109,110호","category":"일반휴게음식 - 일반한식"},{"name":"모해","tel":"031-000-0000","addr":"경기도 오산시 금암동 500-5번지 101호102호","category":"일반휴게음식 - 일반한식"},{"name":"방가","tel":"031-376-0405","addr":"경기도 오산시 금암동 500-5번지 108,111호","category":"일반휴게음식 - 일반한식"},{"name":"사쿠(SAKU)","tel":"070-4234-1681","addr":"경기도 오산시 금암동 500-5번지 1층","category":"일반휴게음식 - 일식·회집"},{"name":"어사출또","tel":"031-373-9207","addr":"경기도 오산시 금암동 500-5번지 1층 105, 106호","category":"일반휴게음식 - 일반한식"},{"name":"일품양평해장국","tel":"","addr":"경기도 오산시 금암동 500-5번지 1층","category":"일반휴게음식 - 일반한식"},{"name":"짝태패밀리오산세교점","tel":"031-372-9953","addr":"경기도 오산시 금암동 500-5번지 1층","category":"일반휴게음식 - 주점"}]},{"lat":"37.176447539","long":"127.04502965","items":[{"name":"89네일샵","tel":"","addr":"경기도 오산시 금암동 516-3번지 백현프라자 201호","category":"보건위생 - 피부미용실"},{"name":"국수나무세교점","tel":"031-372-2731","addr":"경기도 오산시 금암동 516-3번지 백현프라자 1층 104호","category":"일반휴게음식 - 스넥"},{"name":"김밥천국세교점","tel":"031-372-3380","addr":"경기도 오산시 금암동 516-3번지 백현프라자 106호","category":"일반휴게음식 - 스넥"},{"name":"로피탈수학과학전문학원","tel":"031-376-2510","addr":"경기도 오산시 금암동 516-3번지 백현프라자 602호","category":"학원 - 보습학원"},{"name":"메가엠지씨커피오산세교점","tel":"","addr":"경기도 오산시 금암동 516-3번지 백현프라자 1층 105호","category":"일반휴게음식 - 서양음식"},{"name":"명륜당학원","tel":"031-377-8155","addr":"경기도 오산시 금암동 516-3번지 백현프라자 603호","category":"학원 - 보습학원"},{"name":"본죽앤비빔밥","tel":"031-376-6288","addr":"경기도 오산시 금암동 516-3번지 백현프라자 103호","category":"일반휴게음식 - 일반한식"},{"name":"샤인뷰티헤어","tel":"031-377-8641","addr":"경기도 오산시 금암동 516-3번지 백현프라자 221호","category":"보건위생 - 미용원"},{"name":"서울웰치과의원","tel":"031-378-7528","addr":"경기도 오산시 금암동 516-3번지 백현프라자 402호 401","category":"의원 - 치과의원"},{"name":"세교쭈꾸미","tel":"031-378-2324","addr":"경기도 오산시 금암동 516-3번지 백현프라자 204,205호","category":"일반휴게음식 - 일반한식"},{"name":"어라운드스터디룸 오산점","tel":"031-373-6295","addr":"경기도 오산시 금암동 516-3번지 백현프라자 202호","category":"용역 서비스 - 사무서비스"},{"name":"이화프란츠음악학원","tel":"031-373-0154","addr":"경기도 오산시 금암동 516-3번지 백현프라자 504호","category":"학원 - 예·체능계학원"},{"name":"자매곱창","tel":"031-375-0660","addr":"경기도 오산시 금암동 516-3번지 백현프라자 2층 204호","category":"일반휴게음식 - 일반한식"},{"name":"청기와감자탕","tel":"031-377-0331","addr":"경기도 오산시 금암동 516-3번지 백현프라자 203호","category":"일반휴게음식 - 일반한식"},{"name":"타임피부과","tel":"070-8223-2338","addr":"경기도 오산시 금암동 516-3번지 403,406호","category":"의원 - 의원"},{"name":"탑엔젤독서실","tel":"031-376-0721","addr":"경기도 오산시 금암동 516-3번지 백현프라자 404호,405호","category":"학원 - 독서실"},{"name":"햇님든미술학원","tel":"031-375-1251","addr":"경기도 오산시 금암동 516-3번지 백현프라자 601호","category":"학원 - 예·체능계학원"},{"name":"행복한Dream점핑클럽","tel":"031-374-5652","addr":"경기도 오산시 금암동 516-3번지 백현프라자 305호","category":"레저업소 - 헬스클럽"}]},{"lat":"37.170912642","long":"127.05153461","items":[{"name":"CLS어학원","tel":"031-8050-0099","addr":"경기도 오산시 금암동 542-13번지 2층","category":"회원제형태 - 학원"},{"name":"바다가내곁에","tel":"031-372-0717","addr":"경기도 오산시 금암동 542-13번지","category":"일반휴게음식 - 일반한식"}]},{"lat":"37.17635753","long":"127.04475935","items":[{"name":"ESD복싱짐","tel":"070-7769-1282","addr":"경기도 오산시 금암동 516-2번지 정원프라자 502,503호","category":"회원제형태 - 레져업소"},{"name":"MH선수학학원","tel":"031-377-6264","addr":"경기도 오산시 금암동 516-2번지 정원프라자 402호","category":"학원 - 보습학원"},{"name":"고쉬(GOSH)베이커리","tel":"070-8638-0974","addr":"경기도 오산시 금암동 516-2번지 정원프라자 105호","category":"음료식품 - 제과점"},{"name":"남가교동짬뽕","tel":"","addr":"경기도 오산시 금암동 516-2번지 정원프라자 1층 102호","category":"일반휴게음식 - 중국식"},{"name":"노벰버헤어","tel":"031-000-0000","addr":"경기도 오산시 금암동 516-2번지 정원프라자 204호","category":"보건위생 - 미용원"},{"name":"대박축산","tel":"031-377-7161","addr":"경기도 오산시 금암동 516-2번지 정원프라자 1층","category":"음료식품 - 정육점"},{"name":"사쿠사쿠금암점","tel":"031-372-9599","addr":"경기도 오산시 금암동 516-2번지 정원프라자 1층 108호","category":"일반휴게음식 - 스넥"},{"name":"새롬안과의원","tel":"031-373-6646","addr":"경기도 오산시 금암동 516-2번지 정원프라자 302호","category":"의원 - 의원"},{"name":"세교올림피아드학원","tel":"031-376-7070","addr":"경기도 오산시 금암동 516-2번지 정원프라자 301호","category":"학원 - 보습학원"},{"name":"세교참숯화로구이","tel":"031-378-4684","addr":"경기도 오산시 금암동 516-2번지 정원프라자 304호","category":"일반휴게음식 - 일반한식"},{"name":"세아발레2관학원","tel":"031-372-6506","addr":"경기도 오산시 금암동 516-2번지 정원프라자 404호 403","category":"학원 - 예·체능계학원"},{"name":"엘리시아","tel":"031-376-0889","addr":"경기도 오산시 금암동 516-2번지 정원프라자 303호","category":"보건위생 - 미용원"},{"name":"커피에반하다 오산세교점","tel":"031-377-3830","addr":"경기도 오산시 금암동 516-2번지 정원프라자 109호","category":"일반휴게음식 - 서양음식"},{"name":"퍼펙트영어수학학원","tel":"031-373-9710","addr":"경기도 오산시 금암동 516-2번지 정원프라자 401호","category":"학원 - 보습학원"},{"name":"포메인오산세교점","tel":"031-378-7742","addr":"경기도 오산시 금암동 516-2번지 정원프라자 201호","category":"일반휴게음식 - 서양음식"},{"name":"피엠푸드오산세교점","tel":"031-8003-0700","addr":"경기도 오산시 금암동 516-2번지 정원프라자 107호","category":"일반휴게음식 - 서양음식"},{"name":"허니닭강정","tel":"031-376-5676","addr":"경기도 오산시 금암동 516-2번지 정원프라자 106호","category":"일반휴게음식 - 스넥"}]},{"lat":"37.177083927","long":"127.05358798","items":[{"name":"GS25오산세교점","tel":"","addr":"경기도 오산시 금암동 493-1번지 1층","category":"유통업 영리 - 편 의 점"},{"name":"마미스푼","tel":"031-372-1826","addr":"경기도 오산시 금암동 493-1번지 1층","category":"일반휴게음식 - 일반한식"}]},{"lat":"37.174751192","long":"127.05127809","items":[{"name":"SJ영어학원","tel":"031-378-8205","addr":"경기도 오산시 금암동 503-2번지 503,504호","category":"학원 - 보습학원"},{"name":"금암독서실","tel":"","addr":"경기도 오산시 금암동 503-2번지 7층 701호","category":"학원 - 독서실"},{"name":"김민아요가스튜디오","tel":"070-7420-0846","addr":"경기도 오산시 금암동 503-2번지 G-PLACE세교 상가건물 3층,304호","category":"레저업소 - 헬스클럽"},{"name":"도브네일","tel":"02-1111-1111","addr":"경기도 오산시 금암동 503-2번지 2층 209호","category":"보건위생 - 피부미용실"},{"name":"디저트39 오산세교점","tel":"031-376-6439","addr":"경기도 오산시 금암동 503-2번지 1층 121호","category":"일반휴게음식 - 일반한식"},{"name":"매쓰캔수학","tel":"031-376-7842","addr":"경기도 오산시 금암동 503-2번지 G플레이스 403,404호","category":"학원 - 보습학원"},{"name":"반값소세교점","tel":"031-373-8188","addr":"경기도 오산시 금암동 503-2번지 지플레이스세교 204,205,206호","category":"일반휴게음식 - 일반한식"},{"name":"본도시락 오산세교점","tel":"031-374-4281","addr":"경기도 오산시 금암동 503-2번지 108호","category":"일반휴게음식 - 스넥"},{"name":"뻥튀기공작소오산점","tel":"","addr":"경기도 오산시 금암동 503-2번지 지플레이스세교 106호","category":"음료식품 - 기타음료식품"},{"name":"서울독서실","tel":"031-000-0000","addr":"경기도 오산시 금암동 503-2번지 602,603,604호","category":"학원 - 독서실"},{"name":"세교매쓰캔수학학원","tel":"031-376-7842","addr":"경기도 오산시 금암동 503-2번지 302호 3플레이스","category":"학원 - 보습학원"},{"name":"썸 노래연습장","tel":"","addr":"경기도 오산시 금암동 503-2번지 2층 207호, 208호","category":"레저업소 - 노 래 방"},{"name":"썸노래연습장","tel":"031-000-0000","addr":"경기도 오산시 금암동 503-2번지 2층207, 208호 207","category":"레저업소 - 노 래 방"},{"name":"쎈텀수학학원","tel":"031-376-4416","addr":"경기도 오산시 금암동 503-2번지 601호","category":"학원 - 보습학원"},{"name":"온심리상담센터","tel":"","addr":"경기도 오산시 금암동 503-2번지 301-2호","category":"보건위생 - 기타대인서비스"},{"name":"온차이나","tel":"","addr":"경기도 오산시 금암동 503-2번지 203호","category":"일반휴게음식 - 중국식"},{"name":"이보영의 토킹클럽 세교중앙캠퍼스학원","tel":"031-375-0515","addr":"경기도 오산시 금암동 503-2번지 401,402,403일부호 G플레이스세교","category":"학원 - 외국어학원"},{"name":"이삭토스트세교점","tel":"031-373-2102","addr":"경기도 오산시 금암동 503-2번지 1층 118호","category":"일반휴게음식 - 일반한식"},{"name":"카페비은","tel":"","addr":"경기도 오산시 금암동 503-2번지 지플레이스 1층 117호","category":"일반휴게음식 - 서양음식"},{"name":"킹콩쥬스엔청춘핫도그 (오산금암점)","tel":"031-111-1111","addr":"경기도 오산시 금암동 503-2번지 지플레이스세교상가 1층 119호","category":"일반휴게음식 - 서양음식"},{"name":"투썸플레이스 오산세교점","tel":"031-373-3100","addr":"경기도 오산시 금암동 503-2번지 G플레이스 103호 ,104,201,202호","category":"일반휴게음식 - 서양음식"},{"name":"홍춘천치즈닭갈비 오산세교점","tel":"031-378-9989","addr":"경기도 오산시 금암동 503-2번지 1층 120호","category":"일반휴게음식 - 일반한식"}]},{"lat":"37.17511191","long":"127.05053514","items":[{"name":"가장맛있는족발오산세교점","tel":"031-376-5849","addr":"경기도 오산시 금암동 501-1번지 상지빌딩 1층","category":"일반휴게음식 - 일반한식"},{"name":"라이노pc","tel":"","addr":"경기도 오산시 금암동 501-1번지 2층","category":"레저업소 - 기타레져업소"}]},{"lat":"37.17675042","long":"127.05386926","items":[{"name":"강릉궁짬뽕","tel":"031-376-6576","addr":"경기도 오산시 금암동 493-8번지","category":"일반휴게음식 - 중국식"}]},{"lat":"37.176723534","long":"127.05353143","items":[{"name":"개인과외","tel":"","addr":"경기도 오산시 금암동 494-3번지 201호","category":"학원 - 기타 교육기관"},{"name":"바오돈까스","tel":"031-374-1109","addr":"경기도 오산시 금암동 494-3번지 1층","category":"일반휴게음식 - 서양음식"}]},{"lat":"37.177191732","long":"127.05433124","items":[{"name":"경기기획","tel":"031-242-9322","addr":"경기도 오산시 금암동 492-4번지 가동 1층","category":"용역 서비스 - 종합용역"}]},{"lat":"37.176753602","long":"127.04584057","items":[{"name":"경희부부한의원","tel":"031-376-0990","addr":"경기도 오산시 금암동 516-6번지 웅신아트프라자 301호","category":"의원 - 한의원"},{"name":"라브리지세교점","tel":"031-377-0401","addr":"경기도 오산시 금암동 516-6번지 웅신아트프라자 203호","category":"보건위생 - 미용원"},{"name":"라오제대만대왕카스테라금암점","tel":"","addr":"경기도 오산시 금암동 516-6번지 웅신아트프라자 102호","category":"음료식품 - 제과점"},{"name":"리한에듀영어학원","tel":"031-374-1328","addr":"경기도 오산시 금암동 516-6번지 웅신아트프라자 603호","category":"학원 - 외국어학원"},{"name":"미소동물병원","tel":"031-374-2579","addr":"경기도 오산시 금암동 516-6번지 웅신아트프라자 104호 202호","category":"기타의료기관 - 동물병원"},{"name":"민트글라스 세교점","tel":"031-372-8294","addr":"경기도 오산시 금암동 516-6번지 웅신아트프라자 102호","category":"음료식품 - 기타음료식품"},{"name":"세교아주소아청소년과의원","tel":"031-374-7540","addr":"경기도 오산시 금암동 516-6번지 웅신아트프라자 4층 402,403호","category":"의원 - 의원"},{"name":"세교온누리약국","tel":"031-377-4862","addr":"경기도 오산시 금암동 516-6번지 웅신아트프라자 106,107호","category":"약국 - 약국"},{"name":"세교중앙내과","tel":"031-978-6543","addr":"경기도 오산시 금암동 516-6번지 웅신아트프라자 601호, 602호","category":"의원 - 의원"},{"name":"세교하늘치과","tel":"031-376-2879","addr":"경기도 오산시 금암동 516-6번지 웅신아트프라자 4층 401호","category":"의원 - 치과의원"},{"name":"신개념축산","tel":"070-4136-7487","addr":"경기도 오산시 금암동 516-6번지 웅신아트프라자 101호","category":"음료식품 - 정육점"},{"name":"씨유오산세교웅신점","tel":"031-377-2601","addr":"경기도 오산시 금암동 516-6번지 웅신아트프라자 108호","category":"유통업 영리 - 편 의 점"},{"name":"아주사랑마취통증의학과의원","tel":"031-372-1275","addr":"경기도 오산시 금암동 516-6번지 웅신아트프라자 201호","category":"의원 - 의원"},{"name":"연세프렌즈음악학원","tel":"031-372-7311","addr":"경기도 오산시 금암동 516-6번지 웅신아트프라자 303호","category":"학원 - 예·체능계학원"},{"name":"이니스프리 오산세교점","tel":"031-377-2778","addr":"경기도 오산시 금암동 516-6번지 웅신아트프라자 103호","category":"보건위생 - 화장품"},{"name":"제이엔제이(J&J)어학원","tel":"031-374-0039","addr":"경기도 오산시 금암동 516-6번지 웅신아트프라자 302호","category":"학원 - 외국어학원"}]},{"lat":"37.17727628","long":"127.04563818","items":[{"name":"고봉민김밥(오산세교점)","tel":"031-378-3070","addr":"경기도 오산시 금암동 512-4번지 1층 106호 롯데슈퍼","category":"일반휴게음식 - 일반한식"},{"name":"궁뎅이","tel":"031-376-4656","addr":"경기도 오산시 금암동 512-4번지 롯데슈퍼 112호","category":"의류 - 정장"},{"name":"더페이스샵 세교신도시점","tel":"031-372-6672","addr":"경기도 오산시 금암동 512-4번지 롯데슈퍼 104호","category":"보건위생 - 화장품"},{"name":"라온약국","tel":"031-377-3603","addr":"경기도 오산시 금암동 512-4번지 109호 롯데슈퍼","category":"약국 - 약국"},{"name":"맘(MOM)과일&채소","tel":"031-2246-5540","addr":"경기도 오산시 금암동 512-4번지 롯데슈퍼 1층 105호","category":"음료식품 - 농·축·수산품"},{"name":"태림소아청소년과의원","tel":"031-372-3675","addr":"경기도 오산시 금암동 512-4번지 세교택지개발지구P17블럭 롯데슈퍼 201호","category":"의원 - 의원"}]},{"lat":"37.175526403","long":"127.05050162","items":[{"name":"고집쎈빵","tel":"031-377-8097","addr":"경기도 오산시 금암동 500-2번지 1층 103호","category":"음료식품 - 제과점"},{"name":"벤아카데미/(주)엄품교육","tel":"031-377-1854","addr":"경기도 오산시 금암동 500-2번지 상지빌딩 2층","category":"학원 - 보습학원"},{"name":"보스턴오뎅","tel":"031-377-3017","addr":"경기도 오산시 금암동 500-2번지 1층 105호","category":"일반휴게음식 - 일반한식"},{"name":"씨엘에스학원스터디룸","tel":"031-375-0880","addr":"경기도 오산시 금암동 500-2번지 2층","category":"학원 - 보습학원"},{"name":"육회한녀석들본점","tel":"","addr":"경기도 오산시 금암동 500-2번지 상지빌딩 101호","category":"일반휴게음식 - 일반한식"},{"name":"코다리1번가","tel":"","addr":"경기도 오산시 금암동 500-2번지 106호","category":"일반휴게음식 - 일반한식"},{"name":"크린팩토리앤슈즈크린","tel":"031-378-7706","addr":"경기도 오산시 금암동 500-2번지 상지빌딩 102호","category":"수리서비스 - 세탁소"},{"name":"피아노의시인쇼팽음악학원","tel":"031-377-1854","addr":"경기도 오산시 금암동 500-2번지 201호","category":"학원 - 예·체능계학원"},{"name":"한양포차","tel":"031-376-8202","addr":"경기도 오산시 금암동 500-2번지 104호","category":"일반휴게음식 - 일반한식"},{"name":"화숯불꼬치","tel":"031-376-8202","addr":"경기도 오산시 금암동 500-2번지 104호","category":"일반휴게음식 - 일반한식"}]},{"lat":"37.17838514","long":"127.044006","items":[{"name":"금암초등학교","tel":"031-378-9415","addr":"경기도 오산시 금암동 510번지 금암초등학교","category":"학원 - 초중고교육기관"},{"name":"금암초등학교병설유치원[아이행복]","tel":"031-378-9416","addr":"경기도 오산시 금암동 510번지","category":"학원 - 유치원"}]},{"lat":"37.176858584","long":"127.05377925","items":[{"name":"까로치아 세교점","tel":"031-372-4804","addr":"경기도 오산시 금암동 493-9번지 1층","category":"일반휴게음식 - 서양음식"},{"name":"반헤어","tel":"031-372-6727","addr":"경기도 오산시 금암동 493-9번지 1층","category":"보건위생 - 미용원"}]},{"lat":"37.17721997","long":"127.05147109","items":[{"name":"꿈꾸는 고양이 미술","tel":"031-377-3223","addr":"경기도 오산시 금암동 498번지 죽미마을휴먼시아꿈에그린 상가동 103호","category":"학원 - 예·체능계학원"},{"name":"뮤직트리피아노교습소","tel":"031-375-7030","addr":"경기도 오산시 금암동 498번지 죽미마을휴먼시아꿈에그린 상가동 104호","category":"학원 - 예·체능계학원"}]},{"lat":"37.176885082","long":"127.05500666","items":[{"name":"꿈키교육","tel":"070-7721-8490","addr":"경기도 오산시 금암동 491-1번지 1층","category":"회원제형태 - 학원"},{"name":"이안커피(IAN coffee)","tel":"070-8869-2748","addr":"경기도 오산시 금암동 491-1번지","category":"일반휴게음식 - 서양음식"}]},{"lat":"37.181250816","long":"127.04294901","items":[{"name":"나이스가이세교점","tel":"031-376-2207","addr":"경기도 오산시 금암동 1 세교택지개발지구백현프라자 105","category":"보건위생 - 미용원"}]},{"lat":"37.177245657","long":"127.05464657","items":[{"name":"남쓰브레드","tel":"031-377-0453","addr":"경기도 오산시 금암동 490-1번지 1층 102호","category":"음료식품 - 제과점"},{"name":"예쁨","tel":"","addr":"경기도 오산시 금암동 490-1번지 101호","category":"보건위생 - 피부미용실"}]},{"lat":"37.175391337","long":"127.05027633","items":[{"name":"내일도 청춘갈매기","tel":"031-375-0813","addr":"경기도 오산시 금암동 500-1번지 1층 106~107호","category":"일반휴게음식 - 일반한식"},{"name":"번개막창","tel":"031-223-5214","addr":"경기도 오산시 금암동 500-1번지 102-2호","category":"일반휴게음식 - 일반한식"},{"name":"신미양꼬치","tel":"031-373-1578","addr":"경기도 오산시 금암동 500-1번지 108,109호","category":"일반휴게음식 - 중국식"},{"name":"알리마마","tel":"031-663-0447","addr":"경기도 오산시 금암동 500-1번지 105호","category":"유통업 영리 - 슈퍼마켓"},{"name":"하이루","tel":"031-222-0357","addr":"경기도 오산시 금암동 500-1번지 웅신프라자 101호","category":"일반휴게음식 - 일식·회집"},{"name":"행복한 정육점","tel":"","addr":"경기도 오산시 금암동 500-1번지 102-1호","category":"음료식품 - 정육점"}]},{"lat":"37.175219971","long":"127.05069286","items":[{"name":"냉동삼겹살","tel":"031-0000-0000","addr":"경기도 오산시 금암동 501-2번지 1층 101호","category":"일반휴게음식 - 일반한식"},{"name":"담아담아세교점","tel":"031-374-2577","addr":"경기도 오산시 금암동 501-2번지 104, 105호","category":"음료식품 - 기타음료식품"},{"name":"락노래연습장","tel":"031-000-0000","addr":"경기도 오산시 금암동 501-2번지","category":"레저업소 - 노 래 방"},{"name":"죽이야기 세교점","tel":"031-372-6281","addr":"경기도 오산시 금암동 501-2번지 106호","category":"일반휴게음식 - 일반한식"},{"name":"철뚝집 오산세교점","tel":"031-375-1312","addr":"경기도 오산시 금암동 501-2번지 102,103호","category":"일반휴게음식 - 일반한식"}]},{"lat":"37.174859532","long":"127.05074893","items":[{"name":"노가리앤비어 세교점","tel":"","addr":"경기도 오산시 금암동 501-4번지 1층","category":"일반휴게음식 - 일반한식"},{"name":"띵똥와플오산세교점","tel":"031-378-7557","addr":"경기도 오산시 금암동 501-4번지 1층","category":"일반휴게음식 - 서양음식"},{"name":"수원신닭발세교점","tel":"031-375-0020","addr":"경기도 오산시 금암동 501-4번지","category":"일반휴게음식 - 일반한식"},{"name":"청명 태권도","tel":"031-372-9017","addr":"경기도 오산시 금암동 501-4번지 오렌지빌딩 201호","category":"학원 - 예·체능계학원"},{"name":"태영생막창금암점","tel":"031-376-1922","addr":"경기도 오산시 금암동 501-4번지 1층","category":"일반휴게음식 - 일반한식"},{"name":"피자공방","tel":"031-377-4627","addr":"경기도 오산시 금암동 501-4번지 202호","category":"일반휴게음식 - 서양음식"}]},{"lat":"37.177191208","long":"127.05552485","items":[{"name":"늘푸른농원&정원가는길","tel":"031-375-4704","addr":"경기도 오산시 금암동 491-5번지","category":"문화.취미 - 화원"},{"name":"뽀글뽀글태산부대찌개오산세교점","tel":"031-374-9559","addr":"경기도 오산시 금암동 491-5번지","category":"일반휴게음식 - 일반한식"}]},{"lat":"37.179833597","long":"127.04997506","items":[{"name":"단발머리","tel":"031-8043-8133","addr":"경기도 오산시 금암동 485번지 금암동죽미마을 상가동 203호","category":"보건위생 - 미용원"},{"name":"시립죽미어린이집[아이행복]","tel":"031-377-5656","addr":"경기도 오산시 금암동 485번지 죽미마을휴먼시아10단지 관리동","category":"학원 - 유아원"},{"name":"크린토피아오산세교10단지","tel":"031-377-5670","addr":"경기도 오산시 금암동 485번지 상가동 1층 103호","category":"수리서비스 - 세탁소"},{"name":"휴먼세탁소","tel":"031-374-5282","addr":"경기도 오산시 금암동 485번지 죽미마을휴먼시아 상가동 103호","category":"수리서비스 - 세탁소"}]},{"lat":"37.177056789","long":"127.05383569","items":[{"name":"달보드레공방","tel":"031-372-2753","addr":"경기도 오산시 금암동 493-3번지 103호","category":"문화.취미 - 문화취미기타"}]},{"lat":"37.174967589","long":"127.0509179","items":[{"name":"더맛구이구이쪽갈비","tel":"031-372-0192","addr":"경기도 오산시 금암동 501-3번지 103,104","category":"일반휴게음식 - 일반한식"},{"name":"미쉘노래연습장","tel":"031-377-7933","addr":"경기도 오산시 금암동 501-3번지","category":"레저업소 - 노 래 방"},{"name":"아이센스PC방","tel":"070-8778-7591","addr":"경기도 오산시 금암동 501-3번지 두석빌딩 201호","category":"레저업소 - 기타레져업소"},{"name":"이번지깡통집","tel":"031-9427-3281","addr":"경기도 오산시 금암동 501-3번지 1층 101,102호","category":"일반휴게음식 - 일반한식"},{"name":"천하명당","tel":"001-0000-0000","addr":"경기도 오산시 금암동 501-3번지 1층 106호","category":"기타 - 기타 전문점"},{"name":"커피위드(COFEEWITH)","tel":"031-377-7511","addr":"경기도 오산시 금암동 501-3번지 1층","category":"일반휴게음식 - 서양음식"}]},{"lat":"37.177110456","long":"127.05474782","items":[{"name":"도담도담 이발소","tel":"","addr":"경기도 오산시 금암동 490-9번지 102호","category":"문화.취미 - 애완동물"},{"name":"리추얼케이크(Ritualcake)","tel":"031-000-0000","addr":"경기도 오산시 금암동 490-9번지 1층","category":"음료식품 - 제과점"},{"name":"세교마지삐에로도자기공예교습소","tel":"031-377-1385","addr":"경기도 오산시 금암동 490-9번지 1층","category":"문화.취미 - 문화취미기타"},{"name":"에그민트","tel":"031-611-0441","addr":"경기도 오산시 금암동 490-9번지 상가2호","category":"의류 - 아동의류"},{"name":"오색건강원","tel":"031-372-5585","addr":"경기도 오산시 금암동 490-9번지 1층","category":"건강식품 - 기타건강식품"},{"name":"행복카롱","tel":"031-252-3474","addr":"경기도 오산시 금암동 490-9번지 101호","category":"음료식품 - 제과점"}]},{"lat":"37.176528532","long":"127.0453112","items":[{"name":"도쿄빙수오산세교점","tel":"031-375-6662","addr":"경기도 오산시 금암동 516-4번지 P&P세교프라자 205호","category":"일반휴게음식 - 서양음식"},{"name":"뮤엠영어오산세교학원","tel":"031-376-3405","addr":"경기도 오산시 금암동 516-4번지 P&P세교프라자 4층 403호","category":"학원 - 외국어학원"},{"name":"본초한의원","tel":"031-373-3375","addr":"경기도 오산시 금암동 516-4번지 P&P세교프라자 3층 306호","category":"의원 - 한의원"},{"name":"뷰티살롱마론","tel":"031-373-1233","addr":"경기도 오산시 금암동 516-4번지 P&P세교프라자 3층 305호","category":"보건위생 - 미용원"},{"name":"사라헤어","tel":"031-372-8499","addr":"경기도 오산시 금암동 516-4번지 P&P세교프라자 2층 202호","category":"보건위생 - 미용원"},{"name":"세교비엔나음악학원","tel":"031-373-0420","addr":"경기도 오산시 금암동 516-4번지 P&P세교프라자 402호","category":"학원 - 예·체능계학원"},{"name":"씨제이올리브네트웍스(주)오산세교점","tel":"031-375-5229","addr":"경기도 오산시 금암동 516-4번지 세교택지개발지구","category":"유통업 영리 - 편 의 점"},{"name":"주식회사 피앤피모터스","tel":"031-224-2002","addr":"경기도 오산시 금암동 516-4번지 P&P세교프라자 405호","category":"자동차정비 유지 - 자동차부품"},{"name":"쥬씨 세교점","tel":"031-374-5211","addr":"경기도 오산시 금암동 516-4번지 P&P세교프라자 1층 105호","category":"일반휴게음식 - 서양음식"},{"name":"카페플라타너스오산세교점","tel":"031-375-1017","addr":"경기도 오산시 금암동 516-4번지 P&P세교프라자 1층 101호","category":"일반휴게음식 - 서양음식"},{"name":"한국파워점핑줄넘기&경희대태권도","tel":"031-376-2530","addr":"경기도 오산시 금암동 516-4번지 P&P세교프라자 406호","category":"학원 - 예·체능계학원"}]},{"lat":"37.176330598","long":"127.04447783","items":[{"name":"동싼집","tel":"031-323-6016","addr":"경기도 오산시 금암동 516-1번지 센타프라자 107호","category":"의류 - 정장"},{"name":"비상잉글리시아이오산세교학원","tel":"031-377-2569","addr":"경기도 오산시 금암동 516-1번지 센터프라자 504호 일부","category":"학원 - 외국어학원"},{"name":"세교에스디에이치학원","tel":"031-372-5350","addr":"경기도 오산시 금암동 516-1번지 센타프라자 502호","category":"학원 - 보습학원"},{"name":"세교점쿡1015","tel":"031-374-1015","addr":"경기도 오산시 금암동 516-1번지 센타프라자 106호","category":"일반휴게음식 - 일반한식"},{"name":"세교중앙음악학원","tel":"031-378-2245","addr":"경기도 오산시 금암동 516-1번지 센타프라자 501호 센터프라자","category":"학원 - 예·체능계학원"},{"name":"세교한의원","tel":"031-373-5559","addr":"경기도 오산시 금암동 세교택지개발지구3-1센터프라자304호","category":"의원 - 한의원"},{"name":"아이마루스튜디오","tel":"031-377-7002","addr":"경기도 오산시 금암동 516-1번지 센타프라자 401호","category":"광학제품 - 사진관"},{"name":"엄마영어아빠수학학원","tel":"","addr":"경기도 오산시 금암동 516-1번지 센타프라자 505호","category":"학원 - 보습학원"},{"name":"에이드","tel":"070-4222-0828","addr":"경기도 오산시 금암동 516-1번지 센타프라자 109호","category":"의류 - 정장"},{"name":"용인대부부해오름태권도","tel":"031-378-4111","addr":"경기도 오산시 금암동 516-1번지 센타프라자 6층 601.602호","category":"학원 - 예·체능계학원"},{"name":"장독대세교점","tel":"031-377-5287","addr":"경기도 오산시 금암동 516-1번지 센타프라자 104호","category":"음료식품 - 기타음료식품"},{"name":"춤추는 왕만두 세교점","tel":"031-372-2219","addr":"경기도 오산시 금암동 516-1번지 센터프라자 1층 102호","category":"일반휴게음식 - 스넥"},{"name":"피크바이짐 세교점","tel":"031-375-2003","addr":"경기도 오산시 금암동 516-1번지 센타프라자 301호","category":"레저업소 - 헬스클럽"},{"name":"피크바이짐 세교점","tel":"031-375-2003","addr":"경기도 오산시 금암동 516-1번지 센타프라자 3층 301,303호","category":"레저업소 - 헬스클럽"}]},{"lat":"37.177110174","long":"127.05538967","items":[{"name":"띠앗머리","tel":"031-8077-9828","addr":"경기도 오산시 금암동 491-4번지 안나빌 101호","category":"보건위생 - 미용원"},{"name":"카페투엘브","tel":"070-0000-0000","addr":"경기도 오산시 금암동 491-4번지 1층 102호","category":"일반휴게음식 - 서양음식"}]},{"lat":"37.176939866","long":"127.05334015","items":[{"name":"마리모리","tel":"031-377-4404","addr":"경기도 오산시 금암동 494-1번지","category":"서적문구 - 문구용품"},{"name":"수다통신","tel":"031-375-9975","addr":"경기도 오산시 금암동 494-1번지 1층 103호","category":"사무통신 - 통신기기"},{"name":"스테이크 박스","tel":"031-8058-3799","addr":"경기도 오산시 금암동 494-1번지 1층","category":"일반휴게음식 - 스넥"}]},{"lat":"37.173096186","long":"127.04351896","items":[{"name":"맘앤대드(홈스쿨링)","tel":"031-667-7362","addr":"경기도 오산시 금암동 515번지 금암마을휴먼시아데시앙6단지 609동 902호","category":"회원제형태 - 학원"}]},{"lat":"37.176858321","long":"127.05438732","items":[{"name":"명태본가","tel":"031-000-0000","addr":"경기도 오산시 금암동 492-7번지 1층","category":"일반휴게음식 - 일반한식"}]},{"lat":"37.177139897","long":"127.04891491","items":[{"name":"명품세탁","tel":"031-378-7178","addr":"경기도 오산시 금암동 496 죽미마을휴먼시아휴튼 상가-204","category":"수리서비스 - 세탁소"},{"name":"헤어코코","tel":"031-376-2715","addr":"경기도 오산시 금암동 496번지 죽미마을휴먼시아휴튼아파트 2층 205호","category":"보건위생 - 미용원"}]},{"lat":"37.177083558","long":"127.05444377","items":[{"name":"몽땅떡볶이","tel":"031-000-0000","addr":"경기도 오산시 금암동 492-5번지 1층","category":"음료식품 - 기타음료식품"},{"name":"발렌타인플라워","tel":"031-0000-0000","addr":"경기도 오산시 금암동 492-5번지 1층","category":"문화.취미 - 화원"},{"name":"홍&박 실내건축디자인","tel":"031-374-7325","addr":"경기도 오산시 금암동 492-5번지 1층 103호","category":"건축자재 - 인테리어전문"}]},{"lat":"37.17444633","long":"127.04747198","items":[{"name":"문시중학교","tel":"031-378-6450","addr":"경기도 오산시 금암동 519번지 문시중학교","category":"학원 - 초중고교육기관"}]},{"lat":"37.17414057","long":"127.04586161","items":[{"name":"문시초등학교","tel":"031-378-2852","addr":"경기도 오산시 금암동 518번지 문시초등학교","category":"학원 - 초중고교육기관"},{"name":"문시초등학교병설유치원[아이행복]","tel":"031-378-2851","addr":"경기도 오산시 금암동 518번지 문시초등학교 (금암동)","category":"학원 - 유치원"}]},{"lat":"37.176850589","long":"127.05135825","items":[{"name":"미소가득어린이집[아이행복]","tel":"031-378-2495","addr":"경기도 오산시 금암동 498번지 죽미마을휴먼시아꿈에그린 1103동 104호","category":"학원 - 유아원"}]},{"lat":"37.176939605","long":"127.05394821","items":[{"name":"미소닭발","tel":"031-376-9929","addr":"경기도 오산시 금암동 493-4번지 1층","category":"일반휴게음식 - 일반한식"},{"name":"정성푸드","tel":"031-372-2532","addr":"경기도 오산시 금암동 493-4번지 1층","category":"일반휴게음식 - 일반한식"}]},{"lat":"37.170912748","long":"127.05127564","items":[{"name":"바지라기","tel":"031-613-6250","addr":"경기도 오산시 금암동 542-12번지","category":"일반휴게음식 - 일반한식"},{"name":"조마루감자탕세교점","tel":"031-373-8558","addr":"경기도 오산시 금암동 542-12번지 2층","category":"일반휴게음식 - 일반한식"}]},{"lat":"37.176498191","long":"127.05372271","items":[{"name":"백청우칼국수오산점","tel":"031-226-4025","addr":"경기도 오산시 금암동 494-5번지 1층","category":"일반휴게음식 - 일반한식"}]},{"lat":"37.178969862","long":"127.04667512","items":[{"name":"세교경희대태권도","tel":"031-373-0808","addr":"경기도 오산시 금암동 483번지 2층 203호,204호","category":"학원 - 예·체능계학원"}]},{"lat":"37.177723729","long":"127.05344202","items":[{"name":"세교고등학교","tel":"031-8077-8200","addr":"경기도 오산시 금암동 487번지 세교고등학교","category":"학원 - 초중고교육기관"},{"name":"세교고등학교_수업료","tel":"031-8077-8200","addr":"경기도 오산시 금암동 487번지 세교고등학교","category":"학원 - 초중고교육기관"}]},{"lat":"37.176831446","long":"127.05402696","items":[{"name":"세교닭갈비","tel":"031-373-1898","addr":"경기도 오산시 금암동 493-5번지","category":"일반휴게음식 - 일반한식"},{"name":"퍼펙트스팀세차","tel":"031-000-0000","addr":"경기도 오산시 금암동 493-5번지 샤인빌 201호","category":"자동차정비 유지 - 세차장"}]},{"lat":"37.177212326","long":"127.04801411","items":[{"name":"세교물향기어린이집[아이행복]","tel":"031-8043-9144","addr":"경기도 오산시 금암동 496번지 죽미마을휴먼시아휴튼9단지아파트 910동 101호","category":"학원 - 유아원"}]},{"lat":"37.177051484","long":"127.04433183","items":[{"name":"세교유치원[아이행복]","tel":"031-378-0293","addr":"경기도 오산시 금암동 512-2","category":"학원 - 유치원"}]},{"lat":"37.175609147","long":"127.04620025","items":[{"name":"세마세탁소","tel":"031-377-5557","addr":"경기도 오산시 금암동 517번지 1층 103호","category":"수리서비스 - 세탁소"}]},{"lat":"37.17758288","long":"127.04495146","items":[{"name":"손맛찬","tel":"031-290-8557","addr":"경기도 오산시 금암동 512번지 1층","category":"음료식품 - 기타음료식품"},{"name":"시립오산 세교복지타운어린이집[아이행복]","tel":"031-376-3376","addr":"경기도 오산시 금암동 512번지","category":"학원 - 유아원"},{"name":"오산세교종합사회복지관","tel":"031-290-8509","addr":"경기도 오산시 금암동 512번지 4층","category":"문화.취미 - 문화취미기타"},{"name":"오산장애인종합복지관","tel":"031-290-8560","addr":"경기도 오산시 금암동 512번지 오산세교종합복지관","category":"보건위생 - 기타대인서비스"},{"name":"카페휴(  )","tel":"031-290-8530","addr":"경기도 오산시 금암동 512번지 1층","category":"일반휴게음식 - 서양음식"}]},{"lat":"37.177645044","long":"127.04744008","items":[{"name":"스카이모터스세차","tel":"","addr":"경기도 오산시 금암동 496번지 죽미마을휴먼시아휴튼9단지아파트 909동 903호","category":"자동차정비 유지 - 세차장"}]},{"lat":"37.173112608","long":"127.04794411","items":[{"name":"시립오산숲어린이집[아이행복]","tel":"031-378-1671","addr":"경기도 오산시 금암동 520번지","category":"학원 - 유아원"}]},{"lat":"37.176030268","long":"127.05225855","items":[{"name":"씨유오산세교점","tel":"02-1577-8007","addr":"경기도 오산시 금암동 499번지 죽미마을휴먼시아12단지아파트 상가동 101호","category":"유통업 영리 - 편 의 점"}]},{"lat":"37.177915199","long":"127.04785688","items":[{"name":"아이꿈어린이집[아이행복]","tel":"031-378-7975","addr":"경기도 오산시 금암동 496번지 죽미마을휴튼휴먼시아9단지아파트 908동 103호","category":"학원 - 유아원"}]},{"lat":"37.175952952","long":"127.04215799","items":[{"name":"영기초","tel":"070-7762-9060","addr":"경기도 오산시 금암동 48-2 금암마을휴먼시아A 401-1204","category":"회원제형태 - 기타4"}]},{"lat":"37.175026248","long":"127.0377773","items":[{"name":"오앤미","tel":"031-222-4147","addr":"경기도 오산시 금암동 산42-1번지 오산휴게소","category":"유통업 영리 - 기타유통업"}]},{"lat":"37.177860826","long":"127.04866761","items":[{"name":"오월목","tel":"","addr":"경기도 오산시 금암동 496번지 죽미마을휴먼시아휴튼9단지아파트 907동 1901호","category":"가구 - 일반가구"}]},{"lat":"37.176831707","long":"127.0534189","items":[{"name":"올가드림뷰티","tel":"","addr":"경기도 오산시 금암동 494-2번지 세교빌딩 1층 103호","category":"보건위생 - 화장품"},{"name":"응급실국물떡볶이세교점","tel":"031-372-7419","addr":"경기도 오산시 금암동 494-2번지 1층 101호","category":"일반휴게음식 - 일반한식"},{"name":"정인살롱","tel":"031-373-5550","addr":"경기도 오산시 금암동 494-2번지 1층","category":"보건위생 - 미용원"}]},{"lat":"37.175276856","long":"127.04309224","items":[{"name":"와우경희대태권도","tel":"031-377-9688","addr":"경기도 오산시 금암동 513번지 상가동 2층 205,206호","category":"학원 - 예·체능계학원"}]},{"lat":"37.171365193","long":"127.04631043","items":[{"name":"우리동네반찬","tel":"031-375-6446","addr":"경기도 오산시 금암동 522번지 금암마을휴먼시아 102호","category":"음료식품 - 기타음료식품"},{"name":"협동조합 오산예절원","tel":"031-377-9545","addr":"경기도 오산시 금암동 522번지 금암마을휴먼시아7단지아파트","category":"학원 - 기타 교육기관"}]},{"lat":"37.177164963","long":"127.05372316","items":[{"name":"원조마포숯불갈비","tel":"031-373-6668","addr":"경기도 오산시 금암동 493-2번지 1층","category":"일반휴게음식 - 일반한식"}]},{"lat":"37.176606365","long":"127.05361018","items":[{"name":"육전국밥","tel":"031-372-3739","addr":"경기도 오산시 금암동 494-4번지 1층","category":"일반휴게음식 - 일반한식"}]},{"lat":"37.176975768","long":"127.05366673","items":[{"name":"이디야오산세교점","tel":"031-373-1477","addr":"경기도 오산시 금암동 493-10번지 1층","category":"일반휴게음식 - 서양음식"}]},{"lat":"37.176975393","long":"127.05453378","items":[{"name":"이쁜 똥강아지","tel":"","addr":"경기도 오산시 금암동 492-6번지 1층","category":"문화.취미 - 애완동물"},{"name":"투마리치킨세교점","tel":"031-376-1989","addr":"경기도 오산시 금암동 492-6번지 1층","category":"일반휴게음식 - 스넥"}]},{"lat":"37.17735853","long":"127.04230511","items":[{"name":"주공할인마트","tel":"031-372-0005","addr":"경기도 오산시 금암동 509 금암마을휴먼시아제상가동제2층201호","category":"유통업 영리 - 슈퍼마켓"}]},{"lat":"37.177191839","long":"127.05408351","items":[{"name":"진스시","tel":"031-372-4979","addr":"경기도 오산시 금암동 492-10번지 1층 101호","category":"일반휴게음식 - 일식·회집"}]},{"lat":"37.170138722","long":"127.04909081","items":[{"name":"징기스카","tel":"","addr":"경기도 오산시 금암동 540-7번지 2층 202호","category":"자동차정비 유지 - 세차장"}]},{"lat":"37.177308901","long":"127.0542525","items":[{"name":"펜더맨커피랩 (fenderman coffee LAB)","tel":"","addr":"경기도 오산시 금암동 492-3번지 101호","category":"음료식품 - 기타음료식품"}]},{"lat":"37.177308527","long":"127.0551083","items":[{"name":"푸드콜덮밥플러스","tel":"031-373-0106","addr":"경기도 오산시 금암동 490-6번지 1층","category":"일반휴게음식 - 일반한식"}]},{"lat":"37.178499002","long":"127.05255294","items":[{"name":"필봉초등학교","tel":"070-4720-5910","addr":"경기도 오산시 금암동 486번지 필봉초등학교","category":"학원 - 초중고교육기관"},{"name":"필봉초등학교병설유치원[아이행복]","tel":"031-372-5716","addr":"경기도 오산시 금암동 486번지","category":"학원 - 유치원"}]},{"lat":"37.176578935","long":"127.05453351","items":[{"name":"행복으로가는로스터리카페","tel":"031-111-1111","addr":"경기도 오산시 금암동 495-2번지","category":"일반휴게음식 - 서양음식"}]}]