[{"lat":"37.427686932","long":"126.99200206","items":[{"name":"(주) 과천사랑","tel":"02-503-4237","addr":"경기도 과천시 별양동 1-15번지 지하1층","category":"용역 서비스 - 종합용역"},{"name":"(주) 티어바웃","tel":"02-3418-0323","addr":"경기도 과천시 별양동 1-15번지 에스트로쇼핑 323호","category":"사무통신 - 컴퓨터"},{"name":"(주)쏘웰","tel":"032-467-0045","addr":"경기도 과천시 별양동 1-15번지 그레이스호텔 321호","category":"용역 서비스 - 사무서비스"},{"name":"(주)율목서적","tel":"02-502-8484","addr":"경기도 과천시 별양동 1-15번지","category":"서적문구 - 일반서적"},{"name":"(주)인마인드","tel":"","addr":"경기도 과천시 별양동 1-15번지 그레이스호텔 지하1층 16호","category":"보건위생 - 화장품"},{"name":"Y.S유학,어학연수","tel":"02-507-9600","addr":"경기도 과천시 별양동 1-15번지 그레이스호텔 205호","category":"회원제형태 - 기타3"},{"name":"경민상사","tel":"02-503-2212","addr":"경기도 과천시 별양동 1-15번지 그레이스호텔 3층 326호","category":"회원제형태 - 서적"},{"name":"과천라이온스클럽","tel":"02-502-2340","addr":"경기도 과천시 별양동 1-15번지 그레이스호텔 313호","category":"기타 - 비영리/비대상"},{"name":"과천로터리클럽","tel":"","addr":"경기도 과천시 별양동 1-15번지 그레이스빌딩 508호","category":"기타 - 비영리/비대상"},{"name":"과천바둑교실","tel":"","addr":"경기도 과천시 별양동 1-11번지 벽산상가 303호","category":"서비스 - 바둑교실"},{"name":"과천별양열쇠(가로판매대)","tel":"02-504-2742","addr":"경기도 과천시 별양동 1-1번지","category":"소매업 - 일용잡화"},{"name":"과천지식정보타운컨설팅","tel":"02-504-1117","addr":"경기도 과천시 별양동 1-15번지 그레이스 426호 상가","category":"용역 서비스 - 사무서비스"},{"name":"관산서당국어교습소","tel":"02-507-2030","addr":"경기도 과천시 별양동 1-15번지 그레이스호텔 3층 342호","category":"학원 - 보습학원"},{"name":"관악스포츠","tel":"02-503-6065","addr":"경기도 과천시 별양동 1-15번지 호프호텔 1층 118호","category":"레져용품 - 스포츠·레져용품"},{"name":"국사인","tel":"02-3678-8810","addr":"경기도 과천시 별양동 1-15번지 그레이스호텔 302호","category":"용역 서비스 - 종합용역"},{"name":"국초밥기꾸","tel":"02-502-1718","addr":"경기도 과천시 별양동 1-15번지 그레이스호텔 510호","category":"일반휴게음식 - 일식·회집"},{"name":"굿모닝마취통증의학과의원","tel":"02-504-8275","addr":"경기도 과천시 별양동 1-15번지 그레이스호텔 605호","category":"의원 - 의원"},{"name":"귀석장","tel":"02-502-4584","addr":"경기도 과천시 별양동 1-15번지","category":"신변잡화 - 시계"},{"name":"그레이스일등급영어교습소","tel":"02-501-1180","addr":"경기도 과천시 별양동 1-15번지 그레이스호텔 209호","category":"학원 - 보습학원"},{"name":"그린치과의원","tel":"02-503-2275","addr":"경기도 과천시 별양동 1-15번지 217.218호","category":"의원 - 치과의원"},{"name":"꽃소년","tel":"","addr":"경기도 과천시 별양동 1-18번지 새서울프라자 1층 38호","category":"도소매 - 정원수"},{"name":"낙지마당","tel":"02-3679-4092","addr":"경기도 과천시 별양동 1-15번지 그레이스호텔지하 1층 5-9, 11-15, 18-19호","category":"일반휴게음식 - 일반한식"},{"name":"남대문안경","tel":"02-504-4321","addr":"경기도 과천시 별양동 7-1번지","category":"소매업 - 안경"},{"name":"농산물전문점","tel":"02-503-7790","addr":"경기도 과천시 별양동 1-5번지 신라 상가 101호","category":"소매업 - 농산물"},{"name":"능경미용실","tel":"02-504-0761","addr":"경기도 과천시 별양동 1-15번지 그레이스호텔 505호","category":"보건위생 - 미용원"},{"name":"다온공예","tel":"","addr":"경기도 과천시 별양동 1-18번지 새서울프라자 3층 61호","category":"소매업 - 천연화장품, 캔들"},{"name":"라떼킹","tel":"02-502-8267","addr":"경기도 과천시 별양동 1-15번지 (113~116호)","category":"일반휴게음식 - 서양음식"},{"name":"로젠안경","tel":"02-503-2121","addr":"경기도 과천시 별양동 1-18번지 새서울프라자","category":"소매업 - 안경"},{"name":"마리웨일","tel":"02-504-1773","addr":"경기도 과천시 별양동 7-1번지 1층 104호","category":"음식점업 - 디저트카페"},{"name":"마이로드","tel":"","addr":"경기도 과천시 별양동 1-15번지 그레이스호텔 3층 323호","category":"용역 서비스 - 사무서비스"},{"name":"만생상사","tel":"02-504-2750","addr":"경기도 과천시 별양동 1-15번지 에스트로쇼핑 404호","category":"신변잡화 - 액세서리"},{"name":"명지기획","tel":"02-507-2289","addr":"경기도 과천시 별양동 1-15번지 서울호프빌딩","category":"기타 - 기타 전문점"},{"name":"무교동낙지","tel":"02-507-1133","addr":"경기도 과천시 별양동 1-18번지 새서울쇼핑 5층","category":"음식점업 - 한식"},{"name":"문화앨범&원스튜디오","tel":"02-502-0300","addr":"경기도 과천시 별양동 1-15번지 그레이스호텔빌딩 217동 218호","category":"광학제품 - 사진관"},{"name":"미용실오에프티(O.F.T)","tel":"02-502-3263","addr":"경기도 과천시 별양동 1-15번지 그레이스호텔 2동 230호","category":"보건위생 - 미용원"},{"name":"베델척추교정","tel":"070-7579-4577","addr":"경기도 과천시 별양동 1-15번지 그레이스호텔 205호","category":"보건위생 - 기타대인서비스"},{"name":"베베신발","tel":"02-502-9325","addr":"경기도 과천시 별양동 1-15번지 그레이스호텔 1층 119호","category":"신변잡화 - 신발"},{"name":"블루이쉬브루커피","tel":"070-4230-1516","addr":"경기도 과천시 별양동 1-15번지 그레이스호텔 1층 107호","category":"일반휴게음식 - 서양음식"},{"name":"삼성씨엔이","tel":"02-504-2220","addr":"경기도 과천시 별양동 1-15번지 호프호텔 1층","category":"전기제품 - 가전제품"},{"name":"소민테라피","tel":"070-7594-9711","addr":"경기도 과천시 별양동 1-15번지 그레이스호텔 401호","category":"보건위생 - 화장품"},{"name":"신영치과의원","tel":"02-503-247","addr":"경기도 과천시 별양동 1-4번지 상아빌딩 203호","category":"보건업 - 치과"},{"name":"신진기획","tel":"02-503-6688","addr":"경기도 과천시 별양동 1-15번지 그레이스빌딩 505호","category":"서적문구 - 출판 및 인쇄물"},{"name":"엠데이타(MDATA)","tel":"00-1588-0966","addr":"경기도 과천시 별양동 1-15번지 327","category":"사무통신 - 통신기기"},{"name":"예일화원","tel":"02-502-9028","addr":"경기도 과천시 별양동 1-15번지","category":"문화.취미 - 화원"},{"name":"오시나래","tel":"02-507-3337","addr":"경기도 과천시 별양동 1-18번지 새서울프라자 2층 31호","category":"소매업 - 의류"},{"name":"유진컴퓨터","tel":"02-504-1414","addr":"경기도 과천시 별양동 1-18번지 새서울프라자1층6호","category":"서비스 - 컴퓨터AS"},{"name":"유천칡냉면","tel":"02-503-3955","addr":"경기도 과천시 별양동 1-15번지 에스트로쇼핑222,224,225,227,229,235,238호","category":"일반휴게음식 - 일반한식"},{"name":"이강기획","tel":"02-111-1111","addr":"경기도 과천시 별양동 1-15번지 그레이스호텔 지층 16호","category":"유통업 영리 - 기타유통업"},{"name":"이디야커피과천중앙점","tel":"02-504-1006","addr":"경기도 과천시 별양동 1-15번지 109호 112호","category":"일반휴게음식 - 서양음식"},{"name":"이정희 새건강 테라피","tel":"","addr":"경기도 과천시 별양동 1-13번지 제일쇼핑 217호","category":"서비스 - 피부미용"},{"name":"인사이드가구","tel":"02-507-4663~4","addr":"경기도 과천시 별양동 1-18번지 새서울프라자 3층 29,30호","category":"도소매 - 가구및생활용품"},{"name":"주식회사발해","tel":"02-507-3434","addr":"경기도 과천시 별양동 1-15번지 그레이스호텔 상가 2층 213호","category":"여행 - 관광여행"},{"name":"주연","tel":"02-571-8591","addr":"경기도 과천시 별양동 1-15번지 그레이스호텔 4층 414호","category":"보건위생 - 화장품"},{"name":"지오엔터프라이즈(GlobalOutlookFnterprise","tel":"070-8823-3470","addr":"경기도 과천시 별양동 1-15번지 그레이스호텔 204호","category":"회원제형태 - 학원"},{"name":"진스넥","tel":"02-504-5263","addr":"경기도 과천시 별양동 1-15번지 에스트로쇼핑 B동 2호","category":"일반휴게음식 - 일반한식"},{"name":"진아일랜드푸드앵글치킨","tel":"02-507-5715","addr":"경기도 과천시 별양동 1-15번지 그레이스호텔 지1층 27호 ,30,31,32,40,41,42호","category":"일반휴게음식 - 일반한식"},{"name":"진아일랜드푸드앵글치킨","tel":"02-507-5715","addr":"경기도 과천시 별양동 1-15번지 그레이스호텔 지1층 27,30,31,32,40,41,42호","category":"일반휴게음식 - 일반한식"},{"name":"짱미용실","tel":"02-504-7271","addr":"경기도 과천시 별양동 1-15번지 그레이스 상가 201호","category":"보건위생 - 미용원"},{"name":"청도일식","tel":"02-503-1616","addr":"경기도 과천시 별양동 1-15번지 그레이스호텔 7동 702호","category":"일반휴게음식 - 일식·회집"},{"name":"초암수학교습소","tel":"02-503-8877","addr":"경기도 과천시 별양동 1-15번지 에스트로쇼핑 3층 326호","category":"회원제형태 - 학원"},{"name":"케이엠에스","tel":"02-3679-9340","addr":"경기도 과천시 별양동 1-15번지 에스트로쇼핑 330호","category":"보건위생 - 의료용품"},{"name":"크린킹","tel":"031-000-0000","addr":"경기도 과천시 별양동 1-15번지 그레이스호텔 349호","category":"용역 서비스 - 종합용역"},{"name":"토니치킨","tel":"02-503-4880","addr":"경기도 과천시 별양동 1-7번지 백두 상가 109호","category":"음식점업 - 간이음식점"},{"name":"플레이보이과천점","tel":"02-502-7460","addr":"경기도 과천시 별양동 1-15번지 에스트로쇼핑 2층","category":"신변잡화 - 가방"},{"name":"해원복집","tel":"02-504-1640","addr":"경기도 과천시 별양동 1-15번지 에스트로쇼핑 지하층","category":"일반휴게음식 - 일반한식"},{"name":"행복스킨바디","tel":"02-3679-2218","addr":"경기도 과천시 별양동 1-15번지 그레이스호텔 상가 5층 502호","category":"회원제형태 - 기타4"},{"name":"훈 쥬얼리","tel":"02-3679-9917","addr":"경기도 과천시 별양동 1-15번지 그레이스호텔 124호","category":"신변잡화 - 액세서리"}]},{"lat":"37.428470935","long":"126.99350459","items":[{"name":"(주)그린이엔지","tel":"02-3679-1140","addr":"경기도 과천시 별양동 1-4번지 상아빌딩 602호","category":"건축자재 - 목재·석재·철물"},{"name":"㈜한국생활안전연구소카페","tel":"02-507-2028","addr":"경기도 과천시 별양동 19-3번지 1층","category":"도소매 - 휴게음식"},{"name":"경희미소한의원","tel":"02-507-8275","addr":"경기도 과천시 별양동 1-4번지 상아빌딩 401호","category":"의원 - 한의원"},{"name":"고운산부인과의원","tel":"02-503-8360","addr":"경기도 과천시 별양동 1-4번지 상아빌딩 504호","category":"의원 - 의원"},{"name":"공차 과천별양점","tel":"02-504-8809","addr":"경기도 과천시 별양동 1-4번지 상아빌딩 1층","category":"일반휴게음식 - 서양음식"},{"name":"과천찬방","tel":"02-503-7878","addr":"경기도 과천시 별양동 1-4번지 상아빌딩 101호","category":"음료식품 - 기타음료식품"},{"name":"김정형외과의원","tel":"02-502-3077","addr":"경기도 과천시 별양동 1-4번지 상아빌딩 304호","category":"의원 - 의원"},{"name":"나이스점핑다이어트","tel":"02-3418-3388","addr":"경기도 과천시 별양동 1-4번지 상아빌딩 503호","category":"건강식품 - 기타건강식품"},{"name":"다온정","tel":"02-507-3773","addr":"경기도 과천시 별양동 1-19상가건물6층2","category":"일반휴게음식 - 일반한식"},{"name":"더레드클럽","tel":"02-507-2224","addr":"경기도 과천시 별양동 1-4번지 상아빌딩 601호","category":"보건위생 - 피부미용실"},{"name":"몬스터클럽","tel":"070-5304-5084","addr":"경기도 과천시 별양동 1-4번지 상아빌딩 지하1층1~4호","category":"레저업소 - 골프연습장"},{"name":"믿음치과","tel":"02-504-0052","addr":"경기도 과천시 별양동 1-4번지 상아빌딩 3층","category":"의원 - 치과의원"},{"name":"바이림","tel":"02-503-0694","addr":"경기도 과천시 별양동 1-4번지 상아빌딩 101호","category":"의류 - 정장"},{"name":"베스킨라빈스","tel":"02-507-3243","addr":"경기도 과천시 별양동 1-4번지 상아빌딩 104동 105호","category":"음료식품 - 제과점"},{"name":"보그스","tel":"02-503-4852","addr":"경기도 과천시 별양동 1-3번지 제일상가 101호","category":"소매업 - 의류"},{"name":"봉구스밥버거 과천중앙점","tel":"02-503-5004","addr":"경기도 과천시 별양동 1-4번지 상아빌딩 102호","category":"일반휴게음식 - 일반한식"},{"name":"블루클럽","tel":"02-502-8677","addr":"경기도 과천시 별양동 1-4번지 상아빌딩 4층 404-B호","category":"보건위생 - 미용원"},{"name":"서해약국","tel":"02-503-1627","addr":"경기도 과천시 별양동 1-4번지 상아빌딩 100,110호","category":"약국 - 약국"},{"name":"손약국","tel":"02-502-1725","addr":"경기도 과천시 별양동 1-4번지 상아빌딩 201호","category":"약국 - 약국"},{"name":"쇼팽음악학원","tel":"02-502-2708","addr":"경기도 과천시 별양동 1-4번지 상아빌딩 501호","category":"학원 - 예·체능계학원"},{"name":"스마일찹쌀꽈배기","tel":"02-502-1131","addr":"경기도 과천시 별양동 1-4번지 상아빌딩 111호","category":"일반휴게음식 - 스넥"},{"name":"신영치과의원","tel":"02-503-2474","addr":"경기도 과천시 별양동 1-4번지 상아빌딩 203호","category":"의원 - 치과의원"},{"name":"앙포레 모리노 헤어","tel":"02-502-9439","addr":"경기도 과천시 별양동 1-17번지 과천타워 2층 207호","category":"서비스 - 미용"},{"name":"연세가정의학과의원","tel":"02-3679-9397","addr":"경기도 과천시 별양동 1-4번지 상아빌딩 201호~202호","category":"의원 - 의원"},{"name":"와우노래연습장","tel":"02-503-1088","addr":"경기도 과천시 별양동 1-4번지 상아빌딩 402호","category":"레저업소 - 노 래 방"},{"name":"제누디세","tel":"02-503-8332","addr":"경기도 과천시 별양동 1-4번지 상아빌딩 1층 9","category":"의류 - 정장"},{"name":"청계독서실","tel":"02-502-4003","addr":"경기도 과천시 별양동 1-5번지 신라 상가","category":"교육서비스업 - 독서실"},{"name":"크레마","tel":"031-223-5214","addr":"경기도 과천시 별양동 1-4번지 상아빌딩 108호","category":"일반휴게음식 - 서양음식"},{"name":"크레아플레이","tel":"","addr":"경기도 과천시 별양동 1-4번지 상아빌딩 6층 602호","category":"문화.취미 - 문화취미기타"},{"name":"풍성루","tel":"02-502-8847","addr":"경기도 과천시 별양동 1-4번지 상아빌딩 2층 204호","category":"일반휴게음식 - 중국식"},{"name":"한수위수학학원","tel":"02-3678-8055","addr":"경기도 과천시 별양동 1-4번지 상아빌딩 604호","category":"학원 - 보습학원"}]},{"lat":"37.423803893","long":"126.99583242","items":[{"name":"(주)비원","tel":"070-4151-4007","addr":"경기도 과천시 별양동 39-7번지 202호","category":"건축자재 - 인테리어전문"},{"name":"쇼팽음악학원","tel":"02-502-2708","addr":"경기도 과천시 별양동 1-4번지 상아빌딩 501호","category":"교육서비스업 - 음악학원"}]},{"lat":"37.428191537","long":"126.99247651","items":[{"name":"(주)이니스프리 과천중앙직영점","tel":"02-504-0585","addr":"경기도 과천시 별양동 1-10번지 렉스타운 106호","category":"보건위생 - 화장품"},{"name":"고려호프","tel":"02-502-0041","addr":"경기도 과천시 별양동 1-10번지 렉스타운 지하 101호","category":"일반휴게음식 - 일반한식"},{"name":"곰스넥","tel":"02-504-5922","addr":"경기도 과천시 별양동 1-18번지 새서울프라자 지하 51호","category":"음식점업 - 간이음식점"},{"name":"과천마음수련회","tel":"031-3678-9952","addr":"경기도 과천시 별양동 1-10번지 렉스타운 11층 1105호","category":"회원제형태 - 레져업소"},{"name":"국수나무과천점","tel":"02-507-8984","addr":"경기도 과천시 별양동 1-10번지 렉스타운 101호","category":"일반휴게음식 - 스넥"},{"name":"그램그램과천점","tel":"02-3679-8888","addr":"경기도 과천시 별양동 1-10번지 렉스타운 309호","category":"일반휴게음식 - 일반한식"},{"name":"김민규내과의원","tel":"02-502-7780","addr":"경기도 과천시 별양동 1-10렉스타운405.406호","category":"의원 - 의원"},{"name":"김이비인후과","tel":"02-503-2647","addr":"경기도 과천시 별양동 1-10번지 엑스타운 4층 407호","category":"의원 - 의원"},{"name":"남도연","tel":"02-504-3627","addr":"경기도 과천시 별양동 1-10번지 2층 204호,205호","category":"일반휴게음식 - 일반한식"},{"name":"노블피부과의원","tel":"02-3679-2175","addr":"경기도 과천시 별양동 1-10번지 렉스타운 4층 401,402호","category":"의원 - 의원"},{"name":"늘하얀세탁소","tel":"02-504-7407","addr":"경기도 과천시 별양동 15번지 1층","category":"서비스 - 세탁업"},{"name":"디자인드바이유미","tel":"","addr":"경기도 과천시 별양동 1-10번지 렉스타운 308호","category":"보건위생 - 미용원"},{"name":"렉스과천치과의원","tel":"02-507-0733","addr":"경기도 과천시 별양동 1-10번지 렉스타운 411호","category":"의원 - 치과의원"},{"name":"로즈마리","tel":"02-503-2709","addr":"경기도 과천시 별양동 1-13번지","category":"소매업 - 의류"},{"name":"메콩타이 과천점","tel":"02-504-5515","addr":"경기도 과천시 별양동 1-10번지 렉스타운 3층 301,302호","category":"일반휴게음식 - 서양음식"},{"name":"명가순대국","tel":"02-502-0333","addr":"경기도 과천시 별양동 1-10번지 렉스타운 3층 304호","category":"일반휴게음식 - 일반한식"},{"name":"모던.댑과천점","tel":"02-504-1033","addr":"경기도 과천시 별양동 1-18번지 새서울프라자 1층 29,30,33호","category":"도소매 - 속옷"},{"name":"모바일스토리","tel":"02-502-6622","addr":"경기도 과천시 별양동 1-10번지 텍스타운 110호","category":"사무통신 - 통신기기"},{"name":"몸바른 코스메틱","tel":"02-504-6865","addr":"경기도 과천시 별양동 1-10번지 렉스타운 3층 307호","category":"보건위생 - 화장품"},{"name":"몸바른 힐링센타","tel":"02-504-6865","addr":"경기도 과천시 별양동 1-10번지 렉스타운 307호","category":"보건위생 - 피부미용실"},{"name":"미친닭발","tel":"02-503-3880","addr":"경기도 과천시 별양동 1-10번지 렉스타운 306호","category":"일반휴게음식 - 일반한식"},{"name":"박승철헤어스튜디오 과천점","tel":"02-504-8811","addr":"경기도 과천시 별양동 1-10번지 206,207,208호","category":"보건위생 - 미용원"},{"name":"발해정보통신","tel":"02-502-1722","addr":"경기도 과천시 별양동 1-10번지 렉스타운 110호","category":"사무통신 - 통신기기"},{"name":"빨간떡볶이샵","tel":"","addr":"경기도 과천시 별양동 1-10번지 렉스타운 203호","category":"일반휴게음식 - 스넥"},{"name":"빽다방과천렉스타운점","tel":"02-3418-7787","addr":"경기도 과천시 별양동 1-10번지 렉스타운 102호","category":"일반휴게음식 - 서양음식"},{"name":"세븐일레븐과천중앙공원점","tel":"","addr":"경기도 과천시 별양동 1-4번지 상아빌딩 106호","category":"도소매 - 상품대리"},{"name":"씨채널(과천점)","tel":"02-503-8999","addr":"경기도 과천시 별양동 1-10번지 렉스타운 1층 103호","category":"보건위생 - 안경"},{"name":"애리의 밥집술집","tel":"02-502-2707","addr":"경기도 과천시 별양동 1-10번지 렉스타운 302호 303호","category":"일반휴게음식 - 일반한식"},{"name":"온누리길약국","tel":"02-502-1966","addr":"경기도 과천시 별양동 1-10번지 렉스타운 4층 404호","category":"약국 - 약국"},{"name":"으뜸플러스안경(과천점)","tel":"070-572-8272","addr":"경기도 과천시 별양동 1-10번지 렉스타운 305호","category":"보건위생 - 안경"},{"name":"이화약국","tel":"02-503-7750","addr":"경기도 과천시 별양동 1-10번지 렉스타운 105호","category":"약국 - 약국"},{"name":"일룸과천점","tel":"02-504-2010","addr":"경기도 과천시 별양동 1-18번지 새서울쇼핑 3층","category":"도소매 - 가구"},{"name":"임동균안과의원","tel":"02-502-1919","addr":"경기도 과천시 별양동 1-10번지 렉스타운 409호","category":"의원 - 의원"},{"name":"죠스떡볶이과천중앙점","tel":"02-503-5452","addr":"경기도 과천시 별양동 1-10번지 렉스타운 109호","category":"일반휴게음식 - 일반한식"},{"name":"주식회사 글로벌인베스트","tel":"02-507-8677","addr":"경기도 과천시 별양동 1-10번지 렉스타운 1층 108호","category":"사무통신 - 통신기기"},{"name":"주식회사대신","tel":"031-971-4443","addr":"경기도 과천시 별양동 1-10번지 렉스타운 502호","category":"음료식품 - 기타음료식품"},{"name":"진정한고깃집","tel":"02-502-2701","addr":"경기도 과천시 별양동 1-10번지 렉스타운 209호","category":"일반휴게음식 - 일반한식"},{"name":"진짬뽕","tel":"02-503-3900","addr":"경기도 과천시 별양동 1-11번지 벽산상가 207,208,215호","category":"음식점업 - 중식"},{"name":"택이네조개전골","tel":"02-504-5722","addr":"경기도 과천시 별양동 1-10번지 렉스타운 2층 201호","category":"일반휴게음식 - 일반한식"},{"name":"포메인(과천점)","tel":"02-502-0118","addr":"경기도 과천시 별양동 1-17번지 과천타워 205호","category":"음식점업 - 쌀국수"},{"name":"풍성루","tel":"02-502-8847","addr":"경기도 과천시 별양동 1-4번지 상아빌딩 2층 204호","category":"음식점업 - 중식"},{"name":"한양이동통신","tel":"0002-0507-5010","addr":"경기도 과천시 별양동 1-10번지 렉스타운 1층 102호","category":"별도관리 - 자체물품대금"},{"name":"한양이동통신","tel":"031-405-1240","addr":"경기도 과천시 별양동 1-10번지 렉스타운 1층 102호","category":"사무통신 - 통신기기"},{"name":"합동보람공인중개사사무소","tel":"02-503-7700","addr":"경기도 과천시 별양동 6번지 주공아파트 유치원상가 102호","category":"부동산업 - 부동산중개업"}]},{"lat":"37.427470731","long":"126.99244271","items":[{"name":"(주)진인진","tel":"02-507-3077","addr":"경기도 과천시 별양동 1-14번지","category":"회원제형태 - 서적"},{"name":"과천한우리국어교습소","tel":"02-502-4011","addr":"경기도 과천시 별양동 1-14과천오피스텔3층B호일부","category":"학원 - 보습학원"},{"name":"금강공인중개사사무소","tel":"02-502-2009","addr":"경기도 과천시 별양동 7번지 삼호상가 1층 121호","category":"부동산업 - 부동산중개업"},{"name":"김민규내과의원","tel":"02-502-7780","addr":"경기도 과천시 별양동 1-10, 렉스타운405.406호","category":"보건업 - 내과"},{"name":"네네치킨","tel":"02-503-7070","addr":"경기도 과천시 별양동 7번지 삼호상가 1층 101~1호","category":"음식점업 - 치킨"},{"name":"대한논리정속독학습지","tel":"02-502-8214","addr":"경기도 과천시 별양동 1-14번지 과천오피스텔 705호","category":"서적문구 - 일반서적"},{"name":"더풋샵 과천청사역점","tel":"02-504-8883","addr":"경기도 과천시 별양동 1-14번지 과천오피스텔 2층 나(A)호","category":"보건위생 - 화장품"},{"name":"리틀도쿄","tel":"02-502-6969","addr":"경기도 과천시 별양동 1-14번지","category":"보건위생 - 미용원"},{"name":"마산해물찜","tel":"02-502-7615","addr":"경기도 과천시 별양동 1-14번지 과천오피스텔 지하 1층 1호","category":"일반휴게음식 - 일반한식"},{"name":"마음건강네트워크 나담","tel":"02-504-3231","addr":"경기도 과천시 별양동 1-14번지 과천오피스텔 5층 505호","category":"용역 서비스 - 사무서비스"},{"name":"마인","tel":"","addr":"경기도 과천시 별양동 1-14번지 과천오피스텔 6층 602호","category":"의류 - 정장"},{"name":"무교동서린낙지","tel":"02-504-2124","addr":"경기도 과천시 별양동 1-14과천오피스텔지하1층","category":"일반휴게음식 - 일반한식"},{"name":"베리굿생태한마리","tel":"02-504-2778","addr":"경기도 과천시 별양동 1-11번지 벽산빌딩 301호","category":"음식점업 - 한식"},{"name":"소원","tel":"02-504-2124","addr":"경기도 과천시 별양동 1-14번지 과천오피스텔 지하층","category":"일반휴게음식 - 일반한식"},{"name":"순남시래기 (과천점)","tel":"02-502-3737","addr":"경기도 과천시 별양동 1-14번지 과천오피스텔 G동 1층 3호","category":"일반휴게음식 - 일반한식"},{"name":"스킨월드","tel":"02-3679-7779","addr":"경기도 과천시 별양동 1-14번지 과천오피스텔3층디-2호","category":"회원제형태 - 기타4"},{"name":"어센트교육학원","tel":"02-503-3087","addr":"경기도 과천시 별양동 1-14번지 과천오피스텔 3층 B호","category":"학원 - 보습학원"},{"name":"오피스큐 과천점","tel":"","addr":"경기도 과천시 별양동 1-14번지 지하1층 B-1호","category":"사무통신 - 기타 사무용품"},{"name":"유진실업","tel":"02-529-4825","addr":"경기도 과천시 별양동 1-14번지 과천오피스텔 913호","category":"기타 - 기타 전문점"},{"name":"육대장","tel":"070-8866-1737","addr":"경기도 과천시 별양동 1-14번지 과천오피스텔 B02호","category":"일반휴게음식 - 일반한식"},{"name":"으뜸플러스안경(과천점)","tel":"02-503-1001","addr":"경기도 과천시 별양동 1-10번지 렉스타운 305호","category":"도소매 - 안경"},{"name":"은치과의원","tel":"02-503-0534","addr":"경기도 과천시 별양동 1-14번지 과천오피스텔 3층 D-1호","category":"의원 - 치과의원"},{"name":"이화약국","tel":"02-503-7750","addr":"경기도 과천시 별양동 1-10번지 렉스타운 105호","category":"소매업 - 양약"},{"name":"재원세무회계사무소","tel":"02-502-4740","addr":"경기도 과천시 별양동 1-14번지 과천오피스텔 813호","category":"용역 서비스 - 법률회계서비스(개인)"},{"name":"정오에코텍(주)","tel":"02-502-3848","addr":"경기도 과천시 별양동 1-14번지 과천오피스텔 803호","category":"용역 서비스 - 종합용역"},{"name":"조선생에듀학원","tel":"02-504-5001","addr":"경기도 과천시 별양동 1-14번지 과천오피스텔 3층 B호","category":"학원 - 보습학원"},{"name":"주희요가스튜디오","tel":"050-7351-2246","addr":"경기도 과천시 별양동 1-14번지 과천오피스텔 711호","category":"레저업소 - 헬스클럽"},{"name":"즐거운스즈키음악학원","tel":"02-503-6336","addr":"경기도 과천시 별양동 1-14과천오피스텔3층C-1호,C-2호일부","category":"회원제형태 - 학원"},{"name":"최진희언어교육원","tel":"02-502-0655","addr":"경기도 과천시 별양동 1-14번지 과천오피스텔 3층","category":"회원제형태 - 학원"},{"name":"카코이돈부리과천점","tel":"02-3418-0530","addr":"경기도 과천시 별양동 1-14번지 과천오피스텔 지하1층 5호","category":"일반휴게음식 - 일식·회집"},{"name":"커피민(coffee min)","tel":"02-502-1288","addr":"경기도 과천시 별양동 1-14번지 과천오피스텔 지하1층 1호","category":"일반휴게음식 - 일반한식"},{"name":"하나통상","tel":"02-503-7711","addr":"경기도 과천시 별양동 1-14번지 과천오피스텔 903호","category":"유통업 영리 - 기타유통업"},{"name":"한짬뽕","tel":"02-503-3900","addr":"경기도 과천시 별양동 1-14번지 과천오피스텔 지하1층 7호","category":"일반휴게음식 - 중국식"},{"name":"한토대","tel":"02-886-7114","addr":"경기도 과천시 별양동 1-14번지 과천오피스텔 4층 B-1호","category":"학원 - 기타 교육기관"},{"name":"해피로pc방","tel":"070-6360-2151","addr":"경기도 과천시 별양동 1-14번지 과천오피스텔 B1층 8-2, 9호","category":"레저업소 - 기타레져업소"},{"name":"헤어살롱숲세컨스토리","tel":"02-507-2626","addr":"경기도 과천시 별양동 1-14번지 과천오피스텔 2층 A-2호","category":"보건위생 - 미용원"},{"name":"헤어푸드","tel":"02-503-5110","addr":"경기도 과천시 별양동 1-13번지 제일쇼핑상가 1층 111호","category":"소매업 - 미용재료"}]},{"lat":"37.426885033","long":"126.99194569","items":[{"name":"(주)현에프앤비","tel":"02-3679-7399","addr":"경기도 과천시 별양동 1-17번지 과천타워 지하1층 11호","category":"일반휴게음식 - 일반한식"},{"name":"강산국어학원","tel":"02-504-5210","addr":"경기도 과천시 별양동 1-7번지 백두상가 5층 501호","category":"교육서비스업 - 국어"},{"name":"고향바지락칼국수","tel":"02-507-6700","addr":"경기도 과천시 별양동 1-17번지 과천타워 105호","category":"일반휴게음식 - 일반한식"},{"name":"과천사골순대국","tel":"02-502-5900","addr":"경기도 과천시 별양동 1-17번지 과천타워 105호","category":"일반휴게음식 - 일반한식"},{"name":"과천종합사회복지관","tel":"02-507-6319","addr":"경기도 과천시 별양동 1-17번지 과천타워 3층","category":"학원 - 기타 교육기관"},{"name":"과천종합사회복지관","tel":"02-507-6319","addr":"경기도 과천시 별양동 1-17번지 과천타워 3층","category":"학원 - 기타 교육기관"},{"name":"과천타워빌리어드클럽","tel":"02-503-1110","addr":"경기도 과천시 별양동 1-17번지 과천타워 지하7, 8호","category":"레저업소 - 당 구 장"},{"name":"과천한의원","tel":"02-503-0603","addr":"경기도 과천시 별양동 1-7번지 백두 상가 205호","category":"보건업 - 한의원"},{"name":"그린탑","tel":"","addr":"경기도 과천시 별양동 1-18번지 새서울프라자1층 68","category":"도소매 - 의료기기, 건강기능보조식품"},{"name":"김명자굴국밥전문점","tel":"02-503-2200","addr":"경기도 과천시 별양동 1-17번지 과천타워 지하1층 9","category":"일반휴게음식 - 일반한식"},{"name":"놀부부대찌개","tel":"02-507-0701","addr":"경기도 과천시 별양동 1-17번지 과천타워 203호","category":"일반휴게음식 - 일반한식"},{"name":"닐리과천","tel":"02-507-7999","addr":"경기도 과천시 별양동 1-17번지 과천타워 2층 206호","category":"일반휴게음식 - 스넥"},{"name":"더 휘트니스","tel":"02-503-0753","addr":"경기도 과천시 별양동 1-8번지 골든타워601호~602호 601호","category":"서비스 - 체력단련장업"},{"name":"드림21노래연습장","tel":"02-502-7378","addr":"경기도 과천시 별양동 1-17번지 과천타워제지하7,8호","category":"레저업소 - 노 래 방"},{"name":"들향기팥칼국수","tel":"02-502-2881","addr":"경기도 과천시 별양동 1-17번지 과천타워 지하 4호","category":"일반휴게음식 - 스넥"},{"name":"또래오래","tel":"02-3678-9292","addr":"경기도 과천시 별양동 15번지","category":"음식점업 - 치킨"},{"name":"뚜레쥬르 과천중앙점","tel":"02-503-1049","addr":"경기도 과천시 별양동 1-17번지 과천타워 107호","category":"음료식품 - 제과점"},{"name":"라엘헤어","tel":"02-502-5864","addr":"경기도 과천시 별양동 1-17번지 과천타워 3층 301호","category":"보건위생 - 미용원"},{"name":"려청미용실","tel":"02-503-5206","addr":"경기도 과천시 별양동 1-17번지 백두 상가 405호","category":"보건위생 - 미용원"},{"name":"마리&제이(MARI&J)","tel":"070-9981-5369","addr":"경기도 과천시 별양동 1-17번지 과천타워 지하 2호","category":"직물 - 침구·수예점"},{"name":"문원마을","tel":"02-504-4500","addr":"경기도 과천시 별양동 1-17번지 과천타워 지히1층 12호","category":"일반휴게음식 - 일반한식"},{"name":"미니스톱 과천타워점","tel":"031-1577-9621","addr":"경기도 과천시 별양동 1-17번지 과천타워 1층 109호","category":"유통업 영리 - 편 의 점"},{"name":"백채김치찌개","tel":"031-503-6331","addr":"경기도 과천시 별양동 1-17번지 과천타워 1층 104호","category":"일반휴게음식 - 일반한식"},{"name":"법무부법사랑위원수원검찰청안양지청과천지","tel":"02-503-6563","addr":"경기도 과천시 별양동 1-17번지 과천타워 3층","category":"기타 - 비영리/비대상"},{"name":"본사골칼국수","tel":"02-504-3204","addr":"경기도 과천시 별양동 1-17번지 과천타워","category":"일반휴게음식 - 일반한식"},{"name":"불닭발동대문엽기떡볶이(과천점)","tel":"02-3678-8592","addr":"경기도 과천시 별양동 1-11번지 벽산 상가 205호","category":"음식점업 - 한식"},{"name":"산고을","tel":"02-503-8201","addr":"경기도 과천시 별양동 1-17번지 과천타워 201호","category":"일반휴게음식 - 일반한식"},{"name":"삼화약국","tel":"02-3679-6321","addr":"경기도 과천시 별양동 1-20번지 유니온빌딩 201호","category":"소매업 - 의약품"},{"name":"상상수학원","tel":"","addr":"경기도 과천시 별양동 1-17번지 과천타워 3층 308호","category":"학원 - 보습학원"},{"name":"세운촌","tel":"02-503-8943","addr":"경기도 과천시 별양동 1-17과천타워지하15","category":"일반휴게음식 - 일반한식"},{"name":"세운촌","tel":"02-503-8943","addr":"경기도 과천시 별양동 1-17번지 과천타워 지하1층 15호","category":"일반휴게음식 - 일반한식"},{"name":"센스","tel":"02-504-5875","addr":"경기도 과천시 별양동 1-18 새서울프라자 61","category":"소매업 - 잡화"},{"name":"소선방","tel":"02-503-0888","addr":"경기도 과천시 별양동 1-17번지 과천타워 G동 1층 4호","category":"음료식품 - 기타음료식품"},{"name":"속옷매장","tel":"02-507-3354","addr":"경기도 과천시 별양동 1-17번지","category":"의류 - 내의판매"},{"name":"아름다운머리","tel":"","addr":"경기도 과천시 별양동 1-7번지 백두빌딩 B01호","category":"서비스 - 미용"},{"name":"아리따움","tel":"02-502-1954","addr":"경기도 과천시 별양동 1-17번지 과천타워 1층 106호","category":"보건위생 - 화장품"},{"name":"앙포레모리노헤어","tel":"02-504-9439","addr":"경기도 과천시 별양동 1-17번지 과천타워 2층 207호","category":"보건위생 - 미용원"},{"name":"양지","tel":"02-504-5800","addr":"경기도 과천시 별양동 1-17번지 과천타워 지층3호","category":"일반휴게음식 - 일반한식"},{"name":"영농조합법인문원1통마을","tel":"02-504-4500","addr":"경기도 과천시 별양동 1-17번지 과천타워 지하1층 12호","category":"일반휴게음식 - 일반한식"},{"name":"온천골","tel":"02-502-5285","addr":"경기도 과천시 별양동 1-17번지 과천타워 108호","category":"일반휴게음식 - 일반한식"},{"name":"원할머니보쌈","tel":"02-504-0194","addr":"경기도 과천시 별양동 1-17번지 과천타워 204호","category":"일반휴게음식 - 일반한식"},{"name":"은지순대","tel":"02-502-1512","addr":"경기도 과천시 별양동 1-17번지 과천타워 1층 103호","category":"일반휴게음식 - 일반한식"},{"name":"이레헤어폼","tel":"02-503-5104","addr":"경기도 과천시 별양동 1-17번지 과천타워 1층 102호","category":"보건위생 - 미용원"},{"name":"인성참치","tel":"02-503-0235","addr":"경기도 과천시 별양동 1-17번지 과천타워 208호","category":"일반휴게음식 - 일반한식"},{"name":"일조","tel":"02-504-5656","addr":"경기도 과천시 별양동 1-17번지 과천타워 210호","category":"일반휴게음식 - 일식·회집"},{"name":"자연빛깔(과천점)","tel":"031-800-0000","addr":"경기도 과천시 별양동 1-17번지 과천타워 806호","category":"보건위생 - 미용원"},{"name":"진영어교습소","tel":"","addr":"경기도 과천시 별양동 1-5번지 신라 상가 4층 402호","category":"서비스 - 교습소"},{"name":"청도수산","tel":"02-503-1616","addr":"경기도 과천시 별양동 1-17번지 과천타워 G동 1층 10호","category":"일반휴게음식 - 일반한식"},{"name":"커피케빈","tel":"","addr":"경기도 과천시 별양동 1-17번지 과천타워 101호","category":"일반휴게음식 - 서양음식"},{"name":"타미하우스 과천점","tel":"02-3418-9788","addr":"경기도 과천시 별양동 1-17번지 과천타워 지층","category":"일반휴게음식 - 스넥"},{"name":"탑이비인후과의원","tel":"02-3477-2401","addr":"경기도 과천시 별양동 1-17번지 과천타워 307호","category":"의원 - 의원"},{"name":"포메인-과천점","tel":"02-502-0118","addr":"경기도 과천시 별양동 1-17번지 과천타워 205호","category":"일반휴게음식 - 일반한식"},{"name":"플라워가든","tel":"02-503-9888","addr":"경기도 과천시 별양동 1-17번지 과천타워 503호","category":"문화.취미 - 화원"},{"name":"해피로 PC방 ","tel":"","addr":"경기도 과천시 별양동 1-14번지 과천오피스텔 지하1층 8-2,9호","category":"서비스 - PC방"},{"name":"홍어와탁주","tel":"02-502-7944","addr":"경기도 과천시 별양동 1-17번지 과천타워 지하5층","category":"일반휴게음식 - 일반한식"}]},{"lat":"37.425803854","long":"126.99222829","items":[{"name":"01 수학교습소","tel":"02-3418-1556","addr":"경기도 과천시 별양동 7-1번지 3층 301-9호","category":"학원 - 보습학원"},{"name":"Mr.바리깡","tel":"02-502-6682","addr":"경기도 과천시 별양동 7-1번지 내 1층 1호","category":"보건위생 - 미용원"},{"name":"금옥당","tel":"02-503-9779","addr":"경기도 과천시 별양동 1-13번지 제일쇼핑 127호","category":"소매업 - 금은시계"},{"name":"남대문안경","tel":"02-504-7275","addr":"경기도 과천시 별양동 7-1번지 내1층 2-1호","category":"보건위생 - 안경"},{"name":"마리웨일","tel":"02-504-1773","addr":"경기도 과천시 별양동 7-1번지 1층 104호","category":"일반휴게음식 - 서양음식"},{"name":"보라매컴퓨터세탁","tel":"02-503-5678","addr":"경기도 과천시 별양동 7-1번지","category":"수리서비스 - 세탁소"},{"name":"본죽과천점","tel":"02-507-6288","addr":"경기도 과천시 별양동 7-1번지 105호","category":"일반휴게음식 - 일반한식"},{"name":"월드편의점","tel":"02-502-6363","addr":"경기도 과천시 별양동 7-1번지","category":"유통업 영리 - 편 의 점"},{"name":"제일세탁소","tel":"02-503-6941","addr":"경기도 과천시 별양동 1-13번지 제일쇼핑 236호","category":"서비스 - 세탁편의점"},{"name":"콩지&팥지","tel":"031-504-5224","addr":"경기도 과천시 별양동 7-1번지 104호","category":"일반휴게음식 - 일반한식"},{"name":"크리스마스자몽","tel":"070-8115-1224","addr":"경기도 과천시 별양동 7-1번지 105호","category":"일반휴게음식 - 서양음식"}]},{"lat":"37.457742568","long":"127.02616497","items":[{"name":"01 수학교습소","tel":"02-3418-1556","addr":"경기도 과천시 별양동 7-1번지 3층 301-9호","category":"서비스 - 수학"}]},{"lat":"37.424659801","long":"126.99508671","items":[{"name":"153서점","tel":"02-503-1530","addr":"경기도 과천시 별양동 1-18번지 새서울프라자 1층 25,26,36,66호","category":"소매업 - 서점"},{"name":"그리너리무드(Greenery mood)","tel":"031-111-1111","addr":"경기도 과천시 별양동 17번지 래미안슈르 상가동 1002호","category":"문화.취미 - 화원"},{"name":"그린나래아트미술교습소","tel":"02-503-7272","addr":"경기도 과천시 별양동 17번지 래미안슈르 상가동 301, 302호","category":"학원 - 예·체능계학원"},{"name":"뉴조이음악학원","tel":"02-502-1515","addr":"경기도 과천시 별양동 17번지 래미안슈르 상가동 2001,2002호","category":"학원 - 예·체능계학원"},{"name":"블랑즈리식빵라이프","tel":"031-000-0000","addr":"경기도 과천시 별양동 17번지 래미안슈르 상가동 1001호","category":"일반휴게음식 - 서양음식"}]},{"lat":"37.426749933","long":"126.9924993","items":[{"name":"153서점","tel":"02-503-1530","addr":"경기도 과천시 별양동 1-18번지 새서울프라자 1층 25,26,36,66호","category":"서적문구 - 일반서적"},{"name":"2&3","tel":"02-507-6941","addr":"경기도 과천시 별양동 1-16번지 교보생명","category":"음식점업 - 휴게음식"},{"name":"38번가","tel":"070-4062-7121","addr":"경기도 과천시 별양동 1-18번지 새서울프라자 1층 38호","category":"가구 - 기타가구"},{"name":"BHC치킨(과천점)","tel":"02-507-5008","addr":"경기도 과천시 별양동 17번지 레미안슈르 상가 1층 1003호","category":"음식점업 - 치킨"},{"name":"Ordinary Miracle(오디너리 미라클)","tel":"02-504-2507","addr":"경기도 과천시 별양동 1-18번지 새서울프라자 1층 1호","category":"사무통신 - 통신기기"},{"name":"PRO-K스포츠","tel":"02-507-0107","addr":"경기도 과천시 별양동 1-18번지 새서울프라자 1층 66호","category":"레져용품 - 스포츠·레져용품"},{"name":"j2헤어","tel":"02-503-3300","addr":"경기도 과천시 별양동 14번지 병원상가1층 2호","category":"서비스 - 미용업"},{"name":"감사가 있는 허브클럽","tel":"02-3418-3535","addr":"경기도 과천시 별양동 1-18번지 지하 1.2호","category":"건강식품 - 기타건강식품"},{"name":"고장난기억","tel":"02-503-1024","addr":"경기도 과천시 별양동 1-11번지 벽산상가2층206,208호","category":"음식점업 - 간이음식점"},{"name":"공감영어학원","tel":"02-504-2772","addr":"경기도 과천시 별양동 15번지 2층 9호 일부, 10호 일부","category":"교육서비스업 - 영어, 수학"},{"name":"과천 P.G.S","tel":"02-504-2426","addr":"경기도 과천시 별양동 1-18번지 새서울쇼핑 3층","category":"레저업소 - 골프연습장"},{"name":"과천 해신탕","tel":"02-507-3600","addr":"경기도 과천시 별양동 1-3번지 제일상가 203호","category":"음식점업 - 한식"},{"name":"과천독서실","tel":"02-503-5150","addr":"경기도 과천시 별양동 1-7번지 백두 상가 6층 601호~602호","category":"서비스 - 독서실운영"},{"name":"과천영창피아노","tel":"02-502-2369","addr":"경기도 과천시 별양동 1-18번지","category":"레져용품 - 악기점"},{"name":"과천초밥","tel":"02-504-0555","addr":"경기도 과천시 별양동 1-18번지 새서울프라자 지하1층 9호","category":"일반휴게음식 - 일반한식"},{"name":"과천표구사 화랑기획","tel":"02-502-9007","addr":"경기도 과천시 별양동 1-18번지 새서울프라자 1층 23호","category":"문화.취미 - 화방·표구점"},{"name":"관악레저","tel":"02-502-3843","addr":"경기도 과천시 별양동 1-15번지 그레이스호텔 1층","category":"소매업 - 등산, 운동용구"},{"name":"그레이스","tel":"02-504-5545","addr":"경기도 과천시 별양동 1-18번지 새서울쇼핑 2층 17호","category":"의류 - 정장"},{"name":"그레이스부띠끄","tel":"02-503-3766","addr":"경기도 과천시 별양동 1-18번지 4과천새서울프라자 2층","category":"의류 - 정장"},{"name":"그린탑","tel":"","addr":"경기도 과천시 별양동 1-18번지 새서울프라자1층 68","category":"신변잡화 - 기타잡화"},{"name":"김정형외과의원","tel":"02-502-3077","addr":"경기도 과천시 별양동 1-4번지 상아빌딩 304호","category":"보건업 - 외과"},{"name":"꽃소년","tel":"031-252-3474","addr":"경기도 과천시 별양동 1-18번지 새서울프라자 1층 38호","category":"문화.취미 - 화원"},{"name":"꾸러기동물병원","tel":"02-502-7509","addr":"경기도 과천시 별양동 1-18번지 새서울프라자 1층 24호","category":"기타의료기관 - 동물병원"},{"name":"꾸밈; 집을 꾸미다","tel":"","addr":"경기도 과천시 별양동 1-17번지 과천타워 제지하층 2호","category":"도소매 - 커튼, 이불"},{"name":"나무모아","tel":"02-503-2132","addr":"경기도 과천시 별양동 1-18 새서울프라자3층15-2호","category":"가구 - 일반가구"},{"name":"나영이네/ 코코(CoCo)","tel":"02-507-2370","addr":"경기도 과천시 별양동 1-13번지 제일쇼핑 231호","category":"소매업 - 여성의류"},{"name":"낙원떡집","tel":"02-504-5669","addr":"경기도 과천시 별양동 1-18번지 새서울쇼핑 지하층 39호","category":"음료식품 - 제과점"},{"name":"남성잡화","tel":"02-507-0990","addr":"경기도 과천시 별양동 1-18번지 새서울쇼핑 1층 45","category":"기타 - 기타 전문점"},{"name":"내추럴 건강","tel":"02-503-6880","addr":"경기도 과천시 별양동 1-18번지 새서울프라자 1층 49호","category":"소매업 - 건강기능식품"},{"name":"논노후즈넥스트","tel":"02-504-4711","addr":"경기도 과천시 별양동 1-18번지 새서울프라자2층42호","category":"소매업 - 의류"},{"name":"뉴조이음악학원","tel":"02-502-1515","addr":"경기도 과천시 별양동 17번지 래미안슈르 상가동 2001,2002호","category":"교육서비스업 - 음악"},{"name":"닐리과천","tel":"02-507-7999","addr":"경기도 과천시 별양동 1-17번지 과천타워 2층 206호","category":"음식점업 - 간이음식"},{"name":"다온공예","tel":"","addr":"경기도 과천시 별양동 1-18번지 새서울프라자 3층 65호","category":"보건위생 - 화장품"},{"name":"다온화장품","tel":"02-502-1365","addr":"경기도 과천시 별양동 1-18번지 새서울프라자 1층 45호","category":"보건위생 - 화장품"},{"name":"다인쿡협동조합","tel":"02-503-7878","addr":"경기도 과천시 별양동 15번지 105호 동화나라유치원","category":"도소매 - 공동구매및중개알선"},{"name":"단거연구소","tel":"031-000-0000","addr":"경기도 과천시 별양동 1-18번지 새서울프라자 지층 17호 ,18,21,22호","category":"음료식품 - 기타음료식품"},{"name":"단골가게","tel":"02-3679-0040","addr":"경기도 과천시 별양동 1-18번지 새서울쇼핑시장 2층 46호","category":"의류 - 정장"},{"name":"대한캘리디자인연구회","tel":"","addr":"경기도 과천시 별양동 1-18번지 새서울프라자 3층 15-1호","category":"문화.취미 - 문화취미기타"},{"name":"대한캘리디자인연구회","tel":"","addr":"경기도 과천시 별양동 1-18번지 새서울프라자 3층 15-1호","category":"서비스 - 공방"},{"name":"더헤어#","tel":"02-507-7273","addr":"경기도 과천시 별양동 1-11번지 벽산 상가 307호","category":"서비스 - 미용업"},{"name":"데미안","tel":"02-502-0274","addr":"경기도 과천시 별양동 1-18번지 새서울쇼핑 2층 10호","category":"의류 - 정장"},{"name":"도자기마을","tel":"02-915-7457","addr":"경기도 과천시 별양동 1-18번지 새서울프라자 1층 56호","category":"문화.취미 - 민예·공예품"},{"name":"두레박민속주점","tel":"02-507-2680","addr":"경기도 과천시 별양동 1-18번지 새서율쇼핑 4층 12호","category":"일반휴게음식 - 칵테일바"},{"name":"들녘이네","tel":"02-507-4676","addr":"경기도 과천시 별양동 1-18번지 새서울프라자 2층 5호","category":"의류 - 정장"},{"name":"라임투어","tel":"02-3678-9001","addr":"경기도 과천시 별양동 1-13번지 제일쇼핑 144호","category":"서비스 - 여행업"},{"name":"로가","tel":"02-502-5429","addr":"경기도 과천시 별양동 1-18번지 새서울쇼핑 2층 48,49호","category":"의류 - 정장"},{"name":"로뎀아트갤러리","tel":"02-3679-3435","addr":"경기도 과천시 별양동 1-18번지 새서울프라자 3층","category":"신변잡화 - 기타잡화"},{"name":"로뎀아트갤러리","tel":"02-3679-3435","addr":"경기도 과천시 별양동 1-18번지 새서울프라자 3층","category":"도소매 - 화장품"},{"name":"로젠안경","tel":"02-503-2121","addr":"경기도 과천시 별양동 1-18번지 상가","category":"보건위생 - 안경"},{"name":"루나쓰리세븐","tel":"02-507-0175","addr":"경기도 과천시 별양동 1-18번지 새서울쇼핑 1층 67호 68호","category":"신변잡화 - 기타잡화"},{"name":"루디아","tel":"02-502-9890","addr":"경기도 과천시 별양동 1-18번지 새서울프라자 2층 34호","category":"의류 - 정장"},{"name":"루디아","tel":"02-502-9890","addr":"경기도 과천시 별양동 1-18번지 새서울프라자 2층 34호","category":"소매업 - 여성의류"},{"name":"루루악세사리","tel":"02-503-8639","addr":"경기도 과천시 별양동 1-18번지","category":"신변잡화 - 액세서리"},{"name":"루브시엔느앤틱","tel":"02-1111-1111","addr":"경기도 과천시 별양동 1-18번지 새서울프라자 1층 5호","category":"가구 - 기타가구"},{"name":"마라마라","tel":"02-2635-1113","addr":"경기도 과천시 별양동 1-18번지 새서울프라자 지층 19,20,23,24호","category":"일반휴게음식 - 중국식"},{"name":"마라마라","tel":"","addr":"경기도 과천시 별양동 1-18번지 새서울프라자 지층 19,20,23,24호","category":"음식점업 - 중식"},{"name":"마리","tel":"02-503-5859","addr":"경기도 과천시 별양동 1-18번지 새서울프라자 2층 16호","category":"의류 - 정장"},{"name":"마임화장품건강기능식품","tel":"02-502-3307","addr":"경기도 과천시 별양동 1-18번지 새서울쇼핑 503호","category":"보건위생 - 화장품"},{"name":"맛집상점","tel":"031-000-0000","addr":"경기도 과천시 별양동 1-18번지","category":"음료식품 - 기타음료식품"},{"name":"메리퀸","tel":"02-502-2726","addr":"경기도 과천시 별양동 1-18번지","category":"직물 - 침구·수예점"},{"name":"멜팅포인트 962","tel":"00-000-0000","addr":"경기도 과천시 별양동 1-18번지 새서울프라자 1층 34호","category":"신변잡화 - 귀금속"},{"name":"명가 순대국","tel":"","addr":"경기도 과천시 별양동 1-10번지 렉스타운 3층 304호","category":"음식점업 - 한식"},{"name":"명성공인중개사사무소","tel":"02-502-2300","addr":"경기도 과천시 별양동 6번지 5단지복합상가 102호","category":"부동산업 - 부동산중개업"},{"name":"명지사","tel":"02-503-3393","addr":"경기도 과천시 별양동 1-18번지 새서울프라자 1층 57호","category":"서적문구 - 출판 및 인쇄물"},{"name":"모던.댑과천점","tel":"02-504-1033","addr":"경기도 과천시 별양동 1-18번지 새서울프라자1층29,30,33호","category":"의류 - 내의판매"},{"name":"모자","tel":"02-504-4593","addr":"경기도 과천시 별양동 1218번지 새서울프라자","category":"신변잡화 - 액세서리"},{"name":"미스티클럽","tel":"02-502-9653","addr":"경기도 과천시 별양동 1-18번지 새서울쇼핑 1층 26호","category":"신변잡화 - 제화"},{"name":"민트","tel":"02-3418-0822","addr":"경기도 과천시 별양동 1-18번지 새서울쇼핑 2층 32호","category":"의류 - 정장"},{"name":"밀란로랭","tel":"02-503-8253","addr":"경기도 과천시 별양동 1-18번지 새서울프라자 2층 43호","category":"신변잡화 - 기타잡화"},{"name":"바로마켓협동조합","tel":"02-6006-3413","addr":"경기도 과천시 별양동 1-18번지 새서울프라자 지하1층 37호","category":"음료식품 - 농·축·수산품"},{"name":"박승범제면소","tel":"02-504-1294","addr":"경기도 과천시 별양동 1-18번지 지하층 47호,52호","category":"일반휴게음식 - 스넥"},{"name":"밥먹자국밥집","tel":"02-507-5980","addr":"경기도 과천시 별양동 1-18번지 새서울프라자 지하1층 26호.28호.30호","category":"일반휴게음식 - 일반한식"},{"name":"버블버블","tel":"02-587-8692","addr":"경기도 과천시 별양동 1-18 새서울프라자2층 35","category":"의류 - 정장"},{"name":"베로니","tel":"02-3679-1401","addr":"경기도 과천시 별양동 1-18번지 새서울프라자 2층 23호","category":"의류 - 정장"},{"name":"보그","tel":"02-504-3444","addr":"경기도 과천시 별양동 1-13번지 제일상가3층 305호","category":"소매업 - 의류"},{"name":"보금장","tel":"02-503-4989","addr":"경기도 과천시 별양동 1-18번지 새서울","category":"신변잡화 - 귀금속"},{"name":"봉구스밥버거(과천중앙점)","tel":"02-503-5004","addr":"경기도 과천시 별양동 1-4번지 상아빌딩 102호","category":"음식점업 - 프랜차이즈음식점"},{"name":"부라운토마스","tel":"02-504-1005","addr":"경기도 과천시 별양동 1-13 새서울프라자1층30","category":"신변잡화 - 기타잡화"},{"name":"사랑(LOVE)","tel":"02-3679-2356","addr":"경기도 과천시 별양동 1-18번지 새서울프라자 2층 53호","category":"의류 - 정장"},{"name":"살롱드보떼","tel":"02-503-1055","addr":"경기도 과천시 별양동 1-18번지 새서울프라자 502호","category":"보건위생 - 피부미용실"},{"name":"삼신장식","tel":"02-502-8486","addr":"경기도 과천시 별양동 1-18번지 새서울쇼핑 27호","category":"직물 - 카페트,커튼,천막,지물"},{"name":"새서울당구장","tel":"02-503-9905","addr":"경기도 과천시 별양동 1-18번지 4층","category":"레저업소 - 당 구 장"},{"name":"새서울사진실","tel":"02-502-8996","addr":"경기도 과천시 별양동 1-18번지 새서울프라자 1층 53호","category":"광학제품 - 사진관"},{"name":"새서울수입","tel":"02-502-8733","addr":"경기도 과천시 별양동 1-18번지 새서울프라자 지하1층 13호","category":"소매업 - 기타음식료품및일용잡화"},{"name":"새서울순두부","tel":"02-503-1740","addr":"경기도 과천시 별양동 1-18번지 지하 5-1호","category":"일반휴게음식 - 일반한식"},{"name":"새서울악기","tel":"02-503-3325","addr":"경기도 과천시 별양동 1-18번지 과천새서울프라자 1층 58호","category":"레져용품 - 악기점"},{"name":"새서울종합화장품","tel":"02-502-2174","addr":"경기도 과천시 별양동 1-18번지 새서울프라자 1층 50호","category":"소매업 - 화장품"},{"name":"새서울종합화장품","tel":"02-502-2174","addr":"경기도 과천시 별양동 1-18번지 새서울프라자 1층 50호","category":"보건위생 - 화장품"},{"name":"새서울화원","tel":"02-503-6566","addr":"경기도 과천시 별양동 1-18번지","category":"문화.취미 - 화원"},{"name":"샤넬수입코너","tel":"02-585-5836","addr":"경기도 과천시 별양동 1-13번지 제일쇼핑 133호","category":"소매업 - 잡화"},{"name":"샤인","tel":"02-503-5428","addr":"경기도 과천시 별양동 1-18,새서울프라자2층36","category":"의류 - 정장"},{"name":"샤인","tel":"02-502-2174","addr":"경기도 과천시 별양동 1-18번지 새서울프라자 1층 35호","category":"신변잡화 - 액세서리"},{"name":"센스","tel":"02-504-5875","addr":"경기도 과천시 별양동 1-18 새서울프라자 61","category":"신변잡화 - 기념품점"},{"name":"소나무서관","tel":"","addr":"경기도 과천시 별양동 1-18번지 새서울프라자 3층 66호","category":"서적문구 - 일반서적"},{"name":"소박한한끼","tel":"02-504-7474","addr":"경기도 과천시 별양동 1-18번지 새서울쇼핑 지하 18호","category":"음료식품 - 기타음료식품"},{"name":"수 스킨바디","tel":"02-504-3878","addr":"경기도 과천시 별양동 1-7번지 백두상가 2층 202호","category":"소매업 - 화장품"},{"name":"수산나뜨게방","tel":"02-503-4393","addr":"경기도 과천시 별양동 1-18번지 새서울프라자 2층 57호","category":"직물 - 침구·수예점"},{"name":"수작협동조합","tel":"02-504-6270","addr":"경기도 과천시 별양동 1-18번지 새서울프라자 3층 62호","category":"문화.취미 - 문화취미기타"},{"name":"순희집","tel":"02-503-1684","addr":"경기도 과천시 별양동 1-18번지 새서울쇼핑 지하층 6호","category":"일반휴게음식 - 일반한식"},{"name":"스칼렛","tel":"02-504-1588","addr":"경기도 과천시 별양동 1-18번지 새서울쇼핑 209호","category":"보건위생 - 화장품"},{"name":"스쿨룩스과천점","tel":"02-502-1317","addr":"경기도 과천시 별양동 1-18번지 새서울쇼핑 2층 26,28호","category":"의류 - 맞춤복점"},{"name":"실과바늘","tel":"02-507-5841","addr":"경기도 과천시 별양동 1-18번지","category":"직물 - 침구·수예점"},{"name":"싹스탑","tel":"02-507-0181","addr":"경기도 과천시 별양동 1-18번지 새서울프라자 1층 65호","category":"의류 - 기타의류"},{"name":"씨채널(과천점)","tel":"02-503-8999","addr":"경기도 과천시 별양동 1-10번지 렉스타운 103호","category":"소매업 - 안경"},{"name":"아네스","tel":"02-502-9911","addr":"경기도 과천시 별양동 1-18번지","category":"가구 - 일반가구"},{"name":"아모레 카운셀러","tel":"02-507-3939","addr":"경기도 과천시 별양동 1-18번지 새서울프라자 509호","category":"보건위생 - 화장품"},{"name":"아모레카운셀러","tel":"02-507-3939","addr":"경기도 과천시 별양동 1-18번지 새서울프라자 509호","category":"보건위생 - 화장품"},{"name":"아모레카운셀러","tel":"031-507-0122","addr":"경기도 과천시 별양동 1-18번지 새서울프라자 509호","category":"보건위생 - 화장품"},{"name":"아모레카운셀러","tel":"02-507-3939","addr":"경기도 과천시 별양동 1-18번지 새서울프라자 509호","category":"보건위생 - 화장품"},{"name":"아모레카운셀러","tel":"02-507-3939","addr":"경기도 과천시 별양동 1-18번지 새서울쇼핑 509호","category":"보건위생 - 화장품"},{"name":"아모레카운셀러","tel":"02-507-3939","addr":"경기도 과천시 별양동 1-18번지 새서울프라자 509호","category":"보건위생 - 화장품"},{"name":"아모레카운셀러","tel":"","addr":"경기도 과천시 별양동 1-18번지 새서울쇼핑 509호","category":"보건위생 - 화장품"},{"name":"아모레카운셀러","tel":"02-503-5038","addr":"경기도 과천시 별양동 1-18번지 새서울쇼핑 509호","category":"보건위생 - 화장품"},{"name":"아모레카운셀러","tel":"02-502-5470","addr":"경기도 과천시 별양동 1-18번지 새서울쇼핑 509호","category":"보건위생 - 화장품"},{"name":"아모레카운셀러","tel":"02-111-1111","addr":"경기도 과천시 별양동 1-18번지 새서울쇼핑 509호","category":"보건위생 - 화장품"},{"name":"아모레카운셀러","tel":"031-424-5788","addr":"경기도 과천시 별양동 1-18번지 새서울프라자 509호","category":"보건위생 - 화장품"},{"name":"아모레카운셀러","tel":"","addr":"경기도 과천시 별양동 1-18번지 새서울쇼핑 509호","category":"보건위생 - 화장품"},{"name":"아모레카운셀러","tel":"02-507-3939","addr":"경기도 과천시 별양동 1-18번지 새서울쇼핑 509호","category":"보건위생 - 화장품"},{"name":"아모레카운셀러","tel":"02-507-3939","addr":"경기도 과천시 별양동 1-18번지 새서울프라자 509호","category":"보건위생 - 화장품"},{"name":"아모레카운셀러","tel":"02-507-3939","addr":"경기도 과천시 별양동 1-18 새서울프라자 509","category":"보건위생 - 화장품"},{"name":"아모레카운셀러","tel":"","addr":"경기도 과천시 별양동 1-18번지 새서울프라자 509호","category":"보건위생 - 화장품"},{"name":"아모레카운셀러","tel":"02-507-3939","addr":"경기도 과천시 별양동 1-18번지 새서울프라자 509호","category":"보건위생 - 화장품"},{"name":"아모레카운셀러(신영숙)","tel":"02-507-3939","addr":"경기도 과천시 별양동 1-18번지 새서울쇼핑 509호","category":"보건위생 - 화장품"},{"name":"아씨시","tel":"02-502-9527","addr":"경기도 과천시 별양동 1-18번지 새서울쇼핑 2층 63호","category":"의류 - 기타의류"},{"name":"아쿠아마린","tel":"02-504-4379","addr":"경기도 과천시 별양동 1-18새서울프라자2층24","category":"의류 - 정장"},{"name":"아향","tel":"","addr":"경기도 과천시 별양동 1-18번지 새서울프라자 3층 65호","category":"신변잡화 - 기타잡화"},{"name":"안단테","tel":"02-504-3284","addr":"경기도 과천시 별양동 1-18과천새서울프라자2층10-B호","category":"의류 - 기타의류"},{"name":"애 드","tel":"02-504-2881","addr":"경기도 과천시 별양동 1-18번지 새서울쇼핑 2층","category":"의류 - 정장"},{"name":"애뜨러브","tel":"","addr":"경기도 과천시 별양동 1-18번지 새서울프라자 2층 23호","category":"의류 - 정장"},{"name":"약초명가 과천점","tel":"031-111-1111","addr":"경기도 과천시 별양동 1-18번지 새서울프라자 1층 7호","category":"음료식품 - 기타음료식품"},{"name":"약초명가 과천점","tel":"02-502-3327","addr":"경기도 과천시 별양동 1-18번지 새서울프라자 1층 7호","category":"소매업 - 잡화"},{"name":"에스타크","tel":"","addr":"경기도 과천시 별양동 1-18번지 새서울상가 2층 20호","category":"의류 - 정장"},{"name":"에이레네","tel":"","addr":"경기도 과천시 별양동 1-18번지 새서울프라자 2층 18호","category":"의류 - 정장"},{"name":"에이매쓰수학학원","tel":"02-507-4984","addr":"경기도 과천시 별양동 15번지 2층11호~12호 11호","category":"서비스 - 학원"},{"name":"예쁜나라","tel":"02-507-7353","addr":"경기도 과천시 별양동 1-18번지 새서울쇼핑 2층 4호","category":"의류 - 아동의류"},{"name":"오렌지헤어","tel":"02-3418-0451","addr":"경기도 과천시 별양동 1-18번지 새서울프라자 213호","category":"보건위생 - 미용원"},{"name":"오리지날 리","tel":"02-507-0687","addr":"경기도 과천시 별양동 1-18번지 새서울쇼핑 2-26","category":"의류 - 정장"},{"name":"오매김밥","tel":"02-507-6133","addr":"경기도 과천시 별양동 1-18번지 새서울프라자 지층 44,48호","category":"일반휴게음식 - 스넥"},{"name":"오시나래","tel":"02-507-3337","addr":"경기도 과천시 별양동 1-18번지 과천새서울프라자시장사업협동조합 2층","category":"의류 - 기타의류"},{"name":"오트","tel":"02-502-5470","addr":"경기도 과천시 별양동 1-18번지 새서울쇼핑2층 47호","category":"의류 - 정장"},{"name":"오후(AfterNoon)","tel":"","addr":"경기도 과천시 별양동 1-18번지 새서울쇼핑 1층 12호","category":"음식점업 - 커피"},{"name":"온누리건강나라약국","tel":"02-3418-6464","addr":"경기도 과천시 별양동 1-18번지 새서울프라자 1층 13호","category":"약국 - 약국"},{"name":"온누리건강나라약국","tel":"02-3418-6464","addr":"경기도 과천시 별양동 1-18번지 새서울프라자 1층 13호","category":"약국 - 약국"},{"name":"올리브","tel":"02-504-1411","addr":"경기도 과천시 별양동 1-18번지 새서울쇼핑 2층","category":"의류 - 정장"},{"name":"올리브주니어영어교습소","tel":"","addr":"경기도 과천시 별양동 1-11번지 벽산상가507호일부","category":"교육서비스업 - 영어교습소"},{"name":"우리가","tel":"02-507-3337","addr":"경기도 과천시 별양동 1-18번지 과천새서울프라자시장사업협동조합 2층 31","category":"신변잡화 - 제화"},{"name":"원죽","tel":"02-504-5525","addr":"경기도 과천시 별양동 1-18 새서울쇼핑지하10-12","category":"일반휴게음식 - 일반한식"},{"name":"월드플리츠","tel":"02-504-3472","addr":"경기도 과천시 별양동 1-18번지 새서울프라자 2층 214호","category":"의류 - 정장"},{"name":"유니크 (UNIQUE)","tel":"02-504-0399","addr":"경기도 과천시 별양동 1-18번지 새서울프라자 1층 27호","category":"신변잡화 - 기타잡화"},{"name":"유진컴퓨터","tel":"02-504-1414","addr":"경기도 과천시 별양동 1-18새서울프라자지층32,34,36호","category":"사무통신 - 컴퓨터"},{"name":"유희장","tel":"","addr":"경기도 과천시 별양동 1-18번지 새서울프라자 1층 46호","category":"서적문구 - 문구용품"},{"name":"이라세라믹아트","tel":"070-7249-4198","addr":"경기도 과천시 별양동 1-18번지 새서울프라자 55호","category":"문화.취미 - 민예·공예품"},{"name":"이레","tel":"02-507-2639","addr":"경기도 과천시 별양동 1-18번지 새서울프라자2층 57","category":"의류 - 정장"},{"name":"이바로","tel":"02-502-1120","addr":"경기도 과천시 별양동 1-18번지 새서울쇼핑 지하층 44,48호","category":"일반휴게음식 - 일반한식"},{"name":"이오니아","tel":"02-503-6689","addr":"경기도 과천시 별양동 1-18번지 새서울프라자 지층 25호","category":"주방용구 - 정수기"},{"name":"이철헤어커커(과천점)","tel":"02-503-2326","addr":"경기도 과천시 별양동 1-8번지 골든타워 203,204,205호","category":"서비스 - 미용업"},{"name":"이헌영","tel":"02-502-8236","addr":"경기도 과천시 별양동 1-18번지 2층","category":"의류 - 정장"},{"name":"인사이드가구","tel":"02-207-4664","addr":"경기도 과천시 별양동 1-18 새서울프라자 3층 29,30호","category":"가구 - 일반가구"},{"name":"인터넷 포세이돈","tel":"02-502-7413","addr":"경기도 과천시 별양동 1-18번지 새서울쇼핑 203호","category":"레저업소 - 기타레져업소"},{"name":"일룸과천점","tel":"02-504-2010","addr":"경기도 과천시 별양동 1-18번지 새서울쇼핑 3층","category":"가구 - 기타가구"},{"name":"장그미","tel":"02-502-5333","addr":"경기도 과천시 별양동 1-18번지 지하1층 3,4호","category":"일반휴게음식 - 서양음식"},{"name":"쟈스민","tel":"","addr":"경기도 과천시 별양동 1-18번지 과천새서울프라자 2층 25호","category":"의류 - 정장"},{"name":"정관장홍삼과천점","tel":"02-502-1304","addr":"경기도 과천시 별양동 13번지 병원상가 101호","category":"소매업 - 홍삼제품"},{"name":"정금주한복연구실","tel":"02-503-8376","addr":"경기도 과천시 별양동 1-18번지 새서울프라자2층 14","category":"의류 - 맞춤복점"},{"name":"제시카","tel":"","addr":"경기도 과천시 별양동 1-18번지 새거울프라자 2층 19호","category":"의류 - 정장"},{"name":"제인","tel":"02-507-6824","addr":"경기도 과천시 별양동 1-18번지 새서울쇼핑 2층 58","category":"의류 - 정장"},{"name":"조선생수학학원","tel":"02-504-5001","addr":"경기도 과천시 별양동 1-18번지 새서울프라자 511호","category":"학원 - 보습학원"},{"name":"조선생수학학원","tel":"02-504-5001","addr":"경기도 과천시 별양동 1-18번지 새서울프라자 511호","category":"교육서비스업 - 보습학원"},{"name":"조선생연구실","tel":"02-504-5001","addr":"경기도 과천시 별양동 1-18번지","category":"회원제형태 - 서적"},{"name":"조이","tel":"02-502-6080","addr":"경기도 과천시 별양동 1-18번지 새서울쇼핑 12호","category":"의류 - 정장"},{"name":"조이","tel":"02-502-6080","addr":"경기도 과천시 별양동 1-18번지 새서울프라자 2층 21호","category":"소매업 - 의류"},{"name":"조인 케이컴","tel":"","addr":"경기도 과천시 별양동 1-18번지 새서울쇼핑 2층 12호 라다인","category":"의류 - 정장"},{"name":"종로학원하늘교육과천학원","tel":"02-507-4725","addr":"경기도 과천시 별양동 1-18 새서울쇼핑5층7호,12호,13호,13-1호","category":"학원 - 보습학원"},{"name":"종합신발","tel":"02-504-6654","addr":"경기도 과천시 별양동 1-18새서울프라자1층48","category":"신변잡화 - 신발"},{"name":"주노리미용실","tel":"02-503-0844","addr":"경기도 과천시 별양동 1-3번지 제일상가 4층 406호","category":"서비스 - 미용"},{"name":"준","tel":"02-504-4711","addr":"경기도 과천시 별양동 1-18번지 새서울쇼핑 2층 41호","category":"의류 - 기타의류"},{"name":"중앙문구","tel":"02-502-6800","addr":"경기도 과천시 별양동 1-18새서을프라자1층40","category":"서적문구 - 문구용품"},{"name":"짱노래연습장","tel":"02-507-5225","addr":"경기도 과천시 별양동 1-18번지 새서울쇼핑 4층","category":"레저업소 - 노 래 방"},{"name":"차이야기","tel":"02-502-7245","addr":"경기도 과천시 별양동 1-18번지 새서울쇼핑센터 1층 2호","category":"문화.취미 - 민예·공예품"},{"name":"채우다","tel":"070-7778-5738","addr":"경기도 과천시 별양동 1-18번지 새서울프라자 2층 54호","category":"보건위생 - 화장품"},{"name":"청년떡볶이(과천중앙점)","tel":"02-504-8282","addr":"경기도 과천시 별양동 1-3번지 제일상가 107호","category":"음식점업 - 일반음식"},{"name":"청도수산","tel":"02-503-1616","addr":"경기도 과천시 별양동 1-17번지 과천타워 지하1층 10호","category":"음식점업 - 한식"},{"name":"초코비니카페","tel":"02-507-7766","addr":"경기도 과천시 별양동 1-13번지 제일상가1층 113, 114호","category":"음식점업 - 커피간식한방차"},{"name":"최가네무교동낚지","tel":"02-3679-9666","addr":"경기도 과천시 별양동 1-18번지 새서울쇼핑 5층","category":"일반휴게음식 - 일반한식"},{"name":"커브스 별양클럽","tel":"031-503-1330","addr":"경기도 과천시 별양동 1-18번지 새서울쇼핑 3층","category":"레저업소 - 헬스클럽"},{"name":"커피가게","tel":"070-8822-5538","addr":"경기도 과천시 별양동 1-18번지 새서울프라자 1층 12호","category":"일반휴게음식 - 서양음식"},{"name":"코코더샵(CoCo더#)","tel":"02-504-4041","addr":"경기도 과천시 별양동 1-18번지 새서울프라자 2층 6호","category":"의류 - 정장"},{"name":"쿠모(KUMO)","tel":"02-3678-9545","addr":"경기도 과천시 별양동 1-19번지 이마트 6층","category":"음식점업 - 한식"},{"name":"파랑","tel":"02-502-8386","addr":"경기도 과천시 별양동 1-18번지 59 1층","category":"의류 - 정장"},{"name":"팩토리지","tel":"02-6013-6347","addr":"경기도 과천시 별양동 1-18번지 3층 62,63호","category":"신변잡화 - 가방"},{"name":"폴로","tel":"02-502-5429","addr":"경기도 과천시 별양동 1-18새서울프라자2층52","category":"신변잡화 - 가방"},{"name":"표희정니트","tel":"02-503-1254","addr":"경기도 과천시 별양동 1-18번지 새서울쇼핑","category":"의류 - 정장"},{"name":"풀잎문화센터 과천지부","tel":"02-504-5579","addr":"경기도 과천시 별양동 1-18번지 새서울빌딩 3층 13호,14호","category":"문화.취미 - 문화취미기타"},{"name":"필","tel":"02-507-2639","addr":"경기도 과천시 별양동 1-18 새서울프라자2층 56","category":"의류 - 기타의류"},{"name":"필라테스랩_파스트","tel":"02-503-7049","addr":"경기도 과천시 별양동 1-18번지 5층 509-2호","category":"레저업소 - 헬스클럽"},{"name":"하양까망","tel":"02-504-0304","addr":"경기도 과천시 별양동 1-18 새서울프라자2층22","category":"의류 - 정장"},{"name":"한땀","tel":"02-3418-3489","addr":"경기도 과천시 별양동 1-13번지 제일쇼핑 2층 244호","category":"서비스 - 공방"},{"name":"헬로로지","tel":"02-3418-8142","addr":"경기도 과천시 별양동 1-18번지 새서울프라자 1층 22호","category":"음료식품 - 기타음료식품"},{"name":"현대수학학원","tel":"02-507-5127","addr":"경기도 과천시 별양동 1-18번지 새서울프라자 5층 503호","category":"학원 - 보습학원"},{"name":"화이트세탁편의점","tel":"02-503-6050","addr":"경기도 과천시 별양동 1-18번지 새서울쇼핑","category":"수리서비스 - 세탁소"},{"name":"환타지아","tel":"02-504-3003","addr":"경기도 과천시 별양동 1-18번지 새서울쇼핑 2층 54호","category":"의류 - 정장"},{"name":"황가네 분식","tel":"02-507-1331","addr":"경기도 과천시 별양동 1-18번지 새서울프라자 지하 50호","category":"일반휴게음식 - 스넥"},{"name":"황금장","tel":"02-502-3358","addr":"경기도 과천시 별양동 1-18번지 새서울쇼핑 19호","category":"신변잡화 - 시계"},{"name":"후즈넥스트","tel":"02-504-4711","addr":"경기도 과천시 별양동 1-18번지 새서울프라자 2층 42호","category":"의류 - 정장"},{"name":"훼어리","tel":"02-502-4525","addr":"경기도 과천시 별양동 1-18번지 새서울쇼핑 2층","category":"의류 - 정장"}]},{"lat":"37.427083213","long":"126.99150505","items":[{"name":"2&3","tel":"02-507-6941","addr":"경기도 과천시 별양동 1-16번지 교보생명","category":"일반휴게음식 - 서양음식"},{"name":"비컬렉션","tel":"02-502-8210","addr":"경기도 과천시 별양동 1-13번지 제일쇼핑 3층 335.337호","category":"소매업 - 의류"},{"name":"연세스위트치과병원","tel":"02-3678-2875","addr":"경기도 과천시 별양동 1-16번지 교보빌딩 6층","category":"병원 - 치과병원"},{"name":"오체안피부과의원 과천점","tel":"031-000-0000","addr":"경기도 과천시 별양동 1-16번지 교보빌딩 6층","category":"의원 - 의원"}]},{"lat":"37.428245444","long":"126.99086089","items":[{"name":"25시해장국","tel":"02-503-5889","addr":"경기도 과천시 별양동 1-11번지 벽산 상가 108호","category":"음식점업 - 한식"},{"name":"미촌미용","tel":"02-504-7309","addr":"경기도 과천시 별양동 1-13번지 제일쇼핑 2층 213호~214호","category":"서비스 - 미용"},{"name":"안경마트","tel":"02-502-6567","addr":"경기도 과천시 별양동 1-13번지 제일쇼핑 1층 119호","category":"소매업 - 안경"},{"name":"윈스포츠","tel":"02-507-7979","addr":"경기도 과천시 별양동 1-13번지 제일쇼핑 116호","category":"도소매 - 스포츠용품"},{"name":"유희장","tel":"","addr":"경기도 과천시 별양동 1-18번지 새서울프라자 1층 46호","category":"도소매 - 문구"},{"name":"해원복집","tel":"02-504-1626","addr":"경기도 과천시 별양동 1-15번지 에스트로쇼핑 지하층","category":"음식점업 - 한식"}]},{"lat":"37.427939294","long":"126.99291716","items":[{"name":"25시해장국","tel":"02-503-5889","addr":"경기도 과천시 별양동 1-11번지 벽산 상가 108호","category":"일반휴게음식 - 일반한식"},{"name":"www.n호프.com","tel":"02-507-3690","addr":"경기도 과천시 별양동 1-11번지 벽산상가 117,120,121호","category":"일반휴게음식 - 주점"},{"name":"가마로강정(과천점)","tel":"02-504-7292","addr":"경기도 과천시 별양동 1-5번지 신라상가 104호","category":"음식점업 - 닭강정"},{"name":"경헤어공작소","tel":"02-502-2429","addr":"경기도 과천시 별양동 1-11번지 벽산빌딩 4층 403호","category":"보건위생 - 미용원"},{"name":"고장난기억","tel":"02-503-1024","addr":"경기도 과천시 별양동 1-11번지 벽산상가2층206,208호","category":"일반휴게음식 - 일반한식"},{"name":"과천실용음악학원","tel":"02-503-8222","addr":"경기도 과천시 별양동 1-11벽산상가510.513호","category":"학원 - 예·체능계학원"},{"name":"과천한우곱창","tel":"02-507-7711","addr":"경기도 과천시 별양동 1-11번지 벽산 상가 201호","category":"일반휴게음식 - 일반한식"},{"name":"구름공방","tel":"02-3678-9608","addr":"경기도 과천시 별양동 1-11번지 벽산상가 308호","category":"일반휴게음식 - 일반한식"},{"name":"굴다리 26호(사랑)","tel":"02-507-0507","addr":"경기도 과천시 별양동 56","category":"소매업 - 청과물"},{"name":"김준모통신","tel":"02-502-8011","addr":"경기도 과천시 별양동 1-11번지 1층","category":"사무통신 - 통신기기"},{"name":"대흥식당","tel":"02-504-1002","addr":"경기도 과천시 별양동 1-11번지 벽산상가 지하1층 13, 15호","category":"일반휴게음식 - 일반한식"},{"name":"더돈카페","tel":"02-502-9648","addr":"경기도 과천시 별양동 1-11번지 2층 209-1호","category":"일반휴게음식 - 서양음식"},{"name":"더헤어#","tel":"02-507-7273","addr":"경기도 과천시 별양동 1-11번지 벽산 상가 307호","category":"보건위생 - 미용원"},{"name":"떡고을","tel":"02-502-4040","addr":"경기도 과천시 별양동 1-11번지 벽산 상가 112호","category":"음료식품 - 제과점"},{"name":"라이브노래연습장","tel":"031-507-6656","addr":"경기도 과천시 별양동 1-11번지 벽산 상가 401호","category":"레저업소 - 노 래 방"},{"name":"라폰타나(LA FONTANA)","tel":"02-502-9448","addr":"경기도 과천시 별양동 1-11 벽산상가 1층 1,2","category":"일반휴게음식 - 일반한식"},{"name":"무교동서린낙지","tel":"02-504-2124","addr":"경기도 과천시 별양동 1-14번지 과천오피스텔 B06호","category":"음식점업 - 한식"},{"name":"바디 리페어(Body Repair)","tel":"031-000-0000","addr":"경기도 과천시 별양동 1-11번지 404,405,417,418호","category":"레저업소 - 헬스클럽"},{"name":"바르다김선생과천정부청사역점","tel":"02-504-6555","addr":"경기도 과천시 별양동 1-11번지 벽산 상가 113,115,116호","category":"일반휴게음식 - 일반한식"},{"name":"바른국수 둥이네","tel":"","addr":"경기도 과천시 별양동 1-11번지 벽산상가 지층 B14호","category":"일반휴게음식 - 일반한식"},{"name":"베리굿생태한마리","tel":"02-504-2778","addr":"경기도 과천시 별양동 1-11번지 벽산빌딩 301호","category":"일반휴게음식 - 일반한식"},{"name":"벽산","tel":"02-503-5591","addr":"경기도 과천시 별양동 1-11번지 벽산 상가 지층 7호","category":"보건위생 - 기타대인서비스"},{"name":"벽산당구클럽","tel":"02-504-0882","addr":"경기도 과천시 별양동 1-11번지 벽산상가 209호","category":"레저업소 - 당 구 장"},{"name":"벽산목욕탕","tel":"02-503-5599","addr":"경기도 과천시 별양동 1-11번지 벽산빌딩","category":"보건위생 - 사우나"},{"name":"벽산미용실","tel":"02-502-2514","addr":"경기도 과천시 별양동 1-11번지 벽산 상가 512-1호","category":"보건위생 - 미용원"},{"name":"보그보그","tel":"02-507-3559","addr":"경기도 과천시 별양동 1-11번지 벽산 상가 217호","category":"일반휴게음식 - 일반한식"},{"name":"보배네","tel":"02-503-5587","addr":"경기도 과천시 별양동 1-11번지 벽산상가지하 11호","category":"일반휴게음식 - 일반한식"},{"name":"불닭발동대문엽기떡볶이과천점","tel":"02-3678-8592","addr":"경기도 과천시 별양동 1-11번지 벽산 상가 205호","category":"일반휴게음식 - 일반한식"},{"name":"뷰티살롱메이(MAY)","tel":"070-8810-2919","addr":"경기도 과천시 별양동 1-11번지 벽산상가 218호","category":"보건위생 - 피부미용실"},{"name":"세종헤어클럽","tel":"02-507-7273","addr":"경기도 과천시 별양동 1-11번지 벽산 상가 307호","category":"보건위생 - 미용원"},{"name":"소금과설탕(Sel et Sucre)","tel":"02-3418-0309","addr":"경기도 과천시 별양동 1-11 벽산상가103호~104호","category":"일반휴게음식 - 서양음식"},{"name":"손약국","tel":"02-502-1725","addr":"경기도 과천시 별양동 1-4번지 상아빌딩 201호","category":"소매업 - 의약품"},{"name":"수수학교습소","tel":"042-583-2142","addr":"경기도 과천시 별양동 1-11번지 벽산 상가 310호","category":"회원제형태 - 학원"},{"name":"수학의 신","tel":"031-502-4152","addr":"경기도 과천시 별양동 1-11번지 벽산상가 306호, 318호","category":"학원 - 보습학원"},{"name":"스튜디오진포토","tel":"02-503-5009","addr":"경기도 과천시 별양동 1-11번지 벽산 상가 314호","category":"광학제품 - 사진관"},{"name":"신바이오","tel":"02-502-0995","addr":"경기도 과천시 별양동 1-11 벽산빌딩 305-1호","category":"서적문구 - 과학기자재"},{"name":"아이숲미술교습소","tel":"02-502-4471","addr":"경기도 과천시 별양동 1-11번지 벽산 상가 312호 311일부","category":"학원 - 예·체능계학원"},{"name":"에스앤디스터디수학교습소","tel":"02-3418-7888","addr":"경기도 과천시 별양동 1-11번지 벽산상가 509호","category":"학원 - 보습학원"},{"name":"역전우동0410과천별양점","tel":"02-503-2119","addr":"경기도 과천시 별양동 1-11번지 109호 , 벽산상가109호~110호","category":"일반휴게음식 - 일반한식"},{"name":"예손꽃프라자","tel":"02-504-1730","addr":"경기도 과천시 별양동 1-11번지 벽산상가 112호","category":"문화.취미 - 화원"},{"name":"오렌지나무","tel":"02-502-4706","addr":"경기도 과천시 별양동 1-13번지 제일쇼핑 243호","category":"소매업 - 숙녀복"},{"name":"오븐에빠진닭","tel":"02-504-5892","addr":"경기도 과천시 별양동 1-11번지 벽산상가 2층 202호","category":"일반휴게음식 - 스넥"},{"name":"올리브주니어영어교습소","tel":"02-507-7809","addr":"경기도 과천시 별양동 1-11번지 벽산 상가 507호 일부","category":"회원제형태 - 학원"},{"name":"진짬뽕","tel":"02-503-3900","addr":"경기도 과천시 별양동 1-11번지 2층 207,208,215호","category":"일반휴게음식 - 중국식"},{"name":"풍경","tel":"02-504-1127","addr":"경기도 과천시 별양동 1-11번지 벽산 상가 204호","category":"일반휴게음식 - 일반한식"},{"name":"하나네집","tel":"02-507-6603","addr":"경기도 과천시 별양동 1-11번지 벽산빌딩 지하층 12호","category":"일반휴게음식 - 일반한식"},{"name":"하선아헤어&스켈프케어","tel":"02-502-9955","addr":"경기도 과천시 별양동 1-11번지 벽산상가 311호, 312호 일부","category":"보건위생 - 미용원"},{"name":"항아리수제비","tel":"02-504-4894","addr":"경기도 과천시 별양동 1-11번지 벽산 상가 지하층 8호","category":"일반휴게음식 - 일반한식"},{"name":"헬스트론 과천프라자","tel":"02-3678-8910","addr":"경기도 과천시 별양동 1-11번지 4층 411호 벽산 상가","category":"보건위생 - 의료용품"}]},{"lat":"37.423911882","long":"126.99388927","items":[{"name":"5단지방앗간","tel":"02-502-7605","addr":"경기도 과천시 별양동 6번지 5단지상가지하5호","category":"도소매 - 방앗간"},{"name":"공감영어학원","tel":"02-504-2772","addr":"경기도 과천시 별양동 15번지 2층 9호 일부, 10호 일부","category":"학원 - 보습학원"},{"name":"과천비바체음악교습소","tel":"02-502-3003","addr":"경기도 과천시 별양동 15번지 동화나라유치원 3층 16호","category":"학원 - 예·체능계학원"},{"name":"글로리칼라현상소","tel":"02-503-3455","addr":"경기도 과천시 별양동 15번지 호프호텔쇼핑 1층","category":"광학제품 - 카메라"},{"name":"늘하얀세탁소","tel":"02-504-7407","addr":"경기도 과천시 별양동 15번지 1층","category":"수리서비스 - 세탁소"},{"name":"다온화장품","tel":"02-502-1265","addr":"경기도 과천시 별양동 1-18번지 새서울프라자 1층 45호","category":"소매업 - 화장품"},{"name":"다인도시락","tel":"02-503-4949","addr":"경기도 과천시 별양동 15번지 유치원상가 지하층 4호","category":"일반휴게음식 - 일반한식"},{"name":"마루","tel":"","addr":"경기도 과천시 별양동 1-7번지 백두빌딩 지층 4호","category":"음식점업 - 북카페"},{"name":"매쓰아카데미수학교습소","tel":"02-504-9080","addr":"경기도 과천시 별양동 15번지 동화나라유치원 3층 13호","category":"학원 - 보습학원"},{"name":"삼칠광고기획","tel":"02-504-0037","addr":"경기도 과천시 별양동 15번지 동화나라유치원 지하층 2호","category":"용역 서비스 - 종합용역"},{"name":"에이매쓰수학학원","tel":"02-507-4984","addr":"경기도 과천시 별양동 15번지 11 2층 11호~12호","category":"학원 - 보습학원"},{"name":"참예음음악학원","tel":"02-504-2911","addr":"경기도 과천시 별양동 15번지 3층","category":"학원 - 예·체능계학원"},{"name":"푸드딜라이트 과천점","tel":"031-0000-0000","addr":"경기도 과천시 별양동 15번지 동화나라유치원 1층 5호","category":"일반휴게음식 - 일반한식"},{"name":"하나로식당","tel":"02-502-6333","addr":"경기도 과천시 별양동 15번지 나래 유치원상가 지하층","category":"일반휴게음식 - 일반한식"},{"name":"행복한약국","tel":"02-503-1116","addr":"경기도 과천시 별양동 1-7번지 백두빌딩 302호","category":"소매업 - 양약"}]},{"lat":"37.423722646","long":"126.99356167","items":[{"name":"A&C","tel":"02-507-2865","addr":"경기도 과천시 별양동 10번지 과천우체국 2층","category":"문화.취미 - 민예·공예품"},{"name":"과천우체국","tel":"02-503-0002","addr":"경기도 과천시 별양동 10번지","category":"용역 서비스 - 공공요금대행서비스/소"},{"name":"과천우체국","tel":"02-503-0002","addr":"경기도 과천시 별양동 10번지","category":"용역 서비스 - 공공요금대행서비스/소"},{"name":"샤크레이싱","tel":"070-530-3438","addr":"경기도 과천시 별양동 10번지 과천우체국 청사 1층","category":"자동차정비 유지 - 자동차부품"},{"name":"아리따움과천점","tel":"02-502-1954","addr":"경기도 과천시 별양동 1-17번지 과천타워 1층 106호","category":"도소매 - 화장품"}]},{"lat":"37.427245524","long":"126.99295115","items":[{"name":"B.B.과천점","tel":"02-502-3640","addr":"경기도 과천시 별양동 1-13번지 제일상가 2층 204호","category":"일반휴게음식 - 스넥"},{"name":"BBQ 과천점","tel":"02-502-3640","addr":"경기도 과천시 별양동 1-13번지 제일상가2층 204호","category":"음식점업 - 치킨"},{"name":"BSBIO과천지사","tel":"02-502-3321","addr":"경기도 과천시 별양동 1-13번지 제일쇼핑 2층 220호","category":"신변잡화 - 기타잡화"},{"name":"건강코너","tel":"02-503-9178","addr":"경기도 과천시 별양동 1-13번지 제일쇼핑 110호","category":"건강식품 - 인삼제품"},{"name":"과천스포츠","tel":"070-7794-4522","addr":"경기도 과천시 별양동 1-13번지 제일쇼핑 2층 218호","category":"레져용품 - 스포츠·레져용품"},{"name":"과천지물","tel":"02-503-2350","addr":"경기도 과천시 별양동 1-13번지 제일쇼핑 104호","category":"직물 - 카페트,커튼,천막,지물"},{"name":"과천표구화랑.기획","tel":"02-507-6939","addr":"경기도 과천시 별양동 1-15번지 350호 그레이스호텔3층350~353호","category":"도소매 - 표구"},{"name":"금옥당","tel":"02-503-9779","addr":"경기도 과천시 별양동 1-13번지 제일쇼핑 127호","category":"신변잡화 - 귀금속"},{"name":"김밥천국","tel":"02-507-1009","addr":"경기도 과천시 별양동 1-13번지 제일쇼핑 1층 120-123호","category":"일반휴게음식 - 스넥"},{"name":"김정문알로에(과천점)","tel":"02-502-7182","addr":"경기도 과천시 별양동 1-13번지 제일쇼핑 137호","category":"건강식품 - 기타건강식품"},{"name":"깜지","tel":"02-3679-0766","addr":"경기도 과천시 별양동 1-13번지 제일쇼핑 245호","category":"의류 - 정장"},{"name":"다이나믹365","tel":"02-3679-5208","addr":"경기도 과천시 별양동 1-13번지 제일쇼핑 232호","category":"건강식품 - 기타건강식품"},{"name":"더케이로드","tel":"070-8222-6443","addr":"경기도 과천시 별양동 1-13 2층251,252호","category":"의류 - 정장"},{"name":"데이지","tel":"02-3418-6432","addr":"경기도 과천시 별양동 1-13번지 제일쇼핑 231호","category":"직물 - 침구·수예점"},{"name":"도서할인코너","tel":"02-503-1252","addr":"경기도 과천시 별양동 제일쇼핑 지하1층","category":"서적문구 - 일반서적"},{"name":"디오수능영어교습소","tel":"070-3150-8734","addr":"경기도 과천시 별양동 1-13번지 제일쇼핑 3층 317호","category":"학원 - 외국어학원"},{"name":"뜨개사랑","tel":"02-503-3415","addr":"경기도 과천시 별양동 1-13번지 제일쇼핑 249호","category":"직물 - 침구·수예점"},{"name":"라떼에 반하다","tel":"02-3418-2588","addr":"경기도 과천시 별양동 1-5번지 신라 상가 105호","category":"음식점업 - 커피"},{"name":"라떼킹","tel":"02-502-8267","addr":"경기도 과천시 별양동 1-15번지 113~116호","category":"음식점업 - 카페"},{"name":"로즈마리","tel":"02-503-2709","addr":"경기도 과천시 별양동 1-13번지","category":"의류 - 정장"},{"name":"루시","tel":"02-3418-5919","addr":"경기도 과천시 별양동 1-13번지 제일쇼핑 2층 217호","category":"보건위생 - 화장품"},{"name":"루카","tel":"02-502-3668","addr":"경기도 과천시 별양동 1-13번지 제일쇼핑 2층 225호","category":"의류 - 정장"},{"name":"마니","tel":"02-3679-2486","addr":"경기도 과천시 별양동 1-13번지 제일쇼핑 1층","category":"신변잡화 - 액세서리"},{"name":"마리","tel":"02-504-7203","addr":"경기도 과천시 별양동 1-13번지 제일쇼핑 129호","category":"신변잡화 - 액세서리"},{"name":"메디칼8층약국","tel":"02-507-8982","addr":"경기도 과천시 별양동 1-19번지 이마트 8층","category":"소매업 - 약국"},{"name":"메리퀸","tel":"02-502-2726","addr":"경기도 과천시 별양동 1-18번지","category":"소매업 - 침구류,수건"},{"name":"명치과의원","tel":"02-503-0300","addr":"경기도 과천시 별양동 1-13번지 제일쇼핑 604호","category":"의원 - 치과의원"},{"name":"문원슈퍼 나들가게","tel":"02-502-5030","addr":"경기도 과천시 별양동 13번지 3단지병원 109호","category":"소매업 - 슈퍼마켓"},{"name":"미의류","tel":"02-503-1728","addr":"경기도 과천시 별양동 1-13번지 제일쇼핑 253호","category":"의류 - 기타의류"},{"name":"미촌미용","tel":"02-504-7309","addr":"경기도 과천시 별양동 1-13번지 제일쇼핑 2층 213호","category":"보건위생 - 미용원"},{"name":"바디 클리닉 제이엘 필라테스","tel":"02-504-0023","addr":"경기도 과천시 별양동 1-13번지 601,602,603호","category":"레저업소 - 헬스클럽"},{"name":"별주막","tel":"02-504-7016","addr":"경기도 과천시 별양동 1-5번지 신라상가 B104 ,105호","category":"음식점업 - 한식"},{"name":"보그","tel":"02-504-3444","addr":"경기도 과천시 별양동 1-13번지 제일상가 3층 305호","category":"의류 - 기타의류"},{"name":"보그스","tel":"02-503-4852","addr":"경기도 과천시 별양동 1-13번지 제일쇼핑상가 2층 247호","category":"의류 - 정장"},{"name":"보금장","tel":"02-503-4989","addr":"경기도 과천시 별양동 1-18번지 새서울프라자","category":"소매업 - 귀금속"},{"name":"비컬렉션","tel":"02-502-8210","addr":"경기도 과천시 별양동 1-13번지 제일쇼핑 3층 335.337호","category":"의류 - 와이셔츠·타이"},{"name":"사회적기업열린사회오픈스토어","tel":"070-7539-9547","addr":"경기도 과천시 별양동 1-13번지 제일쇼핑 1층 141호","category":"신변잡화 - 기타잡화"},{"name":"샤넬 수입코너","tel":"02-585-5836","addr":"경기도 과천시 별양동 1-13번지 제일쇼핑 133호","category":"음료식품 - 기타음료식품"},{"name":"샤론","tel":"02-577-1393","addr":"경기도 과천시 별양동 1-13번지 제일쇼핑 2층 235호","category":"보건위생 - 화장품"},{"name":"서코실업","tel":"02-507-4389","addr":"경기도 과천시 별양동 1-13번지 제일쇼핑 1층 145호","category":"신변잡화 - 제화"},{"name":"송패션숙녀복","tel":"02-502-8217","addr":"경기도 과천시 별양동 1-13번지 제일쇼핑 2층 207호","category":"의류 - 정장"},{"name":"신광기획","tel":"02-2275-3559","addr":"경기도 과천시 별양동 1-13번지 제일쇼핑 3층 351호","category":"서적문구 - 출판 및 인쇄물"},{"name":"싹스탑 과천점","tel":"02-507-0181","addr":"경기도 과천시 별양동 1-18번지 새서울쇼핑 1층 65호","category":"소매업 - 잡화"},{"name":"씨-에스디자인","tel":"02-504-4440","addr":"경기도 과천시 별양동 1-13번지","category":"가구 - 일반가구"},{"name":"아방스","tel":"02-503-4373","addr":"경기도 과천시 별양동 1-13번지 118호,117호 일부","category":"직물 - 침구·수예점"},{"name":"아방스","tel":"02-503-4373","addr":"경기도 과천시 별양동 1-13번지 제일쇼핑 119호","category":"소매업 - 수예품"},{"name":"안경마트","tel":"02-502-6567","addr":"경기도 과천시 별양동 1-13번지 제일쇼핑 1층 119호","category":"보건위생 - 안경"},{"name":"양희방왕족발","tel":"02-504-2419","addr":"경기도 과천시 별양동 1-13번지 제일쇼핑 지하층 104호","category":"일반휴게음식 - 일반한식"},{"name":"에나","tel":"02-503-1728","addr":"경기도 과천시 별양동 1-13번지 제일쇼핑 2층 251호","category":"의류 - 정장"},{"name":"에나","tel":"02-503-1728","addr":"경기도 과천시 별양동 1-13번지 (주)동은유통 2동 246호","category":"의류 - 기타의류"},{"name":"예림플라워","tel":"02-503-2255","addr":"경기도 과천시 별양동 1-13번지 제일쇼핑 109호","category":"문화.취미 - 화원"},{"name":"오렌지나무","tel":"02-502-4706","addr":"경기도 과천시 별양동 1-13번지 제일쇼핑 243호","category":"의류 - 정장"},{"name":"오케바리","tel":"02-502-9115","addr":"경기도 과천시 별양동 1-5번지 신라상가 106호","category":"음식점업 - 간이음식점"},{"name":"올래맛집","tel":"031-502-0470","addr":"경기도 과천시 별양동 1-13번지 제일쇼핑 지하 106호","category":"일반휴게음식 - 일반한식"},{"name":"옳은식당","tel":"02-3418-5051","addr":"경기도 과천시 별양동 1-13번지 제일쇼핑 G동 1층 121호","category":"일반휴게음식 - 일반한식"},{"name":"용대리황태마을","tel":"031-111-1111","addr":"경기도 과천시 별양동 1-13번지 지하1층 107,109,110호","category":"일반휴게음식 - 일반한식"},{"name":"우리옷명가","tel":"02-507-0291","addr":"경기도 과천시 별양동 1-13번지 제일빌딩 207호","category":"의류 - 맞춤복점"},{"name":"웨스팅하우스","tel":"02-502-3563","addr":"경기도 과천시 별양동 1-13번지 제일쇼핑 409호","category":"기타 - 기타 전문점"},{"name":"웨스팅하우스","tel":"02-502-3563","addr":"경기도 과천시 별양동 1-13번지 새서울쇼핑 341호","category":"전기제품 - 가전제품"},{"name":"위젠주식회사","tel":"031-8084-9421","addr":"경기도 과천시 별양동 1-13번지 제일쇼핑 206호","category":"신변잡화 - 기타잡화"},{"name":"윈스포츠","tel":"02-507-7979","addr":"경기도 과천시 별양동 1-13번지","category":"레져용품 - 스포츠·레져용품"},{"name":"유유이학원","tel":"02-507-6620","addr":"경기도 과천시 별양동 1-13번지 제일쇼핑 3층","category":"학원 - 기타 교육기관"},{"name":"이경희부띠끄","tel":"02-504-3437","addr":"경기도 과천시 별양동 1-13번지 제일쇼핑 내 2층 250호","category":"의류 - 정장"},{"name":"이음(i:em)","tel":"02-503-1338","addr":"경기도 과천시 별양동 1-13번지 제일쇼핑 2층 219호","category":"의류 - 정장"},{"name":"이정희 새건강 테라피","tel":"031-503-4254","addr":"경기도 과천시 별양동 1-13번지 제일쇼핑 217호","category":"보건위생 - 기타대인서비스"},{"name":"이제이 수학교습소","tel":"031-423-2265","addr":"경기도 과천시 별양동 1-13번지 제일쇼핑 3층 302호","category":"학원 - 보습학원"},{"name":"이즈치과의원","tel":"02-3679-2828","addr":"경기도 과천시 별양동 1-20번지 유니온빌딩 304호","category":"보건업 - 치과"},{"name":"인스타일","tel":"02-502-3255","addr":"경기도 과천시 별양동 1-13번지 제일쇼핑 225,0번지 2층","category":"의류 - 정장"},{"name":"정라진곰치국","tel":"02-503-3268","addr":"경기도 과천시 별양동 1-13번지 제일쇼핑 지하 116,117호","category":"일반휴게음식 - 일반한식"},{"name":"제일대중사우나","tel":"02-507-5526","addr":"경기도 과천시 별양동 1-13번지 제일쇼핑 지하1층 114호","category":"보건위생 - 사우나"},{"name":"제일세탁소","tel":"02-503-6941","addr":"경기도 과천시 별양동 1-13번지 제일쇼핑 236호","category":"수리서비스 - 세탁소"},{"name":"제일약국","tel":"02-504-1020","addr":"경기도 과천시 별양동 1-13번지 제일쇼핑 101,102호","category":"약국 - 약국"},{"name":"제일진미스넥","tel":"02-503-5034","addr":"경기도 과천시 별양동 1-13번지 제일쇼핑 지하 1층 13호","category":"일반휴게음식 - 스넥"},{"name":"제일텔레콤","tel":"02-503-4011","addr":"경기도 과천시 별양동 1-13번지 제일쇼핑 127호","category":"사무통신 - 통신기기"},{"name":"조앤","tel":"02-507-1857","addr":"경기도 과천시 별양동 1-13번지 제일쇼핑 2층 234호","category":"의류 - 기타의류"},{"name":"주식회사 한시스템","tel":"02-503-8005","addr":"경기도 과천시 별양동 1-13번지 301호~303호","category":"용역 서비스 - 소프트웨어"},{"name":"쥬네브","tel":"02-3678-8115","addr":"경기도 과천시 별양동 1-13번지 제일쇼핑 1층 142호 143호","category":"신변잡화 - 귀금속"},{"name":"진주화랑표구","tel":"02-502-4018","addr":"경기도 과천시 별양동 1-13번지 제일쇼핑 1동 138호","category":"문화.취미 - 화방·표구점"},{"name":"진주화랑표구","tel":"02-502-4018","addr":"경기도 과천시 별양동 1-13번지 제일쇼핑 1동 138호~139호","category":"소매업 - 액자"},{"name":"초코비니카페","tel":"02-507-7766","addr":"경기도 과천시 별양동 1-13번지 제일쇼핑상가 1층 113-114호","category":"일반휴게음식 - 서양음식"},{"name":"카라","tel":"02-502-3668","addr":"경기도 과천시 별양동 1-13번지 제일쇼핑 2층 221호","category":"의류 - 정장"},{"name":"코지","tel":"02-507-1850","addr":"경기도 과천시 별양동 1-13번지 제일쇼핑 1층 128호","category":"신변잡화 - 액세서리"},{"name":"코코(CoCo)","tel":"02-507-2370","addr":"경기도 과천시 별양동 1-13번지 제일쇼핑 231호","category":"의류 - 정장"},{"name":"큐피트홈패션","tel":"02-503-1402","addr":"경기도 과천시 별양동 1-13번지 제일쇼핑 240호","category":"직물 - 침구·수예점"},{"name":"크레마(CREMA)","tel":"02-507-0821","addr":"경기도 과천시 별양동 1-4번지 상아빌딩 108호","category":"음식점업 - 브런치카페"},{"name":"푸른한의원","tel":"02-504-1777","addr":"경기도 과천시 별양동 1-13번지 제일쇼핑 324호~327호","category":"의원 - 한의원"},{"name":"프랙탈수학학원","tel":"02-502-3434","addr":"경기도 과천시 별양동 1-13번지 제일쇼핑 6층 606호","category":"학원 - 보습학원"},{"name":"피자마루","tel":"02-3679-1082","addr":"경기도 과천시 별양동 1-13,제일쇼핑106~108호","category":"일반휴게음식 - 서양음식"},{"name":"하카전자담배 과천점","tel":"070-4103-1188","addr":"경기도 과천시 별양동 1-13번지 제일쇼핑 1층 132호","category":"기타 - 기타 전문점"},{"name":"한땀","tel":"02-3418-3489","addr":"경기도 과천시 별양동 1-13번지 제일쇼핑 2층 244호","category":"문화.취미 - 문화취미기타"},{"name":"항아리수제비","tel":"","addr":"경기도 과천시 별양동 1-11번지 벽산 상가 지하 8호","category":"음식점업 - 분식"},{"name":"헤어푸드","tel":"02-503-5110","addr":"경기도 과천시 별양동 1-13번지 제일쇼핑상가 1층 111호","category":"보건위생 - 미용재료"},{"name":"현퀼트","tel":"02-504-4663","addr":"경기도 과천시 별양동 1-13번지 2층 224호 지상2층","category":"직물 - 침구·수예점"},{"name":"회색뇌세포수학학원","tel":"02-504-7623","addr":"경기도 과천시 별양동 1-13번지 제일쇼핑 상가 6층 605호","category":"학원 - 보습학원"},{"name":"힐링 바이오샵","tel":"02-502-2714","addr":"경기도 과천시 별양동 1-13번지 제일쇼핑 220호","category":"신변잡화 - 기타잡화"}]},{"lat":"37.4246598010","long":"126.9950867092","items":[{"name":"BHC치킨과천점","tel":"02-507-5008","addr":"경기도 과천시 별양동 17번지 레미안슈르 상가 1층 1002호","category":"일반휴게음식 - 스넥"}]},{"lat":"37.428714046","long":"126.99166297","items":[{"name":"BSBIO과천지사","tel":"070-7440-1223","addr":"경기도 과천시 별양동 1-13번지 제일쇼핑 220호","category":"도소매 - 잡화"},{"name":"과천스크린골프존","tel":"02-502-0802","addr":"경기도 과천시 별양동 1-3번지 제일상가 지하1층","category":"서비스 - 골프연습장"},{"name":"권미용실","tel":"02-502-7050","addr":"경기도 과천시 별양동 1-13번지 제일쇼핑 2층 210호","category":"서비스 - 미용업"},{"name":"더풋샵 과천청사점","tel":"02-504-8883","addr":"경기도 과천시 별양동 1-14번지 과천오피스텔 2층 나(A)호","category":"도소매 - 화장품"},{"name":"아네스","tel":"02-502-9911","addr":"경기도 과천시 별양동 1-18번지 새서울프라자 1층 8호","category":"소매업 - 침구 외"},{"name":"아라세라믹아트","tel":"","addr":"경기도 과천시 별양동 1-18번지 새서울쇼핑 3층 55","category":"소매업 - 도자기핸드페인팅"},{"name":"애뜨러브","tel":"","addr":"경기도 과천시 별양동 1-18번지 과천새서울프라자사업협동조합 2층 23호","category":"도소매 - 여성의류"},{"name":"옳은식당","tel":"02-3418-5051","addr":"경기도 과천시 별양동 1-13번지 B121호","category":"음식점업 - 한식"}]},{"lat":"37.426470739","long":"126.99394545","items":[{"name":"D. R 펫","tel":"02-503-0023","addr":"경기도 과천시 별양동 7번지 삼호 상가 117호","category":"농업 - 비료,사료,종자"},{"name":"네네치킨","tel":"02-503-7070","addr":"경기도 과천시 별양동 7번지 삼호상가 1층 101-1호","category":"일반휴게음식 - 스넥"},{"name":"라이브잉글리쉬","tel":"02-502-0823","addr":"경기도 과천시 별양동 7번지 삼호 상가 206호","category":"회원제형태 - 학원"},{"name":"루야화장품","tel":"02-504-2273","addr":"경기도 과천시 별양동 7번지 주공4단지삼호 상가 217호","category":"보건위생 - 화장품"},{"name":"뷰티초이스","tel":"02-3418-6589","addr":"경기도 과천시 별양동 7번지 주공아파트 복합상가 111호","category":"보건위생 - 화장품"},{"name":"산고을","tel":"02-503-8201","addr":"경기도 과천시 별양동 1-17번지 과천타워 201호","category":"음식점업 - 한식"},{"name":"삼호인테리어","tel":"02-502-4315","addr":"경기도 과천시 별양동 7번지 주공아파트 복합상가 112호","category":"건축자재 - 인테리어전문"},{"name":"새서울순두부","tel":"02-503-1740","addr":"경기도 과천시 별양동 1-18번지 새서울쇼핑 지하 5-1호","category":"음식점업 - 한식"},{"name":"세븐일레븐과천중앙점","tel":"","addr":"경기도 과천시 별양동 1-10번지 렉스타운 104호","category":"도소매 - 상품대리"},{"name":"신전떡볶이","tel":"02-507-1002","addr":"경기도 과천시 별양동 1-3번지 제일상가 1층 3호","category":"음식점업 - 분식"},{"name":"엘지그린산업","tel":"02-503-4377","addr":"경기도 과천시 별양동 7 복합상가제2층219","category":"기타 - 기계공구"},{"name":"월드컴퓨터","tel":"02-502-7029","addr":"경기도 과천시 별양동 7번지 삼오 상가 201호","category":"사무통신 - 컴퓨터"},{"name":"장샘기타교습소","tel":"02-848-1112","addr":"경기도 과천시 별양동 7번지 주공아파트 208호","category":"학원 - 예·체능계학원"},{"name":"제일인테리어","tel":"02-503-2404","addr":"경기도 과천시 별양동 7번지 삼호 상가 110호","category":"건축자재 - 인테리어전문"},{"name":"지엔지수학교습소","tel":"02-502-7320","addr":"경기도 과천시 별양동 7번지 복합상가 3층 304호","category":"회원제형태 - 학원"},{"name":"진향당","tel":"","addr":"경기도 과천시 별양동 7번지 주공아파트 301-6호","category":"음료식품 - 기타음료식품"}]},{"lat":"37.431804909","long":"126.99771853","items":[{"name":"GS25과천센트럴점","tel":"","addr":"경기도 과천시 별양동 3번지 래미안과천센트럴APT상가 1층 101호","category":"유통업 영리 - 편 의 점"},{"name":"라온어린이집[아이행복]","tel":"02-507-5779","addr":"경기도 과천시 별양동 3번지 래미안센트럴스위트","category":"학원 - 유아원"},{"name":"신라미용실","tel":"02-502-6581","addr":"경기도 과천시 별양동 3번지 래미안센트럴스위트 1층 103호","category":"보건위생 - 미용원"},{"name":"우리공인중개사사무소","tel":"02-507-0001","addr":"경기도 과천시 별양동 3번지 래미안센트럴스위트 일반점포 2호","category":"용역 서비스 - 부동산 중개·임대"}]},{"lat":"37.426218277","long":"126.99181022","items":[{"name":"LA성모치과의원","tel":"02-6242-7582","addr":"경기도 과천시 별양동 1-19번지 뉴코아 8층","category":"의원 - 치과의원"},{"name":"과천시온매점","tel":"070-4441-5124","addr":"경기도 과천시 별양동 1-19번지 9층","category":"음료식품 - 기타음료식품"},{"name":"남성잡화","tel":"02-507-0990","addr":"경기도 과천시 별양동 1-18번지 새서울쇼핑 1층","category":"소매업 - 의복"},{"name":"메디칼8층약국","tel":"02-507-8982","addr":"경기도 과천시 별양동 1-19번지 뉴코아 8층","category":"약국 - 약국"},{"name":"미즈킨의원","tel":"02-3418-0070","addr":"경기도 과천시 별양동 1-19번지 이마트과천점 8층","category":"의원 - 의원"},{"name":"삼천리자전거과천점","tel":"02-502-3002","addr":"경기도 과천시 별양동 14번지 제1층 4호","category":"도소매 - 자전거및스포츠용품"},{"name":"속편한내과의원","tel":"02-504-7582","addr":"경기도 과천시 별양동 1-19번지 이마트 과천점 8층 801호","category":"의원 - 의원"},{"name":"스피드메이트 이마트과천점","tel":"02-507-8182","addr":"경기도 과천시 별양동 1-19번지 이마트과천점 지하4층","category":"자동차정비 유지 - 자동차정비"},{"name":"앤티앤스 과천점/(주) 재원푸드","tel":"02-587-0955","addr":"경기도 과천시 별양동 1-19번지 이마트과천점 1층","category":"일반휴게음식 - 서양음식"},{"name":"예연세안과의원","tel":"02-507-0096","addr":"경기도 과천시 별양동 1-19번지 이마트 과천점 8층 813호","category":"의원 - 의원"},{"name":"제오헤어 과천이마트점","tel":"02-507-7880","addr":"경기도 과천시 별양동 1-19번지 뉴코아 8층","category":"보건위생 - 미용원"},{"name":"쿠모(KUMO)","tel":"02-3678-9545","addr":"경기도 과천시 별양동 1-19번지 뉴코아 6층","category":"일반휴게음식 - 일반한식"},{"name":"크린가이드","tel":"031-231-8899","addr":"경기도 과천시 별양동 1-19번지 뉴코아","category":"수리서비스 - 세탁소"},{"name":"퍼스트정형외과의원","tel":"02-504-8875","addr":"경기도 과천시 별양동 1-19번지 뉴코아 8층","category":"의원 - 의원"},{"name":"하늘아래 카페","tel":"031-385-0061","addr":"경기도 과천시 별양동 1-19번지 뉴코아백화점 8층 일부층","category":"일반휴게음식 - 서양음식"}]},{"lat":"37.426993461","long":"126.99602419","items":[{"name":"Latijer 라띠에르","tel":"02-503-8888","addr":"경기도 과천시 별양동 19-4번지 1층","category":"보건위생 - 미용원"},{"name":"주식회사 디어엘로디","tel":"070-7543-5145","addr":"경기도 과천시 별양동 19-4번지 3층","category":"의류 - 아동의류"},{"name":"피자클릭","tel":"02-503-6661","addr":"경기도 과천시 별양동 19-4번지","category":"일반휴게음식 - 서양음식"}]},{"lat":"37.454266975","long":"127.00044074","items":[{"name":"Latijer 라띠에르","tel":"02-503-8888","addr":"경기도 과천시 별양동 19-4번지 1층","category":"서비스 - 미용실"}]},{"lat":"37.428074857","long":"127.0043055","items":[{"name":"N호프","tel":"02-507-3690","addr":"경기도 과천시 별양동 1-11번지 벽산 상가 117, 120, 121호","category":"음식점업 - 호프"}]},{"lat":"37.451356507","long":"126.99502743","items":[{"name":"PRO-K스포츠","tel":"","addr":"경기도 과천시 별양동 1-18번지 새서울프라자 1층 66호","category":"도소매 - 스포츠용품"}]},{"lat":"37.426858304","long":"126.99592252","items":[{"name":"ROAD TO HANA","tel":"02-1111-1111","addr":"경기도 과천시 별양동 19-3번지","category":"일반휴게음식 - 서양음식"},{"name":"민트","tel":"02-3418-0822","addr":"경기도 과천시 별양동 1-18번지 새서울쇼핑 2층 32호","category":"소매업 - 의류"}]},{"lat":"37.424218245","long":"126.99417167","items":[{"name":"j2헤어","tel":"02-503-3300","addr":"경기도 과천시 별양동 14번지 병원상가1층","category":"보건위생 - 미용원"},{"name":"강유정미용실","tel":"02-503-9553","addr":"경기도 과천시 별양동 1-5번지 신라 상가 204호","category":"서비스 - 미용실"},{"name":"갤러리 카페 시선","tel":"02-503-6885","addr":"경기도 과천시 별양동 14번지 지하 B1호","category":"일반휴게음식 - 서양음식"},{"name":"과천상점가상인회협동조합현장식당","tel":"02-503-0338","addr":"경기도 과천시 별양동 14번지 지하 비3호","category":"일반휴게음식 - 일반한식"},{"name":"과천자전거","tel":"02-504-3007","addr":"경기도 과천시 별양동 14번지 종교 상가 104호","category":"레져용품 - 스포츠·레져용품"},{"name":"렉스과천치과의원","tel":"02-507-0733","addr":"경기도 과천시 별양동 1-10번지 렉스타운 411호","category":"보건업 - 치과"},{"name":"마들렌피아노학원","tel":"02-502-4866","addr":"경기도 과천시 별양동 14번지 3층 3호","category":"학원 - 예·체능계학원"},{"name":"삼천리자전거과천점","tel":"02-502-3002","addr":"경기도 과천시 별양동 14번지 1층 4호","category":"레져용품 - 스포츠·레져용품"},{"name":"아지트","tel":"070-4496-2721","addr":"경기도 과천시 별양동 14번지 1층 1호","category":"유통업 영리 - 슈퍼마켓"},{"name":"아쿠아마린","tel":"02-504-4379","addr":"경기도 과천시 별양동 1-18번지 새서울프라자 2층 24호","category":"소매업 - 숙녀복"},{"name":"어썸팩토리과천독서실","tel":"02-502-1007","addr":"경기도 과천시 별양동 14번지 2층","category":"학원 - 독서실"},{"name":"오즈앤오즈","tel":"02-503-8349","addr":"경기도 과천시 별양동 1-5번지 신라상가 2층 201호","category":"음식점업 - 카페"}]},{"lat":"37.428326791","long":"126.99371927","items":[{"name":"가마로강정 과천점","tel":"02-504-7292","addr":"경기도 과천시 별양동 1-5번지 신라상가 104호","category":"일반휴게음식 - 일반한식"},{"name":"강유정미용실","tel":"02-503-9553","addr":"경기도 과천시 별양동 1-5번지 신라 상가 204호","category":"보건위생 - 미용원"},{"name":"과천사랑 컴퓨터","tel":"","addr":"경기도 과천시 별양동 1-13번지 제일쇼핑 1층 134호","category":"도소매 - 컴퓨터주변기기"},{"name":"굴다리 12호","tel":"","addr":"경기도 과천시 별양동 56","category":"소매업 - 잡화"},{"name":"굿모닝마취통증의학과의원","tel":"02-504-8275","addr":"경기도 과천시 별양동 1-15번지 그레이스호텔 605호","category":"보건업 - 마취통증의학과"},{"name":"권미용실","tel":"031-502-7050","addr":"경기도 과천시 별양동 1-5번지","category":"보건위생 - 미용원"},{"name":"농산물전문점","tel":"02-503-7790","addr":"경기도 과천시 별양동 1-5번지 신라상가 101호","category":"음료식품 - 농·축·수산품"},{"name":"달콤네일","tel":"02-3418-5224","addr":"경기도 과천시 별양동 1-5번지 신라상가 1층 110호","category":"보건위생 - 피부미용실"},{"name":"대가","tel":"02-503-8373","addr":"경기도 과천시 별양동 1-5번지 신라상가 205호","category":"일반휴게음식 - 일반한식"},{"name":"더대치프라임수학관학원","tel":"070-8822-8829","addr":"경기도 과천시 별양동 1-5번지 신라상가501.502.503","category":"회원제형태 - 학원"},{"name":"두리한의원","tel":"02-503-2256","addr":"경기도 과천시 별양동 1-5 신라상가301호~303호","category":"의원 - 한의원"},{"name":"라떼에 반하다","tel":"02-3418-2588","addr":"경기도 과천시 별양동 1-5번지 신라상가 105호","category":"일반휴게음식 - 서양음식"},{"name":"별주막/주식회사 별네트웍스","tel":"02-504-7016","addr":"경기도 과천시 별양동 1-5번지 신라상가 B104 ,105호","category":"음료식품 - 기타음료식품"},{"name":"샤론코스메틱","tel":"02-503-1878","addr":"경기도 과천시 별양동 1-5번지 신라상가 505호","category":"보건위생 - 미용원"},{"name":"수산나뜨게방","tel":"02-502-4393","addr":"경기도 과천시 별양동 1-18번지 2층 11호","category":"소매업 - 뜨게용실등"},{"name":"수학세상","tel":"02-507-0989","addr":"경기도 과천시 별양동 1-5번지 신라 상가 401호","category":"학원 - 보습학원"},{"name":"아트댄스스튜디오 (Art Dance Studio)","tel":"070-4922-1261","addr":"경기도 과천시 별양동 1-5번지 신라 상가 304호","category":"학원 - 예·체능계학원"},{"name":"양희방왕족발","tel":"02-504-2419","addr":"경기도 과천시 별양동 1-13번지 제일쇼핑 지하층 104호","category":"음식점업 - 한식"},{"name":"여우책방협동조합","tel":"02-504-2578","addr":"경기도 과천시 별양동 1-5번지 신라상가 지층 105호","category":"서적문구 - 일반서적"},{"name":"오즈앤오즈","tel":"02-503-8349","addr":"경기도 과천시 별양동 1-5번지 신라상가 2층 201호","category":"일반휴게음식 - 서양음식"},{"name":"오케바리","tel":"02-502-9115","addr":"경기도 과천시 별양동 1-5 신라상가 106~109호","category":"일반휴게음식 - 일반한식"},{"name":"우리집반찬","tel":"02-503-0002","addr":"경기도 과천시 별양동 1-5번지 신라지하상가 102호","category":"음료식품 - 기타음료식품"},{"name":"원할머니보쌈","tel":"02-504-0194","addr":"경기도 과천시 별양동 1-17번지 과천타워 204호","category":"음식점업 - 한식"},{"name":"작은숲 영어교습소","tel":"070-4254-0160","addr":"경기도 과천시 별양동 1-5번지 신라상가 2층 203호","category":"학원 - 외국어학원"},{"name":"주식회사 타샤의책방","tel":"02-502-5343","addr":"경기도 과천시 별양동 1-5번지 305호306호","category":"서적문구 - 일반서적"},{"name":"주식회사정지앤마루/바오밥나무","tel":"02-502-8760","addr":"경기도 과천시 별양동 1-5번지 신라 상가 202호","category":"일반휴게음식 - 일반한식"},{"name":"진영어교습소","tel":"02-3418-5001","addr":"경기도 과천시 별양동 1-5번지 신라 상가 4층 402호","category":"회원제형태 - 학원"},{"name":"청계독서실","tel":"031-502-4003","addr":"경기도 과천시 별양동 1-5번지 신라 상가","category":"학원 - 독서실"},{"name":"초록마을과천점","tel":"02-502-5200","addr":"경기도 과천시 별양동 1-5번지 신라 상가 102호","category":"유통업 영리 - 슈퍼마켓"},{"name":"피부이야기","tel":"02-507-0513","addr":"경기도 과천시 별양동 1-5번지 신라상가 504호","category":"보건위생 - 피부미용실"},{"name":"행복한약국","tel":"02-503-1116","addr":"경기도 과천시 별양동 1-5번지 신라 상가 110호","category":"약국 - 약국"}]},{"lat":"37.428083503","long":"126.99350464","items":[{"name":"강산국어학원","tel":"02-504-5210","addr":"경기도 과천시 별양동 1-7번지 백두상가 5층 501호","category":"학원 - 보습학원"},{"name":"과천닭발포차","tel":"02-504-2002","addr":"경기도 과천시 별양동 1-7번지 백두빌딩 106호","category":"일반휴게음식 - 일반한식"},{"name":"과천독서실","tel":"031-503-5150","addr":"경기도 과천시 별양동 1-7백두상가6층601~602호","category":"학원 - 독서실"},{"name":"과천최강학원","tel":"02-3679-5224","addr":"경기도 과천시 별양동 1-7백두상가2층203,206","category":"학원 - 보습학원"},{"name":"과천한의원","tel":"02-503-0603","addr":"경기도 과천시 별양동 1-7번지 백두 상가 205호","category":"의원 - 한의원"},{"name":"구자동동물병원","tel":"02-504-7588","addr":"경기도 과천시 별양동 1-7번지 백두빌딩 110호","category":"기타의료기관 - 동물병원"},{"name":"굴다리 8호","tel":"02-507-3191","addr":"경기도 과천시 별양동 56","category":"소매업 - 야채, 청과"},{"name":"김성신수학교습소","tel":"02-1111-1111","addr":"경기도 과천시 별양동 1-7번지 백두빌딩 206호 일부","category":"학원 - 보습학원"},{"name":"깐부치킨과천청사점","tel":"02-503-6469","addr":"경기도 과천시 별양동 1-7번지 백두빌딩 1층 105호","category":"일반휴게음식 - 스넥"},{"name":"남안과의원","tel":"02-503-2340","addr":"경기도 과천시 별양동 1-20, 유니온빌딩 2층","category":"보건업 - 안과"},{"name":"네일#","tel":"02-503-0880","addr":"경기도 과천시 별양동 1-7번지 제1층101","category":"보건위생 - 화장품"},{"name":"둘리당구장","tel":"02-503-5130","addr":"경기도 과천시 별양동 1-7번지 백두빌딩 402호","category":"레저업소 - 당 구 장"},{"name":"마루","tel":"031-111-1111","addr":"경기도 과천시 별양동 1-7번지 백두빌딩 지층 4호","category":"일반휴게음식 - 서양음식"},{"name":"봉구비어 별양점","tel":"","addr":"경기도 과천시 별양동 1-7번지 백두빌딩 1층 107호","category":"일반휴게음식 - 일반한식"},{"name":"부광의료기","tel":"02-502-0811","addr":"경기도 과천시 별양동 1-7번지 백두상가 502-13호","category":"보건위생 - 의료용품"},{"name":"삼성의료기","tel":"070-4469-6958","addr":"경기도 과천시 별양동 1-7번지 백두빌딩 503호,504호","category":"보건위생 - 의료용품"},{"name":"삼십일인의수학생각학원","tel":"02-503-7300","addr":"경기도 과천시 별양동 1-7번지 백두빌딩 3층 304,306호일부","category":"학원 - 보습학원"},{"name":"아르테","tel":"","addr":"경기도 과천시 별양동 1-7번지 백두빌딩 305호","category":"보건위생 - 기타대인서비스"},{"name":"아름다운머리","tel":"","addr":"경기도 과천시 별양동 1-7번지 백두빌딩 B01호","category":"보건위생 - 미용원"},{"name":"이강기획","tel":"02-504-7675","addr":"경기도 과천시 별양동 1-7번지 백두빌딩 201호","category":"도소매 - 판촉물"},{"name":"이강기획","tel":"","addr":"경기도 과천시 별양동 1-7번지 백두빌딩 201호","category":"신변잡화 - 기념품점"},{"name":"이오니아","tel":"02-503-6689","addr":"경기도 과천시 별양동 1-18번지 새서울프라자지층25호","category":"도소매 - 의료기기"},{"name":"임수학교습소","tel":"02-1111-1111","addr":"경기도 과천시 별양동 1-7번지 백두빌딩 206호","category":"학원 - 보습학원"},{"name":"자매순대국","tel":"02-503-0770","addr":"경기도 과천시 별양동 1-7번지 백두빌딩 1층 102호 백두성가","category":"일반휴게음식 - 일반한식"},{"name":"토니치킨","tel":"02-503-4880","addr":"경기도 과천시 별양동 1-7번지 백두 상가 1층","category":"일반휴게음식 - 칵테일바"},{"name":"토우축산","tel":"02-503-8284","addr":"경기도 과천시 별양동 1-7번지 백두빌딩 108호","category":"음료식품 - 정육점"}]},{"lat":"37.457075605","long":"127.02727239","items":[{"name":"강수학교습소","tel":"","addr":"경기도 과천시 별양동 7번지 주공아파트 206호","category":"교육서비스업 - 수학"}]},{"lat":"37.445075052","long":"127.0231664","items":[{"name":"갤러리 카페 시선","tel":"02-503-6885","addr":"경기도 과천시 별양동 17번지 래미안슈르 지하층 B1호","category":"음식점업 - 휴게음식"}]},{"lat":"37.458488954","long":"127.03260765","items":[{"name":"경희미소한의원","tel":"02-507-8275","addr":"경기도 과천시 별양동 1-4번지 상아빌딩 401호","category":"보건업 - 한의원"}]},{"lat":"37.449662816","long":"126.99877961","items":[{"name":"고려호프치킨","tel":"02-502-0041","addr":"경기도 과천시 별양동 1-10번지 렉스타운 지하 101호","category":"음식점업 - 일반음식점"}]},{"lat":"37.428606056","long":"126.99314303","items":[{"name":"고봉민김밥인 과천청사역점","tel":"02-507-6369","addr":"경기도 과천시 별양동 1-3번지 제일상가 1층 104호","category":"일반휴게음식 - 일반한식"},{"name":"과천 해신탕","tel":"02-507-3600","addr":"경기도 과천시 별양동 1-3번지 제일상가 203호","category":"일반휴게음식 - 일반한식"},{"name":"과천스크린골프존","tel":"02-502-0802","addr":"경기도 과천시 별양동 1-3번지 제일상가 지하1층","category":"레저업소 - 스크린골프"},{"name":"과천스포츠","tel":"","addr":"경기도 과천시 별양동 1-13번지 제일쇼핑 2층 218호","category":"도소매 - 배드민턴관련용품"},{"name":"국제아동발달클리닉","tel":"02-504-7703","addr":"경기도 과천시 별양동 1-3번지 제일상가 505호","category":"보건위생 - 기타대인서비스"},{"name":"김준현한의원","tel":"02-503-2630","addr":"경기도 과천시 별양동 1-3번지 제일상가 113호","category":"의원 - 한의원"},{"name":"대광공인중개사무소","tel":"02-502-5330","addr":"경기도 과천시 별양동 1-3번지 제일상가 110호","category":"용역 서비스 - 부동산 중개·임대"},{"name":"대한권투체육관","tel":"02-502-2211","addr":"경기도 과천시 별양동 1-3번지 제일상가 지층 4-8호","category":"회원제형태 - 레져업소"},{"name":"레핀미술학원","tel":"02-502-9707","addr":"경기도 과천시 별양동 1-3 제일상가3층5호~6호","category":"학원 - 예·체능계학원"},{"name":"르호봇시스템","tel":"02-3678-8010","addr":"경기도 과천시 별양동 1-3번지 제일상가 108호","category":"사무통신 - 통신기기"},{"name":"민주기획","tel":"031-123-4567","addr":"경기도 과천시 별양동 1-3번지 제일상가","category":"용역 서비스 - 종합용역"},{"name":"방치웅의원","tel":"02-503-5630","addr":"경기도 과천시 별양동 1-3번지 제일상가 307호","category":"의원 - 치과의원"},{"name":"북마당","tel":"02-502-6000","addr":"경기도 과천시 별양동 1-3번지 제일상가빌딩 지하1층","category":"서적문구 - 일반서적"},{"name":"북마당","tel":"02-502-6000","addr":"경기도 과천시 별양동 1-3번지 제일상가빌딩 지하1층","category":"서적문구 - 일반서적"},{"name":"비에스짐(BS GYM)","tel":"02-503-2323","addr":"경기도 과천시 별양동 1-3번지 제일상가 403,404,405호","category":"레저업소 - 헬스클럽"},{"name":"살롱드보떼","tel":"02-503-1055","addr":"경기도 과천시 별양동 1-18번지 새서울프라자 502호","category":"서비스 - 화장품"},{"name":"스토리지","tel":"02-502-0086","addr":"경기도 과천시 별양동 1-3번지 제일상가 2층 202호","category":"일반휴게음식 - 일반한식"},{"name":"신전떡볶이","tel":"02-507-2002","addr":"경기도 과천시 별양동 1-3번지 제일상가 1층 3호","category":"일반휴게음식 - 스넥"},{"name":"씨유과천공원점","tel":"02-503-0585","addr":"경기도 과천시 별양동 1-3번지 제일상가 1층 5호","category":"유통업 영리 - 편 의 점"},{"name":"양지","tel":"02-502-6370","addr":"경기도 과천시 별양동 1-3번지 제일상가 1층 14호","category":"의류 - 정장"},{"name":"영신공학원","tel":"02-604-3814","addr":"경기도 과천시 별양동 1-3번지 제일상가빌딩 4층 407,408호","category":"학원 - 보습학원"},{"name":"위너스수학교습소","tel":"070-4189-2468","addr":"경기도 과천시 별양동 1-3번지 제일상가 506호","category":"회원제형태 - 학원"},{"name":"윤선생우리집앞영어교실별양영어교습소","tel":"02-567-0594","addr":"경기도 과천시 별양동 1-3번지 제일상가 4층 401호,402호","category":"학원 - 외국어학원"},{"name":"은치과의원","tel":"02-503-0534","addr":"경기도 과천시 별양동 1-14번지 과천오피스텔 3층 306호","category":"보건업 - 치과"},{"name":"장그미","tel":"02-502-5333","addr":"경기도 과천시 별양동 1-18번지 새서울쇼핑 지하1층 3,4호","category":"음식점업 - 돈까스, 우동"},{"name":"좋은세상","tel":"02-503-1545","addr":"경기도 과천시 별양동 1-3번지 제일상가 111호","category":"일반휴게음식 - 스넥"},{"name":"주노리미용실","tel":"02-503-0844","addr":"경기도 과천시 별양동 1-3번지 제일상가 4층 406호","category":"보건위생 - 미용원"},{"name":"지혜의숲학원","tel":"02-3679-5787","addr":"경기도 과천시 별양동 1-3번지 제일상가 508호~509호","category":"회원제형태 - 학원"},{"name":"청년떡볶이 과천중앙점","tel":"02-504-8282","addr":"경기도 과천시 별양동 1-3번지 제일상가빌딩 107호","category":"일반휴게음식 - 일반한식"},{"name":"카페오랑쥬","tel":"031-302-8929","addr":"경기도 과천시 별양동 1-3번지 제일상가 102호","category":"일반휴게음식 - 서양음식"},{"name":"킹콩드립","tel":"02-502-7628","addr":"경기도 과천시 별양동 1-3번지 별양 제3층 5호,6호 3층","category":"일반휴게음식 - 서양음식"},{"name":"표희정니트","tel":"02-503-1254","addr":"경기도 과천시 별양동 1-18번지 새서울쇼핑","category":"소매업 - 외의"},{"name":"한동환신경외과의원","tel":"02-502-7582","addr":"경기도 과천시 별양동 1-3제일상가307~309호","category":"의원 - 의원"},{"name":"희래등","tel":"02-507-1116","addr":"경기도 과천시 별양동 1-3번지 제일상가 2층 201동","category":"일반휴게음식 - 중국식"},{"name":"힐링 바이오샵","tel":"","addr":"경기도 과천시 별양동 1-13번지 제일쇼핑 220호","category":"소매업 - 의류"}]},{"lat":"37.463687528","long":"127.03335573","items":[{"name":"고봉민김밥인(과천청사역점)","tel":"02-507-6369","addr":"경기도 과천시 별양동 1-3번지 제일상가 1층 104호","category":"음식점업 - 김밥전문점"}]},{"lat":"37.429047367","long":"126.99114321","items":[{"name":"공차 과천별양점","tel":"02-504-8809","addr":"경기도 과천시 별양동 1-4번지 상아빌딩 1층 103호","category":"음식점업 - 휴게음식"},{"name":"대흥식당","tel":"02-504-1002","addr":"경기도 과천시 별양동 1-11번지 벽산상가지하1층 13, 15호","category":"음식점업 - 한식"},{"name":"바디 리페어","tel":"02-504-7707","addr":"경기도 과천시 별양동 1-11번지 벽산상가 4층 404,405,417,418호","category":"서비스 - 퍼스널트레이닝"},{"name":"타미하우스(과천점)","tel":"02-3418-9788","addr":"경기도 과천시 별양동 1-17번지 과천타워 지층 16호","category":"음식점업 - 커피"}]},{"lat":"37.428524816","long":"126.99147094","items":[{"name":"과천 BYC","tel":"02-507-3354","addr":"경기도 과천시 별양동 1-17번지 과천타워 108호","category":"소매업 - 속옷"},{"name":"아이플러스안경","tel":"02-3679-0301","addr":"경기도 과천시 별양동 1-4번지 상아빌딩 1층 111호","category":"소매업 - 안경"},{"name":"제일텔레콤","tel":"","addr":"경기도 과천시 별양동 1-13번지 제일쇼핑 137호","category":"소매업 - 휴대폰"},{"name":"현퀼트","tel":"02-504-4663","addr":"경기도 과천시 별양동 1-13번지 지상2층 2층 224호","category":"서비스 - 퀼트"}]},{"lat":"37.42891224","long":"126.99139179","items":[{"name":"과천 P.G.S","tel":"02-504-2426","addr":"경기도 과천시 별양동 1-18번지 새서울쇼핑 3층","category":"서비스 - 골프연습장"},{"name":"명지사","tel":"02-503-3393","addr":"경기도 과천시 별양동 1-15번지 그레이스 상가","category":"소매업 - 문구"},{"name":"새서울화원","tel":"02-503-6566","addr":"경기도 과천시 별양동 1-18번지 새서울프라자 1층","category":"소매업 - 생화관엽"}]},{"lat":"37.453933613","long":"127.00089283","items":[{"name":"과천 연세스위트치과병원","tel":"02-3678-2875","addr":"경기도 과천시 별양동 1-16번지 6층","category":"보건업 - 치과병원"}]},{"lat":"37.430444378","long":"126.99739097","items":[{"name":"과천고등학교","tel":"02-3419-9195","addr":"경기도 과천시 별양동 5번지 과천고등학교","category":"학원 - 초중고교육기관"},{"name":"과천고등학교_수업료","tel":"02-3419-9100","addr":"경기도 과천시 별양동 5번지 과천고등학교","category":"학원 - 초중고교육기관"}]},{"lat":"37.428218636","long":"126.99327866","items":[{"name":"과천관광호텔","tel":"02-504-0071","addr":"경기도 과천시 별양동 1-8번지","category":"숙박업 - 2급 호텔"},{"name":"과천예일의원","tel":"02-507-7582","addr":"경기도 과천시 별양동 1-8번지 골든타워 4층","category":"의원 - 의원"},{"name":"기찬숯불김밥과천점","tel":"02-504-5043","addr":"경기도 과천시 별양동 1-8번지 골든타워 103호","category":"일반휴게음식 - 일반한식"},{"name":"늘푸른약국","tel":"02-502-1836","addr":"경기도 과천시 별양동 1-8번지 골든타워 202-1호","category":"약국 - 약국"},{"name":"더 휘트니스","tel":"02-503-0753","addr":"경기도 과천시 별양동 1-8번지 골든타워 601호~602호","category":"레저업소 - 헬스클럽"},{"name":"더대치프라임학원","tel":"02-3678-8829","addr":"경기도 과천시 별양동 1-8번지 골든타워 502호","category":"학원 - 보습학원"},{"name":"마르지않는샘학원","tel":"02-502-9951","addr":"경기도 과천시 별양동 1-8번지 골든타워 503호 501","category":"회원제형태 - 학원"},{"name":"미소지앤에스테틱","tel":"031-502-7533","addr":"경기도 과천시 별양동 1-8번지 골든타워 4층 401,402,403호","category":"보건위생 - 피부미용실"},{"name":"미소지앤에스테틱","tel":"02-502-7533","addr":"경기도 과천시 별양동 1-8번지 골든타워 4층 401,402,403호","category":"서비스 - 피부관리"},{"name":"상쾌한이비인후과","tel":"02-502-7200","addr":"경기도 과천시 별양동 1-8번지 골든타워 202호","category":"의원 - 의원"},{"name":"오븐마루과천청사점","tel":"02-3679-5092","addr":"경기도 과천시 별양동 1-8번지 2층 201,202호","category":"일반휴게음식 - 스넥"},{"name":"욜로 (YOLO)","tel":"02-504-8430","addr":"경기도 과천시 별양동 1-8번지 골든타워 1층 102호","category":"일반휴게음식 - 서양음식"},{"name":"이마트24과천별양점","tel":"031-111-1111","addr":"경기도 과천시 별양동 1-8번지 골든타워 1층 104호","category":"유통업 영리 - 편 의 점"},{"name":"이철헤어커커 과천점","tel":"02-503-2326","addr":"경기도 과천시 별양동 1-8번지 골든타워 2층 203,204,205호","category":"보건위생 - 미용원"},{"name":"조이팝PC과천점","tel":"02-504-6720","addr":"경기도 과천시 별양동 1-8번지 골든타워 지하1층","category":"레저업소 - 기타레져업소"},{"name":"코코더샵(CoCo더#)","tel":"02-504-4041","addr":"경기도 과천시 별양동 1-18번지 새서울프라자 2층 6호","category":"도소매 - 의류"}]},{"lat":"37.43271462","long":"126.99297302","items":[{"name":"과천닭발포차","tel":"02-504-2002","addr":"경기도 과천시 별양동 1-7번지 백두빌딩 106호","category":"음식점업 - 기타"},{"name":"세운촌","tel":"02-503-8943","addr":"경기도 과천시 별양동 1-17번지 과천타워 지하1층 15호","category":"음식점업 - 한식"},{"name":"월드컴퓨터","tel":"02-502-7029","addr":"경기도 과천시 별양동 7번지 삼호 상가 201호","category":"서비스 - 컴퓨터주변기기"}]},{"lat":"37.432832014","long":"126.99689365","items":[{"name":"과천도립도서관 구내식당","tel":"070-7556-3641","addr":"경기도 과천시 별양동 2번지 경기도립과천도서관","category":"일반휴게음식 - 일반한식"},{"name":"지정환임실치즈피자","tel":"02-502-8246","addr":"경기도 과천시 별양동 6번지 주공아파트 107호","category":"음식점업 - 피자"}]},{"lat":"37.425912301","long":"126.99686031","items":[{"name":"과천도장열쇠","tel":"02-503-6003","addr":"경기도 과천시 별양동 27-1번지 렉스타운옆","category":"건축자재 - 목재·석재·철물"},{"name":"아씨시","tel":"02-502-9527","addr":"경기도 과천시 별양동 1-18번지 새서울쇼핑 2층 63호","category":"소매업 - 의류"}]},{"lat":"37.423056048","long":"126.99564044","items":[{"name":"과천문원중학교","tel":"02-507-4904","addr":"경기도 과천시 별양동 40번지 문원중학교","category":"학원 - 초중고교육기관"},{"name":"떡고을","tel":"02-502-4040","addr":"경기도 과천시 별양동 1-11번지 벽산상가 112호","category":"소매업 - 임가공제분"}]},{"lat":"37.428299608","long":"126.99192289","items":[{"name":"과천별양열쇠(가로판매대)","tel":"02-504-1382","addr":"경기도 과천시 별양동 1-1","category":"기타 - 기계공구"}]},{"lat":"37.428218949","long":"126.99861131","items":[{"name":"과천부동산컨설팅","tel":"02-504-1009","addr":"경기도 과천시 별양동 52번지 현대종합상가 141호","category":"용역 서비스 - 부동산 중개·임대"},{"name":"극동종합보수","tel":"02-502-4770","addr":"경기도 과천시 별양동 52현대상가","category":"직물 - 카페트,커튼,천막,지물"},{"name":"유명부동산","tel":"02-502-1727","addr":"경기도 과천시 별양동 52번지 현대나상가 144호","category":"용역 서비스 - 부동산 중개·임대"},{"name":"큐종합공사","tel":"02-503-3731","addr":"경기도 과천시 별양동 52 주공6단지상가 109","category":"용역 서비스 - 기타용역서비스"}]},{"lat":"37.424353377","long":"126.99392311","items":[{"name":"과천브레이니영어교습소","tel":"02-3679-0582","addr":"경기도 과천시 별양동 13번지 병원 상가 304호","category":"학원 - 보습학원"},{"name":"극동부동산","tel":"02-502-9247","addr":"경기도 과천시 별양동 13번지 의료 상가 105호","category":"용역 서비스 - 부동산 중개·임대"},{"name":"글로벌영어학원","tel":"02-507-1577","addr":"경기도 과천시 별양동 13번지 병원 상가 301호","category":"학원 - 외국어학원"},{"name":"김금희헤어겔러리","tel":"02-503-2626","addr":"경기도 과천시 별양동 13번지","category":"보건위생 - 미용원"},{"name":"동키치킨","tel":"02-502-7485","addr":"경기도 과천시 별양동 13번지 병원 상가 102호","category":"일반휴게음식 - 스넥"},{"name":"리틀다빈치미술교습소","tel":"02-504-5045","addr":"경기도 과천시 별양동 13번지 3단지병원 3층 5호","category":"학원 - 예·체능계학원"},{"name":"문원슈퍼","tel":"02-502-5030","addr":"경기도 과천시 별양동 13.109","category":"유통업 영리 - 슈퍼마켓"},{"name":"범신사","tel":"02-503-8737","addr":"경기도 과천시 별양동 13번지 3단지병원 지층 3호","category":"서적문구 - 출판 및 인쇄물"},{"name":"삼세한의원","tel":"02-502-3939","addr":"경기도 과천시 별양동 13번지 의료 상가 104호","category":"의원 - 한의원"},{"name":"우리기획","tel":"02-503-0435","addr":"경기도 과천시 별양동 13지하1층","category":"용역 서비스 - 종합용역"},{"name":"우리집","tel":"02-502-5030","addr":"경기도 과천시 별양동 13번지 3단지병원 108호","category":"일반휴게음식 - 일반한식"},{"name":"정관장홍삼과천점","tel":"02-502-1304","addr":"경기도 과천시 별양동 13번지 의료 상가 101호","category":"건강식품 - 홍삼제품"},{"name":"제일유통","tel":"02-502-7778","addr":"경기도 과천시 별양동 13번지 의료 상가 102호","category":"전기제품 - 가전제품"},{"name":"조일약국","tel":"02-502-7781","addr":"경기도 과천시 별양동 13번지","category":"약국 - 약국"},{"name":"좋은내과","tel":"02-507-1255","addr":"경기도 과천시 별양동 13번지 병원 상가 202호","category":"의원 - 의원"}]},{"lat":"37.458210465","long":"127.02913767","items":[{"name":"과천사골순대국","tel":"02-502-5900","addr":"경기도 과천시 별양동 1-17번지 과천타워 105호","category":"음식점업 - 한식"}]},{"lat":"37.463849453","long":"127.03432788","items":[{"name":"과천실용음악학원","tel":"02-503-8222","addr":"경기도 과천시 별양동 1-11번지 벽산상가510호, 513호","category":"교육서비스업 - 음악학원"}]},{"lat":"37.451102574","long":"127.02416256","items":[{"name":"과천예일의원","tel":"02-507-7582","addr":"경기도 과천시 별양동 1-8번지 골든타워 4층","category":"보건업 - 의료"}]},{"lat":"37.426750207","long":"126.99632925","items":[{"name":"과천자유발도르프어린이집[아이행복]","tel":"02-503-4188","addr":"경기도 과천시 별양동 20-7번지","category":"학원 - 유아원"}]},{"lat":"37.435463037","long":"126.99916456","items":[{"name":"과천초밥","tel":"02-504-0555","addr":"경기도 과천시 별양동 1-18번지 새서울쇼핑 지하1층 9호","category":"음식점업 - 한식"},{"name":"상상수학원","tel":"","addr":"경기도 과천시 별양동 1-17번지 과천타워 3층 308호","category":"교육서비스업 - 수학, 국어, 사회,"},{"name":"헤드스타트","tel":"02-503-3150","addr":"경기도 과천시 별양동 7번지 주공복합상가 401호","category":"서비스 - 서적"}]},{"lat":"37.46051993","long":"127.00144649","items":[{"name":"관산서당국어교습소","tel":"02-507-6039","addr":"경기도 과천시 별양동 1-15번지 그레이스호텔 3층 342호","category":"교육서비스업 - 국어"}]},{"lat":"37.447797006","long":"127.0167256","items":[{"name":"관악스포츠","tel":"02-503-6065","addr":"경기도 과천시 별양동 1-15번지 호프호텔 1층 11호","category":"소매업 - 운동복"},{"name":"디자인드바이유미","tel":"02-504-4388","addr":"경기도 과천시 별양동 1-10번지 렉스타운 308호","category":"서비스 - 미용"},{"name":"르호봇시스템","tel":"02-3678-8010","addr":"경기도 과천시 별양동 1-3번지 제일상가 108호","category":"도소매 - 핸드폰"},{"name":"삼원종합설비보수","tel":"02-504-0954","addr":"경기도 과천시 별양동 6번지 주공아파트 1층 106호","category":"서비스 - 수도수선"},{"name":"속편한내과의원","tel":"02-504-7582","addr":"경기도 과천시 별양동 1-19번지 이마트 8층 801호","category":"보건업 - 내과"},{"name":"쌍용공인중개사무소","tel":"02-502-4839","addr":"경기도 과천시 별양동 7번지 삼호상가 1층 101호","category":"부동산업 - 부동산중개업"},{"name":"어센트교육학원","tel":"02-503-3087","addr":"경기도 과천시 별양동 1-14번지 과천오피스텔 3층 B호","category":"서비스 - 보습학원"},{"name":"오븐마루(과천청사점)","tel":"02-3679-8092","addr":"경기도 과천시 별양동 1-8번지 골든타워 2층 201호, 202호","category":"음식점업 - 치킨"},{"name":"올리브","tel":"02-504-1411","addr":"경기도 과천시 별양동 1-18번지 새서울쇼핑 3층","category":"소매업 - 의류"},{"name":"진정한고깃집","tel":"02-502-2701","addr":"경기도 과천시 별양동 1-10번지 렉스타운 209호","category":"음식점업 - 고깃집"},{"name":"짱노래연습장","tel":"02-507-5225","addr":"경기도 과천시 별양동 1-18번지 새서울쇼핑 4층","category":"서비스 - 노래방"},{"name":"환타지아","tel":"02-504-3003","addr":"경기도 과천시 별양동 1-18번지 새서울쇼핑 2층 44호","category":"소매업 - 숙녀복"}]},{"lat":"37.427633081","long":"126.9945667","items":[{"name":"구름공방","tel":"02-3678-9608","addr":"경기도 과천시 별양동 1-11번지 벽산 상가 308호","category":"음식점업 - 일반음식"}]},{"lat":"37.420578027","long":"126.99225162","items":[{"name":"구자동동물병원","tel":"02-504-7588","addr":"경기도 과천시 별양동 1-7번지 백두빌딩 110호","category":"보건업 - 수의어"},{"name":"굴다리 23호(란이네 과일가게)","tel":"02-507-1401","addr":"경기도 과천시 별양동 56","category":"소매업 - 과일"},{"name":"김준모통신","tel":"02-502-8011","addr":"경기도 과천시 별양동 1-11번지 1층","category":"도소매 - 휴대폰"},{"name":"깐부치킨(과천청사점)","tel":"02-503-6469","addr":"경기도 과천시 별양동 1-7번지 백두빌딩 1층 105호","category":"음식점업 - 간이음식점"},{"name":"들녘이네","tel":"02-507-4676","addr":"경기도 과천시 별양동 1-18번지 새서울프라자2층5","category":"소매업 - 의류"},{"name":"문원마을","tel":"02-504-4500","addr":"경기도 과천시 별양동 1-17번지 과천타워 지하1층 102호","category":"음식점업 - 한식"},{"name":"바다정원","tel":"02-503-8892","addr":"경기도 과천시 별양동 1-15번지 그레이스호텔 512~515호","category":"음식점업 - 한식"},{"name":"바이림","tel":"","addr":"경기도 과천시 별양동 1-4번지 상아빌딩 101호","category":"소매업 - 의류"},{"name":"뷰티살롱메이","tel":"02-3679-2025","addr":"경기도 과천시 별양동 1-11번지 벽산 상가 218호","category":"서비스 - 미용업"},{"name":"새서울사진관","tel":"02-502-8996","addr":"경기도 과천시 별양동 1-18번지 새서울프라자 1층 53호","category":"서비스 - 사진촬영"},{"name":"신라미용실","tel":"02-502-6581","addr":"경기도 과천시 별양동 3번지 래미안센트럴스위트 1층 103호","category":"서비스 - 미용업"},{"name":"아라부동산","tel":"02-507-4455","addr":"경기도 과천시 별양동 1-3번지 제일상가 10호","category":"부동산업 - 중개"},{"name":"여우책방협동조합","tel":"02-504-2578","addr":"경기도 과천시 별양동 1-5번지 신라 상가 지층 105호","category":"도소매 - 서점"},{"name":"예쁜나라","tel":"","addr":"경기도 과천시 별양동 1-18번지 새서울쇼핑 2층 45호","category":"소매업 - 아동복"},{"name":"오매김밥","tel":"02-507-6133","addr":"경기도 과천시 별양동 1-18번지 새서울프라자 지층 44,48호","category":"음식점업 - 분식"},{"name":"좋은내과","tel":"02-507-1255","addr":"경기도 과천시 별양동 13번지 병원상가 202호","category":"보건업 - 내과"},{"name":"주식회사 글로벌인베스트","tel":"02-507-8677","addr":"경기도 과천시 별양동 1-10번지 렉스타운 1층 108호","category":"소매업 - 통신기기"},{"name":"커피민","tel":"02-502-1288","addr":"경기도 과천시 별양동 1-14번지 과천오피스텔 지하1층 1호","category":"음식점업 - 기타"},{"name":"탑공인중개사사무소","tel":"02-507-7100","addr":"경기도 과천시 별양동 7번지 복합상가 109호","category":"부동산업 - 부동산중개업"},{"name":"프롬더어스","tel":"02-502-0507","addr":"경기도 과천시 별양동 1-6번지 101호","category":"음식점업 - 카페"},{"name":"하나로식당","tel":"02-502-6338","addr":"경기도 과천시 별양동 15번지 나래 유치원상가 지하층","category":"음식점업 - 한식"},{"name":"하늘아래 카페","tel":"","addr":"경기도 과천시 별양동 1-19번지 이마트 8층","category":"음식점업 - 카페"},{"name":"회색뇌세포수학학원","tel":"02-504-7623","addr":"경기도 과천시 별양동 1-13번지 제일쇼핑 상가 6층 605호","category":"교육서비스업 - 학원"}]},{"lat":"37.435273762","long":"127.0082829","items":[{"name":"국수나무과천점","tel":"02-507-8984","addr":"경기도 과천시 별양동 1-10번지 렉스타운 101호","category":"음식점업 - 간이음식점"}]},{"lat":"37.433470865","long":"126.98741392","items":[{"name":"국수랑수제비랑","tel":"02-504-1404","addr":"경기도 과천시 별양동 1-18번지 새서울쇼핑 지하1층 5호","category":"음식점업 - 일반음식"},{"name":"지혜의숲","tel":"02-503-5787","addr":"경기도 과천시 별양동 1-3번지 제일상가508호~509호 508호","category":"교육서비스업 - 논술"}]},{"lat":"37.416693852","long":"126.9852259","items":[{"name":"굳샵숙녀복","tel":"","addr":"경기도 과천시 별양동 1-18번지 새서울쇼핑 2층 16호","category":"소매업 - 의류"}]},{"lat":"37.44838339","long":"127.00714244","items":[{"name":"굴다리 11호","tel":"","addr":"경기도 과천시 별양동 56","category":"소매업 - 야채, 청과"}]},{"lat":"37.416162144","long":"126.98448047","items":[{"name":"굴다리 17호(신용상회)","tel":"02-502-3686","addr":"경기도 과천시 별양동 56","category":"소매업 - 생선"}]},{"lat":"37.434021393","long":"126.99807994","items":[{"name":"굴다리 18호","tel":"02-507-1203","addr":"경기도 과천시 별양동 56","category":"소매업 - 야채, 청과"},{"name":"도드람한마당","tel":"02-507-5522","addr":"경기도 과천시 별양동 1-20번지 유니온빌딩 지하1층 5호","category":"음식점업 - 한식"},{"name":"모범약국","tel":"02-502-4608","addr":"경기도 과천시 별양동 1-8번지 골든타워 401호","category":"소매업 - 약국"},{"name":"용대리황태마을","tel":"02-3678-8989","addr":"경기도 과천시 별양동 1-13번지 제일쇼핑 지하1층 107, 109, 110호","category":"음식점업 - 한식"},{"name":"희래등","tel":"02-507-1113","addr":"경기도 과천시 별양동 1-3번지 제일상가 201호","category":"음식점업 - 중식"}]},{"lat":"37.438859731","long":"126.99702877","items":[{"name":"굴다리 21호(혁이네 김치)","tel":"02-503-6120","addr":"경기도 과천시 별양동 56","category":"소매업 - 김치, 야채"}]},{"lat":"37.457183321","long":"127.02915992","items":[{"name":"굴다리 7호(쌍둥이족발)","tel":"","addr":"경기도 과천시 별양동 56","category":"소매업 - 족발"}]},{"lat":"37.45430212","long":"127.01764226","items":[{"name":"굿모닝공인중개사사무소","tel":"02-507-1221","addr":"경기도 과천시 별양동 6번지 5단지복합상가 105호","category":"부동산업 - 부동산중개업"}]},{"lat":"37.460354323","long":"127.03138768","items":[{"name":"그램그램과천점","tel":"02-3679-8888","addr":"경기도 과천시 별양동 1-10번지 렉스타운 309호","category":"음식점업 - 한식"}]},{"lat":"37.453852532","long":"127.00152573","items":[{"name":"그레이스","tel":"02-504-5545","addr":"경기도 과천시 별양동 1-18번지 새서울프라자 2층 17호","category":"소매업 - 의류"}]},{"lat":"37.428804061","long":"126.99080431","items":[{"name":"그레이스부띠끄","tel":"02-503-3766","addr":"경기도 과천시 별양동 1-18번지 과천새서울프라자2층 4","category":"소매업 - 의류"}]},{"lat":"37.442049265","long":"127.0090292","items":[{"name":"그린치과의원","tel":"02-503-2275","addr":"경기도 과천시 별양동 1-15번지 217.218호","category":"보건업 - 치과"},{"name":"오디너리 미라클","tel":"02-504-2507","addr":"경기도 과천시 별양동 1-18번지 새서울프라자 1층 1호","category":"도소매 - 휴대폰"}]},{"lat":"37.429047731","long":"126.99569635","items":[{"name":"극동중앙선교회","tel":"02-503-5880","addr":"경기도 과천시 별양동 6 5단지내상가지하관리실","category":"기타 - 비영리/비대상"},{"name":"대흥건재사","tel":"02-502-0040","addr":"경기도 과천시 별양동 6번지 주공아파트","category":"건축자재 - 목재·석재·철물"},{"name":"바이시클테크과천센터","tel":"02-502-0521","addr":"경기도 과천시 별양동 6번지 주공아파트 105호","category":"레져용품 - 스포츠·레져용품"},{"name":"백채(과천청사점)","tel":"02-504-4084","addr":"경기도 과천시 별양동 1-17번지 과천타워 1층 104호","category":"음식점업 - 한식"},{"name":"삼성종합부동산","tel":"02-503-5800","addr":"경기도 과천시 별양동 6번지 5단지 108호","category":"용역 서비스 - 부동산 중개·임대"},{"name":"영희공사","tel":"02-503-8166","addr":"경기도 과천시 별양동 6번지 5단지상가 106호","category":"서비스 - 수리"},{"name":"예원","tel":"02-504-2008","addr":"경기도 과천시 별양동 6번지 102(5단지상가지층)","category":"서적문구 - 출판 및 인쇄물"},{"name":"진성관미용실","tel":"02-502-0230","addr":"경기도 과천시 별양동 6번지 주공아파트 상가 201호","category":"보건위생 - 미용원"},{"name":"카오야","tel":"070-5029-4008","addr":"경기도 과천시 별양동 6번지 제지하A호 제2호(5단지복합상가)","category":"일반휴게음식 - 일반한식"},{"name":"코리아체육관","tel":"02-503-1383","addr":"경기도 과천시 별양동 6번지 5단지연아유치원 104호","category":"학원 - 예·체능계학원"},{"name":"크린업24","tel":"070-5118-2236","addr":"경기도 과천시 별양동 6번지 주공아파트 103호","category":"수리서비스 - 세탁소"},{"name":"트럼프미용실","tel":"02-504-7625","addr":"경기도 과천시 별양동 6번지 5단지 상가 2층 202호, 205호, 206호","category":"보건위생 - 미용원"}]},{"lat":"37.428858087","long":"126.99047665","items":[{"name":"글로리칼라현상소","tel":"02-503-3455","addr":"경기도 과천시 별양동 15번지 호프호텔쇼핑 1층","category":"소매업 - 사진촬영"}]},{"lat":"37.424110251","long":"126.99611483","items":[{"name":"글봄크리에이티브","tel":"02-507-2340","addr":"경기도 과천시 별양동 38-7번지 201호","category":"서적문구 - 일반서적"},{"name":"훼어리","tel":"02-502-4525","addr":"경기도 과천시 별양동 1-18번지 새서울프라자 2층 55호","category":"소매업 - 숙녀복"}]},{"lat":"37.459354971","long":"127.02805302","items":[{"name":"금성장식","tel":"02-503-2866","addr":"경기도 과천시 별양동 52, 가동 103호~104호(별양동)","category":"소매업 - 인테리어"},{"name":"김밥천국","tel":"02-507-6009","addr":"경기도 과천시 별양동 1-13번지 제일쇼핑 1층 120-123호","category":"음식점업 - 기타"},{"name":"다온정","tel":"02-507-3773","addr":"경기도 과천시 별양동 1-19, 상가건물6층2","category":"음식점업 - 한식"},{"name":"땀디자인","tel":"","addr":"경기도 과천시 별양동 1-10 렉스타운11층 1107","category":"서비스 - 광고물작성업"},{"name":"모자","tel":"","addr":"경기도 과천시 별양동 1-18, 새서울프라자 1층","category":"소매업 - 악세서리"},{"name":"아트댄스스튜디오 (Art Dance Studio)","tel":"02-504-7083","addr":"경기도 과천시 별양동 1-5번지 신라 상가 304호","category":"서비스 - 댄스"},{"name":"열린공인중개사사무소","tel":"02-507-4242","addr":"경기도 과천시 별양동 7번지 삼호 상가 102호","category":"부동산업 - 부동산중개업"},{"name":"우리집반찬","tel":"02-503-0002","addr":"경기도 과천시 별양동 1-5번지 신라지하상가 102호","category":"소매업 - 반찬가게"},{"name":"이마트24 과천별양점","tel":"02-504-4871","addr":"경기도 과천시 별양동 1-8번지 골든타워 1층 104호","category":"소매업 - 편의점"},{"name":"작은숲 영어교습소","tel":"","addr":"경기도 과천시 별양동 1-5번지 신라상가 2층 203호","category":"교육서비스업 - 영어학원"},{"name":"제일대중사우나","tel":"02-507-5526","addr":"경기도 과천시 별양동 1-13번지 제일쇼핑 지하1층 114호","category":"서비스 - 대중탕"},{"name":"제일약국","tel":"02-504-1020","addr":"경기도 과천시 별양동 1-13번지 제일쇼핑 101호~102호","category":"소매업 - 양약"},{"name":"조은피부과의원","tel":"02-503-3118","addr":"경기도 과천시 별양동 1-20 유니온빌딩2층22","category":"보건업 - 피부과"},{"name":"죠스떡볶이(과천중앙점)","tel":"02-503-5452","addr":"경기도 과천시 별양동 1-10번지 렉스타운 109호","category":"음식점업 - 간이음식점"},{"name":"주식회사롯데관광과천","tel":"02-507-6262","addr":"경기도 과천시 별양동 1-11번지 벽산 상가 305호","category":"서비스 - 여행사"},{"name":"지니앤파티","tel":"070-7504-8960","addr":"경기도 과천시 별양동 37-4 202 B/5","category":"소매업 - 전자상거래"},{"name":"토우축산","tel":"02-503-8284","addr":"경기도 과천시 별양동 1-7번지 백두빌딩 108호","category":"도소매 - 식육"},{"name":"토크(밀란)","tel":"02-503-8253","addr":"경기도 과천시 별양동 1-18번지 새서울프라자 2층 43호","category":"소매업 - 의류"},{"name":"풍경","tel":"02-504-1127","addr":"경기도 과천시 별양동 1-11번지 벽산 상가 204호","category":"음식점업 - 한식"},{"name":"하이-엔드스킨","tel":"02-3679-0266","addr":"경기도 과천시 별양동 15번지 1층하이-엔드스킨","category":"서비스 - 화장품"}]},{"lat":"37.446525617","long":"127.02343801","items":[{"name":"기찬숯불김밥(과천점)","tel":"02-504-5043","addr":"경기도 과천시 별양동 1-8번지 골든타워 103호","category":"음식점업 - 한식"}]},{"lat":"37.453023617","long":"127.00211344","items":[{"name":"김명자굴국밥전문점","tel":"02-507-2200","addr":"경기도 과천시 별양동 1-17번지 과천타워 지하1층 9","category":"음식점업 - 한식"}]},{"lat":"37.46338106","long":"127.03385295","items":[{"name":"김이비인후과","tel":"02-503-2647","addr":"경기도 과천시 별양동 1-10번지 렉스타운 407호, 408호","category":"보건업 - 이비인후과"},{"name":"푸드딜라이트 과천점","tel":"02-504-3787","addr":"경기도 과천시 별양동 15번지 동화나라유치원 1층 5호","category":"음식점업 - 일반음식점"}]},{"lat":"37.455238938","long":"127.01932645","items":[{"name":"김정문알로에(과천점)","tel":"02-502-7182","addr":"경기도 과천시 별양동 1-13번지 제일쇼핑 215동 216호","category":"도소매 - 건강기능식품"}]},{"lat":"37.4284979422","long":"126.9932221348","items":[{"name":"김준현한의원","tel":"02-503-2630","addr":"경기도 과천시 별양동 1-3번지 제일상가 113호","category":"보건업 - 한의원"}]},{"lat":"37.452933515","long":"127.00180829","items":[{"name":"깜지","tel":"02-504-7209","addr":"경기도 과천시 별양동 1-13번지 제일쇼핑 245호","category":"서비스 - 의류"}]},{"lat":"37.42427252","long":"127.007898","items":[{"name":"나이스점핑다이어트","tel":"02-3418-3388","addr":"경기도 과천시 별양동 1-4번지 상아빌딩 503호","category":"서비스 - 스포츠시설"}]},{"lat":"37.437136962","long":"127.02463318","items":[{"name":"낙지마당","tel":"02-3679-4092","addr":"경기도 과천시 별양동 상가상가로 2, 지하1층 1호 (별양동,과천타워)","category":"음식점업 - 한식"},{"name":"놀부부대찌개","tel":"02-507-0701","addr":"경기도 과천시 별양동 1-17번지 과천타워 203호","category":"음식점업 - 한식"},{"name":"데이지","tel":"02-3418-4663","addr":"경기도 과천시 별양동 1-13번지 제일쇼핑 2층 231호","category":"소매업 - 자수"},{"name":"명치과의원","tel":"02-503-0300","addr":"경기도 과천시 별양동 1-13번지 제일쇼핑 604호","category":"보건업 - 치과"}]},{"lat":"37.45094","long":"127.02625327","items":[{"name":"남도연","tel":"02-504-3627","addr":"경기도 과천시 별양동 1-10번지 2층 204호,205호","category":"음식점업 - 한식"}]},{"lat":"37.426578609","long":"126.99108711","items":[{"name":"남안과의원","tel":"02-503-2340","addr":"경기도 과천시 별양동 1-20번지 유니온빌딩 2층","category":"의원 - 의원"},{"name":"도드람한마당","tel":"02-507-5522","addr":"경기도 과천시 별양동 1-20번지 유니온빌딩 지하1층 3호","category":"일반휴게음식 - 일반한식"},{"name":"리틀다빈치미술교습소","tel":"02-504-5045","addr":"경기도 과천시 별양동 13번지 3단지병원 3층 5호","category":"서비스 - 교습소"},{"name":"마음건강네트워크 나담","tel":"02-504-3231","addr":"경기도 과천시 별양동 1-14번지 과천오피스텔 5-D","category":"서비스 - 상담"},{"name":"벽산미용실","tel":"02-502-2514","addr":"경기도 과천시 별양동 1-11번지 벽산상가512-1호","category":"서비스 - 미용실"},{"name":"삼화약국","tel":"02-3679-6321","addr":"경기도 과천시 별양동 1-20번지 유니온빌딩 201호","category":"약국 - 약국"},{"name":"스킨테크","tel":"02-503-8800","addr":"경기도 과천시 별양동 1-20번지 유니온빌딩 2층","category":"보건위생 - 화장품"},{"name":"신정형외과의원","tel":"02-507-2104","addr":"경기도 과천시 별양동 1-20번지 유니온빌딩 302호","category":"의원 - 의원"},{"name":"알파 과천점","tel":"02-504-0193","addr":"경기도 과천시 별양동 1-20번지 유니온빌딩 2층 4-1호","category":"사무통신 - 기타 사무용품"},{"name":"엔젤스코인노래연습장 과천벌양점","tel":"070-8800-4304","addr":"경기도 과천시 별양동 1-20번지 유니온빌딩 지하1층 2호","category":"레저업소 - 노 래 방"},{"name":"오피스큐 과천점","tel":"02-502-3111","addr":"경기도 과천시 별양동 1-14번지 지하1층 8-1호","category":"도소매 - 사무용품"},{"name":"우리체형","tel":"02-529-7777","addr":"경기도 과천시 별양동 1-18, 제3층 15-1호","category":"도소매 - 체형교육서비스"},{"name":"유니온매점","tel":"02-503-9829","addr":"경기도 과천시 별양동 1-20번지","category":"음료식품 - 기타음료식품"},{"name":"이색도시","tel":"02-504-1800","addr":"경기도 과천시 별양동 1-20번지 유니온빌딩 지하층","category":"일반휴게음식 - 일반한식"},{"name":"이즈치과의원","tel":"02-502-5886","addr":"경기도 과천시 별양동 1-20번지 유니온빌딩","category":"의원 - 치과의원"},{"name":"일오삼(153) 코인노래연습장","tel":"02-000-0000","addr":"경기도 과천시 별양동 1-20번지 유니온빌딩 지층 7호","category":"레저업소 - 노 래 방"},{"name":"장균이비인후과","tel":"02-504-3030","addr":"경기도 과천시 별양동 1-20 유니온빌딩 303-1","category":"의원 - 의원"},{"name":"정선문내과의원","tel":"02-502-8549","addr":"경기도 과천시 별양동 1-20번지 유니온빌딩 2층","category":"의원 - 의원"},{"name":"제주고씨네김치찌개","tel":"02-504-9233","addr":"경기도 과천시 별양동 1-20번지 유니온빌딩 지하1층 1호","category":"일반휴게음식 - 일반한식"},{"name":"조은생활 경기남부지사","tel":"02-421-8285","addr":"경기도 과천시 별양동 1-20번지 유니온빌딩 지하 3호","category":"주방용구 - 주방용구"},{"name":"조은피부과의원","tel":"02-503-3118","addr":"경기도 과천시 별양동 1-20 유니온빌딩2층22","category":"의원 - 의원"},{"name":"코리아체육관","tel":"02-503-1383","addr":"경기도 과천시 별양동 6번지 5단지연아유치원 104호","category":"서비스 - 태권도"},{"name":"크리드피씨 (CREED PC)","tel":"","addr":"경기도 과천시 별양동 1-20번지 유니온빌딩 지하1층 제8 9호","category":"수리서비스 - 사무·통신기기수리"},{"name":"토이토핑 슬라임 과천점","tel":"","addr":"경기도 과천시 별양동 1-20번지 유니온빌딩 지하1층 6호","category":"레저업소 - 기타레져업소"},{"name":"필","tel":"02-507-2639","addr":"경기도 과천시 별양동 1-18번지 새서울프라자 2층 56호","category":"소매업 - 의류"},{"name":"하누랑도니랑","tel":"02-3679-8292","addr":"경기도 과천시 별양동 1-20번지 유니온빌딩 지하 3호","category":"일반휴게음식 - 일반한식"}]},{"lat":"37.428632901","long":"126.99110938","items":[{"name":"노블피부과의원","tel":"02-3679-2175","addr":"경기도 과천시 별양동 1-10번지 렉스타운 4층 401,402호","category":"보건업 - 피부과"},{"name":"온누리길약국","tel":"02-502-1966","addr":"경기도 과천시 별양동 1-10번지 렉스타운 4층 404호","category":"소매업 - 양약"}]},{"lat":"37.433661079","long":"127.00447509","items":[{"name":"늘푸른약국","tel":"02-502-1836","addr":"경기도 과천시 별양동 1-8번지 골든타워 202-1호","category":"소매업 - 약국"},{"name":"종합신발","tel":"02-504-6654","addr":"경기도 과천시 별양동 1-18번지 새서울프라자1층 48","category":"소매업 - 신발"}]},{"lat":"37.436652288","long":"126.99731142","items":[{"name":"다인도시락","tel":"02-503-4949","addr":"경기도 과천시 별양동 15번지 유치원상가 지하층 4호","category":"음식점업 - 한식"}]},{"lat":"37.453906581","long":"127.00077981","items":[{"name":"다흰왕만두","tel":"02-502-5570","addr":"경기도 과천시 별양동 1-11번지 벽산상가 111호","category":"음식점업 - 분식"}]},{"lat":"37.41600021","long":"126.98614105","items":[{"name":"단거연구소","tel":"","addr":"경기도 과천시 별양동 1-18번지 새서울프라자 지층 17,18,21,22호","category":"도소매 - 식품"}]},{"lat":"37.430219255","long":"127.00302883","items":[{"name":"단골가게","tel":"02-3679-0400","addr":"경기도 과천시 별양동 1-18번지 새서울쇼핑 2층 46호","category":"소매업 - 의류잡화"}]},{"lat":"37.463768731","long":"127.03291493","items":[{"name":"달콤네일","tel":"02-3418-5224","addr":"경기도 과천시 별양동 1-5번지 신라 상가 1층 110호","category":"서비스 - 네일아트"}]},{"lat":"37.435580198","long":"127.00032836","items":[{"name":"대가","tel":"02-503-8373","addr":"경기도 과천시 별양동 1-5번지 신라 상가 205호","category":"음식점업 - 한식"}]},{"lat":"37.426191526","long":"126.99535769","items":[{"name":"대한예수교장로회과천약수교회","tel":"02-503-9800","addr":"경기도 과천시 별양동 18-15번지","category":"기타 - 비영리/대상"},{"name":"도서출판쉐마학당","tel":"02-503-9800","addr":"경기도 과천시 별양동 18-15번지 3층","category":"서적문구 - 출판 및 인쇄물"}]},{"lat":"37.426911065","long":"126.98402593","items":[{"name":"더돈카페","tel":"02-502-9648","addr":"경기도 과천시 별양동 1-11번지 2층 209-1호","category":"음식점업 - 한식"}]},{"lat":"37.428353953","long":"126.99561733","items":[{"name":"더레드클럽","tel":"02-507-2224","addr":"경기도 과천시 별양동 1-4번지 상아빌딩 601호","category":"서비스 - 피부미용"},{"name":"카코이돈부리(과천점)","tel":"02-3418-0530","addr":"경기도 과천시 별양동 1-14번지 과천오피스텔 지하1층 5호","category":"음식점업 - 일식"}]},{"lat":"37.425245623","long":"126.99830645","items":[{"name":"더피플커뮤니케이션","tel":"031-000-0000","addr":"경기도 과천시 별양동 50-2번지","category":"용역 서비스 - 종합용역"},{"name":"황금공인중개사사무소","tel":"02-503-2400","addr":"경기도 과천시 별양동 7-1번지 103호","category":"부동산업 - 공인중개사"}]},{"lat":"37.424083184","long":"127.01028174","items":[{"name":"도담","tel":"","addr":"경기도 과천시 별양동 13번지 제1층 105호","category":"소매업 - 생활 도자기"}]},{"lat":"37.425470824","long":"126.99716538","items":[{"name":"동인기획","tel":"02-504-1423","addr":"경기도 과천시 별양동 32-5번지 지층","category":"용역 서비스 - 종합용역"}]},{"lat":"37.433498472","long":"126.99272435","items":[{"name":"동키치킨","tel":"02-502-7484~5","addr":"경기도 과천시 별양동 13번지 병원상가 102호","category":"음식점업 - 기타음식점어"}]},{"lat":"37.41610735","long":"126.98025572","items":[{"name":"돼지소굴","tel":"02-3418-8731","addr":"경기도 과천시 별양동 1-11번지 벽산상가지하 11호","category":"음식점업 - 한식"}]},{"lat":"37.424272449","long":"127.00936667","items":[{"name":"두레박민속주점","tel":"02-507-2680","addr":"경기도 과천시 별양동 1-18번지 새서울쇼핑 4층 12호","category":"음식점업 - 간이주점"}]},{"lat":"37.436057728","long":"127.00022665","items":[{"name":"두리한의원","tel":"02-503-2256","addr":"경기도 과천시 별양동 1-5번지 신라상가301호~303호","category":"보건업 - 한의원"}]},{"lat":"37.436129717","long":"126.99753744","items":[{"name":"뚜레쥬르(과천중앙점)","tel":"02-503-0495","addr":"경기도 과천시 별양동 1-17번지 과천타워 107호","category":"음식점업 - 제과"}]},{"lat":"37.451185575","long":"127.00197784","items":[{"name":"라폰타나","tel":"02-502-9448","addr":"경기도 과천시 별양동 1-11 벽산상가 1층 1,2","category":"음식점업 - 간이음식점"}]},{"lat":"37.425497803","long":"126.99619379","items":[{"name":"레쎄코리아","tel":"02-336-7776","addr":"경기도 과천시 별양동 25-8번지","category":"보건위생 - 화장품"}]},{"lat":"37.4264976543","long":"126.9925332301","items":[{"name":"로가","tel":"02-502-5429","addr":"경기도 과천시 별양동 1-18번지 새서울쇼핑 2층 48,49호","category":"소매업 - 의류"},{"name":"새서울악기","tel":"02-503-3325","addr":"경기도 과천시 별양동 1-18번지 과천새서울프라자 1층 54호","category":"소매업 - 악기"},{"name":"인터넷 포세이돈","tel":"02-504-0150","addr":"경기도 과천시 별양동 1-18번지 새서울프라자 4층","category":"서비스 - 인터넷PC방"},{"name":"쟈스민","tel":"","addr":"경기도 과천시 별양동 1-18번지 과천새서울프라자 2층 25호","category":"소매업 - 숙녀복"}]},{"lat":"37.4473561","long":"127.01017102","items":[{"name":"루루악세사리","tel":"02-503-006071","addr":"경기도 과천시 별양동 1-18번지 새서울프라자 1층","category":"소매업 - 잡화"}]},{"lat":"37.4274978164","long":"126.9930866888","items":[{"name":"루시","tel":"02-3418-5919","addr":"경기도 과천시 별양동 1-13번지 제일쇼핑 217호","category":"소매업 - 화장품"},{"name":"이경희부띠끄","tel":"02-504-3437","addr":"경기도 과천시 별양동 1-13번지 제일쇼핑내 2층 250호","category":"소매업 - 의류"},{"name":"코지","tel":"02-507-1850","addr":"경기도 과천시 별양동 1-13번지 제일쇼핑 1층 128호","category":"소매업 - 악세서리"},{"name":"큐피트홈패션","tel":"02-503-1402","addr":"경기도 과천시 별양동 1-13번지 제일쇼핑 240호","category":"소매업 - 침구"}]},{"lat":"37.423749881","long":"126.99669102","items":[{"name":"리틀도쿄","tel":"02-502-6969","addr":"경기도 과천시 별양동 1-14번지 과천오피스텔 2층","category":"도소매 - 무역, 화장품"},{"name":"액션 네트워크","tel":"031-000-0000","addr":"경기도 과천시 별양동 43-6번지","category":"용역 서비스 - 종합용역"}]},{"lat":"37.428993889","long":"127.00341297","items":[{"name":"마니","tel":"02-3679-2229","addr":"경기도 과천시 별양동 1-13번지 제일쇼핑 1층","category":"소매업 - 악세서리"}]},{"lat":"37.461128882","long":"127.0326087","items":[{"name":"마르지않는샘수학학원","tel":"02-502-3999","addr":"경기도 과천시 별양동 1-8번지 골든타워 501,503호","category":"교육서비스업 - 학원"}]},{"lat":"37.456517334","long":"127.02552036","items":[{"name":"마리","tel":"02-504-7203","addr":"경기도 과천시 별양동 1-13번지 제일쇼핑 129호","category":"소매업 - 악세서리"}]},{"lat":"37.402890058","long":"126.98292512","items":[{"name":"마리","tel":"","addr":"경기도 과천시 별양동 1-18번지 새서울쇼핑2층 2층 16호","category":"소매업 - 의류"}]},{"lat":"37.412334133","long":"126.9965903","items":[{"name":"마산해물찜","tel":"02-502-7615","addr":"경기도 과천시 별양동 1-14번지 과천오피스텔 지하1층 6-2호","category":"음식점업 - 한식"}]},{"lat":"37.424245484","long":"127.00805617","items":[{"name":"마임과천지사","tel":"02-502-3307","addr":"경기도 과천시 별양동 1-18번지 새서울프라자 5층 503-2-1호","category":"도소매 - 화장품"}]},{"lat":"37.447824613","long":"127.01030667","items":[{"name":"멜팅포인트 962","tel":"","addr":"경기도 과천시 별양동 1-18번지 새서울프라자 1층 34호","category":"소매업 - 주얼리"}]},{"lat":"37.4290477312","long":"126.9956963523","items":[{"name":"명성공인중개사사무소","tel":"02-502-2300","addr":"경기도 과천시 별양동 6 5단지 복합상가 102","category":"용역 서비스 - 부동산 중개·임대"}]},{"lat":"37.45413075","long":"127.01902105","items":[{"name":"모리스 가죽공방","tel":"","addr":"경기도 과천시 별양동 1-14번지 과천오피스텔 8동 817층","category":"도소매 - 가죽공예"}]},{"lat":"37.450770849","long":"126.99491448","items":[{"name":"몸바른 힐링센타","tel":"02-504-6865","addr":"경기도 과천시 별양동 1-10번지 렉스타운 307호","category":"서비스 - 피부미용"}]},{"lat":"37.423632619","long":"126.99455584","items":[{"name":"문원초등학교","tel":"02-507-5804","addr":"경기도 과천시 별양동 16번지 문원초등학교","category":"학원 - 초중고교육기관"},{"name":"하나네집","tel":"02-507-6603","addr":"경기도 과천시 별양동 1-11번지 벽산빌딩 지하층 12호","category":"음식점업 - 한식"}]},{"lat":"37.437823613","long":"126.99777461","items":[{"name":"미스티클럽","tel":"02-502-9653","addr":"경기도 과천시 별양동 1-18번지 새서울프라자 1층 10호","category":"도소매 - 의류"}]},{"lat":"37.42338946","long":"127.00944567","items":[{"name":"미용실오에프티","tel":"02-502-3263","addr":"경기도 과천시 별양동 1-15번지 그레이스호텔2동230호~231호 2동 230호","category":"서비스 - 미용실"}]},{"lat":"37.44766252","long":"126.99702808","items":[{"name":"미즈피부관리소","tel":"02-502-9937","addr":"경기도 과천시 별양동 7번지 삼호상가 301-5동","category":"소매업 - 화장품"}]},{"lat":"37.432326698","long":"126.98825025","items":[{"name":"미친닭발","tel":"02-503-3880","addr":"경기도 과천시 별양동 1-10번지 렉스타운 306호","category":"음식점업 - 일반음식점"}]},{"lat":"37.449239112","long":"126.99439479","items":[{"name":"민달팽이협동조합","tel":"02-507-0888","addr":"경기도 과천시 별양동 1-18번지 새서울쇼핑 3층 59호","category":"서비스 - 토탈생활보수"}]},{"lat":"37.460966673","long":"127.03272166","items":[{"name":"바디 클리닉 제이엘 필라테스","tel":"02-504-0023","addr":"경기도 과천시 별양동 1-13번지 6층 601,602,603호","category":"서비스 - 요가"}]},{"lat":"37.422055902","long":"127.01060915","items":[{"name":"바르다김선생(과천정부청사역점)","tel":"02-504-6555","addr":"경기도 과천시 별양동 1-11번지 벽산상가113, 115, 116호","category":"음식점업 - 일반음식"}]},{"lat":"37.462579407","long":"127.03293706","items":[{"name":"바른국수 둥이네","tel":"02-3679-1253","addr":"경기도 과천시 별양동 1-11번지 벽산상가 지층 B14호","category":"음식점업 - 한식"}]},{"lat":"37.439328299","long":"127.00771821","items":[{"name":"바오밥나무","tel":"02-502-8760","addr":"경기도 과천시 별양동 1-5번지 신라 상가 2층 202호","category":"음식점업 - 한식"}]},{"lat":"37.453552644","long":"127.02751989","items":[{"name":"바이시클테크(과천센터)","tel":"02-502-5215","addr":"경기도 과천시 별양동 6번지 주공아파트 105호","category":"서비스 - 자전거판매"},{"name":"오븐에빠진닭","tel":"02-504-5892","addr":"경기도 과천시 별양동 1-11번지 벽산상가 2층 202호","category":"음식점업 - 기타"}]},{"lat":"37.462876659","long":"127.03324237","items":[{"name":"박승범제면소","tel":"02-504-1294","addr":"경기도 과천시 별양동 1-18번지 지하층 47호,52호","category":"음식점업 - 분식, 국수"}]},{"lat":"37.446914402","long":"126.99277903","items":[{"name":"박승철헤어스튜디오 과천점","tel":"02-504-8811","addr":"경기도 과천시 별양동 1-10번지 206,207,208호","category":"서비스 - 미용업"}]},{"lat":"37.448410227","long":"127.01086048","items":[{"name":"밥먹자국밥집","tel":"02-507-5980","addr":"경기도 과천시 별양동 1-18번지 새서울프라자 지하1층 26, 28, 30호","category":"음식점업 - 한식"}]},{"lat":"37.427911942","long":"126.98964076","items":[{"name":"방치웅의원","tel":"02-503-5630","addr":"경기도 과천시 별양동 1-3번지 제일상가 303호","category":"보건업 - 치과"},{"name":"본사골칼국수","tel":"02-504-3204","addr":"경기도 과천시 별양동 1-17번지 과천타워 지하1층 14호","category":"음식점업 - 한식"}]},{"lat":"37.416639028","long":"126.98069611","items":[{"name":"버블버블","tel":"02-507-8692","addr":"경기도 과천시 별양동 1-18번지 새서울프라자 2층 35호","category":"소매업 - 숙녀복"}]},{"lat":"37.433191924","long":"126.99055503","items":[{"name":"베스킨라빈스","tel":"02-507-3243","addr":"경기도 과천시 별양동 1-4번지 상아빌딩 104동 105호","category":"음식점업 - 아이스크림"}]},{"lat":"37.429246159","long":"127.00458798","items":[{"name":"본죽과천점","tel":"02-507-6288","addr":"경기도 과천시 별양동 7-1번지 105호","category":"음식점업 - 한식"}]},{"lat":"37.424200315","long":"126.99550476","items":[{"name":"봄내어린이집[아이행복]","tel":"02-3418-9970","addr":"경기도 과천시 별양동 17번지 래미안슈르 347동 102호","category":"학원 - 유아원"}]},{"lat":"37.425353203","long":"126.99069188","items":[{"name":"봉구비어","tel":"","addr":"경기도 과천시 별양동 1-7번지 백두빌딩 1층 107호","category":"음식점업 - 일반음식점"},{"name":"코오롱엘에스아이주식회사","tel":"031-452-7700","addr":"경기도 과천시 별양동 1-23번지 코오롱 6층","category":"자동차정비 유지 - 주차장"},{"name":"코오롱인더스트리(주) FNC부문 과천직영점","tel":"02-2199-1891","addr":"경기도 과천시 별양동 1-23번지 코오롱타워 B1층","category":"레져용품 - 스포츠·레져용품"},{"name":"코오롱플라워 앤 오피스","tel":"02-502-0115","addr":"경기도 과천시 별양동 1-23번지","category":"문화.취미 - 화원"}]},{"lat":"37.432993579","long":"126.98941389","items":[{"name":"부라운토마스","tel":"02-504-1005","addr":"경기도 과천시 별양동 1-18번지 새서울프라자1층 31호","category":"도소매 - 구두"}]},{"lat":"37.438102953","long":"126.99849776","items":[{"name":"북마당 서점문구","tel":"02-502-6000","addr":"경기도 과천시 별양동 1-3번지 제일상가 지하1층","category":"소매업 - 서적문구"}]},{"lat":"37.424110313","long":"127.00849675","items":[{"name":"빨간떡볶이샵","tel":"070-4085-2777","addr":"경기도 과천시 별양동 1-10번지 렉스타운 203호","category":"음식점업 - 떡볶이"}]},{"lat":"37.429552507","long":"127.00405697","items":[{"name":"빽다방과천렉스타운점","tel":"02-3418-7787","addr":"경기도 과천시 별양동 1-10번지 렉스타운 102호","category":"음식점업 - 휴게음식"}]},{"lat":"37.450572847","long":"126.99941244","items":[{"name":"사랑","tel":"02-3679-2356","addr":"경기도 과천시 별양동 1-15번지 그레이스상가 119-1호","category":"소매업 - 의류"}]},{"lat":"37.454609362","long":"127.00081369","items":[{"name":"삼세한의원","tel":"02-502-3939","addr":"경기도 과천시 별양동 13번지 병원상가 104호","category":"보건업 - 한의원"}]},{"lat":"37.457490262","long":"127.02630052","items":[{"name":"삼호크리닝","tel":"02-502-9191","addr":"경기도 과천시 별양동 7번지 4단지삼호 상가 223호","category":"서비스 - 세탁소"}]},{"lat":"37.4264707395","long":"126.9939454503","items":[{"name":"삼호크리닝","tel":"02-502-9191","addr":"경기도 과천시 별양동 7.4단지삼호상가223","category":"수리서비스 - 세탁소"}]},{"lat":"37.443968527","long":"127.00563924","items":[{"name":"샤론","tel":"02-577-1393","addr":"경기도 과천시 별양동 1-13번지 제일쇼핑 2층 235호","category":"소매업 - 의류잡화"}]},{"lat":"37.4283267911","long":"126.9937192693","items":[{"name":"샤론코스메틱","tel":"02-503-1878","addr":"경기도 과천시 별양동 1-5번지 신라 상가 505호","category":"서비스 - 일반미용업"}]},{"lat":"37.426579184","long":"127.00102913","items":[{"name":"샤인","tel":"02-503-5428","addr":"경기도 과천시 별양동 1-18,새서울프라자2층36","category":"소매업 - 숙녀복"}]},{"lat":"37.458381505","long":"127.02980458","items":[{"name":"서코실업","tel":"02-507-4389","addr":"경기도 과천시 별양동 1-13, 제일쇼핑 145~147호","category":"도소매 - 구두"}]},{"lat":"37.448851583","long":"126.99311781","items":[{"name":"서해약국","tel":"02-503-1627","addr":"경기도 과천시 별양동 1-4번지 상아빌딩 109,110호","category":"소매업 - 양약"}]},{"lat":"37.431075023","long":"126.99624978","items":[{"name":"성창종합철물","tel":"02-507-0067","addr":"경기도 과천시 별양동 4번지 연아 유치원상가 101호","category":"건축자재 - 목재·석재·철물"},{"name":"청계초등학교","tel":"031-502-3429","addr":"경기도 과천시 별양동 4번지 청계초등학교","category":"학원 - 초중고교육기관"}]},{"lat":"37.441553653","long":"127.01011395","items":[{"name":"소나무서관","tel":"","addr":"경기도 과천시 별양동 1-18번지 새서울프라자 3층 66호","category":"소매업 - 서적"}]},{"lat":"37.429471418","long":"127.00388749","items":[{"name":"소목꽃 한지","tel":"","addr":"경기도 과천시 별양동 1-18번지 새서울프라자 3층 65호","category":"소매업 - 천연화장품, 캔들"}]},{"lat":"37.445941622","long":"127.00844188","items":[{"name":"소박한한끼","tel":"02-504-7474","addr":"경기도 과천시 별양동 1-18번지 새서울쇼핑 지하18호","category":"소매업 - 반찬"}]},{"lat":"37.461021571","long":"127.02919517","items":[{"name":"소선방","tel":"02-503-0888","addr":"경기도 과천시 별양동 1-17번지 과천타워 G동 1층 4호","category":"음식점업 - 한식, 김치"}]},{"lat":"37.425660019","long":"126.99683774","items":[{"name":"소하밴드","tel":"","addr":"경기도 과천시 별양동 28-5번지 202호","category":"신변잡화 - 액세서리"}]},{"lat":"37.456240004","long":"127.00952765","items":[{"name":"순남시래기(과천점)","tel":"02-502-3737","addr":"경기도 과천시 별양동 1-14번지 과천오피스텔 G동 1층 3호","category":"음식점업 - 한식"}]},{"lat":"37.447716034","long":"126.99011191","items":[{"name":"순희집","tel":"02-503-1684","addr":"경기도 과천시 별양동 1-18번지 새서울쇼핑 지하 6호","category":"음식점업 - 한식"}]},{"lat":"37.46063338","long":"127.03241635","items":[{"name":"스마일찹쌀꽈배기","tel":"02-502-1131","addr":"경기도 과천시 별양동 1-4번지 상아빌딩 111호","category":"음식점업 - 휴게음식점"}]},{"lat":"37.450608675","long":"127.01078161","items":[{"name":"스쿨룩스(과천점)","tel":"02-502-1317","addr":"경기도 과천시 별양동 1-18번지 새서울프라자 2층 26,28호","category":"도소매 - 교복"}]},{"lat":"37.458849929","long":"127.03022295","items":[{"name":"스토리지","tel":"02-502-0086","addr":"경기도 과천시 별양동 1-3번지 제일상가 2층 202호","category":"음식점업 - 한식"},{"name":"예연세안과의원","tel":"02-507-096","addr":"경기도 과천시 별양동 1-19번지 이마트 8층","category":"보건업 - 안과"}]},{"lat":"37.454797323","long":"127.0201966","items":[{"name":"스튜디오진포토","tel":"02-503-5009","addr":"경기도 과천시 별양동 1-11번지 벽산상가 3층 314호","category":"서비스 - 스튜디오"}]},{"lat":"37.4621296","long":"127.0300772","items":[{"name":"시드니","tel":"02-504-3284","addr":"경기도 과천시 별양동 1-18번지 새서울프라자 2층 10-A","category":"소매업 - 의류잡화"}]},{"lat":"37.423966153","long":"126.99731236","items":[{"name":"시립 별양어린이집[아이행복]","tel":"02-507-5455","addr":"경기도 과천시 별양동 45번지 별양어린이집","category":"학원 - 유아원"}]},{"lat":"37.451329703","long":"126.99997748","items":[{"name":"씨유과천공원점","tel":"02-503-0585","addr":"경기도 과천시 별양동 1-3번지 제일상가","category":"소매업 - 편의점"}]},{"lat":"37.427966388","long":"126.99369672","items":[{"name":"아산메모리얼파크휴온 주식회사","tel":"02-502-9984","addr":"경기도 과천시 별양동 1-6번지 501호","category":"용역 서비스 - 가례서비스업"},{"name":"원스튜디오","tel":"02-502-0300","addr":"경기도 과천시 별양동 1-15번지 그레이스호텔빌딩217-218호","category":"서비스 - 사진촬영"},{"name":"은지순대","tel":"02-502-1512","addr":"경기도 과천시 별양동 1-17번지 과천타워 1층 103호","category":"음식점업 - 한식"},{"name":"주식회사발해","tel":"02-507-3434","addr":"경기도 과천시 별양동 1-15번지 그레이스호텔 526호","category":"서비스 - 여행"},{"name":"프롬더어스(FROM THE EARTH)","tel":"02-502-0507","addr":"경기도 과천시 별양동 1-6번지 101호","category":"일반휴게음식 - 서양음식"},{"name":"플랜비영어학원","tel":"031-000-0000","addr":"경기도 과천시 별양동 1-6번지 402호","category":"학원 - 외국어학원"}]},{"lat":"37.418496421","long":"126.98947297","items":[{"name":"애리의 밥집술집","tel":"02-502-2707","addr":"경기도 과천시 별양동 1-10번지 렉스타운 302호 303호","category":"음식점업 - 한식"},{"name":"커피케빈","tel":"02-3262-3168","addr":"경기도 과천시 별양동 1-17번지 과천타워 101호","category":"음식점업 - 커피"}]},{"lat":"37.460489946","long":"127.02935322","items":[{"name":"양지","tel":"02-504-1933","addr":"경기도 과천시 별양동 1-17번지 과천타워 지층3호","category":"음식점업 - 한식"},{"name":"에덴동산어린이집[아이행복]","tel":"02-3679-3006","addr":"경기도 과천시 별양동 18-20번지 에덴동산어린이집 1층","category":"교육서비스업 - 어린이지"}]},{"lat":"37.447824739","long":"126.99788694","items":[{"name":"어썸팩토리과천독서실","tel":"02-502-1007","addr":"경기도 과천시 별양동 14번지 2층","category":"서비스 - 독서실"}]},{"lat":"37.428299546","long":"126.9912789","items":[{"name":"에나","tel":"02-503-1728","addr":"경기도 과천시 별양동 1-13번지 (주)동은유통 2동 246호","category":"소매업 - 의류"},{"name":"율목서적(주)","tel":"02-502-8484","addr":"경기도 과천시 별양동 1-15번지 호프호텔 1층","category":"도소매 - 서적"},{"name":"좋은세상","tel":"02-503-1545","addr":"경기도 과천시 별양동 1-3번지 제일상가 111호","category":"음식점업 - 기타주점"}]},{"lat":"37.426326698","long":"126.99569661","items":[{"name":"에덴동산어린이집[아이행복]","tel":"02-3679-3006","addr":"경기도 과천시 별양동 18-20번지 에덴동산어린이집 1층","category":"학원 - 유아원"}]},{"lat":"37.443743227","long":"127.00727778","items":[{"name":"에스타크","tel":"","addr":"경기도 과천시 별양동 1-18번지 새서울상가 2층 20호","category":"소매업 - 여성의류"}]},{"lat":"37.424461576","long":"126.99503024","items":[{"name":"에프","tel":"070-8723-4242","addr":"경기도 과천시 별양동 17번지 래미안슈르 346동 1503호","category":"의류 - 정장"},{"name":"오렌지헤어","tel":"02-3418-0451","addr":"경기도 과천시 별양동 1-18번지 새서울프라자 213호","category":"서비스 - 미용업"}]},{"lat":"37.454354254","long":"127.02883117","items":[{"name":"열린사회오픈스토어","tel":"","addr":"경기도 과천시 별양동 1-13번지 제일쇼핑 1층 141호","category":"도소매 - 캔들, 방향제"}]},{"lat":"37.435940626","long":"127.00341302","items":[{"name":"예림플라워","tel":"02-503-2255","addr":"경기도 과천시 별양동 1-13 109","category":"소매업 - 생화"}]},{"lat":"37.447968685","long":"126.99419151","items":[{"name":"옥스퍼드영어교습소","tel":"02-3679-0582","addr":"경기도 과천시 별양동 1-5번지 신라 상가 403호","category":"서비스 - 교습소"}]},{"lat":"37.446102261","long":"127.02277116","items":[{"name":"온누리건강나라약국","tel":"02-3418-6464","addr":"경기도 과천시 별양동 1-18번지 새서울프라자 1층 13호","category":"도소매 - 약국"}]},{"lat":"37.450996158","long":"126.99582987","items":[{"name":"온천골","tel":"02-502-5285","addr":"경기도 과천시 별양동 1-17번지 과천타워 108호","category":"음식점업 - 한식"}]},{"lat":"37.43774258","long":"126.99933394","items":[{"name":"올래맛집","tel":"02-502-0470","addr":"경기도 과천시 별양동 1-13번지 제일쇼핑 지하 106호","category":"음식점업 - 한식"}]},{"lat":"37.44885045","long":"127.0219469","items":[{"name":"욜로(YOLO)","tel":"02-504-8430","addr":"경기도 과천시 별양동 1-8번지 골든타워 1층 102호","category":"음식점업 - 일반음식"}]},{"lat":"37.460183662","long":"127.02910445","items":[{"name":"우리공인중개사사무소","tel":"02-507-0001","addr":"경기도 과천시 별양동 3번지 래미안센트럴스위트 상가동 102호","category":"부동산업 - 부동산중개업"}]},{"lat":"37.424885203","long":"126.99786587","items":[{"name":"우성패션","tel":"","addr":"경기도 과천시 별양동 48-6번지","category":"의류 - 정장"}]},{"lat":"37.449635537","long":"126.99419132","items":[{"name":"원죽","tel":"02-504-5525","addr":"경기도 과천시 별양동 1-18번지 새서울쇼핑 지하10-12","category":"음식점업 - 한식"}]},{"lat":"37.413694364","long":"126.99250111","items":[{"name":"위드","tel":"02-504-0173","addr":"경기도 과천시 별양동 1-18번지 새서울프라자 2층 17호","category":"소매업 - 의류"}]},{"lat":"37.4267499326","long":"126.9924993020","items":[{"name":"위드","tel":"02-504-0173","addr":"경기도 과천시 별양동 1-18새서울프라자시장사업협동조합23","category":"의류 - 정장"},{"name":"한마음(앤티앤스 프레젤)","tel":"02-503-4686","addr":"경기도 과천시 별양동 1-19번지 이마트과천점","category":"서비스 - 기타도급"}]},{"lat":"37.443770303","long":"126.99997777","items":[{"name":"유유이학원","tel":"02-507-6620","addr":"경기도 과천시 별양동 1-13번지 제일쇼핑 3층","category":"교육서비스업 - 보습학원"}]},{"lat":"37.451969449","long":"127.00299497","items":[{"name":"육대장","tel":"02-3679-1737","addr":"경기도 과천시 별양동 1-14번지 과천오피스텔 B02호","category":"음식점업 - 한식"}]},{"lat":"37.436580011","long":"126.99407984","items":[{"name":"이레","tel":"","addr":"경기도 과천시 별양동 1-18번지 새서울프라자2층 57호","category":"소매업 - 의류"}]},{"lat":"37.438886873","long":"127.00571815","items":[{"name":"이레헤어폼","tel":"02-503-5104","addr":"경기도 과천시 별양동 1-17번지 과천타워 1층 102호","category":"서비스 - 미용실"}]},{"lat":"37.45530127","long":"127.02397161","items":[{"name":"이바로","tel":"","addr":"경기도 과천시 별양동 1-13번지 제일쇼핑 지하1층 112호","category":"음식점업 - 분식"}]},{"lat":"37.429444391","long":"127.00236224","items":[{"name":"이제이 수학교습소","tel":"","addr":"경기도 과천시 별양동 1-13번지 제일쇼핑 3층 316호","category":"교육서비스업 - 수학"}]},{"lat":"37.457407382","long":"127.03405393","items":[{"name":"이헌영","tel":"02-502-8236","addr":"경기도 과천시 별양동 1-18번지 새서울프라자2층50호, 54호 2층","category":"도소매 - 여성의류"}]},{"lat":"37.411279738","long":"126.99335989","items":[{"name":"인#","tel":"02-502-3255","addr":"경기도 과천시 별양동 1-13번지 제일쇼핑 225호","category":"소매업 - 의류"}]},{"lat":"37.4267768895","long":"126.9916971560","items":[{"name":"인성참치","tel":"02-503-0235","addr":"경기도 과천시 별양동 1-17번지 과천타워 208호","category":"음식점업 - 한식"}]},{"lat":"37.446381663","long":"127.0222175","items":[{"name":"일조","tel":"02-504-5655","addr":"경기도 과천시 별양동 1-17번지 과천타워 210호","category":"음식점업 - 일식"}]},{"lat":"37.42263258","long":"127.01005565","items":[{"name":"임동균안과의원","tel":"02-502-1919","addr":"경기도 과천시 별양동 1-10번지 렉스타운 409호","category":"보건업 - 안과"}]},{"lat":"37.414576403","long":"126.98467289","items":[{"name":"자매순대국","tel":"02-503-0770","addr":"경기도 과천시 별양동 1-7번지 백두상가 1층 102호 백두성가","category":"음식점업 - 순대국"}]},{"lat":"37.429299707","long":"126.99175327","items":[{"name":"자뭉","tel":"","addr":"경기도 과천시 별양동 1-18번지 새서울프라자 2층 12호","category":"소매업 - 숙녀복"},{"name":"푸른한의원","tel":"02-504-1777","addr":"경기도 과천시 별양동 1-13번지 제일쇼핑 324호~327호","category":"서비스 - 한의원"}]},{"lat":"37.449410553","long":"126.99931078","items":[{"name":"자연빛깔(과천점)","tel":"","addr":"경기도 과천시 별양동 1-17번지 과천타워 B06호","category":"서비스 - 미용실"}]},{"lat":"37.428525364","long":"127.0037745","items":[{"name":"장샘기타교습소","tel":"","addr":"경기도 과천시 별양동 7번지 주공아파트 208호","category":"교육서비스업 - 음악교습"}]},{"lat":"37.451104452","long":"126.99992098","items":[{"name":"정금주한복연구실","tel":"02-503-0845","addr":"경기도 과천시 별양동 1-18번지 새서울프라자2층14호, 62호","category":"소매업 - 한복대여, 맞춤"}]},{"lat":"37.415693514","long":"126.98380282","items":[{"name":"정라진곰치국","tel":"02-503-3269","addr":"경기도 과천시 별양동 1-13번지 제일쇼핑 지하 116,117호","category":"음식점업 - 한식"}]},{"lat":"37.439247055","long":"126.99516429","items":[{"name":"정선문내과의원","tel":"02-502-8549","addr":"경기도 과천시 별양동 1-20번지 유니온빌딩 2층","category":"보건업 - 내과"}]},{"lat":"37.429408334","long":"127.00494952","items":[{"name":"정원","tel":"02-507-4035","addr":"경기도 과천시 별양동 1-13번지 제일쇼핑 124호","category":"소매업 - 잡화"}]},{"lat":"37.412829613","long":"126.99533644","items":[{"name":"제인","tel":"02-507-6824","addr":"경기도 과천시 별양동 1-18번지 새서울프라자2층 58호","category":"소매업 - 잡화"}]},{"lat":"37.454239962","long":"127.00144661","items":[{"name":"제일진미식당","tel":"02-503-5034","addr":"경기도 과천시 별양동 1-13번지 제일쇼핑 지하1층 13호","category":"음식점업 - 분식"}]},{"lat":"37.433796229","long":"127.00131142","items":[{"name":"조선생에듀학원","tel":"02-504-5001","addr":"경기도 과천시 별양동 1-14번지 과천오피스텔 3층B호","category":"교육서비스업 - 일반교과학원"}]},{"lat":"37.457210597","long":"127.02802969","items":[{"name":"조성천치과","tel":"02-502-2097","addr":"경기도 과천시 별양동 13번지 병원상가 204호","category":"보건업 - 치과"}]},{"lat":"37.437769622","long":"126.99977461","items":[{"name":"조앤","tel":"02-507-1857","addr":"경기도 과천시 별양동 1-13번지 제일쇼핑 2층 234호","category":"소매업 - 의류"}]},{"lat":"37.424632803","long":"127.01019141","items":[{"name":"조이팝PC(과천점)","tel":"02-504-6720","addr":"경기도 과천시 별양동 1-8번지 골든타워 지하 101호","category":"서비스 - PC방"}]},{"lat":"37.428777228","long":"126.99291705","items":[{"name":"주식회사율목관리","tel":"02-3679-3292","addr":"경기도 과천시 별양동 1-2번지 과천주유소 203호","category":"용역 서비스 - 종합용역"}]},{"lat":"37.461877582","long":"127.02891289","items":[{"name":"중앙문구","tel":"02-504-3064","addr":"경기도 과천시 별양동 1-18, 새서을프라자1층40","category":"소매업 - 문구"}]},{"lat":"37.420389232","long":"126.99905234","items":[{"name":"쥬네브","tel":"02-3678-8115","addr":"경기도 과천시 별양동 1-13번지 제일쇼핑 1층 142호~143호","category":"도소매 - 귀금속"}]},{"lat":"37.450104174","long":"126.99594296","items":[{"name":"즐거운스즈키음악학원","tel":"02-503-6336","addr":"경기도 과천시 별양동 1-14, 과천오피스텔3층C-1호,C-2호일부","category":"교육서비스업 - 음악학원"}]},{"lat":"37.435805412","long":"126.99897245","items":[{"name":"참예음음악학원","tel":"02-504-2911","addr":"경기도 과천시 별양동 15번지 3층","category":"교육서비스업 - 피아노"}]},{"lat":"37.424020159","long":"126.9962504","items":[{"name":"천사어린이집[아이행복]","tel":"02-503-2146","addr":"경기도 과천시 별양동 38-6번지","category":"학원 - 유아원"}]},{"lat":"37.45143574","long":"127.0252702","items":[{"name":"천상의꽃집","tel":"","addr":"경기도 과천시 별양동 1-13번지 제일쇼핑 3층 301호","category":"서비스 - 꽃다발"}]},{"lat":"37.447905725","long":"126.99583016","items":[{"name":"청양서예원","tel":"02-504-5855","addr":"경기도 과천시 별양동 1-13번지 제일쇼핑 318호","category":"교육서비스업 - 서예"}]},{"lat":"37.460435696","long":"127.03018961","items":[{"name":"초록마을과천점","tel":"02-502-5200","addr":"경기도 과천시 별양동 1-5번지 신라 상가 102호","category":"소매업 - 슈퍼"}]},{"lat":"37.428678279","long":"126.9950524","items":[{"name":"초스젠(cho's zen)","tel":"02-3418-5558","addr":"경기도 과천시 별양동 6 주공A 504-1305","category":"회원제형태 - 기타4"}]},{"lat":"37.456661373","long":"127.02614203","items":[{"name":"커브스","tel":"02-503-1330","addr":"경기도 과천시 별양동 1-18번지 새서울쇼핑 3층","category":"서비스 - 체력단련시설"}]},{"lat":"37.4244615762","long":"126.9950302426","items":[{"name":"케이투정보통신","tel":"02-1800-3645","addr":"경기도 과천시 별양동 17번지 레미안슈르 346동 404호","category":"수리서비스 - 사무·통신기기수리"}]},{"lat":"37.425713662","long":"126.99125671","items":[{"name":"코오롱어린이집[아이행복]","tel":"02-3677-5501","addr":"경기도 과천시 별양동 1-22번지","category":"학원 - 유아원"}]},{"lat":"37.444662306","long":"127.00049756","items":[{"name":"콩지&팥지","tel":"02-504-5224","addr":"경기도 과천시 별양동 7-1번지 1층 104호","category":"음식점업 - 휴게음식"}]},{"lat":"37.452885568","long":"127.0290793","items":[{"name":"크리스마스자몽","tel":"070-8115-1224","addr":"경기도 과천시 별양동 7-1번지 105호","category":"음식점업 - 휴게음식"}]},{"lat":"37.45321283","long":"127.00263332","items":[{"name":"킹콩드립","tel":"","addr":"경기도 과천시 별양동 1-3번지 별양 제3층 5호,6호 3층","category":"음식점업 - 카페"}]},{"lat":"37.456273135","long":"127.02993945","items":[{"name":"타샤의책방","tel":"02-502-5343","addr":"경기도 과천시 별양동 1-5번지 신라상가 3층(305호306호)","category":"도소매 - 도서"}]},{"lat":"37.450023222","long":"126.99894911","items":[{"name":"탑이비인후과의원","tel":"02-3477-2402","addr":"경기도 과천시 별양동 1-17번지 과천타워 307호","category":"보건업 - 이비인후과"}]},{"lat":"37.426380844","long":"126.99727829","items":[{"name":"태희통상","tel":"070-4234-1050","addr":"경기도 과천시 별양동 27-5번지 지층 1호","category":"음료식품 - 기타음료식품"}]},{"lat":"37.42699233","long":"126.98515569","items":[{"name":"택이네조개전골","tel":"02-504-5722","addr":"경기도 과천시 별양동 1-10번지 렉스타운 2층 201호","category":"음식점업 - 한식"}]},{"lat":"37.457327493","long":"127.02910346","items":[{"name":"토이토핑 슬라임 과천점","tel":"02-3679-1100","addr":"경기도 과천시 별양동 1-20번지 유니온빌딩 지하1층 6호","category":"서비스 - 슬라잉체험"}]},{"lat":"37.4248041","long":"126.99758344","items":[{"name":"팀메이커","tel":"02-503-5560","addr":"경기도 과천시 별양동 47-2번지","category":"의류 - 정장"}]},{"lat":"37.416494835","long":"126.98052671","items":[{"name":"파랑","tel":"02-502-8386","addr":"경기도 과천시 별양동 1-18번지 새서울프라자 1층 59호","category":"소매업 - 의류"}]},{"lat":"37.454995475","long":"127.02066003","items":[{"name":"파리바게뜨(과천새서울쇼핑점)","tel":"02-503-6669","addr":"경기도 과천시 별양동 1-18, 새서울쇼핑1층14호~17호","category":"음식점업 - 제과점"}]},{"lat":"37.428831122","long":"126.99110935","items":[{"name":"팔팔문구","tel":"02-502-3376","addr":"경기도 과천시 별양동 1-13번지 제일쇼핑 112호","category":"소매업 - 문구"},{"name":"황가네분식","tel":"02-507-1331","addr":"경기도 과천시 별양동 1-18번지 새서울쇼핑지하 50","category":"음식점업 - 분식"}]},{"lat":"37.450104033","long":"126.99386353","items":[{"name":"팩토리지","tel":"","addr":"경기도 과천시 별양동 1-18번지 새서울프라자 3층 62,63호","category":"소매업 - 가방"}]},{"lat":"37.458742595","long":"127.02658347","items":[{"name":"퍼스트정형외과의원","tel":"02-504-8874","addr":"경기도 과천시 별양동 1-19번지 8층","category":"보건업 - 정형외과"}]},{"lat":"37.456516379","long":"127.03005256","items":[{"name":"피자마루(과천점)","tel":"02-3679-1082~3","addr":"경기도 과천시 별양동 1-13번지 제일쇼핑 108호","category":"음식점업 - 피자"}]},{"lat":"37.453627282","long":"127.00146923","items":[{"name":"하양까망","tel":"02-504-0304","addr":"경기도 과천시 별양동 1-18번지 새서울프라자2층 14호","category":"소매업 - 의류"}]},{"lat":"37.448077026","long":"126.99803383","items":[{"name":"하카전자담배 과천점","tel":"070-4103-1188","addr":"경기도 과천시 별양동 1-13번지 제일쇼핑 1층 132호","category":"소매업 - 담배"}]},{"lat":"37.4279392943","long":"126.9929171619","items":[{"name":"행복한밥상춘(春)","tel":"02-504-3353","addr":"경기도 과천시 별양동 1-11번지 벽산 상가 지하 9호","category":"음식점업 - 한식"}]},{"lat":"37.429876627","long":"126.99525564","items":[{"name":"헤르세","tel":"02-3679-5208","addr":"경기도 과천시 별양동 1-13번지 제일쇼핑 232호","category":"소매업 - 악세서리"}]},{"lat":"37.423389588","long":"126.99933461","items":[{"name":"헤어살롱 숲","tel":"02-502-8444","addr":"경기도 과천시 별양동 1-14번지 과천오피스텔 2층 A-2호","category":"서비스 - 미용"}]},{"lat":"37.452273112","long":"127.02805064","items":[{"name":"헬로로지","tel":"02-3418-8142","addr":"경기도 과천시 별양동 1-18번지 새서울프라자 1층 22호","category":"음식점업 - 꽃차"}]},{"lat":"37.451636067","long":"127.00122063","items":[{"name":"현장식당","tel":"02-503-0338","addr":"경기도 과천시 별양동 14번지 지하층 비3호","category":"음식점업 - 일반음식"}]},{"lat":"37.461939718","long":"127.03285768","items":[{"name":"홍어와 탁주","tel":"02-502-7944","addr":"경기도 과천시 별양동 1-17번지 과천타워 지하5","category":"음식점업 - 간이음식점"}]},{"lat":"37.424939272","long":"126.99808052","items":[{"name":"화인","tel":"02-503-3167","addr":"경기도 과천시 별양동 48-4번지","category":"신변잡화 - 신발"}]},{"lat":"37.459246207","long":"127.03091255","items":[{"name":"황금장","tel":"02-502-3358","addr":"경기도 과천시 별양동 1-18번지 새서울쇼핑 1층 19호","category":"소매업 - 귀금속"}]}]