[{"lat":"37.558377572","long":"127.30146296","items":[{"name":"(주)다현유통","tel":"031-576-9998","addr":"경기도 남양주시 조안면 진중리 459-4번지","category":"음료식품 - 농·축·수산품"}]},{"lat":"37.551650274","long":"127.30733205","items":[{"name":"경기건설중기","tel":"070-5444-9874","addr":"경기도 남양주시 조안면 진중리 252-9번지","category":"기타 - 기계공구"},{"name":"다보록","tel":"031-576-6637","addr":"경기도 남양주시 조안면 진중리 252-9번지","category":"일반휴게음식 - 일반한식"}]},{"lat":"37.554178428","long":"127.31218598","items":[{"name":"나루터집","tel":"031-577-0955","addr":"경기도 남양주시 조안면 진중리 222-9번지","category":"음료식품 - 농·축·수산품"}]},{"lat":"37.566152104","long":"127.28347452","items":[{"name":"늘해랑","tel":"031-523-2034","addr":"경기도 남양주시 조안면 진중리 510-8번지 1층","category":"음료식품 - 기타음료식품"}]},{"lat":"37.550676494","long":"127.307611","items":[{"name":"돌미나리집","tel":"031-576-8934","addr":"경기도 남양주시 조안면 진중리 348-10번지","category":"음료식품 - 기타음료식품"}]},{"lat":"37.560434068","long":"127.31110268","items":[{"name":"두물장어","tel":"031-576-8727","addr":"경기도 남양주시 조안면 진중리 26-8번지 1층","category":"일반휴게음식 - 일반한식"}]},{"lat":"37.551434915","long":"127.30699167","items":[{"name":"딸기랑소무나숲길한림하눌타리농원","tel":"031-576-9289","addr":"경기도 남양주시 조안면 진중리 350-8번지","category":"음료식품 - 농·축·수산품"}]},{"lat":"37.56145688","long":"127.31274801","items":[{"name":"또순이네청과","tel":"031-576-7835","addr":"경기도 남양주시 조안면 진중리 70-1","category":"음료식품 - 농·축·수산품"}]},{"lat":"37.550733205","long":"127.30658143","items":[{"name":"마뜰 딸기농장","tel":"031-576-6577","addr":"경기도 남양주시 조안면 진중리 360번지","category":"음료식품 - 농·축·수산품"}]},{"lat":"37.558988101","long":"127.30933117","items":[{"name":"물의정원 장어마당","tel":"031-111-1111","addr":"경기도 남양주시 조안면 진중리 170-1번지 A동 1층","category":"일반휴게음식 - 일반한식"}]},{"lat":"37.553320962","long":"127.31277091","items":[{"name":"밝은광장바이크카페","tel":"031-577-7795","addr":"경기도 남양주시 조안면 진중리 303-8","category":"레져용품 - 스포츠·레져용품"}]},{"lat":"37.553511116","long":"127.31240956","items":[{"name":"밝은광장바이크카페","tel":"031-577-7795","addr":"경기도 남양주시 조안면 진중리 284-3번지","category":"음료식품 - 기타음료식품"}]},{"lat":"37.560876836","long":"127.31404717","items":[{"name":"상록공방","tel":"","addr":"경기도 남양주시 조안면 진중리 73-1","category":"문화.취미 - 문화취미기타"}]},{"lat":"37.555262287","long":"127.3111606","items":[{"name":"씨스페이스 운길산점","tel":"","addr":"경기도 남양주시 조안면 진중리 222-15번지","category":"유통업 영리 - 편 의 점"}]},{"lat":"37.574312393","long":"127.26902686","items":[{"name":"오성암","tel":"031-1111-1111","addr":"경기도 남양주시 조안면 진중리 578-2번지","category":"보건위생 - 기타대인서비스"}]},{"lat":"37.554068091","long":"127.30958263","items":[{"name":"운길산자전거","tel":"031-577-7848","addr":"경기도 남양주시 조안면 진중리 261-2번지","category":"레져용품 - 스포츠·레져용품"}]},{"lat":"37.550677807","long":"127.30710176","items":[{"name":"운길산장어","tel":"031-576-9998","addr":"경기도 남양주시 조안면 진중리 362-1번지","category":"음료식품 - 농·축·수산품"}]},{"lat":"37.55254448","long":"127.3064643","items":[{"name":"운길산체험농장","tel":"031-576-8869","addr":"경기도 남양주시 조안면 진중리 산5-8번지","category":"학원 - 기타 교육기관"}]},{"lat":"37.56109444","long":"127.31352745","items":[{"name":"주식회사 해진유통","tel":"031-111-1111","addr":"경기도 남양주시 조안면 진중리 72번지","category":"음료식품 - 농·축·수산품"}]},{"lat":"37.554655748","long":"127.30880417","items":[{"name":"진중리공판장","tel":"031-576-7795","addr":"경기도 남양주시 조안면 진중리 260-1","category":"유통업 영리 - 슈퍼마켓"}]},{"lat":"37.553877239","long":"127.3102156","items":[{"name":"카페플러워","tel":"031-557-7957","addr":"경기도 남양주시 조안면 진중리 270번지","category":"음료식품 - 기타음료식품"}]},{"lat":"37.556120452","long":"127.31030403","items":[{"name":"풍경","tel":"031-576-8825","addr":"경기도 남양주시 조안면 진중리 140-2번지 1층 일부","category":"일반휴게음식 - 일반한식"}]},{"lat":"37.554266892","long":"127.30935711","items":[{"name":"한강어부","tel":"031-577-5667","addr":"경기도 남양주시 조안면 진중리 261-6번지","category":"음료식품 - 농·축·수산품"}]},{"lat":"37.554318715","long":"127.31021741","items":[{"name":"한사랑 농장","tel":"031-576-8308","addr":"경기도 남양주시 조안면 진중리 229-1번지 운길산역","category":"음료식품 - 농·축·수산품"}]},{"lat":"37.552347971","long":"127.31274425","items":[{"name":"함께하는시인들 시문화연구회","tel":"070-8635-5209","addr":"경기도 남양주시 조안면 진중리 315번지 북한강철교초소쉼터","category":"유통업 영리 - 편 의 점"}]}]