[{"lat":"37.277242743","long":"127.45362583","items":[{"name":"2도비어","tel":"031-638-7307","addr":"경기도 이천시 안흥동 307-7번지 브라운스톤이천 상가동 104호","category":"일반휴게음식 - 주점"},{"name":"ONYOU","tel":"","addr":"경기도 이천시 안흥동 307-7번지 브라운스톤이천 상가동 103호","category":"레저업소 - 헬스클럽"},{"name":"RiuRiu (리우리우)","tel":"070-8031-4038","addr":"경기도 이천시 안흥동 307-7번지 브라운스톤이천 103동 13층 3호","category":"의류 - 아동의류"},{"name":"과일팜","tel":"","addr":"경기도 이천시 안흥동 307-7번지 브라운스톤 상가동 105호","category":"음료식품 - 농·축·수산품"},{"name":"금강한식부페","tel":"031-635-2248","addr":"경기도 이천시 안흥동 307-7번지 브라운스톤이천 1층 116호,117호","category":"일반휴게음식 - 일반한식"},{"name":"돌판에앉은","tel":"031-632-2744","addr":"경기도 이천시 안흥동 307-7번지 브라운스톤 상가동 1층 113호","category":"일반휴게음식 - 일반한식"},{"name":"마약생고기","tel":"031-694-0665","addr":"경기도 이천시 안흥동 307-7번지 브라운스톤 상가동 107,108호","category":"일반휴게음식 - 일반한식"},{"name":"쁘띠헤어샵","tel":"070-8834-7000","addr":"경기도 이천시 안흥동 307-7번지 브라운스톤이천 상가동 101호","category":"보건위생 - 미용원"},{"name":"성군","tel":"031-638-5558","addr":"경기도 이천시 안흥동 307-7번지 브라운스톤이천 114호","category":"음료식품 - 농·축·수산품"},{"name":"월드크리닝 이천브라운스톤점","tel":"031-633-8457","addr":"경기도 이천시 안흥동 307-7번지 브라운스톤이천 상가동 106호","category":"수리서비스 - 세탁소"},{"name":"이천열쇠 더락","tel":"031-638-1308","addr":"경기도 이천시 안흥동 307-7번지 브라운스톤이천 103동 701호","category":"수리서비스 - 기타수리서비스"},{"name":"주식회사 케이스메이커","tel":"031-633-8842","addr":"경기도 이천시 안흥동 307-7번지 브라운스톤 103동 803호","category":"기타 - 기계공구"},{"name":"테이블제이돈가스","tel":"070-4177-0206","addr":"경기도 이천시 안흥동 307-7번지 브라운스톤이천 114호","category":"일반휴게음식 - 서양음식"},{"name":"핏보스디테일링샵","tel":"031-636-8055","addr":"경기도 이천시 안흥동 307-7번지 브라운스톤 101동 112호","category":"자동차정비 유지 - 세차장"},{"name":"핸디맨닥터","tel":"031-636-2992","addr":"경기도 이천시 안흥동 307-7번지 브라운스톤 상가동 1층 102호","category":"건축자재 - 인테리어전문"}]},{"lat":"37.274581012","long":"127.45460215","items":[{"name":"365스마트의원","tel":"031-635-0365","addr":"경기도 이천시 안흥동 474번지 롯데캐슬골드스카이 4층","category":"의원 - 의원"},{"name":"365열린약국","tel":"031-637-7328","addr":"경기도 이천시 안흥동 474번지 롯데캐슬골드스카이 2층","category":"약국 - 약국"},{"name":"가마솥국밥 보쌈","tel":"","addr":"경기도 이천시 안흥동 474번지 롯데캐슬골드스카이","category":"일반휴게음식 - 일반한식"},{"name":"가츠린 야끼텐 이천점","tel":"02-6242-3341","addr":"경기도 이천시 안흥동 474번지 롯데캐슬골드스카이 1층","category":"일반휴게음식 - 일반한식"},{"name":"도쿄이찌바 이천점","tel":"031-632-5311","addr":"경기도 이천시 안흥동 474번지 롯데캐슬골드스카이","category":"일반휴게음식 - 일식·회집"},{"name":"두리네폰가게","tel":"031-000-0000","addr":"경기도 이천시 안흥동 474번지 롯데마트 1층","category":"사무통신 - 통신기기"},{"name":"디지털 노리파크 안흥점","tel":"031-638-4944","addr":"경기도 이천시 안흥동 474번지 롯데캐슬골드스카이 1층","category":"일반휴게음식 - 서양음식"},{"name":"롯데캐슬골프","tel":"031-111-1111","addr":"경기도 이천시 안흥동 474번지 롯데캐슬골드스카이 104동 1603호","category":"레저업소 - 골프연습장"},{"name":"맘스터치 이천롯데마트점","tel":"031-638-6600","addr":"경기도 이천시 안흥동 474번지 롯데캐슬골드스카이 1층","category":"일반휴게음식 - 서양음식"},{"name":"미미짬뽕","tel":"","addr":"경기도 이천시 안흥동 474번지 롯데캐슬골드스카이","category":"일반휴게음식 - 중국식"},{"name":"북촌손만두 롯데마트이천점","tel":"031-000-0000","addr":"경기도 이천시 안흥동 474번지 롯데캐슬골드스카이","category":"일반휴게음식 - 일반한식"},{"name":"뷰티호델277","tel":"031-634-3722","addr":"경기도 이천시 안흥동 474번지 롯데캐슬골드스카이 1층 109호","category":"보건위생 - 화장품"},{"name":"세븐일레븐이천롯데캐슬점","tel":"031-1577-0711","addr":"경기도 이천시 안흥동 474번지 이천롯데캐슬골드스카이 115호","category":"유통업 영리 - 편 의 점"},{"name":"신짜오","tel":"031-000-0000","addr":"경기도 이천시 안흥동 474번지 롯데캐슬골드스카이 1층","category":"일반휴게음식 - 일반한식"},{"name":"아메리칸에그샌드","tel":"","addr":"경기도 이천시 안흥동 474번지 롯데캐슬골드스카이 1층","category":"일반휴게음식 - 서양음식"},{"name":"오토오아시스 이천안흥점","tel":"031-634-2031","addr":"경기도 이천시 안흥동 474번지 롯데캐슬골드스카이 2층 주차장","category":"자동차정비 유지 - 세차장"},{"name":"오토오아시스 이천안흥점","tel":"031-8011-2500","addr":"경기도 이천시 안흥동 474번지 롯데캐슬골드스카이 2층 주차장","category":"자동차정비 유지 - 자동차정비"},{"name":"와이케이 모바일","tel":"031-000-0000","addr":"경기도 이천시 안흥동 474번지 롯데캐슬골드스카이 1층","category":"사무통신 - 통신기기"},{"name":"이디야커피","tel":"031-1111-1111","addr":"경기도 이천시 안흥동 474번지 롯데캐슬골드스카이 1층","category":"일반휴게음식 - 서양음식"},{"name":"이천롯데마트 씨채널안경","tel":"031-631-4981","addr":"경기도 이천시 안흥동 474번지 롯데캐슬골드스카이","category":"보건위생 - 안경"},{"name":"크린토피아","tel":"031-636-4561","addr":"경기도 이천시 안흥동 474번지 롯데캐슬골드스카이 3층","category":"수리서비스 - 세탁소"}]},{"lat":"37.275801892","long":"127.45104652","items":[{"name":"GS25이천미란다점","tel":"","addr":"경기도 이천시 안흥동 408-1번지 바이오피드백호텔미란다 1층","category":"유통업 영리 - 편 의 점"},{"name":"미란다볼링장","tel":"031-639-5133","addr":"경기도 이천시 안흥동 408-1번지 지하1층","category":"레저업소 - 볼 링 장"},{"name":"커피프레도","tel":"00-0000-0000","addr":"경기도 이천시 안흥동 408-1번지 A동 1층","category":"일반휴게음식 - 서양음식"}]},{"lat":"37.277297421","long":"127.45582484","items":[{"name":"So랄라헤어","tel":"031-637-6764","addr":"경기도 이천시 안흥동 300-1번지 제상가-103","category":"보건위생 - 미용원"}]},{"lat":"37.281130588","long":"127.4548217","items":[{"name":"TGS이천센터","tel":"031-631-3522","addr":"경기도 이천시 안흥동 353-12번지","category":"사무통신 - 컴퓨터"},{"name":"삼성네트워크","tel":"031-631-9492","addr":"경기도 이천시 안흥동 353-12번지","category":"사무통신 - 컴퓨터"},{"name":"에이봄","tel":"","addr":"경기도 이천시 안흥동 353-12번지","category":"일반휴게음식 - 서양음식"}]},{"lat":"37.281050574","long":"127.45453933","items":[{"name":"가네머리터","tel":"031-637-3736","addr":"경기도 이천시 안흥동 354-1번지","category":"보건위생 - 미용원"}]},{"lat":"37.275360287","long":"127.45815844","items":[{"name":"간판연구소","tel":"031-636-2248","addr":"경기도 이천시 안흥동 211번지","category":"용역 서비스 - 종합용역"},{"name":"카페인아","tel":"031-0000-0000","addr":"경기도 이천시 안흥동 211번지","category":"일반휴게음식 - 서양음식"}]},{"lat":"37.280684946","long":"127.45354487","items":[{"name":"경화플라워","tel":"031-635-5442","addr":"경기도 이천시 안흥동 356-4번지","category":"문화.취미 - 화원"}]},{"lat":"37.280577255","long":"127.45343147","items":[{"name":"골든자동차공업사","tel":"031-633-9450","addr":"경기도 이천시 안흥동 358번지","category":"자동차정비 유지 - 자동차정비"}]},{"lat":"37.28093744","long":"127.45349","items":[{"name":"공원편의점","tel":"031-641-5597","addr":"경기도 이천시 안흥동 356-5번지","category":"유통업 영리 - 슈퍼마켓"}]},{"lat":"37.276082517","long":"127.45779071","items":[{"name":"구만리숯불고기마을","tel":"031-633-0673","addr":"경기도 이천시 안흥동 210-1번지","category":"일반휴게음식 - 일반한식"}]},{"lat":"37.281104203","long":"127.45465241","items":[{"name":"남강서적","tel":"031-637-2337","addr":"경기도 이천시 안흥동 353-1번지","category":"서적문구 - 일반서적"},{"name":"루시몽","tel":"031-632-0779","addr":"경기도 이천시 안흥동 353-1번지 1층","category":"문화.취미 - 애완동물"}]},{"lat":"37.280136486","long":"127.46493009","items":[{"name":"남일도기","tel":"031-633-8266","addr":"경기도 이천시 안흥동 119-5","category":"건축자재 - 건축용 요업제품"},{"name":"법무사김상만사무소","tel":"031-635-7132","addr":"경기도 이천시 안흥동 119-5","category":"용역 서비스 - 법률회계서비스(개인)"},{"name":"법무사김영우사무소","tel":"031-633-1800","addr":"경기도 이천시 안흥동 119-5번지","category":"용역 서비스 - 법률회계서비스(개인)"}]},{"lat":"37.277161904","long":"127.46060475","items":[{"name":"남일벽지","tel":"031-635-3821","addr":"경기도 이천시 안흥동 183-1번지","category":"직물 - 카페트,커튼,천막,지물"}]},{"lat":"37.280274424","long":"127.45487296","items":[{"name":"니드위드","tel":"031-0000-0000","addr":"경기도 이천시 안흥동 353-3번지","category":"건강식품 - 기타건강식품"},{"name":"아랑화실","tel":"031-000-0000","addr":"경기도 이천시 안흥동 353-3번지 1층","category":"문화.취미 - 문화취미기타"}]},{"lat":"37.279330203","long":"127.46374122","items":[{"name":"다사랑의료기기협동조합","tel":"031-637-1372","addr":"경기도 이천시 안흥동 122번지","category":"보건위생 - 의료용품"},{"name":"다사랑의료기협동조합","tel":"031-637-1372","addr":"경기도 이천시 안흥동 122번지","category":"보건위생 - 의료용품"},{"name":"보장구 수리센타","tel":"031-634-8085","addr":"경기도 이천시 안흥동 122번지","category":"기타 - 기계공구"}]},{"lat":"37.279437708","long":"127.46389973","items":[{"name":"대승기계공구","tel":"031-635-0985","addr":"경기도 이천시 안흥동 122-2번지","category":"기타 - 기계공구"}]},{"lat":"37.278132197","long":"127.45429638","items":[{"name":"더글램뷰티&네일","tel":"","addr":"경기도 이천시 안흥동 392-1번지 삼보빌딩 103호","category":"보건위생 - 피부미용실"},{"name":"영범유통","tel":"031-632-0356","addr":"경기도 이천시 안흥동 392-1번지 삼보빌딩 301호","category":"서적문구 - 문구용품"},{"name":"화담(픽미픽미아이스안흥점)","tel":"","addr":"경기도 이천시 안흥동 392-1번지 삼보빌딩","category":"유통업 영리 - 편 의 점"}]},{"lat":"37.279858457","long":"127.45526512","items":[{"name":"데이데이샵","tel":"031-631-6852","addr":"경기도 이천시 안흥동 346-10번지","category":"보건위생 - 미용원"}]},{"lat":"37.278301589","long":"127.46179557","items":[{"name":"로뎅","tel":"031-631-8098","addr":"경기도 이천시 안흥동 470-2번지 안흥주공프라자 2층 204호","category":"일반휴게음식 - 주점"},{"name":"리마주헤어샵","tel":"031-638-5226","addr":"경기도 이천시 안흥동 470-2번지 주공프라자상가 202호","category":"보건위생 - 미용원"},{"name":"멕시카나(이천중앙점)","tel":"031-631-9945","addr":"경기도 이천시 안흥동 470-2번지","category":"일반휴게음식 - 스넥"},{"name":"별이공방","tel":"031-631-9897","addr":"경기도 이천시 안흥동 470-2번지","category":"문화.취미 - 화랑"},{"name":"서기숙조형예술연구소","tel":"031-631-9897","addr":"경기도 이천시 안흥동 470-2번지 안흥주공프라자 302호","category":"문화.취미 - 화랑"},{"name":"월드크리닝","tel":"031-635-9977","addr":"경기도 이천시 안흥동 470-2번지 주공아파트 1층 101호","category":"수리서비스 - 세탁소"},{"name":"주공뚝배기감자탕","tel":"031-634-4788","addr":"경기도 이천시 안흥동 470-2번지 안흥주공프라자","category":"일반휴게음식 - 일반한식"},{"name":"현 S 헤어","tel":"031-634-1188","addr":"경기도 이천시 안흥동 470-2번지 안흥주공프라자 1층 104호","category":"보건위생 - 미용원"}]},{"lat":"37.277464383","long":"127.45457428","items":[{"name":"로로살롱","tel":"031-635-1301","addr":"경기도 이천시 안흥동 305-2번지","category":"보건위생 - 피부미용실"},{"name":"온정손만두","tel":"031-638-2282","addr":"경기도 이천시 안흥동 305-2번지 온정빌딩","category":"일반휴게음식 - 일반한식"},{"name":"프리스실라 이천꽃학원","tel":"031-000-0000","addr":"경기도 이천시 안흥동 305-2번지","category":"학원 - 기능학원"},{"name":"헤어트윈","tel":"031-631-2279","addr":"경기도 이천시 안흥동 305-2번지 온정빌딩 1층","category":"보건위생 - 미용원"},{"name":"헬로요미키즈카페","tel":"031-633-5211","addr":"경기도 이천시 안흥동 305-2번지","category":"일반휴게음식 - 서양음식"}]},{"lat":"37.280743976","long":"127.45460515","items":[{"name":"버블맨24안흥점","tel":"031-635-6380","addr":"경기도 이천시 안흥동 354-5번지 102호","category":"수리서비스 - 세탁소"},{"name":"이천보육사","tel":"031-635-6380","addr":"경기도 이천시 안흥동 354-5번지 보육사","category":"서적문구 - 문구용품"}]},{"lat":"37.279993163","long":"127.46471497","items":[{"name":"법무사 김석준사무소","tel":"03-634-0078","addr":"경기도 이천시 안흥동 119-6번지 1층 101호","category":"용역 서비스 - 법률회계서비스(개인)"},{"name":"법무사김도주사무소","tel":"031-633-8877","addr":"경기도 이천시 안흥동 119-6 3","category":"용역 서비스 - 법률회계서비스(개인)"},{"name":"세무사 한승일 사무소","tel":"031-633-6375","addr":"경기도 이천시 안흥동 119-6번지 1동","category":"용역 서비스 - 법률회계서비스(개인)"}]},{"lat":"37.279442806","long":"127.4649033","items":[{"name":"법무사이성범사무소","tel":"031-633-6338","addr":"경기도 이천시 안흥동 115-2번지","category":"용역 서비스 - 법률회계서비스(개인)"},{"name":"법무사최종성사무소","tel":"031-634-6693","addr":"경기도 이천시 안흥동 115-2번지","category":"용역 서비스 - 법률회계서비스(개인)"},{"name":"스팀맨 이천점","tel":"031-631-6312","addr":"경기도 이천시 안흥동 115-2번지 101호","category":"자동차정비 유지 - 세차장"},{"name":"좋은카용품","tel":"031-637-2006","addr":"경기도 이천시 안흥동 115-2번지","category":"자동차정비 유지 - 자동차부품"}]},{"lat":"37.277134778","long":"127.45829315","items":[{"name":"상지자동차","tel":"031-634-1488","addr":"경기도 이천시 안흥동 170-1번지","category":"자동차정비 유지 - 자동차정비"}]},{"lat":"37.277273682","long":"127.4596583","items":[{"name":"서광종합건설공구","tel":"031-637-0985","addr":"경기도 이천시 안흥동 168-3번지","category":"기타 - 기계공구"},{"name":"이천나염","tel":"031-635-0911","addr":"경기도 이천시 안흥동 168-3번지","category":"기타 - 기타 전문점"}]},{"lat":"37.277943288","long":"127.45421633","items":[{"name":"서림문구,슈퍼","tel":"031-633-9962","addr":"경기도 이천시 안흥동 393-1번지 1층","category":"유통업 영리 - 슈퍼마켓"}]},{"lat":"37.276691576","long":"127.45166065","items":[{"name":"설봉식당 (담소반)","tel":"031-631-0554","addr":"경기도 이천시 안흥동 317-2번지","category":"일반휴게음식 - 일반한식"},{"name":"안흥상회","tel":"031-632-8111","addr":"경기도 이천시 안흥동 317-2번지 설봉온천 1층 여탕","category":"음료식품 - 기타음료식품"},{"name":"청정안 피부관리실","tel":"031-636-8382","addr":"경기도 이천시 안흥동 317-2번지 (주)이천설봉온천","category":"보건위생 - 피부미용실"},{"name":"컬리브라운 이천롯데마트점","tel":"031-631-3359","addr":"경기도 이천시 안흥동 317-2번지 롯데마트 3층","category":"보건위생 - 미용원"},{"name":"포지타노","tel":"031-631-0554","addr":"경기도 이천시 안흥동 317-2번지","category":"일반휴게음식 - 일반한식"}]},{"lat":"37.277662818","long":"127.45451909","items":[{"name":"세븐일레븐이천중삼거리점","tel":"","addr":"경기도 이천시 안흥동 324-2번지","category":"유통업 영리 - 편 의 점"}]},{"lat":"37.279240981","long":"127.46351516","items":[{"name":"세잔인테리어","tel":"031-633-0191","addr":"경기도 이천시 안흥동 123번지","category":"건축자재 - 인테리어전문"},{"name":"영농조합법인 초록날개","tel":"031-633-3433","addr":"경기도 이천시 안흥동 123번지 2층","category":"음료식품 - 농·축·수산품"},{"name":"정담법무사사무소","tel":"031-633-8877","addr":"경기도 이천시 안흥동 123번지 2층","category":"용역 서비스 - 법률회계서비스(개인)"}]},{"lat":"37.279859024","long":"127.46445481","items":[{"name":"스타골프존","tel":"031-634-7970","addr":"경기도 이천시 안흥동 119-2번지 2층","category":"레저업소 - 스크린골프"}]},{"lat":"37.280739827","long":"127.46037834","items":[{"name":"씨유 이천안흥주공점","tel":"080-080-3663","addr":"경기도 이천시 안흥동 469번지 주공상가 101,102호","category":"유통업 영리 - 편 의 점"},{"name":"주공어린이집[아이행복]","tel":"031-631-4054","addr":"경기도 이천시 안흥동 469번지 이천안흥 주공아파트 및 상가 105동 101호","category":"학원 - 유아원"}]},{"lat":"37.280186821","long":"127.45657507","items":[{"name":"안흥초등학교","tel":"031-631-7952","addr":"경기도 이천시 안흥동 344-1번지 안흥초등학교","category":"학원 - 초중고교육기관"}]},{"lat":"37.278717847","long":"127.45429988","items":[{"name":"에스케이패널","tel":"031-632-0316","addr":"경기도 이천시 안흥동 389-8번지","category":"건축자재 - 기타건축자재"}]},{"lat":"37.279550476","long":"127.4627052","items":[{"name":"예쁜꽃이쁜나무","tel":"031-638-8005","addr":"경기도 이천시 안흥동 132-1번지","category":"문화.취미 - 화원"},{"name":"해밀칼국수","tel":"031-637-3780","addr":"경기도 이천시 안흥동 132-1번지 1층","category":"일반휴게음식 - 일반한식"}]},{"lat":"37.280436255","long":"127.46198894","items":[{"name":"워시팰리스","tel":"031-637-0636","addr":"경기도 이천시 안흥동 144-1번지","category":"자동차정비 유지 - 세차장"},{"name":"이천24시 셀프세차장","tel":"031-634-4625","addr":"경기도 이천시 안흥동 144-1","category":"자동차정비 유지 - 세차장"},{"name":"핏보스2호점","tel":"031-637-8055","addr":"경기도 이천시 안흥동 144-1번지","category":"자동차정비 유지 - 세차장"}]},{"lat":"37.279629946","long":"127.4654344","items":[{"name":"으랏차수산물","tel":"031-631-9289","addr":"경기도 이천시 안흥동 116번지 이천시법원","category":"음료식품 - 농·축·수산품"}]},{"lat":"37.278882559","long":"127.46531707","items":[{"name":"으랏차풍천장어","tel":"031-631-9289","addr":"경기도 이천시 안흥동 97-2번지","category":"일반휴게음식 - 일반한식"}]},{"lat":"37.27721607","long":"127.46751683","items":[{"name":"이천공동육아 사회적협동조합[아이행복]","tel":"031-633-5956","addr":"경기도 이천시 안흥동 80-1번지","category":"학원 - 유아원"}]},{"lat":"37.281105021","long":"127.45443817","items":[{"name":"이천닭갈비","tel":"031-634-5333","addr":"경기도 이천시 안흥동 355-1번지","category":"일반휴게음식 - 일반한식"}]},{"lat":"37.277934923","long":"127.45404715","items":[{"name":"이천자전거","tel":"031-637-1982","addr":"경기도 이천시 안흥동 393-2번지","category":"레져용품 - 스포츠·레져용품"}]},{"lat":"37.279329524","long":"127.4592648","items":[{"name":"이천제일고등학교","tel":"031-633-3271","addr":"경기도 이천시 안흥동 140번지","category":"학원 - 초중고교육기관"}]},{"lat":"37.280664391","long":"127.45421002","items":[{"name":"이천종합타이어","tel":"031-636-7988","addr":"경기도 이천시 안흥동 355-23번지","category":"자동차정비 유지 - 자동차시트·타이어"}]},{"lat":"37.278493462","long":"127.45642961","items":[{"name":"이천중학교","tel":"070-8854-3723","addr":"경기도 이천시 안흥동 148번지","category":"학원 - 초중고교육기관"}]},{"lat":"37.28102492","long":"127.45417835","items":[{"name":"잔디로 이천직영점 (도매센터)","tel":"031-637-8011","addr":"경기도 이천시 안흥동 355-3번지 1층","category":"신변잡화 - 신발"},{"name":"플러스전기조명","tel":"031-631-2558","addr":"경기도 이천시 안흥동 355-3번지","category":"건축자재 - 조명기구"}]},{"lat":"37.276887775","long":"127.45926133","items":[{"name":"장지리가마솥해장국","tel":"031-635-1545","addr":"경기도 이천시 안흥동 173번지 1층","category":"일반휴게음식 - 일반한식"}]},{"lat":"37.278248272","long":"127.46160357","items":[{"name":"주공정육솥뚜껑삼겹살","tel":"031-632-2422","addr":"경기도 이천시 안흥동 470-3번지 안흥주공에이상가 104동 105호","category":"일반휴게음식 - 일반한식"}]},{"lat":"37.279913594","long":"127.45498356","items":[{"name":"지금은. 꽃","tel":"","addr":"경기도 이천시 안흥동 349-1번지 1동","category":"문화.취미 - 문화취미기타"}]},{"lat":"37.28019174","long":"127.45528967","items":[{"name":"지원장Artline","tel":"031-637-2433","addr":"경기도 이천시 안흥동 345-7번지 1층","category":"보건위생 - 피부미용실"}]},{"lat":"37.281080441","long":"127.4537953","items":[{"name":"참 당구장","tel":"02-000-0000","addr":"경기도 이천시 안흥동 355-17번지 3층 301호","category":"레저업소 - 당 구 장"}]},{"lat":"37.280519372","long":"127.45443467","items":[{"name":"커피비너리","tel":"031-635-7210","addr":"경기도 이천시 안흥동 354-2번지 101호","category":"일반휴게음식 - 서양음식"}]},{"lat":"37.279687698","long":"127.45515135","items":[{"name":"평화자동차공업사","tel":"031-632-9961","addr":"경기도 이천시 안흥동 348번지","category":"자동차정비 유지 - 자동차정비"}]},{"lat":"37.278413992","long":"127.463014","items":[{"name":"풀잎농원","tel":"031-633-1014","addr":"경기도 이천시 안흥동 108-6번지","category":"문화.취미 - 화원"}]},{"lat":"37.274943562","long":"127.45404057","items":[{"name":"한국후지필름 (주)롯데마트 이천점","tel":"02-3282-7229","addr":"경기도 이천시 안흥동 274-1번지","category":"광학제품 - 사진관"}]},{"lat":"37.279939331","long":"127.45532199","items":[{"name":"한양자동차공업사","tel":"031-633-1473","addr":"경기도 이천시 안흥동 346-5번지","category":"자동차정비 유지 - 자동차정비"}]},{"lat":"37.280578954","long":"127.45534837","items":[{"name":"해오름달 여드레","tel":"","addr":"경기도 이천시 안흥동 352-6번지 102호","category":"보건위생 - 미용원"}]},{"lat":"37.280299429","long":"127.45540307","items":[{"name":"헤어봄","tel":"031-111-1111","addr":"경기도 이천시 안흥동 345-6번지 1층","category":"보건위생 - 미용원"}]},{"lat":"37.276749057","long":"127.46018507","items":[{"name":"현대강철","tel":"031-754-9633","addr":"경기도 이천시 안흥동 179-1번지","category":"기타 - 기계공구"}]},{"lat":"37.278720081","long":"127.45371357","items":[{"name":"활유통","tel":"031-633-8592","addr":"경기도 이천시 안흥동 388-13번지","category":"음료식품 - 정육점"}]},{"lat":"37.280744965","long":"127.45434581","items":[{"name":"힘찬건강원","tel":"031-633-4143","addr":"경기도 이천시 안흥동 355-2번지 1층","category":"건강식품 - 기타건강식품"}]}]