[{"lat":"37.46619554","long":"127.65887751","items":[{"name":"(재)순복음선교회","tel":"031-775-0096","addr":"경기도 양평군 지평면 망미리 833-3","category":"용역 서비스 - 가례서비스업"}]},{"lat":"37.442203247","long":"127.65382035","items":[{"name":"가람 이벤트 & 엔터테인먼트","tel":"031-774-7789","addr":"경기도 양평군 지평면 망미리 211번지 1층","category":"용역 서비스 - 종합용역"}]},{"lat":"37.439787479","long":"127.64909882","items":[{"name":"다온농장","tel":"","addr":"경기도 양평군 지평면 망미리 1147-5번지 다온농장","category":"음료식품 - 농·축·수산품"}]},{"lat":"37.461118861","long":"127.65474157","items":[{"name":"맷돌순두부","tel":"031-773-7291","addr":"경기도 양평군 지평면 망미리 919-10번지","category":"일반휴게음식 - 일반한식"}]},{"lat":"37.46419546","long":"127.65560472","items":[{"name":"미코펜션","tel":"031-4806-2290","addr":"경기도 양평군 지평면 망미리 900번지","category":"숙박업 - 여관/기타숙박업"},{"name":"주식회사 아이넥스","tel":"031-4806-2290","addr":"경기도 양평군 지평면 망미리 900번지","category":"회원제형태 - 기타4"}]},{"lat":"37.455140218","long":"127.66054404","items":[{"name":"석불장독대,건강밥상","tel":"031-771-6653","addr":"경기도 양평군 지평면 망미리 733-41번지","category":"일반휴게음식 - 일반한식"}]},{"lat":"37.455367683","long":"127.65852299","items":[{"name":"석불주유소","tel":"031-774-5145","addr":"경기도 양평군 지평면 망미리 730-3","category":"연료판매점 - 쌍용S-OIL"}]},{"lat":"37.460144173","long":"127.65829343","items":[{"name":"완이팜","tel":"031-000-0000","addr":"경기도 양평군 지평면 망미리 795번지","category":"음료식품 - 농·축·수산품"}]},{"lat":"37.453062202","long":"127.66157688","items":[{"name":"요세산업","tel":"031-774-4401","addr":"경기도 양평군 지평면 망미리 711-1번지","category":"건축자재 - 기타건축자재"}]},{"lat":"37.461972821","long":"127.65509937","items":[{"name":"용문방충망","tel":"031-771-6059","addr":"경기도 양평군 지평면 망미리 909","category":"건축자재 - 보일러·펌프·샷시"}]},{"lat":"37.467616526","long":"127.65281983","items":[{"name":"월산낚시터","tel":"031-773-4797","addr":"경기도 양평군 지평면 망미리 838-2번지","category":"레저업소 - 기타레져업소"}]},{"lat":"37.44272666","long":"127.65693238","items":[{"name":"재화분","tel":"031-732-9967","addr":"경기도 양평군 지평면 망미리 402번지","category":"가구 - 기타가구"}]},{"lat":"37.452703085","long":"127.66134771","items":[{"name":"쪽구름농원","tel":"031-771-8720","addr":"경기도 양평군 지평면 망미리 711-2번지","category":"문화.취미 - 민예·공예품"}]},{"lat":"37.455786107","long":"127.6594308","items":[{"name":"천연염색,최정희","tel":"031-772-4070","addr":"경기도 양평군 지평면 망미리 733-57번지","category":"의류 - 정장"}]}]