[{"lat":"38.013682308","long":"127.24551008","items":[{"name":"3.8토속가든","tel":"031-536-6737","addr":"경기도 포천시 영중면 성동리 895-11번지 1층","category":"일반휴게음식 - 일반한식"},{"name":"3.8토속가든","tel":"536-6737","addr":"경기도 포천시 영중면 성동리 895-11번지","category":"음식 - 한식"}]},{"lat":"38.014148589","long":"127.24657064","items":[{"name":"GS25 광명휴게소","tel":"031-535-1713","addr":"경기도 포천시 영중면 성동리 895-3번지","category":"편의점 - 편의점"},{"name":"GS25광명휴게소점","tel":"","addr":"경기도 포천시 영중면 성동리 895-3번지","category":"유통업 영리 - 편 의 점"},{"name":"광명휴게소","tel":"031-531-3876","addr":"경기도 포천시 영중면 성동리 895-3번지 외1필지","category":"일반휴게음식 - 일반한식"},{"name":"백두어패럴","tel":"031-533-5428","addr":"경기도 포천시 영중면 성동리 895-3번지","category":"레져용품 - 스포츠·레져용품"}]},{"lat":"38.021292134","long":"127.28326497","items":[{"name":"고향손두부","tel":"533-8061","addr":"경기도 포천시 영중면 성동리 39-7번지","category":"음식 - 한식"}]},{"lat":"38.020346106","long":"127.25123757","items":[{"name":"나운식당","tel":"534-6608","addr":"경기도 포천시 영중면 성동리 876-6번지","category":"음식 - 한식"}]},{"lat":"38.022537304","long":"127.28246112","items":[{"name":"네일243","tel":"070-8271-2404","addr":"경기도 포천시 영중면 성동리 39-9번지","category":"보건위생 - 피부미용실"},{"name":"카페243","tel":"070-7720-0243","addr":"경기도 포천시 영중면 성동리 39-9번지","category":"음식 - 양식"},{"name":"카페243","tel":"","addr":"경기도 포천시 영중면 성동리 39-9번지","category":"일반휴게음식 - 서양음식"}]},{"lat":"38.033038464","long":"127.26437918","items":[{"name":"레이크문","tel":"070-4138-1052","addr":"경기도 포천시 영중면 성동리 336","category":"음료식품 - 기타음료식품"}]},{"lat":"38.030343357","long":"127.26092987","items":[{"name":"만석가든","tel":"070-7743-0462","addr":"경기도 포천시 영중면 성동리 436-1번지","category":"일반휴게음식 - 일반한식"},{"name":"민속품","tel":"","addr":"경기도 포천시 영중면 성동리 436-1번지","category":"문화.취미 - 민예·공예품"}]},{"lat":"38.019266306","long":"127.26717726","items":[{"name":"매향낚시터","tel":"031-858-2372","addr":"경기도 포천시 영중면 성동리 235번지","category":"레저업소 - 기타레져업소"},{"name":"매향낚시터","tel":"","addr":"경기도 포천시 영중면 성동리 235번지","category":"서비스 - 낚시터운영"}]},{"lat":"38.038148118","long":"127.26370249","items":[{"name":"미리내","tel":"-","addr":"경기도 포천시 영중면 성동리 357-4번지","category":"음식 - 커피 등"},{"name":"미리내","tel":"070-8254-1333","addr":"경기도 포천시 영중면 성동리 357-4번지 1층","category":"일반휴게음식 - 서양음식"}]},{"lat":"38.015792458","long":"127.24887636","items":[{"name":"방일해장국","tel":"031-533-4220","addr":"경기도 포천시 영중면 성동리 892-2번지","category":"일반휴게음식 - 일반한식"},{"name":"방일해장국","tel":"533-4220","addr":"경기도 포천시 영중면 성동리 892-2번지","category":"음식 - 한식"}]},{"lat":"38.027730305","long":"127.28087495","items":[{"name":"버섯사랑","tel":"031-534-1880","addr":"경기도 포천시 영중면 성동리 97-4","category":"음료식품 - 농·축·수산품"}]},{"lat":"38.025012034","long":"127.25998867","items":[{"name":"비움의 해독밥상","tel":"031-532-9872","addr":"경기도 포천시 영중면 성동리 453-7번지","category":"일반휴게음식 - 일반한식"},{"name":"비움의해독밥상","tel":"532-9872","addr":"경기도 포천시 영중면 성동리 453-7번지","category":"음식 - 한식"},{"name":"산정원","tel":"031-531-7737","addr":"경기도 포천시 영중면 성동리 453-7번지","category":"일반휴게음식 - 일반한식"},{"name":"산정원흑염소","tel":"531-7737","addr":"경기도 포천시 영중면 성동리 453-7번지","category":"음식 - 한식"},{"name":"우리식당","tel":"031-532-7083","addr":"경기도 포천시 영중면 성동리 453-7번지 1층","category":"일반휴게음식 - 일반한식"},{"name":"커피카니","tel":"070-7789-2200","addr":"경기도 포천시 영중면 성동리 453-7번지","category":"음식 - 커피 등"},{"name":"커피카니","tel":"031-798-5767","addr":"경기도 포천시 영중면 성동리 453-7번지","category":"일반휴게음식 - 서양음식"}]},{"lat":"38.025010163","long":"127.26084284","items":[{"name":"산내지막국수","tel":"","addr":"경기도 포천시 영중면 성동리 447-5번지 1층","category":"일반휴게음식 - 일반한식"},{"name":"세븐일레븐포천성동삼거리점","tel":"031-1577-0711","addr":"경기도 포천시 영중면 성동리 447-5번지 102호","category":"유통업 영리 - 편 의 점"}]},{"lat":"38.02609369","long":"127.26785096","items":[{"name":"산토리니","tel":"031-538-1234","addr":"경기도 포천시 영중면 성동리 274-1번지","category":"숙박업 - 여관/기타숙박업"}]},{"lat":"38.014869314","long":"127.24657302","items":[{"name":"삼팔L.G.모터","tel":"031-531-8946","addr":"경기도 포천시 영중면 성동리 886-8번지","category":"기타 - 기계공구"},{"name":"얼큰이네","tel":"031-534-8934","addr":"경기도 포천시 영중면 성동리 886-8번지","category":"일반휴게음식 - 일반한식"}]},{"lat":"38.014038282","long":"127.24762929","items":[{"name":"성동가축약품","tel":"031-532-8158","addr":"경기도 포천시 영중면 성동리 895-6번지","category":"기타의료기관 - 동물병원"},{"name":"영선LGS","tel":"","addr":"경기도 포천시 영중면 성동리 895-6번지","category":"건축자재 - 기타건축자재"},{"name":"주방기구재활용","tel":"031-533-1557","addr":"경기도 포천시 영중면 성동리 895-6번지 1층","category":"주방용구 - 주방용구"},{"name":"체크포스","tel":"031-534-8934","addr":"경기도 포천시 영중면 성동리 895-6번지","category":"사무통신 - 통신기기"}]},{"lat":"38.015039754","long":"127.2469266","items":[{"name":"성동리고기농장","tel":"","addr":"경기도 포천시 영중면 성동리 886-10번지","category":"일반휴게음식 - 일반한식"}]},{"lat":"38.028178791","long":"127.26607032","items":[{"name":"성동유황메기양어장","tel":"031-531-5013","addr":"경기도 포천시 영중면 성동리 308-2.308-3","category":"음료식품 - 농·축·수산품"}]},{"lat":"38.020092432","long":"127.25190862","items":[{"name":"세민모터스","tel":"031-531-6191","addr":"경기도 포천시 영중면 성동리 640-6번지","category":"자동차정비 유지 - 자동차정비"}]},{"lat":"38.026732824","long":"127.27595102","items":[{"name":"소나무집","tel":"","addr":"경기도 포천시 영중면 성동리 153-2번지","category":"음식 - 커피 등"}]},{"lat":"38.031093252","long":"127.25995297","items":[{"name":"신진상사","tel":"031-532-6576","addr":"경기도 포천시 영중면 성동리 428-9번지","category":"음료식품 - 기타음료식품"},{"name":"신화유통","tel":"","addr":"경기도 포천시 영중면 성동리 428-9번지","category":"음료식품 - 기타음료식품"},{"name":"주식회사 한국물류","tel":"031-532-6576","addr":"경기도 포천시 영중면 성동리 428-9번지","category":"음료식품 - 기타음료식품"}]},{"lat":"38.021181247","long":"127.25251589","items":[{"name":"씨유포천성동점","tel":"031-531-1202","addr":"경기도 포천시 영중면 성동리 640-4번지","category":"유통업 영리 - 편 의 점"}]},{"lat":"38.024039382","long":"127.25568029","items":[{"name":"아리짬뽕","tel":"031-535-1666","addr":"경기도 포천시 영중면 성동리 679-3번지 1층","category":"일반휴게음식 - 중국식"}]},{"lat":"38.033510511","long":"127.25448268","items":[{"name":"아토","tel":"031-534-2731","addr":"경기도 포천시 영중면 성동리 781-3번지","category":"숙박업 - 여관/기타숙박업"}]},{"lat":"38.024675252","long":"127.28128479","items":[{"name":"여기.꽃자리","tel":"","addr":"경기도 포천시 영중면 성동리 85-8번지 1층","category":"일반휴게음식 - 서양음식"}]},{"lat":"38.014847316","long":"127.24848603","items":[{"name":"영중초등학교","tel":"031-532-6521","addr":"경기도 포천시 영중면 성동리 891-3번지 영중초등학교","category":"학원 - 초중고교육기관"},{"name":"영중초병설유치원[아이행복]","tel":"031-532-6521","addr":"경기도 포천시 영중면 성동리 891-3번지 영중초등학교","category":"학원 - 유치원"}]},{"lat":"38.017230896","long":"127.25031603","items":[{"name":"운천낚시","tel":"031-532-6342","addr":"경기도 포천시 영중면 성동리 893-1번지","category":"레져용품 - 스포츠·레져용품"}]},{"lat":"38.027708507","long":"127.27865393","items":[{"name":"원조파주골순두부","tel":"532-6590","addr":"경기도 포천시 영중면 성동리 135-8번지","category":"음식 - 한식"}]},{"lat":"38.02567558","long":"127.26548053","items":[{"name":"이마트24 포천성동점","tel":"","addr":"경기도 포천시 영중면 성동리 272-12번지","category":"유통업 영리 - 편 의 점"}]},{"lat":"38.031011199","long":"127.26039689","items":[{"name":"일등자동차공업사","tel":"031-532-9843","addr":"경기도 포천시 영중면 성동리 428-1번지","category":"자동차정비 유지 - 자동차정비"}]},{"lat":"38.024175105","long":"127.25540742","items":[{"name":"제일기획","tel":"031-541-3598","addr":"경기도 포천시 영중면 성동리 679-5번지","category":"서적문구 - 완구점"}]},{"lat":"38.037005488","long":"127.26301499","items":[{"name":"천리향","tel":"531-7767","addr":"경기도 포천시 영중면 성동리 375-3번지","category":"음식 - 중식"},{"name":"천리향","tel":"031-531-7767","addr":"경기도 포천시 영중면 성동리 375-3번지","category":"일반휴게음식 - 중국식"}]},{"lat":"38.031256082","long":"127.25548868","items":[{"name":"천재원예종묘","tel":"","addr":"경기도 포천시 영중면 성동리 772번지","category":"문화.취미 - 화원"}]},{"lat":"38.020289603","long":"127.28432025","items":[{"name":"파주골이동갈비","tel":"031-531-2202","addr":"경기도 포천시 영중면 성동리 25-1번지","category":"일반휴게음식 - 일반한식"}]},{"lat":"38.020425283","long":"127.28409301","items":[{"name":"파주골이동갈비","tel":"531-2202","addr":"경기도 포천시 영중면 성동리 33-1번지","category":"음식 - 한식"}]},{"lat":"38.027037303","long":"127.27673801","items":[{"name":"파주골토박이순두부","tel":"031-532-6566","addr":"경기도 포천시 영중면 성동리 140번지","category":"일반휴게음식 - 일반한식"}]},{"lat":"38.0274271","long":"127.27570303","items":[{"name":"파주골토속촌","tel":"534-6390","addr":"경기도 포천시 영중면 성동리 139번지","category":"음식 - 한식"}]},{"lat":"38.02503609","long":"127.26134404","items":[{"name":"포안","tel":"531-9531","addr":"경기도 포천시 영중면 성동리 445-5번지","category":"음식 - 분식"},{"name":"포안","tel":"031-531-9531","addr":"경기도 포천시 영중면 성동리 445-5","category":"일반휴게음식 - 일반한식"}]},{"lat":"38.014040079","long":"127.24676386","items":[{"name":"포천농특산품 자연산약초","tel":"031-531-2850","addr":"경기도 포천시 영중면 성동리 895-44","category":"음료식품 - 농·축·수산품"}]},{"lat":"38.027818831","long":"127.28153587","items":[{"name":"포천레저펜션","tel":"031-534-3606","addr":"경기도 포천시 영중면 성동리 97-6번지","category":"숙박업 - 여관/기타숙박업"}]},{"lat":"38.02664666","long":"127.28195283","items":[{"name":"풀빛농원","tel":"031-31-2222","addr":"경기도 포천시 영중면 성동리 75번지","category":"일반휴게음식 - 일반한식"}]},{"lat":"38.014317799","long":"127.24751634","items":[{"name":"한국상사","tel":"031-536-8961","addr":"경기도 포천시 영중면 성동리 895-4","category":"자동차정비 유지 - 자동차시트·타이어"}]},{"lat":"38.025125203","long":"127.26178853","items":[{"name":"항아리손칼국수","tel":"-","addr":"경기도 포천시 영중면 성동리 445-9번지","category":"음식 - 한식"},{"name":"항아리손칼국수","tel":"031-533-3432","addr":"경기도 포천시 영중면 성동리 445-9번지","category":"일반휴게음식 - 일반한식"}]}]