[{"lat":"37.125641413","long":"126.88596473","items":[{"name":"(주)리더푸드","tel":"031-352-8110","addr":"경기도 화성시 팔탄면 고주리 304-1번지 1층","category":"음료식품 - 기타음료식품"}]},{"lat":"37.136948145","long":"126.884518","items":[{"name":"(주)삼신코스메틱","tel":"031-354-0804","addr":"경기도 화성시 팔탄면 고주리 15-1번지","category":"보건위생 - 화장품"}]},{"lat":"37.125864242","long":"126.8835225","items":[{"name":"(주)시원테크","tel":"031-354-1070","addr":"경기도 화성시 팔탄면 고주리 315번지","category":"보건위생 - 미용재료"}]},{"lat":"37.124723161","long":"126.88679884","items":[{"name":"(주)주강로보테크지점 바란","tel":"031-683-9876","addr":"경기도 화성시 팔탄면 고주리 304-9번지","category":"일반휴게음식 - 서양음식"}]},{"lat":"37.130780584","long":"126.88924288","items":[{"name":"JOY(조이)매점","tel":"031-350-3186","addr":"경기도 화성시 팔탄면 고주리 196-1번지","category":"음료식품 - 기타음료식품"},{"name":"유앤아이컴퍼니","tel":"031-353-0811","addr":"경기도 화성시 팔탄면 고주리 196-1번지","category":"음료식품 - 기타음료식품"}]},{"lat":"37.135270728","long":"126.88305756","items":[{"name":"또오리한식부페","tel":"031-354-1599","addr":"경기도 화성시 팔탄면 고주리 95-2번지 A동 1층","category":"일반휴게음식 - 일반한식"}]},{"lat":"37.135720599","long":"126.89163267","items":[{"name":"맛집한식뷔페","tel":"031-352-0368","addr":"경기도 화성시 팔탄면 고주리 28-20번지 1동 1층","category":"일반휴게음식 - 일반한식"},{"name":"제일특수기술","tel":"031-8059-3366","addr":"경기도 화성시 팔탄면 고주리 28-20번지","category":"기타 - 기계공구"}]},{"lat":"37.128834072","long":"126.88898696","items":[{"name":"미뗌바우하우스","tel":"02-749-2326","addr":"경기도 화성시 팔탄면 고주리 202-8번지 C동 1층(명진데칼)","category":"가구 - 일반가구"}]},{"lat":"37.132195896","long":"126.8899385","items":[{"name":"서도비엔아이(주)","tel":"031-8023-9599","addr":"경기도 화성시 팔탄면 고주리 196-4번지","category":"음료식품 - 기타음료식품"}]},{"lat":"37.133811383","long":"126.88340874","items":[{"name":"성광씨엔씨 (CNC)","tel":"031-354-6137","addr":"경기도 화성시 팔탄면 고주리 95-9번지 전부","category":"전기제품 - 기타전기제품"}]},{"lat":"37.136347285","long":"126.88740008","items":[{"name":"숙이네포차","tel":"031-354-5857","addr":"경기도 화성시 팔탄면 고주리 19-1번지 B동 1층","category":"일반휴게음식 - 주점"}]},{"lat":"37.129167708","long":"126.88924529","items":[{"name":"에이씨엠(ACM)","tel":"031-366-3958","addr":"경기도 화성시 팔탄면 고주리 202-15","category":"건축자재 - 기타건축자재"}]},{"lat":"37.136527154","long":"126.88705092","items":[{"name":"예스마트 고주점","tel":"031-366-2494","addr":"경기도 화성시 팔탄면 고주리 19-1번지","category":"유통업 영리 - 슈퍼마켓"},{"name":"화성대형카","tel":"031-8059-0909","addr":"경기도 화성시 팔탄면 고주리 19-1","category":"자동차정비 유지 - 자동차정비"}]},{"lat":"37.126445708","long":"126.88838288","items":[{"name":"우리네코다리","tel":"031-352-7678","addr":"경기도 화성시 팔탄면 고주리 212-6번지","category":"일반휴게음식 - 일반한식"}]},{"lat":"37.133387644","long":"126.8745525","items":[{"name":"우리수지산업","tel":"031-354-6444","addr":"경기도 화성시 팔탄면 고주리 143-58번지 (주)씨엠케이내","category":"건축자재 - 기타건축자재"}]},{"lat":"37.134617066","long":"126.88718888","items":[{"name":"우성산업","tel":"031-336-4917","addr":"경기도 화성시 팔탄면 고주리 59-1번지 외2필지","category":"기타 - 기계공구"},{"name":"팔탄농기계","tel":"031-353-5663","addr":"경기도 화성시 팔탄면 고주리 59-1","category":"수리서비스 - 기타수리서비스"}]},{"lat":"37.130256444","long":"126.88765691","items":[{"name":"행복한밥상","tel":"031-352-3121","addr":"경기도 화성시 팔탄면 고주리 197-2번지 A동 1층","category":"일반휴게음식 - 일반한식"}]},{"lat":"37.125390728","long":"126.88760802","items":[{"name":"허브나무","tel":"","addr":"경기도 화성시 팔탄면 고주리 304-22번지","category":"일반휴게음식 - 일반한식"}]},{"lat":"37.138920388","long":"126.88346823","items":[{"name":"현석가스","tel":"031-453-0044","addr":"경기도 화성시 팔탄면 고주리 6번지","category":"연료판매점 - LPG 취급점"}]},{"lat":"37.135582291","long":"126.8883241","items":[{"name":"화성모터스","tel":"031-353-5183","addr":"경기도 화성시 팔탄면 고주리 29-2번지","category":"자동차정비 유지 - 자동차정비"}]},{"lat":"37.128256336","long":"126.88788501","items":[{"name":"화성출장세차","tel":"","addr":"경기도 화성시 팔탄면 고주리 204-2번지","category":"자동차정비 유지 - 세차장"}]}]