[{"lat":"37.360004327","long":"126.93892551","items":[{"name":"그린미술학원","tel":"031-392-0746","addr":"경기도 군포시 재궁동 850번지 화성무궁화상가 A-105호","category":"학원 - 예·체능계학원"},{"name":"뉴마트","tel":"031-392-0525","addr":"경기도 군포시 재궁동 850번지 무궁화분산상가 1층 14호","category":"유통업 영리 - 슈퍼마켓"},{"name":"부어치킨","tel":"031-397-2233","addr":"경기도 군포시 재궁동 850번지 화성근린상가 106","category":"일반휴게음식 - 주점"}]},{"lat":"37.358616765","long":"126.93892669","items":[{"name":"멕시칸양념치킨","tel":"031-391-1560","addr":"경기도 군포시 재궁동 850-5번지 주공1단지상가 108","category":"일반휴게음식 - 주점"}]},{"lat":"37.360949589","long":"126.93745728","items":[{"name":"소명디지털어린이집[아이행복]","tel":"031-451-1145","addr":"경기도 군포시 재궁동 719-2번지 소명빌딩 1층","category":"학원 - 유아원"}]},{"lat":"37.361366022","long":"126.94111422","items":[{"name":"신환쌍방울","tel":"031-456-8241","addr":"경기도 군포시 재궁동 744-1번지 신환상가 2층","category":"의류 - 내의판매"},{"name":"안양대리점","tel":"031-438-3532","addr":"경기도 군포시 재궁동 744-1번지 신환상가 205","category":"보건위생 - 화장품"}]},{"lat":"37.359059485","long":"126.94122898","items":[{"name":"씨유군포제궁점","tel":"031-399-5506","addr":"경기도 군포시 재궁동 866-3번지 1층 코너 101,102호","category":"유통업 영리 - 편 의 점"}]}]