[{"lat":"37.195141867","long":"127.54389503","items":[{"name":"가남자원","tel":"031-884-5665","addr":"경기도 여주시 가남읍 건장리 190번지","category":"건축자재 - 목재·석재·철물"}]},{"lat":"37.191843788","long":"127.55567465","items":[{"name":"꿈","tel":"031-885-3988","addr":"경기도 여주시 가남읍 건장리 29-5번지","category":"숙박업 - 여관/기타숙박업"}]},{"lat":"37.195899212","long":"127.54967843","items":[{"name":"대호산업","tel":"031-881-3004","addr":"경기도 여주시 가남읍 건장리 142-23번지","category":"건축자재 - 기타건축자재"}]},{"lat":"37.195616137","long":"127.54853882","items":[{"name":"두바이무인텔","tel":"031-884-0431","addr":"경기도 여주시 가남읍 건장리 142-33번지","category":"숙박업 - 여관/기타숙박업"},{"name":"세븐일레븐여주건장사거리점","tel":"","addr":"경기도 여주시 가남읍 건장리 142-33번지","category":"유통업 영리 - 편 의 점"},{"name":"월드산업개발","tel":"031-883-3909","addr":"경기도 여주시 가남읍 건장리 142-33번지 1층","category":"용역 서비스 - 사무서비스"}]},{"lat":"37.195452141","long":"127.54893185","items":[{"name":"두바이버즈(무인텔)","tel":"031-886-0431","addr":"경기도 여주시 가남읍 건장리 142-35번지","category":"숙박업 - 여관/기타숙박업"}]},{"lat":"37.199564733","long":"127.54612302","items":[{"name":"로드매니저","tel":"031-884-3478","addr":"경기도 여주시 가남읍 건장리 157번지","category":"자동차정비 유지 - 자동차정비"},{"name":"연합상사","tel":"031-884-4211","addr":"경기도 여주시 가남읍 건장리 157번지","category":"자동차정비 유지 - 자동차부품"}]},{"lat":"37.196698084","long":"127.55033746","items":[{"name":"미러클","tel":"031-1588-1839","addr":"경기도 여주시 가남읍 건장리 142-15번지","category":"건축자재 - 인테리어전문"},{"name":"커피가게 마실","tel":"","addr":"경기도 여주시 가남읍 건장리 142-15번지 1층","category":"일반휴게음식 - 서양음식"}]},{"lat":"37.198725205","long":"127.54842603","items":[{"name":"바른자동차공업사","tel":"031-884-0140","addr":"경기도 여주시 가남읍 건장리 147-20번지","category":"자동차정비 유지 - 자동차정비"},{"name":"소닉스 여주점","tel":"031-638-9915","addr":"경기도 여주시 가남읍 건장리 147-20번지 1층","category":"자동차정비 유지 - 세차장"}]},{"lat":"37.19983849","long":"127.54537031","items":[{"name":"반석부동산컨설팅","tel":"031-882-1800","addr":"경기도 여주시 가남읍 건장리 161번지","category":"용역 서비스 - 부동산 중개·임대"},{"name":"발해","tel":"031-882-5114","addr":"경기도 여주시 가남읍 건장리 161번지","category":"전기제품 - 기타전기제품"}]},{"lat":"37.200812054","long":"127.54723581","items":[{"name":"법무사김영준","tel":"031-885-0089","addr":"경기도 여주시 가남읍 건장리 148-5번지","category":"용역 서비스 - 법률회계서비스(개인)"}]},{"lat":"37.198786251","long":"127.54886575","items":[{"name":"삼거리영양집","tel":"031-881-3558","addr":"경기도 여주시 가남읍 건장리 147-18번지","category":"일반휴게음식 - 일반한식"}]},{"lat":"37.201063609","long":"127.54739531","items":[{"name":"삼춘네세숫대야왕냉면","tel":"","addr":"경기도 여주시 가남읍 건장리 148-6번지","category":"일반휴게음식 - 일반한식"}]},{"lat":"37.197755391","long":"127.54770946","items":[{"name":"와이제이공조","tel":"031-884-0244","addr":"경기도 여주시 가남읍 건장리 151-12번지","category":"전기제품 - 냉열기기"}]},{"lat":"37.200174307","long":"127.54876311","items":[{"name":"일등영양탕","tel":"031-883-0395","addr":"경기도 여주시 가남읍 건장리 147-1번지","category":"일반휴게음식 - 일반한식"}]},{"lat":"37.192621353","long":"127.54731216","items":[{"name":"일신도예","tel":"031-884-7197","addr":"경기도 여주시 가남읍 건장리 131-8번지","category":"회원제형태 - 기타4"}]},{"lat":"37.188117643","long":"127.55479158","items":[{"name":"행림서원의료기","tel":"031-881-6444","addr":"경기도 여주시 가남읍 건장리 45-9번지","category":"보건위생 - 의료용품"}]},{"lat":"37.200673227","long":"127.54803455","items":[{"name":"현대자원","tel":"031-883-3277","addr":"경기도 여주시 가남읍 건장리 148-3번지","category":"신변잡화 - 기타잡화"}]},{"lat":"37.199309089","long":"127.5488132","items":[{"name":"혜성갈비","tel":"031-881-5519","addr":"경기도 여주시 가남읍 건장리 147-19번지","category":"일반휴게음식 - 일반한식"}]}]