[{"lat":"37.214781351","long":"127.38230065","items":[{"name":"(주) 에코스페이스","tel":"070-7430-9930","addr":"경기도 이천시 호법면 매곡리 128-2번지 1층","category":"의류 - 정장"}]},{"lat":"37.193868929","long":"127.38771482","items":[{"name":"(주) 한스쿱","tel":"02-1800-2561","addr":"경기도 이천시 호법면 매곡리 943-22번지","category":"음료식품 - 기타음료식품"}]},{"lat":"37.215166721","long":"127.39401931","items":[{"name":"GS25이천매곡점","tel":"","addr":"경기도 이천시 호법면 매곡리 196-4번지","category":"유통업 영리 - 편 의 점"}]},{"lat":"37.187472995","long":"127.37600371","items":[{"name":"단.우가네숯불돼지갈비","tel":"031-635-7887","addr":"경기도 이천시 호법면 매곡리 995-1번지 2층","category":"일반휴게음식 - 일반한식"},{"name":"단우가네한식부페","tel":"031-635-7886","addr":"경기도 이천시 호법면 매곡리 995-1번지 1층","category":"일반휴게음식 - 일반한식"}]},{"lat":"37.20950076","long":"127.38805328","items":[{"name":"미가미한식부페","tel":"031-637-0111","addr":"경기도 이천시 호법면 매곡리 259-11번지","category":"일반휴게음식 - 일반한식"}]},{"lat":"37.210586661","long":"127.38938812","items":[{"name":"씨유이천매곡중앙점","tel":"031-637-9984","addr":"경기도 이천시 호법면 매곡리 257-11번지 1층","category":"유통업 영리 - 편 의 점"},{"name":"희래등","tel":"02-1111-1111","addr":"경기도 이천시 호법면 매곡리 257-11번지","category":"일반휴게음식 - 중국식"}]},{"lat":"37.187251312","long":"127.37772569","items":[{"name":"양지구내매점","tel":"031-638-4024","addr":"경기도 이천시 호법면 매곡리 990-1번지","category":"음료식품 - 기타음료식품"}]},{"lat":"37.215830978","long":"127.39477757","items":[{"name":"유가네식당","tel":"031-638-0469","addr":"경기도 이천시 호법면 매곡리 194-1번지","category":"일반휴게음식 - 일반한식"}]},{"lat":"37.216581517","long":"127.39668545","items":[{"name":"이천돌솥시골밥상","tel":"031-638-9077","addr":"경기도 이천시 호법면 매곡리 19-3번지","category":"일반휴게음식 - 일반한식"}]},{"lat":"37.214526517","long":"127.39416246","items":[{"name":"이천매곡초등학교","tel":"031-638-0982","addr":"경기도 이천시 호법면 매곡리 188-1번지","category":"학원 - 초중고교육기관"},{"name":"이천매곡초등학교병설유치원[아이행복]","tel":"031-638-0982","addr":"경기도 이천시 호법면 매곡리 188-1번지","category":"학원 - 유치원"}]},{"lat":"37.205167387","long":"127.39063338","items":[{"name":"혁성산업","tel":"031-631-5406","addr":"경기도 이천시 호법면 매곡리 580-18번지","category":"건축자재 - 기타건축자재"}]},{"lat":"37.213803767","long":"127.39474455","items":[{"name":"호법크리닝","tel":"031-637-3074","addr":"경기도 이천시 호법면 매곡리 187","category":"수리서비스 - 세탁소"}]}]