[{"lat":"37.086511641","long":"127.08386096","items":[{"name":"(주)가온테크","tel":"031-668-7022","addr":"경기도 평택시 진위면 마산리 817-7번지 B동","category":"자동차정비 유지 - 자동차부품"}]},{"lat":"37.092347967","long":"127.09927685","items":[{"name":"24포유","tel":"031-1566-2924","addr":"경기도 평택시 진위면 마산리 194-3번지 1층","category":"용역 서비스 - 기타용역서비스"},{"name":"삼보가든","tel":"031-611-2950","addr":"경기도 평택시 진위면 마산리 194-3번지","category":"일반휴게음식 - 일반한식"}]},{"lat":"37.091262941","long":"127.09258305","items":[{"name":"경기남부테라코","tel":"031-375-3529","addr":"경기도 평택시 진위면 마산리 309-8번지","category":"건축자재 - 페인트"}]},{"lat":"37.085208308","long":"127.09196858","items":[{"name":"경기냉동","tel":"031-663-7775","addr":"경기도 평택시 진위면 마산리 404-2번지","category":"전기제품 - 냉열기기"}]},{"lat":"37.086759071","long":"127.09069947","items":[{"name":"굿마트","tel":"031-662-1903","addr":"경기도 평택시 진위면 마산리 383-1번지","category":"유통업 영리 - 슈퍼마켓"},{"name":"씨유평택진위점","tel":"02-1577-8007","addr":"경기도 평택시 진위면 마산리 383-1번지","category":"유통업 영리 - 편 의 점"}]},{"lat":"37.088346614","long":"127.0883956","items":[{"name":"그린식당","tel":"","addr":"경기도 평택시 진위면 마산리 455-3번지 남경 구내식당","category":"일반휴게음식 - 위탁급식업"}]},{"lat":"37.089818813","long":"127.09575316","items":[{"name":"농업회사 연이랑 명주랑","tel":"","addr":"경기도 평택시 진위면 마산리 180-3번지","category":"소매업 - 농산물"},{"name":"농업회사법인 연이랑 명주랑 주식회사","tel":"031-663-0106","addr":"경기도 평택시 진위면 마산리 180-3번지","category":"음료식품 - 농·축·수산품"}]},{"lat":"37.092231413","long":"127.08664528","items":[{"name":"대림꽃농원","tel":"031-663-1170","addr":"경기도 평택시 진위면 마산리 671","category":"문화.취미 - 화원"}]},{"lat":"37.08787336","long":"127.08219781","items":[{"name":"대한아처리","tel":"","addr":"경기도 평택시 진위면 마산리 799-7번지","category":"레져용품 - 스포츠·레져용품"}]},{"lat":"37.086763341","long":"127.09688539","items":[{"name":"동흥함바식당","tel":"070-111-1111","addr":"경기도 평택시 진위면 마산리 147-1번지","category":"일반휴게음식 - 일반한식"}]},{"lat":"37.086706294","long":"127.08894486","items":[{"name":"멍이면세점","tel":"070-7518-8515","addr":"경기도 평택시 진위면 마산리 451-22번지","category":"문화.취미 - 애완동물"}]},{"lat":"37.092062692","long":"127.08305702","items":[{"name":"명성농기계","tel":"031-373-4403","addr":"경기도 평택시 진위면 마산리 479번지","category":"농업 - 농기계"}]},{"lat":"37.085596651","long":"127.09077686","items":[{"name":"박가네한식부페","tel":"031-667-9020","addr":"경기도 평택시 진위면 마산리 388번지","category":"일반휴게음식 - 일반한식"},{"name":"준 랩(Jun Wrap)","tel":"","addr":"경기도 평택시 진위면 마산리 388번지 3동 108호 107,108호","category":"자동차정비 유지 - 자동차부품"}]},{"lat":"37.091818916","long":"127.09605929","items":[{"name":"봉담골","tel":"031-664-8784","addr":"경기도 평택시 진위면 마산리 191-1번지","category":"일반휴게음식 - 일반한식"},{"name":"송이불버섯","tel":"031-663-6295","addr":"경기도 평택시 진위면 마산리 191-1번지","category":"일반휴게음식 - 일반한식"}]},{"lat":"37.083123724","long":"127.09605989","items":[{"name":"브이티스(VTS)","tel":"031-667-2487","addr":"경기도 평택시 진위면 마산리 95-1번지","category":"기타 - 기계공구"},{"name":"태승포장","tel":"031-611-6185","addr":"경기도 평택시 진위면 마산리 95-1번지","category":"유통업 영리 - 기타유통업"}]},{"lat":"37.089791322","long":"127.096338","items":[{"name":"신농종합농기계","tel":"031-664-2399","addr":"경기도 평택시 진위면 마산리 182-10번지","category":"농업 - 농기계"},{"name":"케이팜","tel":"031-1111-1111","addr":"경기도 평택시 진위면 마산리 182-10번지","category":"농업 - 비료,사료,종자"}]},{"lat":"37.087451369","long":"127.07991419","items":[{"name":"신성스틸","tel":"031-668-0476","addr":"경기도 평택시 진위면 마산리 798-1","category":"건축자재 - 기타건축자재"}]},{"lat":"37.090093291","long":"127.09027591","items":[{"name":"안치선곰탕","tel":"031-665-5449","addr":"경기도 평택시 진위면 마산리 723번지 1층","category":"일반휴게음식 - 일반한식"},{"name":"안치선곰탕","tel":"031-611-2955","addr":"경기도 평택시 진위면 마산리 723번지","category":"음식점 - 한식"}]},{"lat":"37.086591721","long":"127.08533442","items":[{"name":"앤원(N ONE)","tel":"070-4227-9010","addr":"경기도 평택시 진위면 마산리 440번지","category":"유통업 영리 - 기타유통업"}]},{"lat":"37.086064581","long":"127.09160968","items":[{"name":"에셋파트너 주식회사","tel":"031-665-7728","addr":"경기도 평택시 진위면 마산리 377-2번지 1층","category":"용역 서비스 - 부동산 중개·임대"}]},{"lat":"37.091818615","long":"127.09644172","items":[{"name":"에이스아처리","tel":"000-1588-3252","addr":"경기도 평택시 진위면 마산리 191-5번지","category":"신변잡화 - 액세서리"},{"name":"파란지붕","tel":"031-664-7575","addr":"경기도 평택시 진위면 마산리 191-5번지 1층","category":"문화.취미 - 문화취미기타"}]},{"lat":"37.086820884","long":"127.09238661","items":[{"name":"예원아트(Yewon art)","tel":"031-665-9875","addr":"경기도 평택시 진위면 마산리 359번지","category":"문화.취미 - 화랑"},{"name":"이 아트(e-art)","tel":"031-212-5786","addr":"경기도 평택시 진위면 마산리 359번지","category":"문화.취미 - 화랑"}]},{"lat":"37.091788008","long":"127.08927679","items":[{"name":"지산양봉농장","tel":"031-691-8223","addr":"경기도 평택시 진위면 마산리 717번지","category":"건강식품 - 기타건강식품"}]},{"lat":"37.096291154","long":"127.07924822","items":[{"name":"진위양식장","tel":"031-665-2456","addr":"경기도 평택시 진위면 마산리 192번지","category":"음료식품 - 농·축·수산품"}]},{"lat":"37.08820723","long":"127.08147833","items":[{"name":"청광","tel":"031-658-4796","addr":"경기도 평택시 진위면 마산리 799-9번지","category":"용역 서비스 - 보관및 창고업"}]},{"lat":"37.093786456","long":"127.10313678","items":[{"name":"트리하우스","tel":"031-666-3097","addr":"경기도 평택시 진위면 마산리 30-22번지","category":"용역 서비스 - 기타용역서비스"}]},{"lat":"37.091758018","long":"127.09324725","items":[{"name":"합동카고크레인","tel":"031-666-0977","addr":"경기도 평택시 진위면 마산리 759번지","category":"기타 - 기계공구"}]}]