[{"lat":"37.703461661","long":"126.90133548","items":[{"name":"고양마트","tel":"031-111-1111","addr":"경기도 고양시 덕양구 혜음로","category":"유통업 영리 - 슈퍼마켓"}]},{"lat":"37.706075687","long":"126.90278344","items":[{"name":"고양방앗간","tel":"031-964-9197","addr":"경기도 고양시 덕양구 혜음로","category":"음료식품 - 미곡상"}]},{"lat":"37.70246179","long":"126.90156363","items":[{"name":"고양지엔비학원","tel":"031-969-0579","addr":"경기도 고양시 덕양구 혜음로","category":"회원제형태 - 학원"}]},{"lat":"37.701822439","long":"126.90195004","items":[{"name":"고양철물건재","tel":"031-962-9343","addr":"경기도 고양시 덕양구 혜음로","category":"건축자재 - 목재·석재·철물"}]},{"lat":"37.707291268","long":"126.90194262","items":[{"name":"낙지가 고양점","tel":"031-963-8884","addr":"경기도 고양시 덕양구 혜음로","category":"일반휴게음식 - 일반한식"}]},{"lat":"37.705651947","long":"126.90244381","items":[{"name":"누들홀릭","tel":"070-8827-9417","addr":"경기도 고양시 덕양구 혜음로","category":"일반휴게음식 - 일반한식"}]},{"lat":"37.705850235","long":"126.90253426","items":[{"name":"동대문곱창","tel":"031-969-7723","addr":"경기도 고양시 덕양구 혜음로","category":"일반휴게음식 - 일반한식"}]},{"lat":"37.716768754","long":"126.90122658","items":[{"name":"베스트정보통신","tel":"070-8708-3322","addr":"경기도 고양시 덕양구 혜음로","category":"사무통신 - 통신기기"}]},{"lat":"37.703208913","long":"126.90078018","items":[{"name":"빛나리포장마차","tel":"031-963-1649","addr":"경기도 고양시 덕양구 혜음로","category":"일반휴게음식 - 일반한식"}]},{"lat":"37.7045973","long":"126.90183288","items":[{"name":"상하이","tel":"031-964-9926","addr":"경기도 고양시 덕양구 혜음로","category":"일반휴게음식 - 중국식"}]},{"lat":"37.704182887","long":"126.90186746","items":[{"name":"서해생선가게","tel":"031-967-8892","addr":"경기도 고양시 덕양구 혜음로","category":"음료식품 - 농·축·수산품"}]},{"lat":"37.706517273","long":"126.90291892","items":[{"name":"세븐일레븐고양점","tel":"","addr":"경기도 고양시 덕양구 혜음로","category":"유통업 영리 - 편 의 점"},{"name":"여주한과","tel":"031-963-6331","addr":"경기도 고양시 덕양구 혜음로","category":"음료식품 - 기타음료식품"}]},{"lat":"37.709101749","long":"126.90141851","items":[{"name":"쉼표 Hair&Makeup","tel":"","addr":"경기도 고양시 덕양구 혜음로","category":"보건위생 - 미용원"},{"name":"코사마트","tel":"031-962-8823","addr":"경기도 고양시 덕양구 혜음로","category":"유통업 영리 - 슈퍼마켓"}]},{"lat":"37.715957891","long":"126.90122769","items":[{"name":"와우노래연습장","tel":"031-962-7853","addr":"경기도 고양시 덕양구 혜음로","category":"레저업소 - 노 래 방"}]},{"lat":"37.707984968","long":"126.90189632","items":[{"name":"종점떡기름방아간","tel":"031-962-6946","addr":"경기도 고양시 덕양구 혜음로","category":"음료식품 - 제과점"}]}]