[{"lat":"37.41299772","long":"127.2530365","items":[{"name":"(CPC)켈리포니아 피자치킨 광주경안점","tel":"","addr":"경기도 광주시 경안동 124-14번지 1층","category":"일반휴게음식 - 일반한식"},{"name":"건국카서비스","tel":"031-768-0094","addr":"경기도 광주시 경안동 124-14번지","category":"자동차정비 유지 - 자동차정비"}]},{"lat":"37.40966599","long":"127.2563349","items":[{"name":"(JJang Nail) 짱네일","tel":"031-699-3216","addr":"경기도 광주시 경안동 36-94번지 101호","category":"보건위생 - 피부미용실"},{"name":"경안해법중국어교습소","tel":"02-466-1637","addr":"경기도 광주시 경안동 36-94번지 1층","category":"회원제형태 - 학원"},{"name":"광주세종 초등학원","tel":"031-787-9902","addr":"경기도 광주시 경안동 36-94번지 3층","category":"학원 - 보습학원"},{"name":"광주세종학원","tel":"031-797-9901","addr":"경기도 광주시 경안동 36-94번지 2층","category":"학원 - 보습학원"},{"name":"광주세종학원","tel":"031-797-9901","addr":"경기도 광주시 경안동 36-94번지 2층","category":"학원 - 보습학원"},{"name":"꼬마마녀김밥","tel":"031-762-0083","addr":"경기도 광주시 경안동 36-94번지 1층","category":"일반휴게음식 - 스넥"},{"name":"다옴","tel":"031-763-9090","addr":"경기도 광주시 경안동 36-94번지 1층 일부호","category":"음료식품 - 기타음료식품"},{"name":"새한솔피아노미술학원","tel":"031-763-7079","addr":"경기도 광주시 경안동 36-94번지","category":"학원 - 예·체능계학원"},{"name":"캡슐캔디","tel":"031-000-0000","addr":"경기도 광주시 경안동 36-94번지 1층 103호","category":"서적문구 - 완구점"}]},{"lat":"37.41141661","long":"127.2592776","items":[{"name":"(신)광주경안세사리빙","tel":"031-761-3538","addr":"경기도 광주시 경안동 18-1번지","category":"직물 - 침구·수예점"},{"name":"슬램비트뮤직댄스학원","tel":"02-929-0094","addr":"경기도 광주시 경안동 18-1번지 3층","category":"학원 - 예·체능계학원"},{"name":"욜로라이브(YOLOLIVE)","tel":"","addr":"경기도 광주시 경안동 18-1번지 2층","category":"일반휴게음식 - 주점"},{"name":"파사디 경기광주점","tel":"031-769-5549","addr":"경기도 광주시 경안동 18-1번지 1층","category":"의류 - 스포츠의류"}]},{"lat":"37.41417114","long":"127.2520351","items":[{"name":"(주)뉴투어라인","tel":"031-764-6515","addr":"경기도 광주시 경안동 123-9번지","category":"여행 - 관광여행"},{"name":"해그리고달","tel":"","addr":"경기도 광주시 경안동 123-9번지","category":"일반휴게음식 - 일반한식"}]},{"lat":"37.40932658","long":"127.2506862","items":[{"name":"(주)두나미스","tel":"031-7638-8765","addr":"경기도 광주시 경안동 163-6번지 다원베르빌","category":"레져용품 - 스포츠·레져용품"}]},{"lat":"37.41289555","long":"127.254482","items":[{"name":"(주)레이데코","tel":"031-764-3258","addr":"경기도 광주시 경안동 83-21번지 신원플러스타운 208호","category":"신변잡화 - 가방"},{"name":"극진종합무도관","tel":"031-766-1922","addr":"경기도 광주시 경안동 83-21번지 신원플러스타운 2층 201호","category":"회원제형태 - 레져업소"},{"name":"누리문화사","tel":"070-8621-6658","addr":"경기도 광주시 경안동 83-21번지 신원플러스타운 2층 205호","category":"회원제형태 - 서적"},{"name":"동건","tel":"031-431-5060","addr":"경기도 광주시 경안동 83-21번지 신원플러스 302호","category":"주방용구 - 주방용구"},{"name":"라이언짐","tel":"031-768-0877","addr":"경기도 광주시 경안동 83-21번지 신원플러스타운","category":"레저업소 - 헬스클럽"},{"name":"바짝독서실","tel":"031-761-9911","addr":"경기도 광주시 경안동 83-21번지 신원플러스타운 401호","category":"학원 - 독서실"},{"name":"봄의아침","tel":"031-757-3852","addr":"경기도 광주시 경안동 83-21번지 신원플러스타운 2층 208호","category":"서적문구 - 출판 및 인쇄물"},{"name":"소아트공방","tel":"","addr":"경기도 광주시 경안동 83-21번지 101-4호","category":"문화.취미 - 문화취미기타"},{"name":"야식공장 광주점","tel":"031-762-1475","addr":"경기도 광주시 경안동 83-21번지 신원플러스타운 1층 101-5호","category":"일반휴게음식 - 일반한식"},{"name":"엠에스코리아","tel":"031-798-5642","addr":"경기도 광주시 경안동 83-21번지 신원플러스타운","category":"회원제형태 - 건강식품"},{"name":"자비사","tel":"031-855-0517","addr":"경기도 광주시 경안동 83-21번지 신원플러스타운 401호","category":"보건위생 - 피부미용실"},{"name":"정좌연구원","tel":"031-763-6362","addr":"경기도 광주시 경안동 83-21번지","category":"보건위생 - 기타대인서비스"},{"name":"탑헤어앤스킨갤러리","tel":"031-767-4795","addr":"경기도 광주시 경안동 83-2 5필지신원플러스타운2층209호","category":"보건위생 - 미용원"},{"name":"필치과의원","tel":"02-761-2875","addr":"경기도 광주시 경안동 83-21번지 신원플러스타운 211호","category":"의원 - 치과의원"},{"name":"회랑고기랑","tel":"031-768-7234","addr":"경기도 광주시 경안동 83-21번지 1층","category":"일반휴게음식 - 일반한식"}]},{"lat":"37.40958413","long":"127.2566961","items":[{"name":"(주)비에이치더블유","tel":"031-767-6969","addr":"경기도 광주시 경안동 36-29번지","category":"일반휴게음식 - 서양음식"}]},{"lat":"37.40966678","long":"127.2601414","items":[{"name":"(주)스마일디자인","tel":"031-768-2333","addr":"경기도 광주시 경안동 20-14번지 5층","category":"보건위생 - 의료용품"},{"name":"상주황씨 매곡파종중","tel":"031-761-8511","addr":"경기도 광주시 경안동 20-14번지","category":"용역 서비스 - 부동산 중개·임대"},{"name":"상주황씨매곡파종중","tel":"031-761-8511","addr":"경기도 광주시 경안동 20-14번지","category":"자동차정비 유지 - 주차장"},{"name":"케어필라테스경기광주점","tel":"031-766-5621","addr":"경기도 광주시 경안동 20-14번지","category":"레저업소 - 헬스클럽"}]},{"lat":"37.41377879","long":"127.2543607","items":[{"name":"(주)장원교육광주지점","tel":"031-769-0979","addr":"경기도 광주시 경안동 98-4번지 2층","category":"회원제형태 - 서적"},{"name":"건축사사무소/건축구조기술사사무소동신건","tel":"031-765-4545","addr":"경기도 광주시 경안동 98-4번지","category":"용역 서비스 - 사무서비스"},{"name":"세덴경안점","tel":"031-766-4771","addr":"경기도 광주시 경안동 98-4번지","category":"자동차정비 유지 - 카인테리어"},{"name":"회 모리","tel":"031-797-0412","addr":"경기도 광주시 경안동 98-4번지","category":"일반휴게음식 - 일식·회집"}]},{"lat":"37.40942064","long":"127.2573055","items":[{"name":"24시옛날통닭","tel":"031-797-1553","addr":"경기도 광주시 경안동 34-3번지 1층","category":"일반휴게음식 - 스넥"},{"name":"경안한우리독서논술학원","tel":"031-765-4092","addr":"경기도 광주시 경안동 34-3번지 4층","category":"학원 - 보습학원"},{"name":"광주신나라","tel":"031-765-4191","addr":"경기도 광주시 경안동 34-3번지","category":"유통업 영리 - 슈퍼마켓"},{"name":"광주코리아미용학원","tel":"031-763-7460","addr":"경기도 광주시 경안동 34-3번지 삼원빌딩 2층","category":"보건위생 - 미용원"},{"name":"궁","tel":"031-765-3718","addr":"경기도 광주시 경안동 34-3번지","category":"일반휴게음식 - 일반한식"},{"name":"더헤어룸","tel":"070-7684-3764","addr":"경기도 광주시 경안동 34-3번지 2층","category":"보건위생 - 미용원"},{"name":"서민만원족발","tel":"031-764-1259","addr":"경기도 광주시 경안동 34-3번지","category":"일반휴게음식 - 일반한식"},{"name":"오케이 포차","tel":"031-111-1111","addr":"경기도 광주시 경안동 34-3번지 1층","category":"일반휴게음식 - 주점"},{"name":"와이비엠잉글루광주경안제1학원","tel":"031-763-0048","addr":"경기도 광주시 경안동 34-3번지 3층","category":"학원 - 보습학원"},{"name":"클럽미남","tel":"031-797-6090","addr":"경기도 광주시 경안동 34-3번지","category":"보건위생 - 피부미용실"}]},{"lat":"37.41314208","long":"127.2571712","items":[{"name":"24시전주명가콩나물국밥(경인동)","tel":"031-763-7677","addr":"경기도 광주시 경안동 75-11번지 1층","category":"일반휴게음식 - 일반한식"},{"name":"다모아","tel":"031-767-9880","addr":"경기도 광주시 경안동 75-11번지","category":"일반휴게음식 - 주점"}]},{"lat":"37.41408929","long":"127.2523963","items":[{"name":"25시 노래연습장","tel":"031-766-8287","addr":"경기도 광주시 경안동 97-8번지 지하","category":"레저업소 - 노 래 방"}]},{"lat":"37.4126652","long":"127.2568646","items":[{"name":"345헤어살롱","tel":"031-763-3452","addr":"경기도 광주시 경안동 74-15번지 파발빌딩 2층","category":"보건위생 - 미용원"},{"name":"라이라이","tel":"031-763-7277","addr":"경기도 광주시 경안동 74-15번지 파발빌딩 3층","category":"보건위생 - 화장품"},{"name":"샤르망 안경원","tel":"031-767-8250","addr":"경기도 광주시 경안동 74-15번지 1층","category":"보건위생 - 안경"},{"name":"아바타 노래연습장","tel":"031-763-2014","addr":"경기도 광주시 경안동 74-15번지 파발빌딩 지층","category":"레저업소 - 노 래 방"}]},{"lat":"37.41019591","long":"127.2571161","items":[{"name":"52번가의기적","tel":"031-764-5631","addr":"경기도 광주시 경안동 52-10번지","category":"일반휴게음식 - 일반한식"},{"name":"KABAYAN(카바얀)","tel":"031-764-5571","addr":"경기도 광주시 경안동 52-10번지","category":"음료식품 - 기타음료식품"},{"name":"사이공리","tel":"","addr":"경기도 광주시 경안동 52-10번지 1층","category":"일반휴게음식 - 일반한식"},{"name":"선일상회","tel":"031-768-6714","addr":"경기도 광주시 경안동 52-10","category":"신변잡화 - 기타잡화"},{"name":"술익는마을","tel":"02-763-3000","addr":"경기도 광주시 경안동 52-10번지","category":"일반휴게음식 - 일반한식"},{"name":"쉘브르","tel":"031-762-1408","addr":"경기도 광주시 경안동 52-10번지 2층","category":"일반휴게음식 - 주점"},{"name":"하양까망","tel":"031-762-1150","addr":"경기도 광주시 경안동 52-10번지 1층","category":"의류 - 정장"}]},{"lat":"37.40916824","long":"127.2573611","items":[{"name":"7풍년상회","tel":"031-797-9033","addr":"경기도 광주시 경안동 33-47번지","category":"음료식품 - 미곡상"},{"name":"광주건강마을","tel":"031-761-0188","addr":"경기도 광주시 경안동 33-47번지","category":"건강식품 - 기타건강식품"},{"name":"광주건강마을","tel":"","addr":"경기도 광주시 경안동 33-47번지","category":"건강식품 - 기타건강식품"},{"name":"제일방앗간","tel":"031-763-4554","addr":"경기도 광주시 경안동 33-47번지","category":"음료식품 - 제과점"},{"name":"찰맛찰김","tel":"031-635-2000","addr":"경기도 광주시 경안동 33-47번지","category":"음료식품 - 기타음료식품"}]},{"lat":"37.41353156","long":"127.2519765","items":[{"name":"99푸드","tel":"031-764-0040","addr":"경기도 광주시 경안동 124-27번지 영공빌딩 1층 103호","category":"일반휴게음식 - 일반한식"},{"name":"비바체음악학원","tel":"031-762-9056","addr":"경기도 광주시 경안동 124-27번지 영공빌딩","category":"학원 - 예·체능계학원"},{"name":"월드곱창모이세","tel":"031-766-1677","addr":"경기도 광주시 경안동 124-27번지","category":"일반휴게음식 - 일반한식"},{"name":"이지라이프","tel":"070-7018-5392","addr":"경기도 광주시 경안동 124-27번지 영공빌딩 2층","category":"신변잡화 - 기타잡화"}]},{"lat":"37.40953227","long":"127.2556681","items":[{"name":"ASIA Mobile","tel":"070-8624-1868","addr":"경기도 광주시 경안동 36-13번지","category":"사무통신 - 통신기기"},{"name":"드림보습학원","tel":"031-798-8582","addr":"경기도 광주시 경안동 36-13번지 2층","category":"학원 - 보습학원"},{"name":"학우사","tel":"031-761-3893","addr":"경기도 광주시 경안동 36-13","category":"서적문구 - 문구용품"}]},{"lat":"37.41175118","long":"127.2502537","items":[{"name":"Amy","tel":"031-799-7856","addr":"경기도 광주시 경안동 144-24번지 광주터미널이프라자 2층 288호,289호","category":"신변잡화 - 액세서리"}]},{"lat":"37.40914156","long":"127.2486751","items":[{"name":"BOSCOS(서울-경기)","tel":"031-797-5458","addr":"경기도 광주시 경안동 215-2번지 201호","category":"자동차정비 유지 - 윤활유 전문 판매"},{"name":"씨유광주장신대점","tel":"031-767-6868","addr":"경기도 광주시 경안동 215-2번지 외3필지","category":"유통업 영리 - 편 의 점"}]},{"lat":"37.41194409","long":"127.257009","items":[{"name":"BYC","tel":"031-767-1914","addr":"경기도 광주시 경안동 70-2번지","category":"의류 - 내의판매"},{"name":"스마트학생복","tel":"031-763-0334","addr":"경기도 광주시 경안동 70-2번지","category":"의류 - 맞춤복점"},{"name":"이사랑치과의원","tel":"031-763-2804","addr":"경기도 광주시 경안동 70-2번지","category":"의원 - 치과의원"},{"name":"피부애약손","tel":"031-762-2733","addr":"경기도 광주시 경안동 70-2번지 2층","category":"보건위생 - 피부미용실"},{"name":"행텐 광주점","tel":"031-765-0245","addr":"경기도 광주시 경안동 70-2번지","category":"의류 - 스포츠의류"}]},{"lat":"37.41272541","long":"127.2623319","items":[{"name":"Cafe Anthony (카페 앤써니)","tel":"031-768-1491","addr":"경기도 광주시 경안동 418-4번지 1층","category":"일반휴게음식 - 서양음식"}]},{"lat":"37.40961026","long":"127.2528897","items":[{"name":"D&C그루밍샵","tel":"031-762-0329","addr":"경기도 광주시 경안동 47-35번지 1층","category":"문화.취미 - 애완동물"}]},{"lat":"37.40883533","long":"127.2571454","items":[{"name":"D.C백화점","tel":"031-798-8310","addr":"경기도 광주시 경안동 33-15번지","category":"전기제품 - 가전제품"},{"name":"골목전집","tel":"031-766-8795","addr":"경기도 광주시 경안동 33-15번지 1층","category":"음료식품 - 기타음료식품"},{"name":"광주축산","tel":"031-765-1236","addr":"경기도 광주시 경안동 33-15번지","category":"음료식품 - 정육점"},{"name":"송엘림치킨","tel":"031-767-0143","addr":"경기도 광주시 경안동 33-15번지 1층","category":"일반휴게음식 - 스넥"},{"name":"쉼터","tel":"","addr":"경기도 광주시 경안동 33-15번지","category":"일반휴게음식 - 주점"},{"name":"유에스에이","tel":"031-798-0069","addr":"경기도 광주시 경안동 33-15번지","category":"일반휴게음식 - 주점"},{"name":"호석세탁","tel":"031-765-1963","addr":"경기도 광주시 경안동 33-15번지 1층","category":"수리서비스 - 세탁소"}]},{"lat":"37.4088375","long":"127.260308","items":[{"name":"DI뷰티살롱","tel":"031-763-1193","addr":"경기도 광주시 경안동 25-6번지 101,102호","category":"보건위생 - 미용원"},{"name":"옥토수공방","tel":"070-8252-1283","addr":"경기도 광주시 경안동 25-6번지 1층","category":"신변잡화 - 기타잡화"}]},{"lat":"37.40950224","long":"127.2612252","items":[{"name":"E아이스타일","tel":"031-799-7722","addr":"경기도 광주시 경안동 25-3번지 2층","category":"보건위생 - 안경"},{"name":"Four Seoson(포시즌)","tel":"","addr":"경기도 광주시 경안동 25-3번지 광주터미널이프라자 2층 8호","category":"의류 - 정장"},{"name":"Hong(홍)","tel":"00-000-0000","addr":"경기도 광주시 경안동 25-3번지 광주터미널이프라자 2층 137호","category":"의류 - 정장"},{"name":"I컨벤션웨딩부페","tel":"031-799-7500","addr":"경기도 광주시 경안동 25-3번지 이프라자2147호~2154호 2층","category":"일반휴게음식 - 일반한식"},{"name":"LON DON (런던)","tel":"031-000-0000","addr":"경기도 광주시 경안동 25-3번지 광주터미널이프라자 2층 297호","category":"의류 - 정장"},{"name":"Plan B (플랜비)","tel":"031-1111-1111","addr":"경기도 광주시 경안동 25-3번지 광주터미널 이프라자 2층 88,89호","category":"의류 - 정장"},{"name":"The by(더 바이)","tel":"031-704-9974","addr":"경기도 광주시 경안동 25-3번지 광주터미널이프라자 2층 105호","category":"의류 - 아동의류"},{"name":"가마로강정","tel":"031-799-7692","addr":"경기도 광주시 경안동 25-3번지 광주터미널이프라자 1층 108호","category":"일반휴게음식 - 스넥"},{"name":"가은","tel":"031-799-7736","addr":"경기도 광주시 경안동 25-3번지 광주터미널이프라자 2층 1128호","category":"음료식품 - 기타음료식품"},{"name":"경기광주 아이폰수리","tel":"031-799-7799","addr":"경기도 광주시 경안동 25-3번지 광주터미널이프라자 2층 59호","category":"수리서비스 - 사무·통신기기수리"},{"name":"골드라인","tel":"031-799-7747","addr":"경기도 광주시 경안동 25-3번지 광주터미널이프라자 2층 96호","category":"신변잡화 - 귀금속"},{"name":"골드젬","tel":"031-766-3635","addr":"경기도 광주시 경안동 25-3번지 이프라자 2층 72호","category":"신변잡화 - 귀금속"},{"name":"골드콜트리","tel":"031-799-7707","addr":"경기도 광주시 경안동 25-3번지 상가터미널 2층 121호","category":"신변잡화 - 신발"},{"name":"공차 (경기광주터미널점)","tel":"031-799-7779","addr":"경기도 광주시 경안동 25-3번지 광주터미널이프라자 107-1호","category":"일반휴게음식 - 서양음식"},{"name":"나나츄","tel":"02-000-0000","addr":"경기도 광주시 경안동 25-3번지 광주터미널이프라자 204호","category":"의류 - 정장"},{"name":"나니가","tel":"031-799-7910","addr":"경기도 광주시 경안동 25-3번지 광주터미널이프라자 134호","category":"일반휴게음식 - 일식·회집"},{"name":"네일샤베트","tel":"031-799-7946","addr":"경기도 광주시 경안동 25-3번지 광주터미널 1층 25호","category":"보건위생 - 피부미용실"},{"name":"다모아","tel":"031-111-1111","addr":"경기도 광주시 경안동 25-3번지 광주터미널이프라자 2층 31호","category":"직물 - 침구·수예점"},{"name":"다미소반","tel":"031-799-7711","addr":"경기도 광주시 경안동 25-3번지 광주터미널이프라자 129호","category":"일반휴게음식 - 일반한식"},{"name":"달리","tel":"031-799-7949","addr":"경기도 광주시 경안동 25-3번지 광주터미널이프라자 2층 52호","category":"의류 - 정장"},{"name":"더 데이(THE DAY)","tel":"","addr":"경기도 광주시 경안동 25-3번지 광주터미널이프라자 2층 86호","category":"신변잡화 - 기타잡화"},{"name":"더블유드레스","tel":"","addr":"경기도 광주시 경안동 25-3번지 광주터미널프라자 2층 137호","category":"의류 - 정장"},{"name":"던킨도너츠경기광주터미널점","tel":"031-799-7701","addr":"경기도 광주시 경안동 25-3광주터미널2","category":"음료식품 - 제과점"},{"name":"데이지","tel":"","addr":"경기도 광주시 경안동 25-3번지 2층 85,122호","category":"신변잡화 - 기타잡화"},{"name":"도담도담","tel":"031-447-2232","addr":"경기도 광주시 경안동 25-3번지 외1필지 광주터미널이프라자 2층 274호","category":"의류 - 아동의류"},{"name":"디브렛","tel":"031-799-7939","addr":"경기도 광주시 경안동 25-3 광주터미널2층 18","category":"의류 - 정장"},{"name":"디에이치안나","tel":"031-799-7976","addr":"경기도 광주시 경안동 25-3번지 광주터미널이프라자 23호","category":"의류 - 정장"},{"name":"디엔드제이 (D&J)","tel":"031-797-0711","addr":"경기도 광주시 경안동 25-3번지 광주터미널이프라자 2층 138호","category":"의류 - 정장"},{"name":"디지컴퍼니","tel":"","addr":"경기도 광주시 경안동 25-3번지 광주터미널이프라자 2층 2호","category":"의류 - 정장"},{"name":"라라베베","tel":"031-799-7786","addr":"경기도 광주시 경안동 25-3번지 광주터미널이프라자 E프라자 2층 136호","category":"의류 - 정장"},{"name":"라미띠에","tel":"031-799-7761","addr":"경기도 광주시 경안동 25-3번지 광주터미널 2층 61호","category":"신변잡화 - 액세서리"},{"name":"레인보우","tel":"031-799-7705","addr":"경기도 광주시 경안동 25-3번지 광주터미널이프라자 2층 17, 18호","category":"의류 - 아동의류"},{"name":"레인보우 맘","tel":"","addr":"경기도 광주시 경안동 25-3번지 광주터미널 이플라자 2층 20,21호","category":"의류 - 정장"},{"name":"로엠걸즈","tel":"031-799-7927","addr":"경기도 광주시 경안동 25-3 2층26호,27호","category":"의류 - 아동의류"},{"name":"루안바오경기광주터미널점","tel":"031-799-7685","addr":"경기도 광주시 경안동 25-3번지 광주종합터미널 1층 113호","category":"일반휴게음식 - 서양음식"},{"name":"마들렌헤어상롱","tel":"031-799-7800","addr":"경기도 광주시 경안동 25-3번지 1층 22~24호","category":"보건위생 - 미용원"},{"name":"마리옹","tel":"02-1111-1111","addr":"경기도 광주시 경안동 25-3번지 광주터미널이프라자 2층 141호","category":"의류 - 정장"},{"name":"마미쥬스","tel":"031-799-7509","addr":"경기도 광주시 경안동 25-3번지 광주터미널이프라자 114호","category":"일반휴게음식 - 서양음식"},{"name":"마실","tel":"031-799-7979","addr":"경기도 광주시 경안동 25-3번지 광주터미널이프라자 2층 16호","category":"의류 - 기타의류"},{"name":"마토이(경기광주점)","tel":"031-799-7945","addr":"경기도 광주시 경안동 25-3번지 광주터미널 1층 138호 ,139,140호","category":"일반휴게음식 - 일식·회집"},{"name":"멀티","tel":"","addr":"경기도 광주시 경안동 25-3번지 광주터미널이프라자 2층 271호","category":"의류 - 정장"},{"name":"멀티지누시","tel":"031-000-0000","addr":"경기도 광주시 경안동 25-3번지 이프라자 2층 108호","category":"의류 - 정장"},{"name":"메이데이","tel":"031-799-7717","addr":"경기도 광주시 경안동 25-3번지 광주터미널이프라자 1층 45호","category":"문화.취미 - 화원"},{"name":"모노치즈","tel":"031-797-9835","addr":"경기도 광주시 경안동 25-3번지 광주터미널이프라자 1층 103호","category":"일반휴게음식 - 서양음식"},{"name":"모다까리나(경기광주점)","tel":"031-799-7919","addr":"경기도 광주시 경안동 25-3번지 광주터미널2층 67","category":"의류 - 기타의류"},{"name":"모모별","tel":"031-797-1225","addr":"경기도 광주시 경안동 25-3번지 광주터미널이프라자 2층 123호","category":"의류 - 정장"},{"name":"미니실버","tel":"031-799-7576","addr":"경기도 광주시 경안동 25-3 2층 82","category":"신변잡화 - 액세서리"},{"name":"미래서적","tel":"031-768-1112","addr":"경기도 광주시 경안동 25-3번지 광주터미널2층 63","category":"서적문구 - 일반서적"},{"name":"미소아트","tel":"070-2278-3944","addr":"경기도 광주시 경안동 25-3번지 광주터미널이프라자 144호","category":"회원제형태 - 기타4"},{"name":"바니","tel":"031-000-0000","addr":"경기도 광주시 경안동 25-3번지 광주터미널이프라자 2층 212호","category":"의류 - 정장"},{"name":"바오밥","tel":"031-000-0000","addr":"경기도 광주시 경안동 25-3번지 광주터미널이프라자 2층 225호","category":"의류 - 정장"},{"name":"바푸리김밥(광주점)","tel":"031-799-7773","addr":"경기도 광주시 경안동 25-3번지 광주터미널이프라자 1층 4","category":"일반휴게음식 - 스넥"},{"name":"백양(HK누에사)","tel":"031-111-1111","addr":"경기도 광주시 경안동 25-3번지 이프라자 2층 278호","category":"의류 - 정장"},{"name":"베리달달","tel":"","addr":"경기도 광주시 경안동 25-3번지 광주종합터미널프라자 2층 201호","category":"의류 - 정장"},{"name":"봉봉아카데미의류","tel":"031-725-3537","addr":"경기도 광주시 경안동 25-3번지 이마트 2층 B5호","category":"신변잡화 - 액세서리"},{"name":"분식사관학교","tel":"","addr":"경기도 광주시 경안동 25-3번지 광주터미널푸드코트 137호","category":"일반휴게음식 - 스넥"},{"name":"블랑","tel":"","addr":"경기도 광주시 경안동 25-3번지 광주터미널이프라자 252호","category":"의류 - 정장"},{"name":"블랙샤베트","tel":"031-000-0000","addr":"경기도 광주시 경안동 25-3번지 광주터미널이프라자 2층 45호","category":"신변잡화 - 액세서리"},{"name":"블랙코코(Blackcoco)","tel":"","addr":"경기도 광주시 경안동 25-3번지 2층 104호,105호","category":"의류 - 정장"},{"name":"블럭아이큐","tel":"031-799-7575","addr":"경기도 광주시 경안동 25-3번지 광주터미널이프라자 2층 143호","category":"학원 - 기타 교육기관"},{"name":"블링블링","tel":"031-799-7758","addr":"경기도 광주시 경안동 25-3번지 광주터미널 2층 100호~101호","category":"의류 - 정장"},{"name":"비샵 (Bshop)","tel":"031-799-7712","addr":"경기도 광주시 경안동 25-3번지 광주터미널이프라자 2층 2124호","category":"의류 - 정장"},{"name":"빽다방 경기광주 이마트점","tel":"031-799-7710","addr":"경기도 광주시 경안동 25-3번지 광주터미널이프라자","category":"일반휴게음식 - 서양음식"},{"name":"사니사니 공구","tel":"031-799-7511","addr":"경기도 광주시 경안동 25-3번지 광주터미널이프라자2층 2층 2113호","category":"의류 - 아동의류"},{"name":"사라 (SARAH)","tel":"031-799-7755","addr":"경기도 광주시 경안동 25-3번지 광주터미널이프라자 2층 133호","category":"의류 - 기타의류"},{"name":"샌드베이지","tel":"","addr":"경기도 광주시 경안동 25-3번지 광주이마트 터미널프라자 2139호","category":"의류 - 정장"},{"name":"소담옥수수손칼국수","tel":"031-799-7887","addr":"경기도 광주시 경안동 25-3번지 광주터미널이프라자 12호","category":"일반휴게음식 - 일반한식"},{"name":"소현","tel":"031-111-1111","addr":"경기도 광주시 경안동 25-3번지 이마트 2층 90호","category":"신변잡화 - 신발"},{"name":"속옷상설할인매장","tel":"031-798-2950","addr":"경기도 광주시 경안동 25-3번지 광주터미널이프라자 2층 98호","category":"의류 - 정장"},{"name":"수입옷","tel":"031-764-0790","addr":"경기도 광주시 경안동 25-3번지 광주터미널이프라자 2층 76호","category":"의류 - 정장"},{"name":"스토리코코","tel":"070-7558-3368","addr":"경기도 광주시 경안동 25-3번지 광주터미널이프라자 2층 29호","category":"의류 - 정장"},{"name":"스피드텔레콤","tel":"031-799-7790","addr":"경기도 광주시 경안동 25-3번지 광주터미널이프라자 1층 6호","category":"사무통신 - 통신기기"},{"name":"시루","tel":"031-1588-9268","addr":"경기도 광주시 경안동 25-3번지 광주터미널이프라자 115호","category":"음료식품 - 제과점"},{"name":"신데렐라","tel":"031-763-0432","addr":"경기도 광주시 경안동 25-3번지 광주터미널이프라자 253호","category":"신변잡화 - 액세서리"},{"name":"신참떡볶이","tel":"031-799-7699","addr":"경기도 광주시 경안동 25-3번지 광주터미널이프라자 107호","category":"일반휴게음식 - 스넥"},{"name":"아기자기 (AgiJagi)","tel":"","addr":"경기도 광주시 경안동 25-3번지 광주터미널이프라자 2118호","category":"의류 - 아동의류"},{"name":"아이랑","tel":"031-799-7858","addr":"경기도 광주시 경안동 25-3번지 광주터미널이프라자 2층 132호","category":"의류 - 아동의류"},{"name":"아트퀸","tel":"031-798-6117","addr":"경기도 광주시 경안동 25-3번지","category":"의류 - 내의판매"},{"name":"애니","tel":"031-799-7920","addr":"경기도 광주시 경안동 25-3번지 광주터미널이프라자 2층 57호","category":"의류 - 정장"},{"name":"앤","tel":"031-701-7184","addr":"경기도 광주시 경안동 25-3번지 광주터미널이프라자 2층 254호","category":"의류 - 정장"},{"name":"에꼴리에","tel":"031-799-7883","addr":"경기도 광주시 경안동 25-3번지 광주터미널이프라자 2층 44호","category":"의류 - 아동의류"},{"name":"에스앤지2","tel":"031-799-7958","addr":"경기도 광주시 경안동 25-3번지 2층","category":"의류 - 정장"},{"name":"여기닭꼬치","tel":"031-762-7014","addr":"경기도 광주시 경안동 25-3번지 광주터미널이프라자 1층 136호","category":"일반휴게음식 - 일반한식"},{"name":"연안식당","tel":"031-769-0218","addr":"경기도 광주시 경안동 25-3번지 150,151호","category":"일반휴게음식 - 일반한식"},{"name":"영미사랑","tel":"031-768-1080","addr":"경기도 광주시 경안동 25-3번지 광주터미널이프라2134","category":"신변잡화 - 액세서리"},{"name":"오늘도 돈까스","tel":"031-799-7711","addr":"경기도 광주시 경안동 25-3번지 광두터미널푸드코트 1층 26호","category":"일반휴게음식 - 서양음식"},{"name":"오랜지(액세서리)","tel":"070-4177-7804","addr":"경기도 광주시 경안동 25-3번지 광주터미널이프라자 E프라자 2층 2118호","category":"신변잡화 - 액세서리"},{"name":"오레레베베","tel":"070-4768-4118","addr":"경기도 광주시 경안동 25-3번지 광주종합터미널 2층 3호","category":"의류 - 아동의류"},{"name":"오시날개","tel":"031-799-7703","addr":"경기도 광주시 경안동 25-3 광주터미널2층 65","category":"의류 - 정장"},{"name":"올리브","tel":"","addr":"경기도 광주시 경안동 25-3번지 광주터미널이프라자 2층 140호","category":"의류 - 정장"},{"name":"올리브","tel":"031-799-7665","addr":"경기도 광주시 경안동 25-3번지 광주터미널이프라자 2층 56호","category":"의류 - 정장"},{"name":"옷장달빛","tel":"031-111-1111","addr":"경기도 광주시 경안동 25-3번지 광주종합터미널 291호","category":"의류 - 정장"},{"name":"요기","tel":"031-799-7910","addr":"경기도 광주시 경안동 25-3번지 광주터미널 1층 132호","category":"일반휴게음식 - 스넥"},{"name":"요나언니","tel":"031-799-7664","addr":"경기도 광주시 경안동 25-3번지 광주터미널이프라자 264호","category":"의류 - 정장"},{"name":"요나언니2","tel":"031-799-7765","addr":"경기도 광주시 경안동 25-3번지 광주터미널이프라자 65호","category":"의류 - 정장"},{"name":"요술쟁이","tel":"031-799-7653","addr":"경기도 광주시 경안동 25-3번지 광주터미널이프라자 2층 83,84호","category":"의류 - 정장"},{"name":"원터치슈즈","tel":"031-799-7620","addr":"경기도 광주시 경안동 25-3번지 광주터미널이프라자 2층2","category":"레져용품 - 스포츠·레져용품"},{"name":"유니프랜드경기광주점","tel":"031-797-0711","addr":"경기도 광주시 경안동 25-3번지 광주터미널이프라자 2층 5호","category":"의류 - 정장"},{"name":"유어마이엔젤","tel":"070-8930-6785","addr":"경기도 광주시 경안동 25-3번지 광주터미널이프라자","category":"의류 - 정장"},{"name":"이너프마켓","tel":"031-799-7583","addr":"경기도 광주시 경안동 25-3번지 이프라자 2층 114호","category":"의류 - 정장"},{"name":"이랜드쥬니어","tel":"031-799-7898","addr":"경기도 광주시 경안동 25-3번지 광주터미널이프라자 2층 69호 70호","category":"의류 - 정장"},{"name":"이레","tel":"031-799-7731","addr":"경기도 광주시 경안동 25-3번지 광주터미널이프라자 2층 40호 41호","category":"의류 - 정장"},{"name":"장독대 E마트점","tel":"031-799-7766","addr":"경기도 광주시 경안동 25-3번지 1층","category":"음료식품 - 기타음료식품"},{"name":"전주 오가네 비빔밥","tel":"031-799-7711","addr":"경기도 광주시 경안동 25-3번지 광주종합터미널 1층 131호","category":"일반휴게음식 - 일반한식"},{"name":"찰스팩토리","tel":"031-000-0000","addr":"경기도 광주시 경안동 25-3번지 광주터미널이프라자 219호","category":"의류 - 아동의류"},{"name":"캥거루통상","tel":"031-799-7717","addr":"경기도 광주시 경안동 25-3번지 광주터미널 2층 126호","category":"레져용품 - 스포츠·레져용품"},{"name":"코카","tel":"031-799-7877","addr":"경기도 광주시 경안동 25-3 광주터미널2층 66호-67호","category":"의류 - 정장"},{"name":"코코","tel":"","addr":"경기도 광주시 경안동 25-3번지 광주터미널이프라자 213호","category":"의류 - 정장"},{"name":"퀸","tel":"031-797-0711","addr":"경기도 광주시 경안동 25-3번지 광주터미널이프라자 281호","category":"의류 - 정장"},{"name":"크린토피아","tel":"031-799-7775","addr":"경기도 광주시 경안동 25-3번지 광주터미널이프라자 2층 42호","category":"수리서비스 - 세탁소"},{"name":"키즈스토리","tel":"070-4219-0063","addr":"경기도 광주시 경안동 25-3번지 광주터미널이프라자 2층 2117호","category":"의류 - 아동의류"},{"name":"키즈스토리","tel":"031-799-7849","addr":"경기도 광주시 경안동 25-3번지 광주터미널이프라자 2층 90호","category":"의류 - 아동의류"},{"name":"키즈트리","tel":"031-764-0432","addr":"경기도 광주시 경안동 25-3번지 광주터미널이프라자 2층 27호","category":"의류 - 아동의류"},{"name":"타임","tel":"031-764-0790","addr":"경기도 광주시 경안동 25-3번지 광주터미널이프라자 2층 75호","category":"의류 - 정장"},{"name":"타코비","tel":"031-000-0000","addr":"경기도 광주시 경안동 25-3번지 광주터미널이프라자 1층 135호","category":"일반휴게음식 - 일식·회집"},{"name":"파리바게트(경기광주터미널점)","tel":"031-799-7891","addr":"경기도 광주시 경안동 25-3번지 광주터미널이프라자 141호","category":"음료식품 - 제과점"},{"name":"파파이스/주식회사 오노르떼","tel":"031-799-7724","addr":"경기도 광주시 경안동 25-3번지 116호,117호,118호","category":"일반휴게음식 - 서양음식"},{"name":"판다","tel":"031-799-7711","addr":"경기도 광주시 경안동 25-3번지 광주터미널이프라자 128호","category":"일반휴게음식 - 중국식"},{"name":"패밀리룩","tel":"","addr":"경기도 광주시 경안동 25-3번지 이프라자 외1필지 광주터미널이프라자 2층 2104호","category":"의류 - 정장"},{"name":"패션의명품","tel":"031-799-7557","addr":"경기도 광주시 경안동 25-3번지","category":"의류 - 스포츠의류"},{"name":"피오나","tel":"031-000-0000","addr":"경기도 광주시 경안동 25-3번지 광주터미널이프라자 2층 68호","category":"의류 - 정장"},{"name":"하이 신","tel":"031-799-7947","addr":"경기도 광주시 경안동 25-3번지 광주터미널이프라자 246호","category":"의류 - 기타의류"},{"name":"한일금속","tel":"070-7018-5392","addr":"경기도 광주시 경안동 25-3번지 광주터미널이프라자 2층 142호","category":"건축자재 - 기타건축자재"},{"name":"황가면옥","tel":"070-8955-9084","addr":"경기도 광주시 경안동 25-3번지 광주터미널이프라자 127호","category":"일반휴게음식 - 일반한식"}]},{"lat":"37.41331185","long":"127.2536136","items":[{"name":"GS25경안안길점","tel":"","addr":"경기도 광주시 경안동 95-4번지","category":"유통업 영리 - 상품권전문판매"},{"name":"GS25경안안길점","tel":"","addr":"경기도 광주시 경안동 95-4번지","category":"유통업 영리 - 편 의 점"},{"name":"보금자리 커튼","tel":"031-762-0267","addr":"경기도 광주시 경안동 95-4번지 1층","category":"직물 - 카페트,커튼,천막,지물"}]},{"lat":"37.41272183","long":"127.2556675","items":[{"name":"GS25광주경안점","tel":"","addr":"경기도 광주시 경안동 80-10번지 1층","category":"유통업 영리 - 상품권전문판매"},{"name":"GS25광주경안점","tel":"","addr":"경기도 광주시 경안동 80-10번지 1층","category":"유통업 영리 - 편 의 점"},{"name":"에스멘토학원","tel":"031-766-1109","addr":"경기도 광주시 경안동 80-10번지 2층","category":"학원 - 보습학원"},{"name":"헤어토트","tel":"031-765-8894","addr":"경기도 광주시 경안동 80-10번지","category":"보건위생 - 미용원"}]},{"lat":"37.41122259","long":"127.2573342","items":[{"name":"GS25광주중앙로점","tel":"","addr":"경기도 광주시 경안동 71-20 1층","category":"유통업 영리 - 편 의 점"},{"name":"GS25광주중앙로점","tel":"","addr":"경기도 광주시 경안동 71-20 1층","category":"유통업 영리 - 상품권전문판매"},{"name":"나르지오 워킹화 광주점","tel":"031-761-3727","addr":"경기도 광주시 경안동 71-20번지 1층","category":"신변잡화 - 신발"},{"name":"남흥스포츠","tel":"031-797-0711","addr":"경기도 광주시 경안동 71-20번지","category":"레져용품 - 스포츠·레져용품"},{"name":"법무사양형식사무소","tel":"02-3493-8478","addr":"경기도 광주시 경안동 71-20번지","category":"용역 서비스 - 법률회계서비스(개인)"},{"name":"연스튜디오","tel":"031-761-2754","addr":"경기도 광주시 경안동 71-20번지","category":"광학제품 - 사진관"}]},{"lat":"37.4133891","long":"127.2554212","items":[{"name":"H Blanc.(에이치블랑)","tel":"070-4258-2499","addr":"경기도 광주시 경안동 80-2번지 2층","category":"신변잡화 - 기타잡화"}]},{"lat":"37.41244789","long":"127.2573609","items":[{"name":"HYD메디칼","tel":"","addr":"경기도 광주시 경안동 67-29번지","category":"보건위생 - 의료용품"}]},{"lat":"37.41147197","long":"127.2544773","items":[{"name":"JHCP(준혁식품)","tel":"031-797-0711","addr":"경기도 광주시 경안동 84-9번지 1층","category":"건강식품 - 기타건강식품"}]},{"lat":"37.41241537","long":"127.2557229","items":[{"name":"JINJIN(진진)","tel":"031-797-0711","addr":"경기도 광주시 경안동 73-5번지 1층 105호","category":"의류 - 정장"},{"name":"Style Y(스타일 Y)","tel":"031-766-1321","addr":"경기도 광주시 경안동 73-5번지 73-5, 101호","category":"보건위생 - 미용원"},{"name":"늘솜가죽공방","tel":"","addr":"경기도 광주시 경안동 73-5번지","category":"의류 - 기타의류"},{"name":"스시야","tel":"031-764-3236","addr":"경기도 광주시 경안동 73-5번지 1층 103호","category":"일반휴게음식 - 일식·회집"},{"name":"카페휴가","tel":"","addr":"경기도 광주시 경안동 73-5번지","category":"일반휴게음식 - 서양음식"},{"name":"현미와누룽지","tel":"031-763-9013","addr":"경기도 광주시 경안동 73-5번지","category":"음료식품 - 기타음료식품"}]},{"lat":"37.4105031","long":"127.2567218","items":[{"name":"JS유통과자나라","tel":"031-769-1729","addr":"경기도 광주시 경안동 51-4번지","category":"음료식품 - 기타음료식품"},{"name":"삼성영어수학여우광주학원","tel":"031-768-9927","addr":"경기도 광주시 경안동 51-4번지 2층","category":"학원 - 보습학원"},{"name":"샌드그립 경기광주경안점","tel":"031-1899-3272","addr":"경기도 광주시 경안동 51-4번지 1층","category":"일반휴게음식 - 서양음식"},{"name":"안경창고싸군 경기광주점","tel":"031-699-0070","addr":"경기도 광주시 경안동 51-4번지","category":"보건위생 - 안경"},{"name":"좋은날","tel":"031-761-0645","addr":"경기도 광주시 경안동 51-4번지","category":"의류 - 정장"},{"name":"청춘 takoyaki","tel":"","addr":"경기도 광주시 경안동 51-4번지","category":"일반휴게음식 - 일반한식"},{"name":"티 샵","tel":"","addr":"경기도 광주시 경안동 51-4번지 1층","category":"의류 - 정장"},{"name":"한빛나노의료기","tel":"031-763-4190","addr":"경기도 광주시 경안동 51-4번지","category":"보건위생 - 의료용품"},{"name":"행복사우나","tel":"031-762-2933","addr":"경기도 광주시 경안동 51-4번지 지층","category":"보건위생 - 사우나"}]},{"lat":"37.4117495","long":"127.255314","items":[{"name":"JUVINA","tel":"031-798-1832","addr":"경기도 광주시 경안동 72-61번지","category":"의류 - 정장"},{"name":"공기놀이 스킨스쿠버","tel":"031-798-1832","addr":"경기도 광주시 경안동 72-61번지 1층","category":"레저업소 - 기타레져업소"},{"name":"왕짱구<중식>","tel":"031-769-8879","addr":"경기도 광주시 경안동 72-61번지","category":"일반휴게음식 - 중국식"},{"name":"왕짱구분식","tel":"070-9144-8877","addr":"경기도 광주시 경안동 72-61번지 1층","category":"일반휴게음식 - 스넥"}]},{"lat":"37.41125497","long":"127.2590286","items":[{"name":"J노래연습장","tel":"","addr":"경기도 광주시 경안동 19-8번지 정석빌딩 가동 2층","category":"레저업소 - 노 래 방"},{"name":"광주탁구교실","tel":"031-762-1314","addr":"경기도 광주시 경안동 19-8번지 정석빌딩 나동 2층","category":"레저업소 - 기타레져업소"},{"name":"달","tel":"031-769-0972","addr":"경기도 광주시 경안동 19-8번지 2층","category":"일반휴게음식 - 주점"},{"name":"달봉감자","tel":"031-762-2290","addr":"경기도 광주시 경안동 19-8번지","category":"일반휴게음식 - 주점"},{"name":"박준뷰티샵","tel":"031-763-3387","addr":"경기도 광주시 경안동 19-8번지","category":"보건위생 - 미용원"},{"name":"블루페페(경기광주점)","tel":"031-768-9953","addr":"경기도 광주시 경안동 19-8번지","category":"의류 - 스포츠의류"},{"name":"세븐일레븐경기광주참조은점","tel":"031-1577-0711","addr":"경기도 광주시 경안동 19-8번지 정석빌딩 나동 1층","category":"유통업 영리 - 편 의 점"},{"name":"인앤아웃","tel":"031-768-7799","addr":"경기도 광주시 경안동 19-8번지 정석빌딩 1층 나","category":"일반휴게음식 - 서양음식"},{"name":"토반전통가","tel":"031-766-5056","addr":"경기도 광주시 경안동 19-8번지","category":"일반휴게음식 - 서양음식"},{"name":"황건주세무회계사무소","tel":"031-764-9500","addr":"경기도 광주시 경안동 19-8번지 정석빌딩 303호","category":"용역 서비스 - 법률회계서비스(개인)"}]},{"lat":"37.41138872","long":"127.2596729","items":[{"name":"K2경기광주점","tel":"031-761-6547","addr":"경기도 광주시 경안동 17-6번지","category":"레져용품 - 스포츠·레져용품"},{"name":"강마을유황오리주물럭","tel":"031-768-7976","addr":"경기도 광주시 경안동 17-6번지","category":"일반휴게음식 - 일반한식"},{"name":"그린조이 경안점","tel":"031-769-7108","addr":"경기도 광주시 경안동 17-6 1층103,104호","category":"의류 - 정장"},{"name":"다솜산후조리원","tel":"031-798-7373","addr":"경기도 광주시 경안동 17-6번지","category":"기타의료기관 - 산후조리원"},{"name":"대동농기계","tel":"031-764-0026","addr":"경기도 광주시 경안동 17-6번지","category":"농업 - 농기계"},{"name":"도로시헤어","tel":"031-765-1660","addr":"경기도 광주시 경안동 17-6번지","category":"보건위생 - 미용원"},{"name":"디즈니경안점","tel":"031-761-8545","addr":"경기도 광주시 경안동 17-6번지","category":"의류 - 스포츠의류"},{"name":"디즈니골프 경안점","tel":"","addr":"경기도 광주시 경안동 17-6번지 1층 104호","category":"의류 - 스포츠의류"}]},{"lat":"37.41347842","long":"127.255783","items":[{"name":"MARYJIN FIower","tel":"031-8028-0404","addr":"경기도 광주시 경안동 77-13번지","category":"문화.취미 - 화원"},{"name":"MARYJIN Flower","tel":"031-8028-0404","addr":"경기도 광주시 경안동 77-13번지","category":"문화.취미 - 화원"},{"name":"주문진횟집","tel":"031-764-7117","addr":"경기도 광주시 경안동 77-13번지 1층","category":"일반휴게음식 - 일식·회집"},{"name":"하이플러스","tel":"031-000-0000","addr":"경기도 광주시 경안동 77-13번지 지층","category":"보건위생 - 화장품"},{"name":"하이플러스","tel":"031-761-0714","addr":"경기도 광주시 경안동 77-13번지","category":"회원제형태 - 레져업소"}]},{"lat":"37.4088907","long":"127.2565356","items":[{"name":"MacGyver Interior","tel":"031-761-4412","addr":"경기도 광주시 경안동 37-11번지 1층","category":"건축자재 - 인테리어전문"}]},{"lat":"37.41239483","long":"127.2568976","items":[{"name":"Mr.블루","tel":"031-763-0908","addr":"경기도 광주시 경안동 73-20번지 1층","category":"보건위생 - 미용원"},{"name":"미스터보쌈&닭찜광주점","tel":"031-762-5379","addr":"경기도 광주시 경안동 73-20번지","category":"일반휴게음식 - 일반한식"},{"name":"세무사김경일사무소","tel":"031-761-0830","addr":"경기도 광주시 경안동 73-20번지","category":"용역 서비스 - 법률회계서비스(개인)"},{"name":"요거프레소","tel":"","addr":"경기도 광주시 경안동 73-20번지 1층","category":"일반휴게음식 - 서양음식"},{"name":"조남혁내과의원","tel":"031-761-7801","addr":"경기도 광주시 경안동 73-20번지","category":"의원 - 의원"}]},{"lat":"37.41339412","long":"127.2530604","items":[{"name":"M네일","tel":"061-353-6990","addr":"경기도 광주시 경안동 91-9번지 대광빌라 1층","category":"보건위생 - 피부미용실"},{"name":"광주표구화랑","tel":"031-761-9804","addr":"경기도 광주시 경안동 91-9번지","category":"문화.취미 - 화방·표구점"},{"name":"맛있는피자치킨","tel":"031-761-7482","addr":"경기도 광주시 경안동 91-9번지 대광빌딩 101호","category":"일반휴게음식 - 서양음식"},{"name":"샵붙임머리","tel":"","addr":"경기도 광주시 경안동 91-9번지 대광빌딩 103호","category":"보건위생 - 미용재료"},{"name":"스타컴","tel":"031-798-5556","addr":"경기도 광주시 경안동 91-9번지","category":"사무통신 - 컴퓨터"},{"name":"오핀(OPIN)","tel":"031-797-0711","addr":"경기도 광주시 경안동 91-9번지 대광빌딩 105호","category":"의류 - 정장"},{"name":"이루헤어","tel":"031-765-9076","addr":"경기도 광주시 경안동 91-9번지 104호","category":"보건위생 - 미용원"},{"name":"코디라이프","tel":"","addr":"경기도 광주시 경안동 91-9번지 대광빌딩 105호","category":"보건위생 - 화장품"},{"name":"해태포차","tel":"","addr":"경기도 광주시 경안동 91-9번지 대광빌딩 1층 2호","category":"일반휴게음식 - 주점"},{"name":"희수푸드","tel":"031-766-2533","addr":"경기도 광주시 경안동 91-9번지 대광빌딩 1층","category":"일반휴게음식 - 일반한식"}]},{"lat":"37.41033401","long":"127.2599178","items":[{"name":"Nail #B","tel":"031-767-8224","addr":"경기도 광주시 경안동 21-1번지 3층","category":"보건위생 - 피부미용실"},{"name":"다께야","tel":"031-764-5571","addr":"경기도 광주시 경안동 21-1번지 1층","category":"일반휴게음식 - 주점"},{"name":"뷰티샵비","tel":"031-767-8224","addr":"경기도 광주시 경안동 21-1번지 3층","category":"보건위생 - 피부미용실"},{"name":"비너스","tel":"031-797-9033","addr":"경기도 광주시 경안동 21-1번지 2층","category":"일반휴게음식 - 주점"}]},{"lat":"37.41003332","long":"127.2573075","items":[{"name":"O라이브","tel":"031-764-3383","addr":"경기도 광주시 경안동 52-3번지","category":"일반휴게음식 - 주점"},{"name":"깡통","tel":"031-1111-1111","addr":"경기도 광주시 경안동 52-3번지 1층","category":"의류 - 정장"},{"name":"도문강양꼬치","tel":"031-797-6336","addr":"경기도 광주시 경안동 52-3번지 2층","category":"일반휴게음식 - 중국식"},{"name":"포니","tel":"","addr":"경기도 광주시 경안동 52-3번지 1층","category":"신변잡화 - 기타잡화"}]},{"lat":"37.40956222","long":"127.2585032","items":[{"name":"PLACE (플레이스)","tel":"031-762-4768","addr":"경기도 광주시 경안동 30-3번지 2층 202호","category":"일반휴게음식 - 주점"},{"name":"늘푸른연세치과","tel":"031-766-7884","addr":"경기도 광주시 경안동 30-3번지","category":"의원 - 치과의원"},{"name":"로얄노래연습장","tel":"031-765-5127","addr":"경기도 광주시 경안동 30-3번지 401호","category":"레저업소 - 노 래 방"},{"name":"보니토(BONITO)","tel":"031-761-8869","addr":"경기도 광주시 경안동 30-3번지 로얄펠리스 1층 105호","category":"의류 - 정장"},{"name":"성모내과정형외과","tel":"031-769-2119","addr":"경기도 광주시 경안동 30-3번지 로얄팰리스빌딩 301호","category":"의원 - 의원"},{"name":"아이쥐휘트니스(I.G Fitness)","tel":"031-762-2738","addr":"경기도 광주시 경안동 30-3번지 7층","category":"레저업소 - 헬스클럽"},{"name":"에스에스(SS)당구클럽","tel":"","addr":"경기도 광주시 경안동 30-3번지 6층 601,602호","category":"레저업소 - 당 구 장"},{"name":"오티콘보청기경기광주점","tel":"031-763-5790","addr":"경기도 광주시 경안동 30-3번지 로얄펠리스 201-2호","category":"보건위생 - 의료용품"},{"name":"우리돈네","tel":"031-797-3000","addr":"경기도 광주시 경안동 30-3번지 2층 201호","category":"일반휴게음식 - 일반한식"}]},{"lat":"37.41030661","long":"127.2600871","items":[{"name":"Salonde이봄(살롱드이봄)","tel":"031-766-4449","addr":"경기도 광주시 경안동 21-7번지","category":"보건위생 - 미용원"},{"name":"무한포차","tel":"031-798-7818","addr":"경기도 광주시 경안동 21-7번지 4층","category":"일반휴게음식 - 주점"}]},{"lat":"37.41458824","long":"127.2507826","items":[{"name":"TG미용실","tel":"031-766-2340","addr":"경기도 광주시 경안동 433-14번지","category":"보건위생 - 미용원"},{"name":"라인디자인프린트샵","tel":"031-761-2700","addr":"경기도 광주시 경안동 433-14번지","category":"건축자재 - 인테리어전문"},{"name":"모찌모찌브레드 광주경안점","tel":"070-8616-2223","addr":"경기도 광주시 경안동 433-14번지 1층","category":"음료식품 - 제과점"},{"name":"성우음악학원","tel":"031-761-5538","addr":"경기도 광주시 경안동 433-14번지 2층 일부","category":"학원 - 예·체능계학원"},{"name":"썬벨침대","tel":"031-761-0377","addr":"경기도 광주시 경안동 433-14번지","category":"가구 - 일반가구"},{"name":"이박소아청소년과의원","tel":"031-761-2246","addr":"경기도 광주시 경안동 433-14번지 2층","category":"의원 - 의원"},{"name":"자애약국","tel":"031-765-4076","addr":"경기도 광주시 경안동 433-14번지","category":"약국 - 약국"},{"name":"차세대정보통신","tel":"031-767-6010","addr":"경기도 광주시 경안동 433-14번지","category":"사무통신 - 통신기기"},{"name":"포유탄벌점","tel":"031-761-3305","addr":"경기도 광주시 경안동 433-14번지","category":"유통업 영리 - 편 의 점"},{"name":"필라테스 리앤","tel":"031-798-7574","addr":"경기도 광주시 경안동 433-14번지 3층","category":"레저업소 - 헬스클럽"},{"name":"행복한미소치과","tel":"031-763-7528","addr":"경기도 광주시 경안동 433-14번지","category":"의원 - 치과의원"}]},{"lat":"37.40975359","long":"127.2574986","items":[{"name":"TNTN (티앤티앤)","tel":"070-5447-7370","addr":"경기도 광주시 경안동 35-5번지","category":"신변잡화 - 기타잡화"},{"name":"계경목장","tel":"031-765-9235","addr":"경기도 광주시 경안동 35-5번지 2층","category":"일반휴게음식 - 일반한식"},{"name":"사이버노래연습장","tel":"031-761-5221","addr":"경기도 광주시 경안동 35-5번지 지층","category":"레저업소 - 노 래 방"},{"name":"수화장품","tel":"031-763-8260","addr":"경기도 광주시 경안동 35-5번지","category":"보건위생 - 화장품"},{"name":"아르페지오","tel":"031-764-3850","addr":"경기도 광주시 경안동 35-5번지","category":"직물 - 침구·수예점"},{"name":"화이트 화장품","tel":"031-763-8260","addr":"경기도 광주시 경안동 35-5번지","category":"보건위생 - 화장품"}]},{"lat":"37.41122406","long":"127.2608132","items":[{"name":"The 예강 휘트니스","tel":"031-763-4874","addr":"경기도 광주시 경안동 14-16번지 3층","category":"레저업소 - 헬스클럽"},{"name":"조국태권도장","tel":"031-767-1311","addr":"경기도 광주시 경안동 14-16번지 2층","category":"학원 - 예·체능계학원"}]},{"lat":"37.41133492","long":"127.2553691","items":[{"name":"T샵","tel":"031-797-8986","addr":"경기도 광주시 경안동 48-16번지","category":"의류 - 정장"},{"name":"아바타","tel":"031-000-0000","addr":"경기도 광주시 경안동 48-16번지 1층","category":"보건위생 - 미용원"}]},{"lat":"37.41089413","long":"127.2592307","items":[{"name":"VENITH","tel":"031-767-3213","addr":"경기도 광주시 경안동 20-2번지 가동 104호","category":"의류 - 정장"},{"name":"광창빌딩","tel":"031-761-2139","addr":"경기도 광주시 경안동 20-2번지","category":"자동차정비 유지 - 주차장"},{"name":"꼬지사께 (경안점)","tel":"031-761-0145","addr":"경기도 광주시 경안동 20-2번지","category":"일반휴게음식 - 주점"},{"name":"다깡 경안점","tel":"","addr":"경기도 광주시 경안동 20-2번지 1층","category":"일반휴게음식 - 일반한식"},{"name":"더맛있는족발보쌈","tel":"031-000-0000","addr":"경기도 광주시 경안동 20-2번지 1동","category":"일반휴게음식 - 일반한식"},{"name":"불난맥주(경안점)","tel":"031-763-6549","addr":"경기도 광주시 경안동 20-2번지 102호","category":"일반휴게음식 - 일반한식"},{"name":"술로","tel":"","addr":"경기도 광주시 경안동 20-2번지 2동 2층","category":"일반휴게음식 - 주점"},{"name":"스왈로","tel":"031-797-8778","addr":"경기도 광주시 경안동 20-2번지","category":"일반휴게음식 - 주점"},{"name":"오늘와인한잔 광주터미널점","tel":"031-529-9149","addr":"경기도 광주시 경안동 20-2번지 1동 1층 1호","category":"일반휴게음식 - 칵테일바"},{"name":"오늘통닭1977","tel":"031-762-5977","addr":"경기도 광주시 경안동 20-2번지 1동","category":"일반휴게음식 - 스넥"}]},{"lat":"37.41438734","long":"127.2520584","items":[{"name":"Vanessa's it (바네사스잇)","tel":"031-798-7942","addr":"경기도 광주시 경안동 265-11번지 은혜빌딩 2층","category":"일반휴게음식 - 서양음식"},{"name":"가마솥순대국","tel":"031-767-8488","addr":"경기도 광주시 경안동 265-11번지 은혜빌딩 1층 101호","category":"일반휴게음식 - 일반한식"},{"name":"그랜드24시동물병원","tel":"031-766-1475","addr":"경기도 광주시 경안동 265-11번지","category":"기타의료기관 - 동물병원"},{"name":"메카보습학원","tel":"031-768-0515","addr":"경기도 광주시 경안동 265-11번지 4층","category":"학원 - 보습학원"},{"name":"메카어학원","tel":"031-768-0515","addr":"경기도 광주시 경안동 265-11번지 3층.5층","category":"학원 - 보습학원"}]},{"lat":"37.41006142","long":"127.2568107","items":[{"name":"WE#","tel":"070-8987-0001","addr":"경기도 광주시 경안동 35-1번지","category":"보건위생 - 미용원"},{"name":"마리웨일마카롱(경기광주경안점)","tel":"031-798-7770","addr":"경기도 광주시 경안동 35-1번지 1층","category":"일반휴게음식 - 서양음식"},{"name":"몽키","tel":"","addr":"경기도 광주시 경안동 35-1번지","category":"의류 - 정장"},{"name":"씨엡립앙코르","tel":"031-000-0000","addr":"경기도 광주시 경안동 35-1번지","category":"일반휴게음식 - 일반한식"},{"name":"한국체대 태권스쿨 3관","tel":"031-762-8885","addr":"경기도 광주시 경안동 35-1번지","category":"학원 - 예·체능계학원"}]},{"lat":"37.40647845","long":"127.2511399","items":[{"name":"YOU헤어연출","tel":"031-798-2455","addr":"경기도 광주시 경안동 189-14번지","category":"보건위생 - 미용원"},{"name":"서울호프","tel":"031-000-0000","addr":"경기도 광주시 경안동 189-14번지","category":"일반휴게음식 - 주점"},{"name":"우리푸드","tel":"031-798-8108","addr":"경기도 광주시 경안동 189-14번지","category":"음료식품 - 정육점"},{"name":"주식회사 스마트렌트카","tel":"031-262-9792","addr":"경기도 광주시 경안동 189-14번지","category":"여행 - 렌터카"}]},{"lat":"37.41078347","long":"127.2562257","items":[{"name":"antibes312","tel":"070-8732-0312","addr":"경기도 광주시 경안동 50-8번지","category":"가구 - 일반가구"},{"name":"맛있게즐겁게먹고가는분식","tel":"031-762-2723","addr":"경기도 광주시 경안동 50-8번지","category":"일반휴게음식 - 스넥"},{"name":"북문로떡볶이","tel":"031-699-8710","addr":"경기도 광주시 경안동 50-8번지","category":"일반휴게음식 - 일반한식"},{"name":"이삭토스트","tel":"031-766-2727","addr":"경기도 광주시 경안동 50-8번지 1층","category":"일반휴게음식 - 서양음식"}]},{"lat":"37.41022323","long":"127.2569806","items":[{"name":"e착한학생복경기/광주점","tel":"031-761-1977","addr":"경기도 광주시 경안동 52-5번지","category":"의류 - 단체복"},{"name":"광주악기사","tel":"031-768-8271","addr":"경기도 광주시 경안동 52-5번지 2층","category":"레져용품 - 악기점"},{"name":"꿈그린","tel":"031-767-6989","addr":"경기도 광주시 경안동 52-5번지","category":"용역 서비스 - 종합용역"},{"name":"리가쏠까내가쏠까","tel":"070-8150-4558","addr":"경기도 광주시 경안동 52-5번지","category":"일반휴게음식 - 주점"},{"name":"명동건강원","tel":"031-765-2555","addr":"경기도 광주시 경안동 52-5번지","category":"건강식품 - 기타건강식품"},{"name":"요거홀릭","tel":"031-765-7256","addr":"경기도 광주시 경안동 52-5번지","category":"일반휴게음식 - 스넥"},{"name":"인앤업학습코칭학원","tel":"031-762-0306","addr":"경기도 광주시 경안동 52-5번지 3층","category":"학원 - 보습학원"}]},{"lat":"37.41245056","long":"127.2561184","items":[{"name":"olens","tel":"031-762-6578","addr":"경기도 광주시 경안동 73-29번지","category":"일반휴게음식 - 서양음식"},{"name":"곽두리쪽갈비","tel":"031-768-6952","addr":"경기도 광주시 경안동 73-29번지","category":"일반휴게음식 - 일반한식"},{"name":"발리노래방","tel":"031-765-3737","addr":"경기도 광주시 경안동 73-29번지","category":"레저업소 - 노 래 방"},{"name":"배우까페","tel":"031-1111-1111","addr":"경기도 광주시 경안동 73-29번지 지하1층","category":"일반휴게음식 - 서양음식"},{"name":"싹쓸이 삼겹살","tel":"031-768-0305","addr":"경기도 광주시 경안동 73-29번지","category":"일반휴게음식 - 일반한식"},{"name":"탑당구클럽","tel":"031-797-9033","addr":"경기도 광주시 경안동 73-29번지 2층 201호","category":"레저업소 - 당 구 장"}]},{"lat":"37.40958167","long":"127.2578369","items":[{"name":"가고파","tel":"031-761-2508","addr":"경기도 광주시 경안동 31-6번지 외2필지 조은빌딩","category":"신변잡화 - 기타잡화"},{"name":"고은종합화장품","tel":"031-761-7242","addr":"경기도 광주시 경안동 31-6번지","category":"보건위생 - 화장품"},{"name":"미래치과","tel":"031-767-2804","addr":"경기도 광주시 경안동 31-6번지 조은빌딩 2층","category":"의원 - 치과의원"},{"name":"사라","tel":"031-762-4333","addr":"경기도 광주시 경안동 31-6번지 조은빌딩 102호","category":"의류 - 정장"},{"name":"연세피부비뇨기과의원","tel":"031-763-7523","addr":"경기도 광주시 경안동 31-6번지","category":"의원 - 의원"},{"name":"올포유경기광주","tel":"031-767-5253","addr":"경기도 광주시 경안동 31-6번지 2필지","category":"레져용품 - 스포츠·레져용품"},{"name":"풍기인견","tel":"031-764-5583","addr":"경기도 광주시 경안동 31-6번지 조은빌딩","category":"의류 - 정장"}]},{"lat":"37.41278044","long":"127.2618916","items":[{"name":"가나 유통","tel":"070-7166-7189","addr":"경기도 광주시 경안동 418-14번지","category":"유통업 영리 - 기타유통업"}]},{"lat":"37.4087271","long":"127.2486737","items":[{"name":"가나종합인테리어","tel":"070-7561-0403","addr":"경기도 광주시 경안동 209-3번지 장신빌딩","category":"건축자재 - 인테리어전문"},{"name":"야식매니아","tel":"031-764-0606","addr":"경기도 광주시 경안동 209-3번지 장신빌딩 1층","category":"일반휴게음식 - 일반한식"}]},{"lat":"37.41422027","long":"127.2500924","items":[{"name":"가림헤어스토리","tel":"031-798-4438","addr":"경기도 광주시 경안동 434-3번지","category":"보건위생 - 미용원"},{"name":"알토랑만두","tel":"031-767-9967","addr":"경기도 광주시 경안동 434-3번지","category":"일반휴게음식 - 스넥"}]},{"lat":"37.41374839","long":"127.2516948","items":[{"name":"가마솥손두부","tel":"031-761-4911","addr":"경기도 광주시 경안동 124-10번지","category":"일반휴게음식 - 일반한식"}]},{"lat":"37.41175652","long":"127.2520045","items":[{"name":"가온조명인테리어","tel":"031-767-7773","addr":"경기도 광주시 경안동 154-2번지 1층 101호","category":"건축자재 - 조명기구"}]},{"lat":"37.41233451","long":"127.2513626","items":[{"name":"가온지물포","tel":"031-767-7773","addr":"경기도 광주시 경안동 153-1번지","category":"직물 - 카페트,커튼,천막,지물"},{"name":"크린토피아 광주경안동점","tel":"031-699-2532","addr":"경기도 광주시 경안동 153-1번지 정한빌딩 1층 102호","category":"수리서비스 - 세탁소"},{"name":"헤어체인지","tel":"031-769-4382","addr":"경기도 광주시 경안동 153-1번지 정한빌딩","category":"보건위생 - 미용원"}]},{"lat":"37.40947438","long":"127.2574525","items":[{"name":"가위손 헤어갤러리","tel":"031-762-8609","addr":"경기도 광주시 경안동 34-1번지 2층","category":"보건위생 - 미용원"},{"name":"엉터리생고기 (경안점)","tel":"031-761-8874","addr":"경기도 광주시 경안동 34-1번지 2층","category":"일반휴게음식 - 일반한식"},{"name":"크로커다일레이디 경기광주점","tel":"031-769-4855","addr":"경기도 광주시 경안동 34-1번지","category":"레져용품 - 스포츠·레져용품"}]},{"lat":"37.41449977","long":"127.2500029","items":[{"name":"가현택스세무회계","tel":"031-768-3000","addr":"경기도 광주시 경안동 434번지 5층","category":"용역 서비스 - 법률회계서비스(개인)"},{"name":"두두PC방","tel":"","addr":"경기도 광주시 경안동 434번지 2층","category":"레저업소 - 기타레져업소"},{"name":"생각의정원학원","tel":"031-761-0599","addr":"경기도 광주시 경안동 434번지 3층","category":"학원 - 보습학원"},{"name":"이산학원","tel":"031-765-9969","addr":"경기도 광주시 경안동 434번지 4층","category":"학원 - 보습학원"},{"name":"쭈꾸미아저씨","tel":"031-762-6077","addr":"경기도 광주시 경안동 434번지","category":"일반휴게음식 - 일반한식"}]},{"lat":"37.4100845","long":"127.2501691","items":[{"name":"간지COMPANY","tel":"","addr":"경기도 광주시 경안동 157-32번지 1층 105호","category":"레져용품 - 스포츠·레져용품"}]},{"lat":"37.40886779","long":"127.2588058","items":[{"name":"감성커피","tel":"","addr":"경기도 광주시 경안동 28-11번지 1층","category":"일반휴게음식 - 서양음식"},{"name":"광주참한의원","tel":"031-767-7510","addr":"경기도 광주시 경안동 28-11번지","category":"의원 - 한의원"},{"name":"광창지물","tel":"031-761-3958","addr":"경기도 광주시 경안동 28-11번지","category":"직물 - 카페트,커튼,천막,지물"},{"name":"네일델르","tel":"","addr":"경기도 광주시 경안동 28-11번지 2층","category":"보건위생 - 피부미용실"},{"name":"미소야","tel":"031-798-3337","addr":"경기도 광주시 경안동 28-11번지","category":"일반휴게음식 - 스넥"},{"name":"에이마켓","tel":"031-767-4050","addr":"경기도 광주시 경안동 28-11번지","category":"의류 - 정장"},{"name":"예송김밥사랑","tel":"031-761-8326","addr":"경기도 광주시 경안동 28-11번지","category":"일반휴게음식 - 일반한식"},{"name":"천상텔레콤","tel":"031-797-1018","addr":"경기도 광주시 경안동 28-11번지","category":"사무통신 - 통신기기"}]},{"lat":"37.40985984","long":"127.2583687","items":[{"name":"감초당약국","tel":"031-761-2840","addr":"경기도 광주시 경안동 57-12번지","category":"약국 - 약국"},{"name":"보금장","tel":"031-765-4455","addr":"경기도 광주시 경안동 57-12번지","category":"신변잡화 - 귀금속"},{"name":"서울다방","tel":"031-761-8222","addr":"경기도 광주시 경안동 57-12번지","category":"일반휴게음식 - 서양음식"},{"name":"월드컵복권방","tel":"031-797-1515","addr":"경기도 광주시 경안동 57-12번지","category":"음료식품 - 기타음료식품"}]},{"lat":"37.4090054","long":"127.2576655","items":[{"name":"강경젓갈","tel":"031-765-4733","addr":"경기도 광주시 경안동 33-24번지 1층","category":"음료식품 - 농·축·수산품"},{"name":"김가네왕족발","tel":"031-767-5014","addr":"경기도 광주시 경안동 33-24번지 1층","category":"일반휴게음식 - 일반한식"},{"name":"명동타운","tel":"031-769-5492","addr":"경기도 광주시 경안동 33-24번지","category":"의류 - 정장"},{"name":"주은아시안마트","tel":"","addr":"경기도 광주시 경안동 33-24번지 1층","category":"유통업 영리 - 슈퍼마켓"},{"name":"천보당","tel":"031-761-3233","addr":"경기도 광주시 경안동 33-24번지","category":"신변잡화 - 시계"}]},{"lat":"37.41197498","long":"127.2593925","items":[{"name":"강금옥(여세신)","tel":"031-761-5991","addr":"경기도 광주시 경안동 12-13번지 2층","category":"보건위생 - 기타대인서비스"},{"name":"강대미여세신","tel":"031-761-5600","addr":"경기도 광주시 경안동 12-13번지","category":"보건위생 - 기타대인서비스"},{"name":"강점숙(여세신)","tel":"031-761-5991","addr":"경기도 광주시 경안동 12-13번지","category":"보건위생 - 기타대인서비스"},{"name":"사우나 여탕 세신","tel":"031-111-1111","addr":"경기도 광주시 경안동 12-13번지 2층","category":"보건위생 - 기타대인서비스"},{"name":"스파세신","tel":"031-761-5600","addr":"경기도 광주시 경안동 12-13번지","category":"보건위생 - 기타대인서비스"},{"name":"아로마스파","tel":"031-797-9033","addr":"경기도 광주시 경안동 12-13번지 황금스파랜드 4층","category":"신변잡화 - 기타잡화"},{"name":"여(세신) 임정미","tel":"031-761-5600","addr":"경기도 광주시 경안동 12-13번지","category":"보건위생 - 기타대인서비스"},{"name":"여세신이명숙","tel":"","addr":"경기도 광주시 경안동 12-13번지 2층","category":"보건위생 - 기타대인서비스"},{"name":"여세신하미례","tel":"","addr":"경기도 광주시 경안동 12-13번지","category":"보건위생 - 기타대인서비스"},{"name":"전영숙(여세신)","tel":"031-761-5991","addr":"경기도 광주시 경안동 12-13번지","category":"보건위생 - 기타대인서비스"},{"name":"정옥분(여세신)","tel":"031-761-5991","addr":"경기도 광주시 경안동 12-13번지 2층","category":"보건위생 - 기타대인서비스"},{"name":"황금분(여세신)","tel":"031-761-5991","addr":"경기도 광주시 경안동 12-13번지 황금스파랜드 2층","category":"보건위생 - 기타대인서비스"},{"name":"황금상회","tel":"031-761-5600","addr":"경기도 광주시 경안동 12-13번지 황금스파랜드 내 5층 남탕매점","category":"유통업 영리 - 기타유통업"},{"name":"황금스팀 손 세차장","tel":"031-761-5600","addr":"경기도 광주시 경안동 12-13번지","category":"자동차정비 유지 - 세차장"},{"name":"황금스파랜드2층여탕매점","tel":"031-762-9460","addr":"경기도 광주시 경안동 12-13번지 2층","category":"음료식품 - 기타음료식품"},{"name":"황금이발관","tel":"031-761-5600","addr":"경기도 광주시 경안동 12-13번지","category":"보건위생 - 이용원"}]},{"lat":"37.41255671","long":"127.2528091","items":[{"name":"강남지물포","tel":"031-766-5049","addr":"경기도 광주시 경안동 148-4번지","category":"직물 - 카페트,커튼,천막,지물"},{"name":"씨유광주문화로점","tel":"080-080-3663","addr":"경기도 광주시 경안동 148-4번지","category":"유통업 영리 - 편 의 점"}]},{"lat":"37.40872458","long":"127.2583649","items":[{"name":"강남통증의학과","tel":"031-761-9370","addr":"경기도 광주시 경안동 32-3 2층 201호,202호","category":"의원 - 의원"},{"name":"경희바른한의원","tel":"031-764-5562","addr":"경기도 광주시 경안동 32-3번지 클리닉빌딩 402호","category":"의원 - 한의원"},{"name":"경희한의원","tel":"031-761-6805","addr":"경기도 광주시 경안동 32-3번지 메디프렌드 401동 402호","category":"의원 - 한의원"},{"name":"누리소아과","tel":"031-767-6640","addr":"경기도 광주시 경안동 32-3번지","category":"의원 - 의원"},{"name":"루비치과의원","tel":"031-798-2979","addr":"경기도 광주시 경안동 32-3번지 클리닉빌딩 6층","category":"의원 - 치과의원"},{"name":"엄피부과의원","tel":"031-767-0849","addr":"경기도 광주시 경안동 32-3번지 메디프렌드 302호","category":"의원 - 의원"},{"name":"톡스 앤","tel":"031-764-0819","addr":"경기도 광주시 경안동 32-3번지 클리닉빌딩 4층 403호","category":"의원 - 의원"},{"name":"행복한약국","tel":"031-765-5250","addr":"경기도 광주시 경안동 32-3번지 외1필지1층 101호","category":"약국 - 약국"}]},{"lat":"37.41266716","long":"127.2559497","items":[{"name":"강산미트축산물","tel":"031-764-4969","addr":"경기도 광주시 경안동 79-12번지","category":"음료식품 - 정육점"},{"name":"디어마이네일","tel":"","addr":"경기도 광주시 경안동 79-12번지 1층 4호","category":"보건위생 - 피부미용실"},{"name":"무갑산장뇌삼","tel":"031-766-8462","addr":"경기도 광주시 경안동 79-12번지","category":"건강식품 - 인삼제품"},{"name":"미라클헤어","tel":"031-761-1831","addr":"경기도 광주시 경안동 79-12번지","category":"보건위생 - 미용원"},{"name":"코코호도","tel":"031-767-5563","addr":"경기도 광주시 경안동 79-12번지","category":"음료식품 - 제과점"}]},{"lat":"37.41325386","long":"127.2596454","items":[{"name":"강스포츠","tel":"031-797-1711","addr":"경기도 광주시 경안동 446-30번지","category":"레져용품 - 스포츠·레져용품"},{"name":"뉴광주농협주유소","tel":"031-763-9800","addr":"경기도 광주시 경안동 446-30번지","category":"연료판매점 - 주유소"},{"name":"법무사조대현사무소","tel":"031-764-5315","addr":"경기도 광주시 경안동 446-30번지 4층","category":"용역 서비스 - 법률회계서비스(개인)"},{"name":"평화광택","tel":"031-768-8799","addr":"경기도 광주시 경안동 446-30번지","category":"자동차정비 유지 - 카인테리어"}]},{"lat":"37.40822199","long":"127.2574483","items":[{"name":"강원뻥튀기","tel":"","addr":"경기도 광주시 경안동 33-26번지 1층","category":"음료식품 - 기타음료식품"},{"name":"승이패션","tel":"031-762-3277","addr":"경기도 광주시 경안동 33-26번지","category":"의류 - 정장"},{"name":"제일농약사","tel":"031-761-2541","addr":"경기도 광주시 경안동 33-26번지","category":"농업 - 비료,사료,종자"},{"name":"타이아시아레스토랑","tel":"031-768-7747","addr":"경기도 광주시 경안동 33-26번지","category":"일반휴게음식 - 서양음식"}]},{"lat":"37.41233816","long":"127.2622515","items":[{"name":"강은주 테라피","tel":"031-762-1030","addr":"경기도 광주시 경안동 418-6번지 202호","category":"보건위생 - 피부미용실"}]},{"lat":"37.40997245","long":"127.2562795","items":[{"name":"강찬태권도장","tel":"031-766-6626","addr":"경기도 광주시 경안동 36-58번지 2층","category":"학원 - 예·체능계학원"}]},{"lat":"37.4142238","long":"127.2527017","items":[{"name":"개똥아 미용하자","tel":"031-767-7588","addr":"경기도 광주시 경안동 96-6번지 1층","category":"문화.취미 - 애완동물"},{"name":"개털깎아주는엄마","tel":"031-767-7588","addr":"경기도 광주시 경안동 96-6번지 1층","category":"문화.취미 - 애완동물"},{"name":"모란애견백화점","tel":"031-767-7588","addr":"경기도 광주시 경안동 96-6번지","category":"문화.취미 - 애완동물"}]},{"lat":"37.41069755","long":"127.2584732","items":[{"name":"갤러리휴","tel":"031-768-0098","addr":"경기도 광주시 경안동 58-16번지 3층","category":"보건위생 - 미용재료"}]},{"lat":"37.40986069","long":"127.2579734","items":[{"name":"갤럭시노래연습장","tel":"070-8953-8938","addr":"경기도 광주시 경안동 56-6번지 지층","category":"레저업소 - 노 래 방"},{"name":"광주건강생활","tel":"031-764-8007","addr":"경기도 광주시 경안동 56-6번지 2층","category":"건강식품 - 기타건강식품"},{"name":"동양당","tel":"031-761-5253","addr":"경기도 광주시 경안동 56-6번지","category":"신변잡화 - 시계"},{"name":"소망치과의원","tel":"031-762-8848","addr":"경기도 광주시 경안동 56-6번지","category":"의원 - 치과의원"},{"name":"얼짱몸짱","tel":"031-766-1811","addr":"경기도 광주시 경안동 56-6번지 광신빌딩 3층","category":"회원제형태 - 기타4"},{"name":"피에이티(PAT)","tel":"031-763-1100","addr":"경기도 광주시 경안동 56-6번지","category":"의류 - 정장"},{"name":"황제아로마","tel":"031-764-0386","addr":"경기도 광주시 경안동 56-6번지 3층","category":"보건위생 - 피부미용실"}]},{"lat":"37.4073943","long":"127.2483418","items":[{"name":"건국우유 경안보급소","tel":"031-763-5355","addr":"경기도 광주시 경안동 201-1번지","category":"음료식품 - 기타음료식품"},{"name":"덕향","tel":"031-762-5589","addr":"경기도 광주시 경안동 201-1번지 1층","category":"일반휴게음식 - 중국식"}]},{"lat":"37.41453238","long":"127.2516409","items":[{"name":"겔러리","tel":"031-768-9689","addr":"경기도 광주시 경안동 123-5번지","category":"회원제형태 - 기타4"},{"name":"뉴에스코트","tel":"031-765-1800","addr":"경기도 광주시 경안동 123-5번지","category":"자동차정비 유지 - 자동차부품"},{"name":"한국미싱","tel":"031-743-4784","addr":"경기도 광주시 경안동 123-5번지","category":"기타 - 기계공구"}]},{"lat":"37.40933446","long":"127.2554754","items":[{"name":"경기광주드론교육원","tel":"031-761-2848","addr":"경기도 광주시 경안동 36-46번지 지하1층","category":"학원 - 기능학원"},{"name":"꼬치랜드","tel":"070-4922-1261","addr":"경기도 광주시 경안동 36-46번지","category":"일반휴게음식 - 일반한식"},{"name":"너나들이","tel":"031-798-2929","addr":"경기도 광주시 경안동 36-46(경안로42번길7)","category":"일반휴게음식 - 스넥"},{"name":"한송산업","tel":"031-767-2380","addr":"경기도 광주시 경안동 36-46번지 2호","category":"가구 - 기타가구"},{"name":"해오름","tel":"031-769-9590","addr":"경기도 광주시 경안동 36-46 1층","category":"주방용구 - 정수기"}]},{"lat":"37.41008606","long":"127.2579177","items":[{"name":"경기광주비너스 솔브","tel":"031-797-5522","addr":"경기도 광주시 경안동 54-6번지","category":"의류 - 내의판매"},{"name":"에뛰드하우스 경기광주점","tel":"031-761-0611","addr":"경기도 광주시 경안동 54-6번지 1층","category":"보건위생 - 화장품"}]},{"lat":"37.41108898","long":"127.2607788","items":[{"name":"경동보일러광주대리점","tel":"031-763-8363","addr":"경기도 광주시 경안동 14-17번지","category":"건축자재 - 보일러·펌프·샷시"},{"name":"광주기독교서점","tel":"031-762-1505","addr":"경기도 광주시 경안동 14-17번지","category":"서적문구 - 일반서적"},{"name":"이든테크","tel":"031-798-2200","addr":"경기도 광주시 경안동 14-17번지 1층 101호","category":"전기제품 - 가전제품"}]},{"lat":"37.41289267","long":"127.2600056","items":[{"name":"경복종합공사","tel":"031-767-0008","addr":"경기도 광주시 경안동 9-8번지","category":"건축자재 - 인테리어전문"},{"name":"우리집","tel":"031-798-6657","addr":"경기도 광주시 경안동 9-8번지","category":"일반휴게음식 - 일반한식"}]},{"lat":"37.41350552","long":"127.251502","items":[{"name":"경안 전자담배","tel":"031-766-5482","addr":"경기도 광주시 경안동 125-10번지","category":"기타 - 기타 전문점"},{"name":"북세통치킨호프","tel":"","addr":"경기도 광주시 경안동 125-10번지 1층","category":"일반휴게음식 - 주점"},{"name":"열쇠박사119","tel":"031-798-1346","addr":"경기도 광주시 경안동 125-10번지","category":"수리서비스 - 기타수리서비스"},{"name":"일심자동차공업사","tel":"031-765-5900","addr":"경기도 광주시 경안동 125-10번지","category":"자동차정비 유지 - 자동차정비"}]},{"lat":"37.40897203","long":"127.2564229","items":[{"name":"경안가구","tel":"031-761-2249","addr":"경기도 광주시 경안동 36-64번지","category":"가구 - 일반가구"}]},{"lat":"37.41055859","long":"127.2560555","items":[{"name":"경안건강원","tel":"031-769-8150","addr":"경기도 광주시 경안동 49-5번지","category":"음료식품 - 기타음료식품"},{"name":"구제아울렛","tel":"031-000-0000","addr":"경기도 광주시 경안동 49-5번지 1층","category":"의류 - 기타의류"}]},{"lat":"37.41225584","long":"127.2544799","items":[{"name":"경안고추기름방앗간","tel":"031-761-5418","addr":"경기도 광주시 경안동 83-10번지","category":"음료식품 - 기타음료식품"},{"name":"낭만기타","tel":"031-000-0000","addr":"경기도 광주시 경안동 83-10번지 2층","category":"일반휴게음식 - 일반한식"},{"name":"소주와호프의만남","tel":"031-761-6484","addr":"경기도 광주시 경안동 83-10번지 18","category":"일반휴게음식 - 주점"},{"name":"정목생고기","tel":"031-768-9050","addr":"경기도 광주시 경안동 83-10번지","category":"일반휴게음식 - 일반한식"}]},{"lat":"37.41403318","long":"127.2533675","items":[{"name":"경안광고기획","tel":"031-761-0001","addr":"경기도 광주시 경안동 96-2번지","category":"건축자재 - 인테리어전문"},{"name":"다림건축사무소","tel":"031-766-1188","addr":"경기도 광주시 경안동 96-2번지","category":"용역 서비스 - 법률회계서비스(개인)"},{"name":"한용희세무회계사무소","tel":"031-763-0001","addr":"경기도 광주시 경안동 96-2번지 2층","category":"용역 서비스 - 법률회계서비스(개인)"}]},{"lat":"37.41008934","long":"127.2563928","items":[{"name":"경안김밥","tel":"031-763-2388","addr":"경기도 광주시 경안동 36-75번지 1층 102호","category":"일반휴게음식 - 스넥"},{"name":"누나헤어","tel":"031-761-8468","addr":"경기도 광주시 경안동 36-75번지 104호","category":"보건위생 - 미용원"},{"name":"더스킨","tel":"031-761-4377","addr":"경기도 광주시 경안동 36-75번지 203호","category":"보건위생 - 화장품"},{"name":"맘마몽","tel":"031-769-5307","addr":"경기도 광주시 경안동 36-75번지 104호","category":"농업 - 비료,사료,종자"},{"name":"쉬크","tel":"031-766-2589","addr":"경기도 광주시 경안동 36-75번지 1층 103호","category":"레져용품 - 스포츠·레져용품"},{"name":"아모스광주점","tel":"031-762-2798","addr":"경기도 광주시 경안동 36-75번지 101호","category":"보건위생 - 미용재료"}]},{"lat":"37.40952774","long":"127.2577802","items":[{"name":"경안농수산물","tel":"031-765-3334","addr":"경기도 광주시 경안동 260-4번지","category":"음료식품 - 농·축·수산품"}]},{"lat":"37.40925064","long":"127.2567514","items":[{"name":"경안동","tel":"02-1234-1234","addr":"경기도 광주시 경안동 36-18번지 1층","category":"일반휴게음식 - 일반한식"}]},{"lat":"37.40874885","long":"127.2596413","items":[{"name":"경안동밥집","tel":"031-762-4728","addr":"경기도 광주시 경안동 28-5번지 1층","category":"일반휴게음식 - 일반한식"},{"name":"에이스인테리어보수공사","tel":"031-766-0472","addr":"경기도 광주시 경안동 28-5번지","category":"건축자재 - 인테리어전문"}]},{"lat":"37.40867381","long":"127.2568399","items":[{"name":"경안떡집","tel":"031-761-7018","addr":"경기도 광주시 경안동 33-42번지","category":"음료식품 - 제과점"},{"name":"돈&밥","tel":"031-769-7664","addr":"경기도 광주시 경안동 33-42번지","category":"일반휴게음식 - 일반한식"}]},{"lat":"37.40805615","long":"127.2549515","items":[{"name":"경안마을 협동조합","tel":"031-111-1111","addr":"경기도 광주시 경안동 38-142번지 2층","category":"음료식품 - 기타음료식품"}]},{"lat":"37.41333874","long":"127.2578948","items":[{"name":"경안세차장","tel":"031-761-5438","addr":"경기도 광주시 경안동 442-4번지","category":"자동차정비 유지 - 세차장"},{"name":"한성주차장","tel":"031-797-1577","addr":"경기도 광주시 경안동 442-4번지","category":"자동차정비 유지 - 주차장"}]},{"lat":"37.40852923","long":"127.2570314","items":[{"name":"경안식품","tel":"031-761-0342","addr":"경기도 광주시 경안동 33-19번지","category":"음료식품 - 기타음료식품"},{"name":"골든애플","tel":"031-761-2035","addr":"경기도 광주시 경안동 33-19번지","category":"신변잡화 - 액세서리"},{"name":"더피아노(The Piano)음악교습소","tel":"031-763-7972","addr":"경기도 광주시 경안동 33-19번지 2층","category":"학원 - 예·체능계학원"},{"name":"에피소드","tel":"031-766-3807","addr":"경기도 광주시 경안동 33-19번지","category":"의류 - 정장"},{"name":"커피트리","tel":"031-769-8819","addr":"경기도 광주시 경안동 33-19번지 1층","category":"일반휴게음식 - 서양음식"}]},{"lat":"37.41028196","long":"127.2505312","items":[{"name":"경안열린학원","tel":"031-761-0826","addr":"경기도 광주시 경안동 157-8번지 계명빌딩 202호","category":"회원제형태 - 학원"},{"name":"그린나래","tel":"031-797-7085","addr":"경기도 광주시 경안동 157-8번지 계명빌딩 1층 103호","category":"의류 - 정장"},{"name":"모유사랑","tel":"031-000-0000","addr":"경기도 광주시 경안동 157-8번지 계명빌딩","category":"보건위생 - 기타대인서비스"},{"name":"봄날","tel":"","addr":"경기도 광주시 경안동 157-8번지 계명빌딩 106호","category":"일반휴게음식 - 서양음식"},{"name":"푸르지오세탁","tel":"031-765-1997","addr":"경기도 광주시 경안동 157-8번지 계명빌딩 1층","category":"수리서비스 - 세탁소"},{"name":"한양피아노교습소","tel":"031-762-2784","addr":"경기도 광주시 경안동 157-8번지 계명빌딩 201호","category":"학원 - 예·체능계학원"}]},{"lat":"37.4089193","long":"127.2599807","items":[{"name":"경안주차장","tel":"031-765-4904","addr":"경기도 광주시 경안동 20-136","category":"자동차정비 유지 - 주차장"}]},{"lat":"37.40814161","long":"127.2571204","items":[{"name":"경안지물뉴경안부동산","tel":"031-761-5444","addr":"경기도 광주시 경안동 33-46번지","category":"전기제품 - 가전제품"}]},{"lat":"37.41406062","long":"127.2531756","items":[{"name":"경안현대모터스","tel":"031-767-8204","addr":"경기도 광주시 경안동 97-9번지","category":"자동차정비 유지 - 자동차정비"},{"name":"대우스포츠","tel":"031-769-7466","addr":"경기도 광주시 경안동 97-9번지 2층","category":"레져용품 - 스포츠·레져용품"}]},{"lat":"37.41289045","long":"127.2568654","items":[{"name":"경일통닭","tel":"031-761-4136","addr":"경기도 광주시 경안동 75-13번지","category":"일반휴게음식 - 일반한식"}]},{"lat":"37.41011339","long":"127.2577822","items":[{"name":"경희행림한의원","tel":"031-768-8050","addr":"경기도 광주시 경안동 54-9번지 외2필지","category":"의원 - 한의원"},{"name":"로이드","tel":"031-798-5358","addr":"경기도 광주시 경안동 54-9번지 1층","category":"신변잡화 - 시계"},{"name":"샤트렌 경기 광주점","tel":"031-764-9217","addr":"경기도 광주시 경안동 54-9번지","category":"의류 - 정장"}]},{"lat":"37.40730805","long":"127.2508151","items":[{"name":"고기나라","tel":"031-766-8984","addr":"경기도 광주시 경안동 189-2번지 3호","category":"일반휴게음식 - 일반한식"},{"name":"고기나라정육","tel":"031-766-8984","addr":"경기도 광주시 경안동 189-2번지","category":"음료식품 - 정육점"},{"name":"세탁종합병원","tel":"031-766-8980","addr":"경기도 광주시 경안동 189-2,3","category":"수리서비스 - 세탁소"}]},{"lat":"37.40944682","long":"127.2577009","items":[{"name":"고릴라포차","tel":"031-769-0577","addr":"경기도 광주시 경안동 33-2번지 1층","category":"일반휴게음식 - 일반한식"},{"name":"동해춘","tel":"031-761-2351","addr":"경기도 광주시 경안동 33-2번지","category":"일반휴게음식 - 중국식"},{"name":"한아름정육점","tel":"031-764-5997","addr":"경기도 광주시 경안동 33-2번지","category":"음료식품 - 정육점"}]},{"lat":"37.41144801","long":"127.2572559","items":[{"name":"고영식법무사사무소","tel":"031-765-0301","addr":"경기도 광주시 경안동 71-19번지","category":"용역 서비스 - 법률회계서비스(개인)"}]},{"lat":"37.40933197","long":"127.2566388","items":[{"name":"고창수산장어","tel":"031-766-3334","addr":"경기도 광주시 경안동 36-31번지","category":"일반휴게음식 - 일반한식"},{"name":"다겸헤어","tel":"031-767-7226","addr":"경기도 광주시 경안동 36-31번지 102호","category":"보건위생 - 미용원"},{"name":"닭갈비제작소 광주경안점","tel":"031-761-3962","addr":"경기도 광주시 경안동 36-31번지 2층","category":"일반휴게음식 - 일반한식"},{"name":"썸데이","tel":"031-764-3535","addr":"경기도 광주시 경안동 36-31번지 103호","category":"의류 - 정장"},{"name":"장터생삼겹산낙지","tel":"031-765-5647","addr":"경기도 광주시 경안동 36-31번지","category":"일반휴게음식 - 일반한식"}]},{"lat":"37.4129147","long":"127.2539512","items":[{"name":"곤 피씨 (GON PC)","tel":"","addr":"경기도 광주시 경안동 95-5번지 2층","category":"레저업소 - 기타레져업소"},{"name":"냉돈고","tel":"031-761-7617","addr":"경기도 광주시 경안동 95-5번지 1층 101호","category":"일반휴게음식 - 일반한식"},{"name":"여기서보세","tel":"","addr":"경기도 광주시 경안동 95-5번지 1층","category":"일반휴게음식 - 일반한식"},{"name":"짬뽕만","tel":"031-765-5077","addr":"경기도 광주시 경안동 95-5번지","category":"일반휴게음식 - 중국식"},{"name":"헤어홀릭","tel":"031-797-1235","addr":"경기도 광주시 경안동 95-5 (경안동, 103호)","category":"보건위생 - 미용원"}]},{"lat":"37.41014468","long":"127.2599736","items":[{"name":"골드쉘 광주점","tel":"031-736-3989","addr":"경기도 광주시 경안동 22번지 1층 105호","category":"신변잡화 - 귀금속"},{"name":"송월타올(광주점)","tel":"031-797-8340","addr":"경기도 광주시 경안동 22번지","category":"직물 - 옷감·직물"},{"name":"야채별미닭갈비","tel":"031-765-0192","addr":"경기도 광주시 경안동 22번지","category":"일반휴게음식 - 일반한식"},{"name":"쥬씨","tel":"070-4117-1028","addr":"경기도 광주시 경안동 22번지 101호","category":"일반휴게음식 - 서양음식"}]},{"lat":"37.41045053","long":"127.2602006","items":[{"name":"골드아트존","tel":"031-763-9487","addr":"경기도 광주시 경안동 21번지 1층","category":"신변잡화 - 귀금속"},{"name":"김상배세무회계사무소","tel":"031-797-3277","addr":"경기도 광주시 경안동 21번지 3층","category":"용역 서비스 - 법률회계서비스(개인)"},{"name":"스타킹 노래연습장","tel":"","addr":"경기도 광주시 경안동 21번지 지층","category":"레저업소 - 노 래 방"},{"name":"이마트24 광주경안대로점","tel":"","addr":"경기도 광주시 경안동 21번지","category":"유통업 영리 - 편 의 점"},{"name":"이마트24 광주경안대로점","tel":"031-764-8764","addr":"경기도 광주시 경안동 21번지","category":"유통업 영리 - 편 의 점"}]},{"lat":"37.41222376","long":"127.2568405","items":[{"name":"골드통신","tel":"031-762-1477","addr":"경기도 광주시 경안동 73-55번지 1층 103호","category":"사무통신 - 통신기기"},{"name":"쌀맛나는세상","tel":"031-797-4454","addr":"경기도 광주시 경안동 73-55번지 102호","category":"음료식품 - 농·축·수산품"},{"name":"프리카페","tel":"031-798-5092","addr":"경기도 광주시 경안동 73-55번지 2층","category":"일반휴게음식 - 일반한식"}]},{"lat":"37.40947282","long":"127.2581754","items":[{"name":"골든벨노래연습장","tel":"031-765-8305","addr":"경기도 광주시 경안동 31-7번지 2층","category":"레저업소 - 노 래 방"},{"name":"스낵스토리","tel":"","addr":"경기도 광주시 경안동 31-7번지 101호","category":"음료식품 - 기타음료식품"},{"name":"스낵스토리","tel":"031-111-1111","addr":"경기도 광주시 경안동 31-7번지 1층 101호","category":"음료식품 - 기타음료식품"}]},{"lat":"37.41233954","long":"127.2532489","items":[{"name":"골목길삼겹살","tel":"031-767-9420","addr":"경기도 광주시 경안동 86-9번지 정다운빌딩","category":"일반휴게음식 - 일반한식"},{"name":"썬카롱(suncaron)","tel":"031-797-2353","addr":"경기도 광주시 경안동 86-9번지 정다운빌딩","category":"음료식품 - 기타음료식품"},{"name":"용가리 당구장","tel":"031-8028-3546","addr":"경기도 광주시 경안동 86-9번지 정다운빌딩 2층","category":"레저업소 - 당 구 장"},{"name":"투다리","tel":"","addr":"경기도 광주시 경안동 86-9번지","category":"일반휴게음식 - 칵테일바"}]},{"lat":"37.43253217","long":"127.2610896","items":[{"name":"골프친구","tel":"031-763-5678","addr":"경기도 광주시 경안동 446-19번지 남성빌딩 3층","category":"레저업소 - 골프연습장"},{"name":"바른동물병원","tel":"031-762-8875","addr":"경기도 광주시 경안동 446-19번지 남성빌딩 1층","category":"기타의료기관 - 동물병원"},{"name":"아트밤 미술학원","tel":"031-764-9894","addr":"경기도 광주시 경안동 446-19번지 남성빌딩 3층","category":"학원 - 예·체능계학원"},{"name":"오르다코리아광주이천지사","tel":"031-766-2223","addr":"경기도 광주시 경안동 446-19번지 남성빌딩 5층","category":"회원제형태 - 학원"},{"name":"이든치매예방협회광주본부","tel":"031-798-9715","addr":"경기도 광주시 경안동 446-19번지 남성빌딩 5층","category":"학원 - 기능학원"}]},{"lat":"37.40900049","long":"127.2557566","items":[{"name":"곰미커피","tel":"031-762-3182","addr":"경기도 광주시 경안동 38-39번지","category":"일반휴게음식 - 서양음식"},{"name":"꾸언니","tel":"070-8108-2125","addr":"경기도 광주시 경안동 38-39번지 101호","category":"의류 - 정장"},{"name":"루루는포메","tel":"","addr":"경기도 광주시 경안동 38-39번지 1층 103호","category":"문화.취미 - 애완동물"},{"name":"시매쓰수학학원","tel":"031-769-4737","addr":"경기도 광주시 경안동 38-39번지 2층","category":"학원 - 보습학원"},{"name":"여기서 헤어","tel":"070-8285-9027","addr":"경기도 광주시 경안동 38-39번지 1층 101호","category":"보건위생 - 미용원"}]},{"lat":"37.41169712","long":"127.2587251","items":[{"name":"곱마을","tel":"031-765-3800","addr":"경기도 광주시 경안동 61-4번지 2층","category":"일반휴게음식 - 일반한식"},{"name":"더꾸밈","tel":"031-769-5431","addr":"경기도 광주시 경안동 61-4번지 성일빌딩 1층","category":"보건위생 - 미용원"},{"name":"라이또PC경안점","tel":"070-4059-1328","addr":"경기도 광주시 경안동 61-4번지 성일빌딩 3층","category":"레저업소 - 기타레져업소"},{"name":"산카이 (경안점)","tel":"031-797-4536","addr":"경기도 광주시 경안동 61-4번지 성일빌딩","category":"일반휴게음식 - 주점"},{"name":"수노래연습장","tel":"031-762-1158","addr":"경기도 광주시 경안동 61-4번지 성일빌딩 4층","category":"레저업소 - 노 래 방"}]},{"lat":"37.4101108","long":"127.2589795","items":[{"name":"곱창고광주경안점","tel":"031-764-5592","addr":"경기도 광주시 경안동 24-6번지","category":"일반휴게음식 - 일반한식"},{"name":"뉴발란스","tel":"031-762-9331","addr":"경기도 광주시 경안동 24-6번지 1층 2호","category":"레져용품 - 스포츠·레져용품"},{"name":"리얼피시(Real PC)","tel":"070-8871-0138","addr":"경기도 광주시 경안동 24-6번지 2층 2호","category":"레저업소 - 기타레져업소"},{"name":"신장곱창","tel":"031-764-4471","addr":"경기도 광주시 경안동 24-6번지","category":"일반휴게음식 - 일반한식"},{"name":"짬24시노래연습장","tel":"031-763-3334","addr":"경기도 광주시 경안동 24-6번지 2층","category":"레저업소 - 노 래 방"},{"name":"푸지막","tel":"031-768-9297","addr":"경기도 광주시 경안동 24-6번지 1층","category":"일반휴게음식 - 일반한식"}]},{"lat":"37.41016827","long":"127.2573984","items":[{"name":"곱창마을","tel":"031-769-2001","addr":"경기도 광주시 경안동 52-2번지","category":"일반휴게음식 - 일반한식"}]},{"lat":"37.41414535","long":"127.2514476","items":[{"name":"공감세무회계사무소","tel":"031-766-9011","addr":"경기도 광주시 경안동 440-7번지","category":"용역 서비스 - 법률회계서비스(개인)"},{"name":"삼송세무회계사무소","tel":"031-764-9949","addr":"경기도 광주시 경안동 440-7번지","category":"용역 서비스 - 법률회계서비스(개인)"},{"name":"상정세무회계","tel":"031-763-8188","addr":"경기도 광주시 경안동 440-7번지 2층","category":"용역 서비스 - 법률회계서비스(개인)"}]},{"lat":"37.41106147","long":"127.2568366","items":[{"name":"관계","tel":"","addr":"경기도 광주시 경안동 71-18번지 1층","category":"일반휴게음식 - 주점"},{"name":"농원수산","tel":"031-746-8005","addr":"경기도 광주시 경안동 71-18번지 농원농산","category":"음료식품 - 미곡상"},{"name":"왕대박골","tel":"031-765-2188","addr":"경기도 광주시 경안동 71-18번지","category":"일반휴게음식 - 일반한식"}]},{"lat":"37.41211751","long":"127.2517233","items":[{"name":"광주D.C마트","tel":"031-763-1452","addr":"경기도 광주시 경안동 153-2번지 외2필지","category":"신변잡화 - 기타잡화"},{"name":"글로리아","tel":"031-885-7458","addr":"경기도 광주시 경안동 153-2번지 2층","category":"일반휴게음식 - 서양음식"},{"name":"무쏘 광주경안","tel":"070-4178-0707","addr":"경기도 광주시 경안동 153-2번지 3층 302호","category":"일반휴게음식 - 서양음식"},{"name":"우면당","tel":"031-763-3763","addr":"경기도 광주시 경안동 153-2번지 일공이빌딩 2층","category":"일반휴게음식 - 일반한식"}]},{"lat":"37.40931064","long":"127.2581748","items":[{"name":"광주IT시스템","tel":"031-797-3366","addr":"경기도 광주시 경안동 31-13번지 1동 1층 103호","category":"사무통신 - 컴퓨터"},{"name":"두끼(광주경안점)","tel":"031-767-2771","addr":"경기도 광주시 경안동 31-13번지","category":"일반휴게음식 - 스넥"},{"name":"라원필라테스","tel":"031-763-5813","addr":"경기도 광주시 경안동 31-13번지","category":"레저업소 - 헬스클럽"},{"name":"성안장","tel":"031-761-0205","addr":"경기도 광주시 경안동 31-13번지","category":"숙박업 - 여관/기타숙박업"},{"name":"플랜에이치과의원","tel":"031-769-2880","addr":"경기도 광주시 경안동 31-13번지","category":"의원 - 치과의원"}]},{"lat":"37.41583637","long":"127.2570335","items":[{"name":"광주권투체육관","tel":"031-948-8152","addr":"경기도 광주시 경안동 74-18번지 삼보빌딩 4층","category":"학원 - 예·체능계학원"}]},{"lat":"37.40961554","long":"127.2588423","items":[{"name":"광주농민상회","tel":"031-761-2992","addr":"경기도 광주시 경안동 30-4번지","category":"농업 - 비료,사료,종자"},{"name":"광주아식스","tel":"031-797-9122","addr":"경기도 광주시 경안동 30-4번지 터미널상가","category":"레져용품 - 스포츠·레져용품"},{"name":"다채울라이프","tel":"031-798-7008","addr":"경기도 광주시 경안동 30-4번지 터미널빌딩 1층","category":"일반휴게음식 - 서양음식"},{"name":"라인핏 (경기광주지점)","tel":"031-767-4920","addr":"경기도 광주시 경안동 30-4번지 터미널빌딩","category":"의류 - 정장"},{"name":"올리비아 하슬러 경기광주점","tel":"031-766-3525","addr":"경기도 광주시 경안동 30-4번지","category":"의류 - 정장"},{"name":"육쌈냉면","tel":"031-768-6392","addr":"경기도 광주시 경안동 30-4번지 1층","category":"일반휴게음식 - 일반한식"},{"name":"일세대안경","tel":"031-767-9266","addr":"경기도 광주시 경안동 30-4번지","category":"보건위생 - 안경"},{"name":"장안과","tel":"031-763-6476","addr":"경기도 광주시 경안동 30-4번지","category":"의원 - 의원"},{"name":"티라미슈","tel":"","addr":"경기도 광주시 경안동 30-4번지 터미널빌딩","category":"의류 - 정장"},{"name":"헤어텐","tel":"031-762-8202","addr":"경기도 광주시 경안동 30-4번지 터미널빌딩 2층","category":"보건위생 - 미용원"}]},{"lat":"37.40875509","long":"127.2567498","items":[{"name":"광주농수산","tel":"031-764-6223","addr":"경기도 광주시 경안동 33-18번지 101호","category":"음료식품 - 농·축·수산품"},{"name":"아시아음식마트","tel":"","addr":"경기도 광주시 경안동 33-18번지 1층","category":"유통업 영리 - 슈퍼마켓"},{"name":"착한생선","tel":"031-764-6223","addr":"경기도 광주시 경안동 33-18번지 2층 201호","category":"음료식품 - 농·축·수산품"}]},{"lat":"37.41302633","long":"127.256527","items":[{"name":"광주농업협동조합","tel":"031-768-3600","addr":"경기도 광주시 경안동 74-4번지","category":"유통업 비영리 - 농,축협 직영매장"}]},{"lat":"37.40908679","long":"127.2533059","items":[{"name":"광주닭한마리","tel":"031-765-0067","addr":"경기도 광주시 경안동 167-21번지","category":"일반휴게음식 - 일반한식"},{"name":"꿀샘천일염두부전문","tel":"031-769-8688","addr":"경기도 광주시 경안동 167-21번지 1층","category":"일반휴게음식 - 일반한식"},{"name":"소라브루잉","tel":"070-4790-7422","addr":"경기도 광주시 경안동 167-21번지 1,층","category":"일반휴게음식 - 서양음식"},{"name":"태후사랑","tel":"031-797-1966","addr":"경기도 광주시 경안동 167-21번지 1층 102호","category":"보건위생 - 화장품"},{"name":"한우방정육점","tel":"031-767-6692","addr":"경기도 광주시 경안동 167-21번지","category":"음료식품 - 농·축·수산품"}]},{"lat":"37.41158667","long":"127.2556185","items":[{"name":"광주뚝배기","tel":"031-761-3500","addr":"경기도 광주시 경안동 72-21번지","category":"일반휴게음식 - 일반한식"},{"name":"베토벤음악학원","tel":"031-797-4235","addr":"경기도 광주시 경안동 72-21번지","category":"학원 - 예·체능계학원"},{"name":"엘리스터디보습학원","tel":"031-798-9498","addr":"경기도 광주시 경안동 72-21번지 2층","category":"학원 - 보습학원"},{"name":"자르갈란트","tel":"031-763-4116","addr":"경기도 광주시 경안동 72-21번지","category":"일반휴게음식 - 일반한식"},{"name":"지코바치킨","tel":"031-761-8258","addr":"경기도 광주시 경안동 72-21번지","category":"일반휴게음식 - 스넥"}]},{"lat":"37.40989559","long":"127.2585044","items":[{"name":"광주로엠","tel":"031-797-5288","addr":"경기도 광주시 경안동 57-5번지","category":"의류 - 정장"},{"name":"루시퍼피어싱","tel":"","addr":"경기도 광주시 경안동 57-5번지 1층 우측 103호","category":"신변잡화 - 액세서리"},{"name":"명성빌딩","tel":"031-2678-7789","addr":"경기도 광주시 경안동 57-5번지","category":"자동차정비 유지 - 주차장"},{"name":"명성쌍방울","tel":"031-765-0635","addr":"경기도 광주시 경안동 57-5번지","category":"의류 - 내의판매"},{"name":"베네","tel":"031-798-4100","addr":"경기도 광주시 경안동 57-5번지","category":"숙박업 - 여관/기타숙박업"},{"name":"사이카츠","tel":"031-763-5877","addr":"경기도 광주시 경안동 57-5번지","category":"일반휴게음식 - 일반한식"},{"name":"파스텔 노래연습장","tel":"031-767-3872","addr":"경기도 광주시 경안동 57-5번지 지층","category":"레저업소 - 노 래 방"}]},{"lat":"37.40891785","long":"127.2564792","items":[{"name":"광주만물","tel":"031-762-1083","addr":"경기도 광주시 경안동 36-65번지","category":"건축자재 - 목재·석재·철물"}]},{"lat":"37.40861057","long":"127.2569187","items":[{"name":"광주방앗간","tel":"031-767-5434","addr":"경기도 광주시 경안동 33-43번지","category":"음료식품 - 제과점"}]},{"lat":"37.41347879","long":"127.2556135","items":[{"name":"광주베리타스수학학원","tel":"031-797-2470","addr":"경기도 광주시 경안동 79-3번지 3층","category":"학원 - 보습학원"},{"name":"마이로봇컴퓨터학원","tel":"031-762-0708","addr":"경기도 광주시 경안동 79-3번지 6층","category":"학원 - 컴퓨터학원"},{"name":"옹고집숯불갈비","tel":"031-769-8272","addr":"경기도 광주시 경안동 79-3번지","category":"일반휴게음식 - 일반한식"},{"name":"한국창의과학연구소","tel":"031-762-0708","addr":"경기도 광주시 경안동 79-3번지 6층","category":"서적문구 - 기타서적문구"}]},{"lat":"37.41272743","long":"127.2530356","items":[{"name":"광주보신탕","tel":"031-768-9511","addr":"경기도 광주시 경안동 89번지","category":"일반휴게음식 - 일반한식"}]},{"lat":"37.41044847","long":"127.2527569","items":[{"name":"광주시립도서관구내식당","tel":"","addr":"경기도 광주시 경안동 161-24번지 지하1층","category":"일반휴게음식 - 일반한식"}]},{"lat":"37.41636427","long":"127.2502801","items":[{"name":"광주시보건소","tel":"031-760-2346","addr":"경기도 광주시 경안동 115번지","category":"기타의료기관 - 기타의료기관 및 기타"},{"name":"광주시보건소","tel":"031-760-2346","addr":"경기도 광주시 경안동 115번지","category":"자동차정비 유지 - 주차장"}]},{"lat":"37.4134752","long":"127.2572853","items":[{"name":"광주식당","tel":"031-764-2118","addr":"경기도 광주시 경안동 76-1","category":"일반휴게음식 - 일반한식"},{"name":"광주정육점","tel":"031-764-2118","addr":"경기도 광주시 경안동 76-1번지","category":"음료식품 - 정육점"},{"name":"중앙전파사","tel":"031-761-4858","addr":"경기도 광주시 경안동 76-1번지","category":"전기제품 - 가전제품"}]},{"lat":"37.41233406","long":"127.2600037","items":[{"name":"광주아모레","tel":"031-761-8023","addr":"경기도 광주시 경안동 9-29 이룸빌딩 3층","category":"보건위생 - 화장품"},{"name":"아모레","tel":"031-761-8023","addr":"경기도 광주시 경안동 9-29 이룸빌딩 3층","category":"보건위생 - 화장품"},{"name":"아모레 카운셀러","tel":"031-761-8023","addr":"경기도 광주시 경안동 9-29번지 이룸빌딩 3층","category":"보건위생 - 화장품"},{"name":"아모레광주특약점","tel":"031-761-8023","addr":"경기도 광주시 경안동 9-29 이룸빌딩 3층","category":"보건위생 - 화장품"},{"name":"아모레광주특약점","tel":"031-761-8023","addr":"경기도 광주시 경안동 9-29번지 이룸빌딩 4층","category":"보건위생 - 화장품"},{"name":"아모레광주특약점","tel":"031-761-8023","addr":"경기도 광주시 경안동 9-29번지 이룸빌딩 4층","category":"보건위생 - 화장품"},{"name":"아모레광주특약점","tel":"031-761-8023","addr":"경기도 광주시 경안동 9-29번지","category":"보건위생 - 화장품"},{"name":"아모레광주특약점","tel":"031-761-8023","addr":"경기도 광주시 경안동 9-29번지 이룸빌딩 3층 아모레화장품","category":"보건위생 - 화장품"},{"name":"아모레광주특약점","tel":"031-761-8023","addr":"경기도 광주시 경안동 9-29번지 이룬빌딩 3층","category":"보건위생 - 화장품"},{"name":"아모레카운셀러","tel":"031-761-8023","addr":"경기도 광주시 경안동 9-29번지","category":"보건위생 - 화장품"},{"name":"아모레카운셀러","tel":"031-761-8023","addr":"경기도 광주시 경안동 9-29번지 이룸빌딩 4층","category":"보건위생 - 화장품"},{"name":"아모레카운셀러","tel":"031-761-8023","addr":"경기도 광주시 경안동 9-29번지","category":"보건위생 - 화장품"},{"name":"아모레카운셀러","tel":"031-764-7223","addr":"경기도 광주시 경안동 9-29번지 이룸빌딩 4층","category":"보건위생 - 화장품"},{"name":"아모레카운셀러","tel":"031-761-8023","addr":"경기도 광주시 경안동 9-29 이룸빌딩 3층","category":"보건위생 - 화장품"},{"name":"아모레카운셀러","tel":"031-761-8023","addr":"경기도 광주시 경안동 9-29번지 이룸빌딩4F","category":"보건위생 - 화장품"},{"name":"아모레카운셀러","tel":"031-761-8023","addr":"경기도 광주시 경안동 9-29 이룸빌딩 3층","category":"보건위생 - 화장품"},{"name":"아모레카운셀러","tel":"031-761-8023","addr":"경기도 광주시 경안동 9-29번지 4층","category":"보건위생 - 화장품"},{"name":"아모레카운셀러","tel":"031-761-8023","addr":"경기도 광주시 경안동 9-29번지 이름빌딩 4층","category":"보건위생 - 화장품"},{"name":"아모레카운셀러","tel":"031-761-8023","addr":"경기도 광주시 경안동 9-29 이룸빌딩 3층","category":"보건위생 - 화장품"},{"name":"아모레카운셀러","tel":"031-765-1562","addr":"경기도 광주시 경안동 9-29번지 이룸빌딩 3층","category":"보건위생 - 화장품"},{"name":"아모레카운셀러","tel":"031-761-8023","addr":"경기도 광주시 경안동 9-29번지 이룸빌딩 4층","category":"보건위생 - 화장품"},{"name":"아모레카운셀러","tel":"031-764-7223","addr":"경기도 광주시 경안동 9-29번지 이룸빌딩","category":"보건위생 - 화장품"},{"name":"아모레카운셀러","tel":"031-764-7223","addr":"경기도 광주시 경안동 9-29번지 이룸빌딩 4층","category":"보건위생 - 화장품"},{"name":"아모레카운셀러","tel":"031-764-7223","addr":"경기도 광주시 경안동 9-29번지 이룸빌딩","category":"보건위생 - 화장품"},{"name":"아모레카운셀러","tel":"031-764-7223","addr":"경기도 광주시 경안동 9-29번지 이룸빌딩 3층","category":"보건위생 - 화장품"},{"name":"아모레카운셀러","tel":"031-764-7223","addr":"경기도 광주시 경안동 9-29번지 이룸빌딩 4층","category":"보건위생 - 화장품"},{"name":"아모레카운셀러","tel":"031-764-7223","addr":"경기도 광주시 경안동 9-29번지 이룸빌딩 4층","category":"보건위생 - 화장품"},{"name":"아모레카운셀러","tel":"031-764-7223","addr":"경기도 광주시 경안동 9-29번지 이룸빌딩 3층","category":"보건위생 - 화장품"},{"name":"아모레카운셀러","tel":"031-761-8023","addr":"경기도 광주시 경안동 9-29번지 이룸빌딩 4층","category":"보건위생 - 화장품"},{"name":"아모레카운셀러","tel":"031-764-7223","addr":"경기도 광주시 경안동 9-29번지 이룸빌딩 3층","category":"보건위생 - 화장품"},{"name":"아모레카운셀러","tel":"031-764-7223","addr":"경기도 광주시 경안동 9-29번지 이룸빌딩 4층","category":"보건위생 - 화장품"},{"name":"아모레카운셀러","tel":"031-764-7223","addr":"경기도 광주시 경안동 9-29번지 이룸빌딩 4층","category":"보건위생 - 화장품"},{"name":"아모레카운셀러","tel":"031-761-8023","addr":"경기도 광주시 경안동 9-29번지 이룸빌딩 3층","category":"보건위생 - 화장품"},{"name":"아모레카운셀러","tel":"031-761-8023","addr":"경기도 광주시 경안동 9-29번지","category":"보건위생 - 화장품"},{"name":"아모레카운셀러","tel":"031-761-8023","addr":"경기도 광주시 경안동 9-29번지 이룸빌딩 4층","category":"보건위생 - 화장품"},{"name":"아모레카운셀러","tel":"031-764-7223","addr":"경기도 광주시 경안동 9-29번지 이룸빌딩 4층 아모레퍼시픽","category":"보건위생 - 화장품"},{"name":"아모레카운셀러","tel":"031-761-8023","addr":"경기도 광주시 경안동 9-29번지 이룸빌딩 4층","category":"보건위생 - 화장품"},{"name":"아모레카운셀러","tel":"031-761-8023","addr":"경기도 광주시 경안동 9-29번지 이룸빌딩 4층","category":"보건위생 - 화장품"},{"name":"아모레카운셀러","tel":"031-761-8023","addr":"경기도 광주시 경안동 9-29번지 이룸빌딩 4층","category":"보건위생 - 화장품"},{"name":"아모레카운셀러","tel":"031-764-7223","addr":"경기도 광주시 경안동 9-29번지 이룸빌딩 4층","category":"보건위생 - 화장품"},{"name":"아모레카운셀러","tel":"031-761-8023","addr":"경기도 광주시 경안동 9-29번지 이룸빌딩 3층","category":"보건위생 - 화장품"},{"name":"아모레카운셀러","tel":"031-761-8023","addr":"경기도 광주시 경안동 9-29번지 이룸빌딩 3층 아모레","category":"보건위생 - 화장품"},{"name":"아모레카운셀러(외판)","tel":"031-764-7223","addr":"경기도 광주시 경안동 9-29번지 이룸빌딩 4층","category":"보건위생 - 화장품"},{"name":"아모레카운셀러/박순자","tel":"031-761-8023","addr":"경기도 광주시 경안동 9-29번지 이룸빌딩 4층","category":"보건위생 - 화장품"},{"name":"아모레카운셀러외판","tel":"031-764-7223","addr":"경기도 광주시 경안동 9-29번지 이룸빌딩 3층","category":"보건위생 - 화장품"},{"name":"아모레퍼시픽","tel":"031-761-8023","addr":"경기도 광주시 경안동 9-29번지 이룸빌딩 4층","category":"보건위생 - 화장품"},{"name":"아모레퍼시픽(외판)","tel":"031-764-7223","addr":"경기도 광주시 경안동 9-29번지 이룸빌딩 4층","category":"보건위생 - 화장품"},{"name":"최명숙/아모레","tel":"031-761-8023","addr":"경기도 광주시 경안동 9-29 이룸빌딩 3층","category":"보건위생 - 화장품"}]},{"lat":"37.40986111","long":"127.2577814","items":[{"name":"광주애니콜","tel":"031-769-1881","addr":"경기도 광주시 경안동 56-8번지","category":"사무통신 - 통신기기"},{"name":"명성궁","tel":"031-797-2286","addr":"경기도 광주시 경안동 56-8번지 3층","category":"보건위생 - 기타대인서비스"},{"name":"스텔라헤어","tel":"031-797-8491","addr":"경기도 광주시 경안동 56-8번지 2층","category":"보건위생 - 미용원"},{"name":"찍다","tel":"031-798-7373","addr":"경기도 광주시 경안동 56-8번지","category":"광학제품 - 사진관"}]},{"lat":"37.41136428","long":"127.2584755","items":[{"name":"광주열쇠","tel":"031-768-0001","addr":"경기도 광주시 경안동 62-1번지","category":"수리서비스 - 신변잡화수리"},{"name":"일차돌","tel":"031-761-1771","addr":"경기도 광주시 경안동 62-1번지","category":"일반휴게음식 - 일반한식"}]},{"lat":"37.40906042","long":"127.2486974","items":[{"name":"광주오에이테크","tel":"031-762-1144","addr":"경기도 광주시 경안동 215-8번지","category":"사무통신 - 사무용 OA기기"}]},{"lat":"37.41450516","long":"127.2517312","items":[{"name":"광주와인","tel":"031-761-4127","addr":"경기도 광주시 경안동 123-6번지","category":"음료식품 - 주류 판매점"},{"name":"이야기하는작은공간","tel":"031-761-4127","addr":"경기도 광주시 경안동 123-6번지","category":"일반휴게음식 - 서양음식"}]},{"lat":"37.4095306","long":"127.2564474","items":[{"name":"광주용인대도장","tel":"031-761-9902","addr":"경기도 광주시 경안동 36-53번지","category":"회원제형태 - 학원"},{"name":"나고야참치","tel":"031-797-3444","addr":"경기도 광주시 경안동 36-53번지","category":"일반휴게음식 - 일식·회집"},{"name":"더탑댄스학원","tel":"031-764-3074","addr":"경기도 광주시 경안동 36-53번지 한솔빌딩 3층","category":"학원 - 예·체능계학원"},{"name":"맥주벙커","tel":"031-766-8689","addr":"경기도 광주시 경안동 36-53번지 한솔빌딩","category":"일반휴게음식 - 주점"},{"name":"순이네제주토종흑돼지","tel":"031-761-0335","addr":"경기도 광주시 경안동 36-53번지 한솔빌딩 1층","category":"일반휴게음식 - 일반한식"},{"name":"홍쓰샵(홍'S)","tel":"","addr":"경기도 광주시 경안동 36-53번지 한솔빌딩 2층","category":"의류 - 정장"},{"name":"환상양꼬치","tel":"031-769-9279","addr":"경기도 광주시 경안동 36-53번지 한솔빌딩","category":"일반휴게음식 - 일반한식"}]},{"lat":"37.40913933","long":"127.2582307","items":[{"name":"광주의료기","tel":"031-761-7276","addr":"경기도 광주시 경안동 32-1.5","category":"보건위생 - 의료용품"},{"name":"양키캔들 경기광주점","tel":"031-762-4765","addr":"경기도 광주시 경안동 32-1번지","category":"신변잡화 - 기타잡화"},{"name":"주식회사수호텔레콤","tel":"031-762-7018","addr":"경기도 광주시 경안동 32-1번지 1층","category":"사무통신 - 통신기기"},{"name":"창조의아침미술학원","tel":"031-797-6626","addr":"경기도 광주시 경안동 32-1번지 3층","category":"학원 - 예·체능계학원"},{"name":"추신경외과","tel":"031-766-8578","addr":"경기도 광주시 경안동 32-1번지","category":"의원 - 의원"},{"name":"컴포즈커피 광주경안점","tel":"031-766-6232","addr":"경기도 광주시 경안동 32-1번지","category":"일반휴게음식 - 서양음식"}]},{"lat":"37.41283912","long":"127.2513416","items":[{"name":"광주전자담배","tel":"031-769-8852","addr":"경기도 광주시 경안동 138-14번지","category":"기타 - 기타 전문점"}]},{"lat":"37.40991764","long":"127.2480903","items":[{"name":"광주점기아오토큐","tel":"031-768-5630","addr":"경기도 광주시 경안동 219-39","category":"자동차정비 유지 - 자동차정비"},{"name":"광주점기아오토큐주식회사","tel":"031-768-5630","addr":"경기도 광주시 경안동 219-39번지","category":"자동차정비 유지 - 자동차정비"}]},{"lat":"37.4096649","long":"127.2568432","items":[{"name":"광주족발","tel":"031-762-9471","addr":"경기도 광주시 경안동 33-7번지","category":"음료식품 - 기타음료식품"},{"name":"맛조은칼국수","tel":"031-766-6607","addr":"경기도 광주시 경안동 33-7번지","category":"일반휴게음식 - 일반한식"}]},{"lat":"37.41441577","long":"127.251392","items":[{"name":"광주통신","tel":"031-764-2848","addr":"경기도 광주시 경안동 440번지","category":"사무통신 - 통신기기"},{"name":"만랩커피 경기광주점","tel":"031-767-0326","addr":"경기도 광주시 경안동 440번지 1층","category":"일반휴게음식 - 서양음식"}]},{"lat":"37.41380616","long":"127.2542027","items":[{"name":"광주프라자약국","tel":"031-762-5230","addr":"경기도 광주시 경안동 98-6번지","category":"약국 - 약국"},{"name":"미르학원","tel":"031-798-9393","addr":"경기도 광주시 경안동 98-6번지 한부빌딩 3층","category":"학원 - 보습학원"}]},{"lat":"37.41119836","long":"127.2602031","items":[{"name":"광주프라자주차장관리대행","tel":"031-000-0000","addr":"경기도 광주시 경안동 15-2번지 광주프라자 부설주차장","category":"자동차정비 유지 - 주차장"},{"name":"에이사이드학원","tel":"031-765-1733","addr":"경기도 광주시 경안동 15-2번지 8층","category":"학원 - 보습학원"},{"name":"오케이라인치과","tel":"031-767-7528","addr":"경기도 광주시 경안동 15-2번지 외3필지광주프라자 5층","category":"병원 - 치과병원"},{"name":"주식회사씨앤씨미술학원","tel":"031-797-6669","addr":"경기도 광주시 경안동 15-2번지","category":"학원 - 예·체능계학원"}]},{"lat":"37.40925358","long":"127.2595639","items":[{"name":"광주해물24시감자탕","tel":"031-761-1177","addr":"경기도 광주시 경안동 20-20번지 1층","category":"일반휴게음식 - 일반한식"}]},{"lat":"37.41311139","long":"127.2588655","items":[{"name":"광주회관","tel":"031-2-2996","addr":"경기도 광주시 경안동 11-23번지","category":"일반휴게음식 - 일반한식"}]},{"lat":"37.40906275","long":"127.2603088","items":[{"name":"광창건재","tel":"031-764-2539","addr":"경기도 광주시 경안동 25-13번지","category":"건축자재 - 기타건축자재"}]},{"lat":"37.41200102","long":"127.2514179","items":[{"name":"교촌치킨 광주1호점","tel":"031-765-8292","addr":"경기도 광주시 경안동 154-1번지 1층","category":"일반휴게음식 - 스넥"},{"name":"대우할인마트","tel":"031-761-5840","addr":"경기도 광주시 경안동 154-1번지","category":"유통업 영리 - 슈퍼마켓"}]},{"lat":"37.4128614","long":"127.2535895","items":[{"name":"구공통신","tel":"031-797-1990","addr":"경기도 광주시 경안동 92-5번지 1층","category":"사무통신 - 통신기기"},{"name":"컴퓨터구조대","tel":"031-766-5492","addr":"경기도 광주시 경안동 92-5번지 점포 1층 1호","category":"사무통신 - 컴퓨터"}]},{"lat":"37.41322474","long":"127.2522014","items":[{"name":"구구푸드","tel":"031-769-9919","addr":"경기도 광주시 경안동 148-64번지","category":"일반휴게음식 - 일반한식"},{"name":"닭튀기는 사람들","tel":"031-797-1940","addr":"경기도 광주시 경안동 148-64번지 1층 102호","category":"일반휴게음식 - 스넥"}]},{"lat":"37.41358857","long":"127.2548345","items":[{"name":"구이사꼬막 요리전문점","tel":"","addr":"경기도 광주시 경안동 81-13번지 2층","category":"일반휴게음식 - 일반한식"},{"name":"팔팔전자랜드","tel":"031-762-8822","addr":"경기도 광주시 경안동 81-13번지","category":"전기제품 - 가전제품"}]},{"lat":"37.41066705","long":"127.2558978","items":[{"name":"구제 사라","tel":"","addr":"경기도 광주시 경안동 49-17번지 1층","category":"의류 - 정장"}]},{"lat":"37.41030534","long":"127.2565065","items":[{"name":"구제린(guje. is)","tel":"111-1111-111","addr":"경기도 광주시 경안동 49-14번지","category":"의류 - 기타의류"},{"name":"예쁜머리","tel":"031-766-1192","addr":"경기도 광주시 경안동 49-14번지","category":"보건위생 - 미용원"}]},{"lat":"37.41119907","long":"127.2556962","items":[{"name":"구제카페","tel":"","addr":"경기도 광주시 경안동 72-27번지 1층","category":"의류 - 정장"}]},{"lat":"37.41447505","long":"127.2488958","items":[{"name":"국민닭발","tel":"031-763-9235","addr":"경기도 광주시 경안동 128-11번지","category":"일반휴게음식 - 일반한식"},{"name":"또봉이통닭","tel":"031-768-2738","addr":"경기도 광주시 경안동 128-11번지 1층","category":"일반휴게음식 - 스넥"},{"name":"필립이 독서실","tel":"031-766-3666","addr":"경기도 광주시 경안동 128-11번지 2층","category":"학원 - 독서실"}]},{"lat":"37.40927616","long":"127.2574518","items":[{"name":"국일상회","tel":"031-761-4177","addr":"경기도 광주시 경안동 33-11번지","category":"의류 - 내의판매"},{"name":"농심축산","tel":"031-763-3909","addr":"경기도 광주시 경안동 33-11번지 1층","category":"음료식품 - 정육점"},{"name":"동래울 부대찌개","tel":"031-766-6078","addr":"경기도 광주시 경안동 33-11번지 1층 일부호","category":"음료식품 - 기타음료식품"},{"name":"쌍방울상회","tel":"031-761-5018","addr":"경기도 광주시 경안동 33-11번지","category":"의류 - 내의판매"}]},{"lat":"37.41211629","long":"127.2607033","items":[{"name":"굿모닝보청기 광주센터","tel":"031-798-7771","addr":"경기도 광주시 경안동 416-2번지 1층 103호","category":"보건위생 - 의료용품"}]},{"lat":"37.41122872","long":"127.258667","items":[{"name":"궁노래연습장","tel":"031-764-2884","addr":"경기도 광주시 경안동 60-1번지 신아빌딩 2층","category":"레저업소 - 노 래 방"},{"name":"달밤","tel":"031-795-8689","addr":"경기도 광주시 경안동 60-1번지 신아빌딩","category":"일반휴게음식 - 주점"},{"name":"커피방","tel":"070-7757-1302","addr":"경기도 광주시 경안동 60-1번지 신아빌딩","category":"일반휴게음식 - 서양음식"},{"name":"황태후","tel":"031-768-5880","addr":"경기도 광주시 경안동 60-1번지 신아빌딩","category":"보건위생 - 기타대인서비스"}]},{"lat":"37.41238786","long":"127.2517016","items":[{"name":"귀뚜라미원주종합설비","tel":"031-762-0426","addr":"경기도 광주시 경안동 152-88","category":"수리서비스 - 기타수리서비스"},{"name":"최에어센스","tel":"031-769-9421","addr":"경기도 광주시 경안동 152-88번지","category":"보건위생 - 미용원"}]},{"lat":"37.4127553","long":"127.2568649","items":[{"name":"귀인","tel":"031-768-6890","addr":"경기도 광주시 경안동 74-25번지","category":"일반휴게음식 - 주점"},{"name":"피부사랑에스테틱","tel":"031-761-9666","addr":"경기도 광주시 경안동 74-25번지 2층","category":"보건위생 - 피부미용실"}]},{"lat":"37.41133257","long":"127.252229","items":[{"name":"그녀의 샌드위치","tel":"031-797-9220","addr":"경기도 광주시 경안동 159-13번지 1층 1호","category":"일반휴게음식 - 스넥"}]},{"lat":"37.41441489","long":"127.25181","items":[{"name":"그랜드애견미용","tel":"031-766-1475","addr":"경기도 광주시 경안동 123-7번지","category":"문화.취미 - 애완동물"},{"name":"대성폴딩샷시","tel":"031-763-8144","addr":"경기도 광주시 경안동 123-7번지 503호","category":"건축자재 - 기타건축자재"},{"name":"산호이용원","tel":"031-761-9930","addr":"경기도 광주시 경안동 123-7번지","category":"보건위생 - 이용원"},{"name":"삼익미용상사","tel":"031-764-4301","addr":"경기도 광주시 경안동 123-7번지","category":"보건위생 - 미용재료"},{"name":"성광지물포","tel":"031-762-8797","addr":"경기도 광주시 경안동 123-7번지","category":"직물 - 카페트,커튼,천막,지물"},{"name":"유림까페","tel":"031-763-7770","addr":"경기도 광주시 경안동 123-7번지","category":"일반휴게음식 - 서양음식"},{"name":"텀벙","tel":"031-8028-0788","addr":"경기도 광주시 경안동 123-7번지","category":"일반휴게음식 - 일반한식"}]},{"lat":"37.41400509","long":"127.2495833","items":[{"name":"그린대중목욕탕","tel":"031-766-3880","addr":"경기도 광주시 경안동 127번지 두진 상가 지하층 1호","category":"보건위생 - 사우나"},{"name":"김진경무용학원","tel":"031-764-7555","addr":"경기도 광주시 경안동 127번지 두진아파트 2층","category":"학원 - 예·체능계학원"},{"name":"부어치킨","tel":"031-797-9589","addr":"경기도 광주시 경안동 127번지 두진아파트 1층 3호","category":"일반휴게음식 - 스넥"},{"name":"씨스페이스포돌이점","tel":"031-765-2567","addr":"경기도 광주시 경안동 127번지 외1","category":"유통업 영리 - 편 의 점"},{"name":"위드미광주경안점","tel":"02-6916-1500","addr":"경기도 광주시 경안동 127번지 외1","category":"유통업 영리 - 슈퍼마켓"}]},{"lat":"37.40816566","long":"127.2500273","items":[{"name":"그린에너지","tel":"031-768-5532","addr":"경기도 광주시 경안동 175-5번지","category":"연료판매점 - 유류판매"},{"name":"두두EM시스템","tel":"031-000-0000","addr":"경기도 광주시 경안동 175-5번지 104호","category":"용역 서비스 - 종합용역"},{"name":"행복한찜닭/행복한가족 주식회사","tel":"02-1800-6903","addr":"경기도 광주시 경안동 175-5번지 1층 101호","category":"일반휴게음식 - 일반한식"}]},{"lat":"37.41428055","long":"127.2514255","items":[{"name":"금빛미술교습소","tel":"031-797-4777","addr":"경기도 광주시 경안동 440-3번지 3층","category":"학원 - 예·체능계학원"},{"name":"남지희세무회계사무소","tel":"031-797-5123","addr":"경기도 광주시 경안동 440-3번지 2층","category":"용역 서비스 - 법률회계서비스(개인)"},{"name":"윤석일세무회계사무소","tel":"031-762-8383","addr":"경기도 광주시 경안동 440-3번지","category":"용역 서비스 - 법률회계서비스(개인)"}]},{"lat":"37.4087274","long":"127.2570546","items":[{"name":"금산인삼건강원","tel":"031-763-2405","addr":"경기도 광주시 경안동 33-16번지","category":"건강식품 - 인삼제품"},{"name":"디엔씨상사","tel":"","addr":"경기도 광주시 경안동 33-16번지 경안시장 중앙매대 4호","category":"음료식품 - 기타음료식품"},{"name":"삼성식품","tel":"031-764-8068","addr":"경기도 광주시 경안동 33-16번지","category":"음료식품 - 기타음료식품"},{"name":"스마트폰 사진인화","tel":"031-111-1111","addr":"경기도 광주시 경안동 33-16번지 경안시장 몽골텐트 1호","category":"광학제품 - 사진관"},{"name":"이모네집","tel":"031-111-1111","addr":"경기도 광주시 경안동 33-16번지 경안시장 중앙매대 3호","category":"음료식품 - 기타음료식품"},{"name":"장안상회","tel":"031-764-2843","addr":"경기도 광주시 경안동 33-16","category":"신변잡화 - 기타잡화"},{"name":"짱꼬치","tel":"","addr":"경기도 광주시 경안동 33-16번지 경안시장 중앙매대 2호","category":"음료식품 - 기타음료식품"}]},{"lat":"37.40916768","long":"127.2576209","items":[{"name":"금수장여관","tel":"031-761-5702","addr":"경기도 광주시 경안동 33-32번지","category":"숙박업 - 여관/기타숙박업"},{"name":"서울닭집","tel":"031-761-3830","addr":"경기도 광주시 경안동 33-32번지","category":"음료식품 - 정육점"},{"name":"아가방 신)경기광주점","tel":"031-761-7777","addr":"경기도 광주시 경안동 33-32 ,33-52","category":"의류 - 아동의류"},{"name":"아리따움 경안시장점","tel":"031-798-3113","addr":"경기도 광주시 경안동 33-32번지 1층","category":"보건위생 - 화장품"}]},{"lat":"37.41208429","long":"127.2546487","items":[{"name":"기남아귀찜","tel":"031-763-5998","addr":"경기도 광주시 경안동 83-19번지 1층 1호","category":"일반휴게음식 - 일반한식"}]},{"lat":"37.4106133","long":"127.2515037","items":[{"name":"길동소나기 감자탕","tel":"031-762-8593","addr":"경기도 광주시 경안동 162-4번지","category":"일반휴게음식 - 일반한식"},{"name":"길동소나기감자탕","tel":"031-762-8953","addr":"경기도 광주시 경안동 162-4번지","category":"일반휴게음식 - 일반한식"},{"name":"수학의봄학원","tel":"031-769-9575","addr":"경기도 광주시 경안동 162-4번지 동은빌딩 2층","category":"학원 - 보습학원"},{"name":"프롤로그(Prologue)","tel":"","addr":"경기도 광주시 경안동 162-4번지 동은빌딩 1층","category":"일반휴게음식 - 일반한식"}]},{"lat":"37.40709049","long":"127.2514469","items":[{"name":"김반장인테리어","tel":"031-764-4012","addr":"경기도 광주시 경안동 189-54번지","category":"건축자재 - 인테리어전문"},{"name":"버너텍","tel":"031-798-0290","addr":"경기도 광주시 경안동 189-54번지","category":"건축자재 - 보일러·펌프·샷시"}]},{"lat":"37.412392","long":"127.2540059","items":[{"name":"김밥세상","tel":"031-766-8613","addr":"경기도 광주시 경안동 92-8번지","category":"일반휴게음식 - 스넥"},{"name":"오복미 락 호프","tel":"031-797-5575","addr":"경기도 광주시 경안동 92-8번지 1층","category":"일반휴게음식 - 주점"}]},{"lat":"37.41036566","long":"127.2577831","items":[{"name":"김밥천국","tel":"031-0000-0000","addr":"경기도 광주시 경안동 54-14번지 1층","category":"일반휴게음식 - 스넥"},{"name":"미니골드","tel":"031-764-6848","addr":"경기도 광주시 경안동 54-14번지","category":"신변잡화 - 액세서리"},{"name":"에즈 헤어라운지","tel":"031-763-6620","addr":"경기도 광주시 경안동 54-14번지","category":"보건위생 - 미용원"}]},{"lat":"37.4124702","long":"127.2553616","items":[{"name":"김밥천국","tel":"031-766-8682","addr":"경기도 광주시 경안동 82-12번지 1층","category":"일반휴게음식 - 스넥"},{"name":"로드헤어","tel":"070-8241-9698","addr":"경기도 광주시 경안동 82-12번지","category":"보건위생 - 미용원"}]},{"lat":"37.41188925","long":"127.2573703","items":[{"name":"김성주헤어","tel":"031-764-8852","addr":"경기도 광주시 경안동 70-1번지","category":"보건위생 - 미용원"},{"name":"윤헤어 아트","tel":"031-764-4849","addr":"경기도 광주시 경안동 70-1번지","category":"보건위생 - 미용원"},{"name":"젠슨","tel":"031-703-4171","addr":"경기도 광주시 경안동 70-1번지","category":"의류 - 기타의류"},{"name":"플라워선향","tel":"031-761-3993","addr":"경기도 광주시 경안동 70-1번지","category":"문화.취미 - 화원"}]},{"lat":"37.40933672","long":"127.2586154","items":[{"name":"김앤박치과의원","tel":"031-765-2804","addr":"경기도 광주시 경안동 30-5번지 5층","category":"의원 - 치과의원"},{"name":"미올한의원","tel":"031-8027-2012","addr":"경기도 광주시 경안동 30-5번지 2층","category":"의원 - 한의원"},{"name":"사랑통신","tel":"031-762-4011","addr":"경기도 광주시 경안동 30-5번지 스타타워 101호","category":"사무통신 - 통신기기"},{"name":"새봄약국","tel":"031-766-2761","addr":"경기도 광주시 경안동 30-5번지 1층 102호","category":"약국 - 약국"},{"name":"위소아청소년과의원","tel":"031-764-7582","addr":"경기도 광주시 경안동 30-5번지 스타타워 4층","category":"건강식품 - 기타건강식품"}]},{"lat":"37.40880949","long":"127.2565918","items":[{"name":"김정애한복","tel":"031-768-8972","addr":"경기도 광주시 경안동 37-7번지 1층","category":"의류 - 맞춤복점"},{"name":"서현종합이엔씨","tel":"031-764-8278","addr":"경기도 광주시 경안동 37-7번지","category":"전기제품 - 기타전기제품"}]},{"lat":"37.41211092","long":"127.2590315","items":[{"name":"김진명 행정사사무소","tel":"031-763-4509","addr":"경기도 광주시 경안동 11-11번지","category":"용역 서비스 - 법률회계서비스(개인)"},{"name":"컴박사","tel":"031-798-0222","addr":"경기도 광주시 경안동 11-11번지","category":"사무통신 - 컴퓨터"}]},{"lat":"37.4113187","long":"127.2502523","items":[{"name":"김해바이크","tel":"031-762-9839","addr":"경기도 광주시 경안동 157-2번지 경안대우아파트","category":"레져용품 - 스포츠·레져용품"},{"name":"꽃담화원","tel":"031-766-1001","addr":"경기도 광주시 경안동 157-2번지 경안대우아파트","category":"문화.취미 - 화원"}]},{"lat":"37.41125308","long":"127.2514719","items":[{"name":"까만돼지","tel":"031-769-7422","addr":"경기도 광주시 경안동 156-17번지 블루스카이맨션 101호","category":"일반휴게음식 - 일반한식"},{"name":"달빛호프","tel":"","addr":"경기도 광주시 경안동 156-17번지 블루스카이맨션","category":"일반휴게음식 - 일반한식"},{"name":"서경숙헤어아트","tel":"031-763-5426","addr":"경기도 광주시 경안동 156-17, 104","category":"보건위생 - 미용원"},{"name":"파도횟집","tel":"031-761-2586","addr":"경기도 광주시 경안동 156-17번지 지하1층 B103호","category":"일반휴게음식 - 일반한식"}]},{"lat":"37.41286078","long":"127.2622307","items":[{"name":"까페 PABALO(파발로)","tel":"031-766-7493","addr":"경기도 광주시 경안동 418-3번지 2층","category":"일반휴게음식 - 서양음식"},{"name":"아이지에이마트 청석공원점","tel":"031-761-7493","addr":"경기도 광주시 경안동 418-3번지 1층","category":"유통업 영리 - 편 의 점"},{"name":"한일자동차병원","tel":"031-761-7493","addr":"경기도 광주시 경안동 418-3번지","category":"자동차정비 유지 - 자동차정비"}]},{"lat":"37.40970053","long":"127.2528109","items":[{"name":"깨비TOUR","tel":"","addr":"경기도 광주시 경안동 47-6번지 2층 204호","category":"여행 - 관광여행"},{"name":"쌍용자동차광주서비스프라자","tel":"031-766-5542","addr":"경기도 광주시 경안동 47-6번지","category":"자동차정비 유지 - 자동차정비"}]},{"lat":"37.41264392","long":"127.2541762","items":[{"name":"꼬끼네트","tel":"031-764-1285","addr":"경기도 광주시 경안동 93-1번지","category":"의류 - 정장"}]},{"lat":"37.41272236","long":"127.255419","items":[{"name":"꼼씨네숯불꼼장어","tel":"031-797-5646","addr":"경기도 광주시 경안동 81-35번지","category":"일반휴게음식 - 일반한식"},{"name":"우리집김밥","tel":"031-798-1999","addr":"경기도 광주시 경안동 81-35번지 1층","category":"일반휴게음식 - 스넥"},{"name":"이엔정보통신","tel":"031-797-7734","addr":"경기도 광주시 경안동 81-35번지","category":"사무통신 - 통신기기"},{"name":"케이영어전문학원","tel":"031-797-0912","addr":"경기도 광주시 경안동 81-35번지","category":"회원제형태 - 학원"}]},{"lat":"37.41233297","long":"127.2563326","items":[{"name":"꾼카페","tel":"031-766-6969","addr":"경기도 광주시 경안동 73-16번지 태영빌딩 지하2층","category":"레저업소 - 기타레져업소"},{"name":"맵스고등부학원","tel":"031-797-2234","addr":"경기도 광주시 경안동 73-16번지 태영빌딩 4층","category":"학원 - 보습학원"},{"name":"오렌지 휘트니스","tel":"031-769-5415","addr":"경기도 광주시 경안동 73-16번지 태영빌딩 1층","category":"레저업소 - 헬스클럽"},{"name":"호돌이식당","tel":"031-761-0357","addr":"경기도 광주시 경안동 73-16번지 태영빌딩 1층","category":"일반휴게음식 - 중국식"},{"name":"후라이드참잘하는집","tel":"031-763-3803","addr":"경기도 광주시 경안동 73-16번지 태영빌딩 1층 102호","category":"일반휴게음식 - 스넥"}]},{"lat":"37.41236722","long":"127.252944","items":[{"name":"꿍시꿍시","tel":"031-768-9620","addr":"경기도 광주시 경안동 151-1번지","category":"일반휴게음식 - 일반한식"}]},{"lat":"37.4138387","long":"127.2515934","items":[{"name":"끌래노래연습장","tel":"031-767-1582","addr":"경기도 광주시 경안동 124-9번지","category":"레저업소 - 노 래 방"},{"name":"방이샤브샤브칼국수 광주점","tel":"031-763-5325","addr":"경기도 광주시 경안동 124-9번지 1층","category":"일반휴게음식 - 일반한식"},{"name":"채움뷰티(beauty)#","tel":"","addr":"경기도 광주시 경안동 124-9번지 201호","category":"보건위생 - 피부미용실"}]},{"lat":"37.41358297","long":"127.2532305","items":[{"name":"나눔교육","tel":"031-765-0964","addr":"경기도 광주시 경안동 122-22번지","category":"회원제형태 - 서적"},{"name":"설맥","tel":"031-762-0728","addr":"경기도 광주시 경안동 122-22번지","category":"일반휴게음식 - 주점"},{"name":"숲속에듀","tel":"031-865-0964","addr":"경기도 광주시 경안동 122-22번지","category":"회원제형태 - 서적"}]},{"lat":"37.4116714","long":"127.2581151","items":[{"name":"나성갈비","tel":"031-762-4292","addr":"경기도 광주시 경안동 63-7번지 1층","category":"일반휴게음식 - 일반한식"}]},{"lat":"37.40836603","long":"127.2575052","items":[{"name":"낙원떡집","tel":"031-761-6645","addr":"경기도 광주시 경안동 33-38번지","category":"음료식품 - 기타음료식품"},{"name":"동화방앗간","tel":"031-763-3111","addr":"경기도 광주시 경안동 33-38번지","category":"음료식품 - 기타음료식품"},{"name":"반찬1번지","tel":"031-763-2636","addr":"경기도 광주시 경안동 33-38번지","category":"음료식품 - 기타음료식품"},{"name":"삼성식품","tel":"031-764-0262","addr":"경기도 광주시 경안동 33-38번지","category":"음료식품 - 농·축·수산품"},{"name":"주식회사 남경유통","tel":"031-767-7180","addr":"경기도 광주시 경안동 33-38번지","category":"유통업 영리 - 슈퍼마켓"},{"name":"킥로드","tel":"","addr":"경기도 광주시 경안동 33-38번지","category":"수리서비스 - 레져용품수리"}]},{"lat":"37.41352717","long":"127.2582569","items":[{"name":"낙원정육점","tel":"031-761-4002","addr":"경기도 광주시 경안동 442-10번지 1층","category":"음료식품 - 정육점"}]},{"lat":"37.41150219","long":"127.2571996","items":[{"name":"날으는완다비어","tel":"031-769-1680","addr":"경기도 광주시 경안동 71-7번지 2층","category":"일반휴게음식 - 주점"},{"name":"법무사박상명사무소","tel":"031-763-2733","addr":"경기도 광주시 경안동 71-7번지","category":"용역 서비스 - 법률회계서비스(개인)"},{"name":"오렌지안경원","tel":"031-762-0908","addr":"경기도 광주시 경안동 71-7번지","category":"보건위생 - 안경"}]},{"lat":"37.41033983","long":"127.2572295","items":[{"name":"남궁헤어스킨케어","tel":"031-761-0118","addr":"경기도 광주시 경안동 52-6번지 1층","category":"보건위생 - 미용원"},{"name":"소세지야 경기광주경안점","tel":"031-763-4679","addr":"경기도 광주시 경안동 52-6번지","category":"일반휴게음식 - 일반한식"},{"name":"스마일이발관","tel":"","addr":"경기도 광주시 경안동 52-6번지","category":"보건위생 - 이용원"},{"name":"신신건강드림","tel":"02-1111-1111","addr":"경기도 광주시 경안동 52-6번지 2층","category":"보건위생 - 의료용품"},{"name":"영분식","tel":"031-761-5043","addr":"경기도 광주시 경안동 52-6번지","category":"일반휴게음식 - 스넥"},{"name":"패션시대","tel":"031-761-7513","addr":"경기도 광주시 경안동 52-6번지","category":"의류 - 정장"},{"name":"패숀시대","tel":"031-761-7513","addr":"경기도 광주시 경안동 52-6번지","category":"의류 - 정장"}]},{"lat":"37.41339094","long":"127.2587535","items":[{"name":"남기선세무회계사무소","tel":"031-764-9533","addr":"경기도 광주시 경안동 446-19번지","category":"용역 서비스 - 법률회계서비스(개인)"}]},{"lat":"37.41386352","long":"127.252644","items":[{"name":"남여염색방","tel":"031-768-1316","addr":"경기도 광주시 경안동 122-10번지","category":"보건위생 - 미용원"},{"name":"멋내기헤어염색","tel":"031-635-2950","addr":"경기도 광주시 경안동 122-10번지 1층","category":"보건위생 - 미용원"}]},{"lat":"37.41427862","long":"127.2523404","items":[{"name":"낭만차이나","tel":"031-797-7989","addr":"경기도 광주시 경안동 96-7번지 파크빌딩","category":"일반휴게음식 - 중국식"},{"name":"영양순대국","tel":"031-761-7727","addr":"경기도 광주시 경안동 96-7번지 파크빌딩","category":"일반휴게음식 - 일반한식"}]},{"lat":"37.41025092","long":"127.2566757","items":[{"name":"네이밍카페 CAFE랑#2","tel":"031-797-7212","addr":"경기도 광주시 경안동 49-11번지","category":"일반휴게음식 - 서양음식"},{"name":"우성종합육류","tel":"031-766-0925","addr":"경기도 광주시 경안동 49-11번지","category":"음료식품 - 정육점"}]},{"lat":"37.41283566","long":"127.2572041","items":[{"name":"네일럽","tel":"031-768-6978","addr":"경기도 광주시 경안동 74-18번지","category":"보건위생 - 피부미용실"},{"name":"도시방커텐장식","tel":"031-764-9917","addr":"경기도 광주시 경안동 74-18번지","category":"직물 - 카페트,커튼,천막,지물"},{"name":"비비큐","tel":"031-765-1477","addr":"경기도 광주시 경안동 74-18번지","category":"일반휴게음식 - 스넥"},{"name":"이호선학원","tel":"031-765-5533","addr":"경기도 광주시 경안동 74-18번지 2층","category":"학원 - 보습학원"},{"name":"파리바게트 경안중앙점","tel":"031-764-0090","addr":"경기도 광주시 경안동 74-18번지 1층","category":"음료식품 - 제과점"}]},{"lat":"37.41247897","long":"127.2554746","items":[{"name":"네일바바","tel":"02-1111-1111","addr":"경기도 광주시 경안동 81-6번지 1층","category":"보건위생 - 피부미용실"},{"name":"라임헤어","tel":"031-769-1372","addr":"경기도 광주시 경안동 81-6번지 1층","category":"보건위생 - 미용원"},{"name":"로컬local","tel":"031-797-9943","addr":"경기도 광주시 경안동 81-6번지","category":"일반휴게음식 - 일반한식"},{"name":"옛가손칼국수","tel":"031-766-2250","addr":"경기도 광주시 경안동 81-6번지","category":"일반휴게음식 - 일반한식"}]},{"lat":"37.41116959","long":"127.256837","items":[{"name":"농원(PASS)","tel":"031-797-0724","addr":"경기도 광주시 경안동 71-11번지 301호","category":"서적문구 - 완구점"},{"name":"카페모모2017","tel":"031-797-7373","addr":"경기도 광주시 경안동 71-11번지 1층","category":"일반휴게음식 - 서양음식"}]},{"lat":"37.4098894","long":"127.2571941","items":[{"name":"누나홀닭(경기광주점)","tel":"031-763-9399","addr":"경기도 광주시 경안동 35-10번지","category":"일반휴게음식 - 스넥"}]},{"lat":"37.40916553","long":"127.2586148","items":[{"name":"니뽕내뽕","tel":"031-8027-2648","addr":"경기도 광주시 경안동 28-1번지 2층","category":"일반휴게음식 - 중국식"},{"name":"리치어패럴","tel":"","addr":"경기도 광주시 경안동 28-1번지","category":"의류 - 정장"},{"name":"파리바게뜨 광주경안점","tel":"031-764-8200","addr":"경기도 광주시 경안동 28-1번지","category":"음료식품 - 제과점"}]},{"lat":"37.40794844","long":"127.2547591","items":[{"name":"니펫내펫","tel":"031-764-1516","addr":"경기도 광주시 경안동 38-140번지 101호","category":"문화.취미 - 애완동물"},{"name":"준통신","tel":"031-764-9010","addr":"경기도 광주시 경안동 38-140번지 1층 101호","category":"사무통신 - 통신기기"},{"name":"준통신","tel":"031-764-9010","addr":"경기도 광주시 경안동 38-140번지 1층","category":"신변잡화 - 기타잡화"}]},{"lat":"37.41011231","long":"127.2582792","items":[{"name":"다나의원","tel":"031-763-4301","addr":"경기도 광주시 경안동 56-10번지","category":"의원 - 의원"},{"name":"뚜레쥬르(광주경안점)","tel":"031-766-7790","addr":"경기도 광주시 경안동 56-10번지 1층","category":"음료식품 - 제과점"}]},{"lat":"37.41397871","long":"127.2535594","items":[{"name":"다보건설","tel":"031-766-1282","addr":"경기도 광주시 경안동 97-11번지 4층","category":"용역 서비스 - 기타용역서비스"},{"name":"안짱명품PET","tel":"031-767-7582","addr":"경기도 광주시 경안동 97-11번지","category":"문화.취미 - 애완동물"},{"name":"영주동물병원","tel":"031-762-3575","addr":"경기도 광주시 경안동 97-11번지","category":"기타의료기관 - 동물병원"}]},{"lat":"37.41232952","long":"127.2494423","items":[{"name":"다사메아영어공부방","tel":"","addr":"경기도 광주시 경안동 135-11번지 대진빌라","category":"학원 - 기타 교육기관"}]},{"lat":"37.4092501","long":"127.2569999","items":[{"name":"다이렉트","tel":"031-761-1131","addr":"경기도 광주시 경안동 33-59번지 1층","category":"유통업 영리 - 슈퍼마켓"},{"name":"탑발란스 2호점","tel":"031-762-4466","addr":"경기도 광주시 경안동 33-59번지 지층 경안상가 건물","category":"레저업소 - 헬스클럽"}]},{"lat":"37.40906249","long":"127.2562538","items":[{"name":"단미헤어라인","tel":"031-798-6266","addr":"경기도 광주시 경안동 36-35번지","category":"보건위생 - 미용원"},{"name":"포비엣","tel":"031-767-1760","addr":"경기도 광주시 경안동 36-35번지 1층","category":"일반휴게음식 - 일반한식"}]},{"lat":"37.40986213","long":"127.257307","items":[{"name":"닭터네","tel":"031-762-5592","addr":"경기도 광주시 경안동 35-6번지","category":"일반휴게음식 - 일반한식"},{"name":"잠언의료기광주지점","tel":"031-765-7589","addr":"경기도 광주시 경안동 35-6번지","category":"보건위생 - 의료용품"},{"name":"장터방앗간","tel":"031-761-8525","addr":"경기도 광주시 경안동 35-6번지","category":"음료식품 - 제과점"}]},{"lat":"37.40655826","long":"127.2517501","items":[{"name":"당구치자","tel":"031-797-0711","addr":"경기도 광주시 경안동 189-80번지 2층","category":"레저업소 - 당 구 장"},{"name":"필헤어","tel":"031-767-6992","addr":"경기도 광주시 경안동 189-80번지","category":"보건위생 - 미용원"}]},{"lat":"37.41036459","long":"127.2582801","items":[{"name":"당신라사","tel":"031-761-2440","addr":"경기도 광주시 경안동 56-1번지","category":"의류 - 맞춤복점"}]},{"lat":"37.41108235","long":"127.2555038","items":[{"name":"대동지물페인트","tel":"032-761-8227","addr":"경기도 광주시 경안동 48-4번지","category":"직물 - 카페트,커튼,천막,지물"},{"name":"헤어컷","tel":"031-733-1908","addr":"경기도 광주시 경안동 48-4번지 1층","category":"보건위생 - 미용원"}]},{"lat":"37.41350521","long":"127.2516488","items":[{"name":"대림남부지정점 (수원)","tel":"031-765-5827","addr":"경기도 광주시 경안동 148-2번지 102호","category":"건축자재 - 건축용 요업제품"}]},{"lat":"37.40856262","long":"127.2497801","items":[{"name":"대명스마트유통","tel":"070-8161-8872","addr":"경기도 광주시 경안동 180번지 예운맨션 B동 102호","category":"회원제형태 - 기타4"}]},{"lat":"37.41244913","long":"127.2567848","items":[{"name":"대박통신","tel":"031-768-6796","addr":"경기도 광주시 경안동 73-22번지 1층","category":"사무통신 - 통신기기"},{"name":"아방스","tel":"031-64-0817","addr":"경기도 광주시 경안동 73-22번지","category":"직물 - 침구·수예점"},{"name":"투쎄븐패션","tel":"031-767-5044","addr":"경기도 광주시 경안동 73-22번지","category":"의류 - 정장"}]},{"lat":"37.41353338","long":"127.2553652","items":[{"name":"대승학원","tel":"031-768-3553","addr":"경기도 광주시 경안동 80-4번지 대일빌딩 4층","category":"학원 - 보습학원"},{"name":"철뚝집 경안직영점","tel":"031-767-2253","addr":"경기도 광주시 경안동 80-4번지 대일빌딩","category":"일반휴게음식 - 일반한식"},{"name":"쿨","tel":"031-763-9561","addr":"경기도 광주시 경안동 80-4번지","category":"회원제형태 - 레져업소"}]},{"lat":"37.41119814","long":"127.2518897","items":[{"name":"대원산야초건강원","tel":"","addr":"경기도 광주시 경안동 158-1번지 1층","category":"건강식품 - 기타건강식품"}]},{"lat":"37.41294268","long":"127.2534994","items":[{"name":"대원전자","tel":"031-763-0177","addr":"경기도 광주시 경안동 92-1번지","category":"수리서비스 - 가정용품수리"},{"name":"하늘완구","tel":"","addr":"경기도 광주시 경안동 92-1번지 102호","category":"서적문구 - 완구점"}]},{"lat":"37.41392306","long":"127.2500349","items":[{"name":"대한무술체육관합기도(척추교정운동원)","tel":"031-765-0607","addr":"경기도 광주시 경안동 128-44번지","category":"학원 - 예·체능계학원"},{"name":"두진떡방앗간","tel":"031-768-8589","addr":"경기도 광주시 경안동 128-44번지","category":"음료식품 - 제과점"},{"name":"뜰샘음악학원","tel":"031-766-3316","addr":"경기도 광주시 경안동 128-44번지 2층","category":"학원 - 예·체능계학원"},{"name":"세븐일레븐경기광주월드점","tel":"","addr":"경기도 광주시 경안동 128-44번지","category":"유통업 영리 - 편 의 점"},{"name":"월드슈퍼","tel":"031-764-5985","addr":"경기도 광주시 경안동 128-44번지","category":"유통업 영리 - 슈퍼마켓"},{"name":"조은미용실","tel":"031-765-2797","addr":"경기도 광주시 경안동 128-44번지","category":"보건위생 - 미용원"}]},{"lat":"37.4118611","long":"127.2493956","items":[{"name":"대한할인마트","tel":"031-764-2779","addr":"경기도 광주시 경안동 135-58번지","category":"유통업 영리 - 슈퍼마켓"}]},{"lat":"37.40953296","long":"127.259531","items":[{"name":"더 워너 핏","tel":"031-000-0000","addr":"경기도 광주시 경안동 20-21번지 삼일빌딩 3층","category":"레져용품 - 스포츠·레져용품"},{"name":"락24시 노래연습장","tel":"031-761-0511","addr":"경기도 광주시 경안동 20-21번지 삼일빌딩 지층","category":"레저업소 - 노 래 방"},{"name":"스시 현","tel":"031-798-0401","addr":"경기도 광주시 경안동 20-21번지 삼일빌딩","category":"일반휴게음식 - 일식·회집"},{"name":"육전무","tel":"031-767-8295","addr":"경기도 광주시 경안동 20-21번지 2층","category":"일반휴게음식 - 일반한식"},{"name":"콩심 (전주콩나물국밥)","tel":"031-766-0809","addr":"경기도 광주시 경안동 20-21번지 삼일빌딩","category":"일반휴게음식 - 일반한식"},{"name":"허리우드당구클럽","tel":"031-767-9984","addr":"경기도 광주시 경안동 20-21번지","category":"레저업소 - 당 구 장"}]},{"lat":"37.40997865","long":"127.2575897","items":[{"name":"더데이걸광주점","tel":"031-768-3367","addr":"경기도 광주시 경안동 55-1번지 1층 8","category":"의류 - 기타의류"},{"name":"슈즈타운","tel":"031-761-5363","addr":"경기도 광주시 경안동 55-1번지 1층","category":"신변잡화 - 신발"},{"name":"시민수족관","tel":"031-764-6868","addr":"경기도 광주시 경안동 55-1번지","category":"문화.취미 - 수족관"},{"name":"파스타마마","tel":"031-111-1111","addr":"경기도 광주시 경안동 55-1번지","category":"일반휴게음식 - 서양음식"},{"name":"판타스틱 코인노래연습장","tel":"070-8289-6421","addr":"경기도 광주시 경안동 55-1번지 2층","category":"레저업소 - 노 래 방"},{"name":"혼다라멘 광주경안점","tel":"031-766-4620","addr":"경기도 광주시 경안동 55-1번지 1동 1층","category":"일반휴게음식 - 일반한식"}]},{"lat":"37.40947563","long":"127.2526408","items":[{"name":"더블유(W)시스템","tel":"","addr":"경기도 광주시 경안동 47-68번지 명가에버빌 102호","category":"사무통신 - 컴퓨터"}]},{"lat":"37.41266526","long":"127.2609988","items":[{"name":"더에이민","tel":"","addr":"경기도 광주시 경안동 419번지 Cube419 102호","category":"의류 - 정장"},{"name":"이너프커피바","tel":"","addr":"경기도 광주시 경안동 419번지 Cube419 101호","category":"일반휴게음식 - 서양음식"}]},{"lat":"37.40983834","long":"127.2599726","items":[{"name":"더지니어스","tel":"031-765-3179","addr":"경기도 광주시 경안동 22-2번지 3층","category":"일반휴게음식 - 서양음식"},{"name":"모아쇼핑","tel":"031-769-5615","addr":"경기도 광주시 경안동 22-2번지","category":"의류 - 정장"},{"name":"민한의원","tel":"031-766-7506","addr":"경기도 광주시 경안동 22-2번지 젤존빌딩 2층","category":"의원 - 한의원"},{"name":"바우하우스미술학원","tel":"031-766-7151","addr":"경기도 광주시 경안동 22-2번지 5층","category":"학원 - 예·체능계학원"},{"name":"오다헤어(광주점)","tel":"031-764-5572","addr":"경기도 광주시 경안동 22-2번지","category":"보건위생 - 미용원"}]},{"lat":"37.40997095","long":"127.2569798","items":[{"name":"더채움독서실","tel":"031-765-9024","addr":"경기도 광주시 경안동 35-2번지","category":"학원 - 독서실"},{"name":"신사골감자탕경안점","tel":"031-766-2882","addr":"경기도 광주시 경안동 35-2번지 동양빌딩 101호","category":"일반휴게음식 - 일반한식"},{"name":"장수본가해장국","tel":"031-769-2016","addr":"경기도 광주시 경안동 35-2번지 동양빌딩","category":"일반휴게음식 - 일반한식"}]},{"lat":"37.40897591","long":"127.2588062","items":[{"name":"더페이스샵","tel":"031-766-8687","addr":"경기도 광주시 경안동 28-7번지","category":"보건위생 - 화장품"},{"name":"제오헤어","tel":"031-798-8533","addr":"경기도 광주시 경안동 28-7번지 2층","category":"보건위생 - 미용원"}]},{"lat":"37.41058149","long":"127.2579758","items":[{"name":"더퐁당와플","tel":"","addr":"경기도 광주시 경안동 54-1번지 1층","category":"일반휴게음식 - 서양음식"},{"name":"루비사","tel":"031-767-0303","addr":"경기도 광주시 경안동 54-1번지","category":"신변잡화 - 시계"},{"name":"아리따움 경기광주점","tel":"","addr":"경기도 광주시 경안동 54-1번지 1층","category":"보건위생 - 화장품"}]},{"lat":"37.41019705","long":"127.2565852","items":[{"name":"더플라워(THE FLOWER)","tel":"031-766-2548","addr":"경기도 광주시 경안동 49-10번지","category":"문화.취미 - 화원"},{"name":"봉구스밥버거(경안점)","tel":"031-769-0902","addr":"경기도 광주시 경안동 49-10번지","category":"일반휴게음식 - 일반한식"},{"name":"왕십리야채곱창","tel":"031-797-9359","addr":"경기도 광주시 경안동 49-10번지","category":"일반휴게음식 - 일반한식"},{"name":"이착한학생복","tel":"031-797-0024","addr":"경기도 광주시 경안동 49-10번지 2층","category":"의류 - 단체복"}]},{"lat":"37.40983665","long":"127.256584","items":[{"name":"덕향(퓨전)짬뽕집2호점","tel":"031-761-7607","addr":"경기도 광주시 경안동 36-3번지","category":"일반휴게음식 - 중국식"},{"name":"뜰안옹심이","tel":"031-761-8723","addr":"경기도 광주시 경안동 36-3번지","category":"일반휴게음식 - 일반한식"},{"name":"오가츠","tel":"031-769-1789","addr":"경기도 광주시 경안동 36-3번지 101호","category":"일반휴게음식 - 일식·회집"},{"name":"제안이발관","tel":"031-761-6929","addr":"경기도 광주시 경안동 36-3번지","category":"보건위생 - 이용원"},{"name":"킹차이나","tel":"031-765-7630","addr":"경기도 광주시 경안동 36-3번지 1층","category":"일반휴게음식 - 중국식"}]},{"lat":"37.41177872","long":"127.2542863","items":[{"name":"도그매니저","tel":"031-769-3883","addr":"경기도 광주시 경안동 84-1번지","category":"문화.취미 - 애완동물"},{"name":"효림정보통신(주연테크컴퓨터)","tel":"031-767-4466","addr":"경기도 광주시 경안동 84-1번지","category":"사무통신 - 컴퓨터"}]},{"lat":"37.41353379","long":"127.2551732","items":[{"name":"도래조와","tel":"031-764-1820","addr":"경기도 광주시 경안동 81-10번지","category":"보건위생 - 미용재료"}]},{"lat":"37.41377831","long":"127.2545866","items":[{"name":"도시바디지털 OA","tel":"031-767-5425","addr":"경기도 광주시 경안동 98-3번지","category":"사무통신 - 기타 사무용품"}]},{"lat":"37.40883896","long":"127.2554511","items":[{"name":"도시속바다회포차","tel":"031-768-2585","addr":"경기도 광주시 경안동 38-41번지 1층","category":"일반휴게음식 - 일반한식"}]},{"lat":"37.41094536","long":"127.2563618","items":[{"name":"도시화","tel":"070-8808-4858","addr":"경기도 광주시 경안동 50-10번지","category":"일반휴게음식 - 서양음식"},{"name":"해오름보습학원","tel":"031-761-3364","addr":"경기도 광주시 경안동 50-10번지 2층","category":"학원 - 보습학원"}]},{"lat":"37.41178407","long":"127.2517561","items":[{"name":"돈키돈키","tel":"031-767-8482","addr":"경기도 광주시 경안동 154-3번지","category":"일반휴게음식 - 스넥"},{"name":"빠마","tel":"031-765-6117","addr":"경기도 광주시 경안동 154-3번지","category":"보건위생 - 미용원"},{"name":"오징어마을","tel":"031-768-5553","addr":"경기도 광주시 경안동 154-3번지","category":"일반휴게음식 - 일반한식"}]},{"lat":"37.4145894","long":"127.2502291","items":[{"name":"동선참치","tel":"031-766-3785","addr":"경기도 광주시 경안동 433-19번지","category":"일반휴게음식 - 일식·회집"},{"name":"불티꼼장어","tel":"031-761-3092","addr":"경기도 광주시 경안동 433-19번지","category":"일반휴게음식 - 일반한식"}]},{"lat":"37.4118121","long":"127.2512818","items":[{"name":"동성체육관","tel":"031-765-3932","addr":"경기도 광주시 경안동 156-16번지","category":"학원 - 예·체능계학원"},{"name":"화니피아노교습소","tel":"031-764-8350","addr":"경기도 광주시 경안동 156-16번지 1층","category":"학원 - 예·체능계학원"}]},{"lat":"37.41275678","long":"127.2561759","items":[{"name":"동양전자의료기","tel":"070-8156-1287","addr":"경기도 광주시 경안동 74-9번지","category":"보건위생 - 의료용품"},{"name":"칠링 (CHILLING)","tel":"031-000-0000","addr":"경기도 광주시 경안동 74-9번지 2층","category":"일반휴게음식 - 서양음식"},{"name":"카메","tel":"","addr":"경기도 광주시 경안동 74-9번지","category":"일반휴게음식 - 주점"},{"name":"택이네조개전골","tel":"031-763-5550","addr":"경기도 광주시 경안동 74-9번지 1층","category":"일반휴게음식 - 일반한식"}]},{"lat":"37.41180399","long":"127.2551109","items":[{"name":"동일철물","tel":"031-764-1545","addr":"경기도 광주시 경안동 72-79번지","category":"건축자재 - 목재·석재·철물"}]},{"lat":"37.41450163","long":"127.2491105","items":[{"name":"두갸르송","tel":"031-766-2567","addr":"경기도 광주시 경안동 128-13번지","category":"일반휴게음식 - 서양음식"}]},{"lat":"37.41369281","long":"127.2524176","items":[{"name":"두찜 광주 경안점","tel":"070-1111-1111","addr":"경기도 광주시 경안동 124-23번지 1층","category":"일반휴게음식 - 일반한식"}]},{"lat":"37.41164453","long":"127.253834","items":[{"name":"두치애견샵","tel":"031-769-3883","addr":"경기도 광주시 경안동 85-1번지","category":"문화.취미 - 애완동물"}]},{"lat":"37.41022523","long":"127.2602224","items":[{"name":"드림디포 광주경안점","tel":"031-797-2987","addr":"경기도 광주시 경안동 20-13번지","category":"서적문구 - 문구용품"},{"name":"바른내일치과교정과치과의원","tel":"031-769-2211","addr":"경기도 광주시 경안동 20-13번지 3층","category":"의원 - 치과의원"}]},{"lat":"37.40964594","long":"127.2530593","items":[{"name":"디스페이스(D-SPACE)","tel":"031-797-8325","addr":"경기도 광주시 경안동 47-34번지 1층","category":"일반휴게음식 - 서양음식"}]},{"lat":"37.41083782","long":"127.2560904","items":[{"name":"디어디어(Dear .dear)","tel":"031-000-0000","addr":"경기도 광주시 경안동 50-6번지 1층","category":"의류 - 정장"},{"name":"영주네","tel":"031-768-7907","addr":"경기도 광주시 경안동 50-6번지","category":"의류 - 정장"},{"name":"중앙이발관","tel":"031-761-8355","addr":"경기도 광주시 경안동 50-6","category":"보건위생 - 이용원"}]},{"lat":"37.41272762","long":"127.2571698","items":[{"name":"떡담","tel":"031-764-3330","addr":"경기도 광주시 경안동 74-19번지","category":"음료식품 - 제과점"},{"name":"복다방","tel":"031-762-6686","addr":"경기도 광주시 경안동 74-19번지 2층","category":"일반휴게음식 - 서양음식"},{"name":"불닭발동대문엽기떡볶이","tel":"031-798-8599","addr":"경기도 광주시 경안동 74-19번지 1층 103호","category":"일반휴게음식 - 스넥"},{"name":"샤인(SHINE)","tel":"031-111-1111","addr":"경기도 광주시 경안동 74-19번지","category":"의류 - 정장"}]},{"lat":"37.41275148","long":"127.2501666","items":[{"name":"뚱뚱이할머니족발보쌈","tel":"031-769-5441","addr":"경기도 광주시 경안동 134-11번지","category":"일반휴게음식 - 일반한식"}]},{"lat":"37.40864576","long":"127.2573141","items":[{"name":"라라수산","tel":"001-0000-0000","addr":"경기도 광주시 경안동 33-39번지 1층","category":"음료식품 - 농·축·수산품"},{"name":"라라수산","tel":"031-761-9001","addr":"경기도 광주시 경안동 33-39번지","category":"음료식품 - 농·축·수산품"}]},{"lat":"37.41169633","long":"127.2590866","items":[{"name":"라라헤어","tel":"031-797-2050","addr":"경기도 광주시 경안동 17-4번지 2층","category":"보건위생 - 미용원"},{"name":"청춘연가","tel":"031-762-5750","addr":"경기도 광주시 경안동 17-4번지","category":"일반휴게음식 - 일반한식"},{"name":"캣츠(Cat's)네일","tel":"031-765-2844","addr":"경기도 광주시 경안동 17-4번지","category":"보건위생 - 피부미용실"},{"name":"포아찌쌀국수/(주)강산에프앤비","tel":"02-1111-1111","addr":"경기도 광주시 경안동 17-4번지","category":"일반휴게음식 - 일반한식"}]},{"lat":"37.41294713","long":"127.2556456","items":[{"name":"라이브축제","tel":"031-769-9588","addr":"경기도 광주시 경안동 80-9번지","category":"일반휴게음식 - 서양음식"},{"name":"마이 디지털 오에이(MY DIGITAL OA)","tel":"031-764-6599","addr":"경기도 광주시 경안동 80-9번지 1층","category":"사무통신 - 사무용 OA기기"},{"name":"우리집닭강정","tel":"031-763-4024","addr":"경기도 광주시 경안동 80-9번지","category":"일반휴게음식 - 스넥"},{"name":"유미네우렁쌈밥","tel":"031-767-3144","addr":"경기도 광주시 경안동 80-9번지","category":"일반휴게음식 - 일반한식"},{"name":"청지회분도태권도장","tel":"031-767-8547","addr":"경기도 광주시 경안동 80-9번지 2층 202호","category":"학원 - 예·체능계학원"},{"name":"카페괜찮아","tel":"031-1111-1111","addr":"경기도 광주시 경안동 80-9번지","category":"일반휴게음식 - 서양음식"}]},{"lat":"37.4111996","long":"127.2554477","items":[{"name":"라티명품","tel":"031-111-1111","addr":"경기도 광주시 경안동 48-5번지","category":"의류 - 기타의류"},{"name":"레몬비 아이스크림 전문점 (모세점)","tel":"","addr":"경기도 광주시 경안동 48-5번지 1층 4호","category":"음료식품 - 기타음료식품"},{"name":"월드가전","tel":"070-4203-8416","addr":"경기도 광주시 경안동 48-5번지","category":"전기제품 - 가전제품"},{"name":"잔치집","tel":"031-477-2158","addr":"경기도 광주시 경안동 48-5번지 1층","category":"일반휴게음식 - 일반한식"}]},{"lat":"37.41255598","long":"127.2615293","items":[{"name":"램브로 양꼬치","tel":"070-8162-5678","addr":"경기도 광주시 경안동 421번지 1층","category":"일반휴게음식 - 일반한식"}]},{"lat":"37.413034","long":"127.2613051","items":[{"name":"럭셔리 뷰티 광주점","tel":"031-798-5242","addr":"경기도 광주시 경안동 417-2번지 3층","category":"보건위생 - 화장품"},{"name":"큰집추어탕","tel":"031-766-7509","addr":"경기도 광주시 경안동 417-2번지 1층","category":"일반휴게음식 - 일반한식"}]},{"lat":"37.41422416","long":"127.2525323","items":[{"name":"런닝맨노래연습장","tel":"031-766-7555","addr":"경기도 광주시 경안동 96-8번지 무성빌딩 지층","category":"레저업소 - 노 래 방"},{"name":"빅박스당구장","tel":"070-8261-2758","addr":"경기도 광주시 경안동 96-8번지 무성빌딩 3층","category":"레저업소 - 당 구 장"},{"name":"산타쿠(SANTAKU)","tel":"031-764-1346","addr":"경기도 광주시 경안동 96-8번지 무성빌딩 102호","category":"서적문구 - 완구점"},{"name":"플레이하비(PLAY HOBBY)","tel":"031-764-1346","addr":"경기도 광주시 경안동 96-8번지 무성빌딩 102호","category":"서적문구 - 완구점"},{"name":"힐링","tel":"070-4200-3222","addr":"경기도 광주시 경안동 96-8번지 무성빌딩 2층","category":"보건위생 - 기타대인서비스"}]},{"lat":"37.41030415","long":"127.25706","items":[{"name":"레이디패션","tel":"031-764-6555","addr":"경기도 광주시 경안동 52-7번지","category":"의류 - 정장"},{"name":"아이비클럽","tel":"031-765-5547","addr":"경기도 광주시 경안동 52-7번지","category":"의류 - 기타의류"},{"name":"큰집떡방아간","tel":"031-761-3860","addr":"경기도 광주시 경안동 52-7번지","category":"음료식품 - 제과점"}]},{"lat":"37.41303383","long":"127.2572273","items":[{"name":"롯데리아경안제일점","tel":"031-761-8282","addr":"경기도 광주시 경안동 74-17번지","category":"일반휴게음식 - 서양음식"},{"name":"리더스(Leaders)pc방","tel":"","addr":"경기도 광주시 경안동 74-17번지 2층","category":"레저업소 - 기타레져업소"}]},{"lat":"37.41379135","long":"127.2483853","items":[{"name":"루디아","tel":"070-7818-9156","addr":"경기도 광주시 경안동 130-13번지 부영빌라","category":"보건위생 - 화장품"}]},{"lat":"37.41035981","long":"127.2563147","items":[{"name":"루루앤아이래쉬경기광주점","tel":"070-7817-9833","addr":"경기도 광주시 경안동 49-8번지 1층","category":"보건위생 - 화장품"},{"name":"핑크엔젤","tel":"031-763-8344","addr":"경기도 광주시 경안동 49-8번지","category":"의류 - 정장"}]},{"lat":"37.41308865","long":"127.2610342","items":[{"name":"루블린카페","tel":"02-2017-7729","addr":"경기도 광주시 경안동 417-1번지 1층","category":"일반휴게음식 - 서양음식"},{"name":"밥을드림","tel":"031-761-3512","addr":"경기도 광주시 경안동 417-1번지 1층","category":"일반휴게음식 - 일반한식"},{"name":"베이프 갱스터 경기광주 경안점","tel":"","addr":"경기도 광주시 경안동 417-1번지 1층 101호","category":"기타 - 기타 전문점"},{"name":"볼링샵","tel":"031-761-3512","addr":"경기도 광주시 경안동 417-1번지 1층 102호","category":"레져용품 - 스포츠·레져용품"},{"name":"어느봄날","tel":"","addr":"경기도 광주시 경안동 417-1번지 여원빌딩","category":"문화.취미 - 화원"},{"name":"에뜨왈봉봉캔들(etoilebonbon candle)","tel":"031-763-6123","addr":"경기도 광주시 경안동 417-1번지","category":"신변잡화 - 기타잡화"},{"name":"이수학원","tel":"031-767-4936","addr":"경기도 광주시 경안동 417-1번지 여원빌딩 3층","category":"학원 - 보습학원"},{"name":"필립독서실","tel":"02-000-0000","addr":"경기도 광주시 경안동 417-1번지 2층","category":"학원 - 독서실"}]},{"lat":"37.41216516","long":"127.2547507","items":[{"name":"리딩앤멘토르학원","tel":"070-7692-1234","addr":"경기도 광주시 경안동 83-9번지 2층","category":"학원 - 보습학원"},{"name":"아띠헤어샵","tel":"031-798-0788","addr":"경기도 광주시 경안동 83-9번지 1층 1호","category":"보건위생 - 미용원"},{"name":"웰 컴퓨터(경안점)","tel":"031-769-6262","addr":"경기도 광주시 경안동 83-9 2/","category":"수리서비스 - 사무·통신기기수리"}]},{"lat":"37.41244547","long":"127.2500075","items":[{"name":"리리크로스","tel":"","addr":"경기도 광주시 경안동 134-17번지","category":"신변잡화 - 기타잡화"}]},{"lat":"37.41345014","long":"127.2563703","items":[{"name":"리버스테크","tel":"031-764-4686","addr":"경기도 광주시 경안동 77-18번지","category":"사무통신 - 기타 사무용품"},{"name":"우성카인테리어","tel":"031-764-8722","addr":"경기도 광주시 경안동 77-18번지","category":"자동차정비 유지 - 카인테리어"}]},{"lat":"37.40913772","long":"127.2589762","items":[{"name":"리치모텔","tel":"031-761-7572","addr":"경기도 광주시 경안동 29-1,3","category":"숙박업 - 여관/기타숙박업"},{"name":"힐모텔","tel":"031-765-3282","addr":"경기도 광주시 경안동 29-1번지","category":"숙박업 - 여관/기타숙박업"},{"name":"힐모텔","tel":"031-765-3282","addr":"경기도 광주시 경안동 29-1번지","category":"숙박업 - 여관/기타숙박업"}]},{"lat":"37.41044867","long":"127.256891","items":[{"name":"리치헤어","tel":"031-762-3322","addr":"경기도 광주시 경안동 51-5번지 2층","category":"보건위생 - 미용원"},{"name":"밀크로지","tel":"","addr":"경기도 광주시 경안동 51-5번지 1층","category":"일반휴게음식 - 서양음식"},{"name":"추억의7080","tel":"031-761-0030","addr":"경기도 광주시 경안동 51-5번지","category":"일반휴게음식 - 주점"}]},{"lat":"37.41094691","long":"127.2556389","items":[{"name":"마들렌","tel":"031-761-6537","addr":"경기도 광주시 경안동 254-30번지","category":"의류 - 정장"}]},{"lat":"37.4129194","long":"127.2559731","items":[{"name":"마스터수학교습소","tel":"","addr":"경기도 광주시 경안동 74-14번지 현아트빌 1층","category":"학원 - 보습학원"}]},{"lat":"37.41402658","long":"127.2522266","items":[{"name":"마실","tel":"031-764-0989","addr":"경기도 광주시 경안동 123-14번지 1층","category":"의류 - 정장"}]},{"lat":"37.40997721","long":"127.2582562","items":[{"name":"마야헤어모드","tel":"031-764-1986","addr":"경기도 광주시 경안동 56-17번지 2층","category":"보건위생 - 미용원"},{"name":"아마스빈 광주경안점","tel":"031-797-0611","addr":"경기도 광주시 경안동 56-17번지 1층","category":"일반휴게음식 - 서양음식"}]},{"lat":"37.41433299","long":"127.2521938","items":[{"name":"마임 광주 중부 사랑 지사","tel":"031-765-0377","addr":"경기도 광주시 경안동 97-23번지 성호빌딩 2층","category":"건강식품 - 기타건강식품"},{"name":"마임광주경안지사","tel":"031-748-9862","addr":"경기도 광주시 경안동 97-23번지 성호빌딩 2층","category":"보건위생 - 화장품"},{"name":"사조회참치","tel":"031-762-1147","addr":"경기도 광주시 경안동 97-23번지","category":"일반휴게음식 - 일식·회집"},{"name":"세바퀴노래연습장","tel":"031-762-2275","addr":"경기도 광주시 경안동 97-23번지","category":"레저업소 - 노 래 방"}]},{"lat":"37.41130832","long":"127.2593563","items":[{"name":"만능열쇠","tel":"031-761-0088","addr":"경기도 광주시 경안동 19-7번지 광성빌라","category":"건축자재 - 목재·석재·철물"}]},{"lat":"37.41094486","long":"127.2523633","items":[{"name":"만원의 행복 나야나","tel":"070-8243-9093","addr":"경기도 광주시 경안동 160-8번지","category":"보건위생 - 화장품"}]},{"lat":"37.41233652","long":"127.2546722","items":[{"name":"맛나떡방아간","tel":"031-765-3022","addr":"경기도 광주시 경안동 83-8번지","category":"음료식품 - 제과점"},{"name":"어설렘","tel":"031-8028-0204","addr":"경기도 광주시 경안동 83-8번지 용궁빌딩 1층 103호","category":"신변잡화 - 기타잡화"},{"name":"정순농산물","tel":"031-797-9033","addr":"경기도 광주시 경안동 83-8번지 용궁빌딩 404호","category":"음료식품 - 농·축·수산품"},{"name":"중앙컴퓨터학원","tel":"031-761-5456","addr":"경기도 광주시 경안동 83-8번지 용궁빌딩 3층","category":"회원제형태 - 학원"},{"name":"하이패스보습학원","tel":"031-768-5457","addr":"경기도 광주시 경안동 83-8번지 용궁빌딩 2층","category":"학원 - 보습학원"},{"name":"한누리침구","tel":"031-767-8805","addr":"경기도 광주시 경안동 83-8번지 용궁빌딩 102호","category":"직물 - 침구·수예점"},{"name":"한땀한땀","tel":"","addr":"경기도 광주시 경안동 83-8번지 용궁빌딩 1층","category":"수리서비스 - 세탁소"}]},{"lat":"37.41244541","long":"127.2543111","items":[{"name":"맛때루","tel":"070-7793-3802","addr":"경기도 광주시 경안동 93-3번지 1층","category":"일반휴게음식 - 일반한식"},{"name":"인사동","tel":"031-797-3322","addr":"경기도 광주시 경안동 93-3번지","category":"일반휴게음식 - 주점"},{"name":"토마토도시락(경안점)","tel":"031-761-8211","addr":"경기도 광주시 경안동 93-3번지 103호","category":"일반휴게음식 - 일반한식"},{"name":"티파니(T파니)","tel":"031-000-0000","addr":"경기도 광주시 경안동 93-3번지 1층 6호","category":"의류 - 정장"},{"name":"한독서실","tel":"031-766-0053","addr":"경기도 광주시 경안동 93-3번지 2층","category":"학원 - 독서실"},{"name":"헤어비치","tel":"031-768-4545","addr":"경기도 광주시 경안동 93-3번지","category":"보건위생 - 미용원"}]},{"lat":"37.4124172","long":"127.2548645","items":[{"name":"먹자집","tel":"031-764-0533","addr":"경기도 광주시 경안동 83-6번지","category":"일반휴게음식 - 일반한식"},{"name":"명품수제돈까스","tel":"031-798-4886","addr":"경기도 광주시 경안동 83-6번지","category":"일반휴게음식 - 일반한식"},{"name":"찐빠닭발&포차","tel":"031-764-2499","addr":"경기도 광주시 경안동 83-6번지","category":"일반휴게음식 - 일반한식"}]},{"lat":"37.40972715","long":"127.2572274","items":[{"name":"먹태와 짝태","tel":"031-766-3988","addr":"경기도 광주시 경안동 35-8번지 1층","category":"일반휴게음식 - 주점"},{"name":"뷰티크래딧","tel":"031-761-1486","addr":"경기도 광주시 경안동 35-8번지","category":"보건위생 - 화장품"},{"name":"인세인","tel":"070-8811-0177","addr":"경기도 광주시 경안동 35-8번지 2층","category":"일반휴게음식 - 주점"},{"name":"지인빌리어드클럽","tel":"031-767-7222","addr":"경기도 광주시 경안동 35-8번지 3층","category":"레저업소 - 당 구 장"},{"name":"피자스쿨 광주경안점","tel":"031-766-1104","addr":"경기도 광주시 경안동 35-8번지","category":"일반휴게음식 - 서양음식"}]},{"lat":"37.41066598","long":"127.2563948","items":[{"name":"멋내기","tel":"031-764-2486","addr":"경기도 광주시 경안동 50-13번지 1층","category":"의류 - 정장"},{"name":"신불떡볶이","tel":"031-797-7079","addr":"경기도 광주시 경안동 50-13번지 1층","category":"일반휴게음식 - 스넥"},{"name":"아가다미용실","tel":"031-762-8956","addr":"경기도 광주시 경안동 50-13번지 1층","category":"보건위생 - 미용원"},{"name":"잠자리학원","tel":"031-763-0611","addr":"경기도 광주시 경안동 50-13번지 3층","category":"학원 - 컴퓨터학원"},{"name":"참나라건강원경안점","tel":"031-769-9388","addr":"경기도 광주시 경안동 50-13번지","category":"건강식품 - 기타건강식품"},{"name":"피부사랑","tel":"031-797-8711","addr":"경기도 광주시 경안동 50-13번지 205호","category":"보건위생 - 피부미용실"}]},{"lat":"37.41327723","long":"127.2571717","items":[{"name":"멋내는애견샵","tel":"031-798-4020","addr":"경기도 광주시 경안동 75-15번지","category":"문화.취미 - 애완동물"},{"name":"하트노래연습장","tel":"031-764-1344","addr":"경기도 광주시 경안동 75-15번지 2층","category":"레저업소 - 노 래 방"}]},{"lat":"37.40517269","long":"127.2508081","items":[{"name":"메디팜플러스","tel":"","addr":"경기도 광주시 경안동 236-6번지","category":"보건위생 - 의료용품"}]},{"lat":"37.41161463","long":"127.2593687","items":[{"name":"메이(May)","tel":"031-797-7796","addr":"경기도 광주시 경안동 17-1번지","category":"의류 - 정장"}]},{"lat":"37.40917187","long":"127.2556668","items":[{"name":"명문어학원","tel":"031-761-9902","addr":"경기도 광주시 경안동 36-48번지 1,2층","category":"학원 - 보습학원"},{"name":"즐거운음악학원","tel":"031-762-0901","addr":"경기도 광주시 경안동 36-48번지 3층","category":"학원 - 예·체능계학원"}]},{"lat":"37.41136614","long":"127.257617","items":[{"name":"명인만두광주점","tel":"031-764-3985","addr":"경기도 광주시 경안동 71-3번지","category":"일반휴게음식 - 스넥"},{"name":"신일사","tel":"031-761-3328","addr":"경기도 광주시 경안동 71-3번지","category":"신변잡화 - 귀금속"},{"name":"신일현수막","tel":"031-761-3338","addr":"경기도 광주시 경안동 71-3번지","category":"직물 - 카페트,커튼,천막,지물"}]},{"lat":"37.41033558","long":"127.2591949","items":[{"name":"명품노래연습장","tel":"031-798-5127","addr":"경기도 광주시 경안동 20-110번지 3층","category":"레저업소 - 노 래 방"},{"name":"사랑해수산","tel":"031-763-8882","addr":"경기도 광주시 경안동 20-110번지 한신빌딩","category":"일반휴게음식 - 일식·회집"},{"name":"삼구포차경안점","tel":"070-8286-7494","addr":"경기도 광주시 경안동 20-110번지 한신빌딩 2층","category":"일반휴게음식 - 일반한식"},{"name":"하오츠양꼬치","tel":"031-769-8883","addr":"경기도 광주시 경안동 20-110번지 한신빌딩 1층","category":"일반휴게음식 - 중국식"}]},{"lat":"37.4116693","long":"127.2548958","items":[{"name":"명품수선","tel":"031-768-2670","addr":"경기도 광주시 경안동 84-4번지","category":"수리서비스 - 세탁소"},{"name":"신세계커텐","tel":"031-761-5201","addr":"경기도 광주시 경안동 84-4번지","category":"직물 - 카페트,커튼,천막,지물"},{"name":"정화환경 주식회사","tel":"031-761-4234","addr":"경기도 광주시 경안동 84-4번지 2층","category":"용역 서비스 - 종합용역"},{"name":"현진 노래연습장","tel":"031-764-9552","addr":"경기도 광주시 경안동 84-4번지","category":"레저업소 - 노 래 방"}]},{"lat":"37.41244313","long":"127.2511257","items":[{"name":"명품줄눈","tel":"","addr":"경기도 광주시 경안동 144-8번지 신영빌라","category":"용역 서비스 - 기타용역서비스"}]},{"lat":"37.4105575","long":"127.2565638","items":[{"name":"모나코","tel":"031-223-9159","addr":"경기도 광주시 경안동 51-12번지","category":"의류 - 정장"},{"name":"오픈키즈","tel":"031-767-8923","addr":"경기도 광주시 경안동 51-12번지","category":"의류 - 정장"},{"name":"일공삼스토리","tel":"070-4090-1545","addr":"경기도 광주시 경안동 51-12번지","category":"의류 - 정장"},{"name":"한아름머리방","tel":"031-764-2643","addr":"경기도 광주시 경안동 51-12번지","category":"보건위생 - 미용원"},{"name":"헤이즈 (haze)","tel":"031-000-0000","addr":"경기도 광주시 경안동 51-12번지","category":"의류 - 정장"}]},{"lat":"37.41139402","long":"127.2572218","items":[{"name":"모로미식당","tel":"031-763-1465","addr":"경기도 광주시 경안동 71-9번지 2층","category":"일반휴게음식 - 서양음식"},{"name":"이벤트","tel":"031-761-2511","addr":"경기도 광주시 경안동 71-9번지","category":"유통업 영리 - 기타유통업"}]},{"lat":"37.40866837","long":"127.2551682","items":[{"name":"목화건강원","tel":"031-768-0184","addr":"경기도 광주시 경안동 38-44번지","category":"건강식품 - 기타건강식품"},{"name":"유가네오리밥상","tel":"031-764-3323","addr":"경기도 광주시 경안동 38-44번지","category":"일반휴게음식 - 일반한식"},{"name":"진미가마솥통닭","tel":"031-767-3775","addr":"경기도 광주시 경안동 38-44번지","category":"일반휴게음식 - 스넥"},{"name":"헤어비스/지키","tel":"031-480-2627","addr":"경기도 광주시 경안동 38-44번지 102호","category":"보건위생 - 미용원"}]},{"lat":"37.40827642","long":"127.257279","items":[{"name":"몰스마트","tel":"031-761-4142","addr":"경기도 광주시 경안동 33-25번지","category":"신변잡화 - 기타잡화"}]},{"lat":"37.41244387","long":"127.255034","items":[{"name":"못난이꽈배기","tel":"031-762-9688","addr":"경기도 광주시 경안동 82-3번지","category":"일반휴게음식 - 일반한식"},{"name":"에드 뷰티 랩","tel":"031-762-1594","addr":"경기도 광주시 경안동 82-3번지","category":"보건위생 - 화장품"}]},{"lat":"37.40952708","long":"127.2580852","items":[{"name":"못된 고양이 (광주점)","tel":"070-4296-5969","addr":"경기도 광주시 경안동 31-10번지","category":"신변잡화 - 액세서리"},{"name":"클라비스/수정빌딩","tel":"031-767-3900","addr":"경기도 광주시 경안동 31-10번지","category":"의류 - 정장"}]},{"lat":"37.410311","long":"127.2580653","items":[{"name":"문구백화점","tel":"031-764-3400","addr":"경기도 광주시 경안동 54-11번지","category":"서적문구 - 문구용품"}]},{"lat":"37.41372188","long":"127.2514462","items":[{"name":"문화로120","tel":"031-761-2321","addr":"경기도 광주시 경안동 125-8번지 1층","category":"일반휴게음식 - 서양음식"}]},{"lat":"37.41158768","long":"127.2551441","items":[{"name":"물보라화장품","tel":"031-767-3366","addr":"경기도 광주시 경안동 48-20번지","category":"보건위생 - 화장품"},{"name":"미룸 옷가게","tel":"031-762-9512","addr":"경기도 광주시 경안동 48-20번지 1층","category":"의류 - 정장"},{"name":"미룸(Mi-Room)","tel":"031-762-9512","addr":"경기도 광주시 경안동 48-20번지 1층","category":"의류 - 정장"}]},{"lat":"37.40972192","long":"127.2596446","items":[{"name":"미담네일아트","tel":"031-798-3319","addr":"경기도 광주시 경안동 24-18번지 대명빌딩 2층","category":"보건위생 - 피부미용실"},{"name":"미담에스테틱","tel":"031-798-3319","addr":"경기도 광주시 경안동 24-18번지 대명빌딩 2층 202호","category":"보건위생 - 피부미용실"},{"name":"미스터피자 경기광주","tel":"031-797-9223","addr":"경기도 광주시 경안동 24-18번지","category":"일반휴게음식 - 서양음식"},{"name":"미카도","tel":"031-761-5581","addr":"경기도 광주시 경안동 24-18번지 대명빌딩","category":"일반휴게음식 - 일식·회집"},{"name":"블랙야크경기광주","tel":"031-763-9111","addr":"경기도 광주시 경안동 24-18번지","category":"레져용품 - 스포츠·레져용품"},{"name":"스파오라 스칼프","tel":"031-715-6767","addr":"경기도 광주시 경안동 24-18번지 대명빌딩 4층 402호","category":"보건위생 - 피부미용실"},{"name":"조이너스 경기광주점","tel":"031-764-3596","addr":"경기도 광주시 경안동 24-18번지","category":"의류 - 스포츠의류"}]},{"lat":"37.40888726","long":"127.2496456","items":[{"name":"미랜총판(아산시)","tel":"031-763-0669","addr":"경기도 광주시 경안동 163-40번지 렉스빌하우스 B동 302호","category":"주방용구 - 주방용구"}]},{"lat":"37.40941757","long":"127.2502573","items":[{"name":"미르상사","tel":"031-797-9295","addr":"경기도 광주시 경안동 163-12번지 문화쉐르빌 203호","category":"용역 서비스 - 종합용역"}]},{"lat":"37.41108546","long":"127.2582486","items":[{"name":"미르수제청","tel":"070-7779-4701","addr":"경기도 광주시 경안동 60-3번지 1층","category":"음료식품 - 기타음료식품"},{"name":"벨루스가죽공방","tel":"031-761-7688","addr":"경기도 광주시 경안동 60-3번지 101호","category":"문화.취미 - 문화취미기타"},{"name":"앨리(Allie)","tel":"","addr":"경기도 광주시 경안동 60-3번지 102호","category":"의류 - 정장"},{"name":"약산당한의원","tel":"031-65-1113","addr":"경기도 광주시 경안동 60-3번지(중앙로 130-34)","category":"의원 - 한의원"},{"name":"큐브","tel":"02-0000-0000","addr":"경기도 광주시 경안동 60-3번지 1층","category":"일반휴게음식 - 서양음식"}]},{"lat":"37.41083539","long":"127.2487032","items":[{"name":"미르에어컨공조","tel":"","addr":"경기도 광주시 경안동 152-31번지 3층 301호","category":"용역 서비스 - 기타용역서비스"}]},{"lat":"37.40936453","long":"127.2582541","items":[{"name":"미샤화장품(광주점)","tel":"031-762-6020","addr":"경기도 광주시 경안동 31-4번지 1","category":"보건위생 - 화장품"},{"name":"조은안경원","tel":"031-761-2612","addr":"경기도 광주시 경안동 31-4번지","category":"보건위생 - 안경"},{"name":"헤어톡","tel":"031-765-4488","addr":"경기도 광주시 경안동 31-4번지","category":"보건위생 - 미용원"}]},{"lat":"37.41300167","long":"127.2554199","items":[{"name":"미용재료.화장품.바로사","tel":"031-797-0711","addr":"경기도 광주시 경안동 81-32번지 지층","category":"보건위생 - 미용재료"}]},{"lat":"37.41139359","long":"127.2532006","items":[{"name":"민이네 바른먹거리","tel":"031-699-7452","addr":"경기도 광주시 경안동 85-13번지","category":"음료식품 - 기타음료식품"}]},{"lat":"37.41124884","long":"127.2576957","items":[{"name":"민치과의원","tel":"031-764-2875","addr":"경기도 광주시 경안동 71-4번지","category":"의원 - 치과의원"},{"name":"정내과","tel":"031-764-6455","addr":"경기도 광주시 경안동 71-4번지","category":"의원 - 의원"}]},{"lat":"37.41047713","long":"127.2562247","items":[{"name":"밀리오레","tel":"","addr":"경기도 광주시 경안동 49-6번지 101호","category":"의류 - 정장"}]},{"lat":"37.41119642","long":"127.252703","items":[{"name":"바른몸체형관리","tel":"031-762-7958","addr":"경기도 광주시 경안동 85-4번지 103호","category":"회원제형태 - 기타4"}]},{"lat":"37.40938727","long":"127.2560629","items":[{"name":"바이더웨이광주으뜸점","tel":"011-****-****","addr":"경기도 광주시 경안동 36-17번지","category":"유통업 영리 - 편 의 점"},{"name":"브라운스토리","tel":"031-762-5032","addr":"경기도 광주시 경안동 36-17번지","category":"일반휴게음식 - 서양음식"},{"name":"세븐일레븐광주으뜸점","tel":"","addr":"경기도 광주시 경안동 36-17번지","category":"유통업 영리 - 편 의 점"}]},{"lat":"37.41072536","long":"127.2581119","items":[{"name":"바이제이뷰티(by J beauty)","tel":"","addr":"경기도 광주시 경안동 58-5번지","category":"보건위생 - 피부미용실"},{"name":"카페별처럼","tel":"031-769-5429","addr":"경기도 광주시 경안동 58-5번지","category":"일반휴게음식 - 서양음식"},{"name":"티나헤어","tel":"","addr":"경기도 광주시 경안동 58-5번지 3층","category":"보건위생 - 미용원"}]},{"lat":"37.41216747","long":"127.2536663","items":[{"name":"박정은헤어","tel":"","addr":"경기도 광주시 경안동 87-1번지 성신빌딩 1층","category":"보건위생 - 미용원"},{"name":"언니s포차","tel":"031-761-3536","addr":"경기도 광주시 경안동 87-1번지 성신빌딩 1층","category":"일반휴게음식 - 일반한식"},{"name":"얼굴에 밥주는 여자","tel":"031-744-7935","addr":"경기도 광주시 경안동 87-1번지 성신빌딩","category":"보건위생 - 피부미용실"}]},{"lat":"37.41147019","long":"127.2553131","items":[{"name":"반하다...","tel":"","addr":"경기도 광주시 경안동 48-9번지","category":"의류 - 정장"}]},{"lat":"37.4118946","long":"127.2590646","items":[{"name":"밥아~고기랑놀자","tel":"031-766-0531","addr":"경기도 광주시 경안동 12-3번지 102호","category":"일반휴게음식 - 일반한식"},{"name":"스시순","tel":"031-766-1410","addr":"경기도 광주시 경안동 12-3번지 1층 103호","category":"일반휴게음식 - 일식·회집"}]},{"lat":"37.40805781","long":"127.2541722","items":[{"name":"배달삼겹갈통삼 경안점","tel":"031-766-4158","addr":"경기도 광주시 경안동 38-168번지","category":"일반휴게음식 - 일반한식"},{"name":"카페머랭","tel":"031-000-0000","addr":"경기도 광주시 경안동 38-168번지","category":"일반휴게음식 - 서양음식"}]},{"lat":"37.40900335","long":"127.250143","items":[{"name":"백두산랜드","tel":"031-761-0110","addr":"경기도 광주시 경안동 178-1번지","category":"보건위생 - 사우나"},{"name":"여명피부관리실","tel":"031-000-0000","addr":"경기도 광주시 경안동 178-1번지 3층","category":"보건위생 - 피부미용실"}]},{"lat":"37.41352986","long":"127.2527785","items":[{"name":"백세건강원","tel":"031-763-6543","addr":"경기도 광주시 경안동 91-7번지","category":"건강식품 - 기타건강식품"},{"name":"파파스런드리","tel":"","addr":"경기도 광주시 경안동 91-7번지 101호","category":"자동차정비 유지 - 세차장"}]},{"lat":"37.40897747","long":"127.2580833","items":[{"name":"버블","tel":"031-767-0866","addr":"경기도 광주시 경안동 32-9번지","category":"일반휴게음식 - 일반한식"}]},{"lat":"37.40866668","long":"127.260138","items":[{"name":"버블하우스","tel":"031-766-9583","addr":"경기도 광주시 경안동 27-1번지","category":"의류 - 정장"},{"name":"정빈산성","tel":"031-762-2455","addr":"경기도 광주시 경안동 27-1번지 2호","category":"건축자재 - 인테리어전문"}]},{"lat":"37.41247054","long":"127.2552035","items":[{"name":"베가스푸드시스템","tel":"031-765-7008","addr":"경기도 광주시 경안동 82-11번지","category":"일반휴게음식 - 서양음식"},{"name":"아론속셈학원","tel":"031-761-4626","addr":"경기도 광주시 경안동 82-11번지","category":"학원 - 기타 교육기관"}]},{"lat":"37.41022068","long":"127.2581666","items":[{"name":"베스킨라빈스(경안점)","tel":"031-764-4949","addr":"경기도 광주시 경안동 56-9번지","category":"음료식품 - 제과점"},{"name":"한스델리(경안점)","tel":"031-762-8268","addr":"경기도 광주시 경안동 56-9번지","category":"일반휴게음식 - 서양음식"},{"name":"화신미용실","tel":"031-761-4317","addr":"경기도 광주시 경안동 56-9번지","category":"보건위생 - 미용원"}]},{"lat":"37.41194654","long":"127.2558682","items":[{"name":"베스트특장","tel":"031-323-1822","addr":"경기도 광주시 경안동 72-45번지","category":"자동차판매 - 기타운송"}]},{"lat":"37.41311618","long":"127.2608083","items":[{"name":"베요타","tel":"031-798-7037","addr":"경기도 광주시 경안동 417번지 1층","category":"일반휴게음식 - 일반한식"},{"name":"한사랑푸드","tel":"031-798-7037","addr":"경기도 광주시 경안동 417번지 1층","category":"음료식품 - 정육점"}]},{"lat":"37.41210925","long":"127.2556202","items":[{"name":"베이커스마인드","tel":"","addr":"경기도 광주시 경안동 72-59번지","category":"일반휴게음식 - 서양음식"},{"name":"재형학원","tel":"031-798-9223","addr":"경기도 광주시 경안동 72-59, 72-72","category":"회원제형태 - 학원"},{"name":"참치데이","tel":"031-763-3314","addr":"경기도 광주시 경안동 72-59번지 1층","category":"일반휴게음식 - 일식·회집"}]},{"lat":"37.41053136","long":"127.2561458","items":[{"name":"벨팜","tel":"070-4936-8669","addr":"경기도 광주시 경안동 49-18번지 1층","category":"의류 - 정장"},{"name":"선물상자","tel":"031-762-1349","addr":"경기도 광주시 경안동 49-18번지","category":"의류 - 기타의류"}]},{"lat":"37.41319696","long":"127.2567873","items":[{"name":"변호사김준완법률사무소","tel":"031-766-0220","addr":"경기도 광주시 경안동 75-5번지","category":"용역 서비스 - 법률회계서비스(개인)"}]},{"lat":"37.41022168","long":"127.2577035","items":[{"name":"보디가드광주점","tel":"031-767-4917","addr":"경기도 광주시 경안동 54-2번지","category":"의류 - 정장"},{"name":"올리비아로렌(경기도광주점)","tel":"031-765-9733","addr":"경기도 광주시 경안동 54-2번지","category":"레져용품 - 스포츠·레져용품"}]},{"lat":"37.40889273","long":"127.2555868","items":[{"name":"보라포차파전","tel":"031-764-8458","addr":"경기도 광주시 경안동 38-26번지 1층","category":"일반휴게음식 - 일반한식"},{"name":"오케이(OK)염색방","tel":"031-767-1503","addr":"경기도 광주시 경안동 38-26번지","category":"보건위생 - 미용원"},{"name":"폭시","tel":"031-762-9472","addr":"경기도 광주시 경안동 38-26번지","category":"의류 - 맞춤복점"},{"name":"헤어미용실","tel":"031-761-1416","addr":"경기도 광주시 경안동 38-26번지 1층","category":"보건위생 - 미용원"}]},{"lat":"37.41203122","long":"127.2583874","items":[{"name":"부산갈매기","tel":"031-765-7775","addr":"경기도 광주시 경안동 65-6번지 1층","category":"일반휴게음식 - 일반한식"}]},{"lat":"37.4127769","long":"127.2551932","items":[{"name":"북카페 (BOOK CAFE)","tel":"031-761-8899","addr":"경기도 광주시 경안동 82-14번지 광일빌딩 지층","category":"서적문구 - 일반서적"},{"name":"제이에이치(JH)영어교습소","tel":"031-761-8899","addr":"경기도 광주시 경안동 82-14번지 광일빌딩 5층 일부","category":"학원 - 외국어학원"},{"name":"제이에치 북 스토어 (JH BOOK STORE)","tel":"031-797-2234","addr":"경기도 광주시 경안동 82-14번지 광일빌딩 5층 일부","category":"서적문구 - 일반서적"},{"name":"하이그룹 학원","tel":"031-754-7727","addr":"경기도 광주시 경안동 82-14번지 광일빌딩 4층","category":"학원 - 보습학원"}]},{"lat":"37.41130433","long":"127.252805","items":[{"name":"뷰티몽드","tel":"","addr":"경기도 광주시 경안동 85-16번지 1층,2층","category":"보건위생 - 피부미용실"}]},{"lat":"37.4110264","long":"127.2521489","items":[{"name":"브릴란테","tel":"","addr":"경기도 광주시 경안동 161-1번지","category":"신변잡화 - 액세서리"}]},{"lat":"37.41183868","long":"127.2599229","items":[{"name":"블랙야크 경기광주점","tel":"","addr":"경기도 광주시 경안동 12-16번지 102호,103호","category":"레져용품 - 스포츠·레져용품"},{"name":"우리법률사무소","tel":"031-798-2000","addr":"경기도 광주시 경안동 12-16번지 101호","category":"용역 서비스 - 법률회계서비스(개인)"},{"name":"우리법무사","tel":"031-798-2000","addr":"경기도 광주시 경안동 12-16번지 101호","category":"용역 서비스 - 법률회계서비스(개인)"}]},{"lat":"37.41219969","long":"127.251204","items":[{"name":"비에이치씨(BHC) 경안점","tel":"031-764-9951","addr":"경기도 광주시 경안동 155번지","category":"일반휴게음식 - 스넥"}]},{"lat":"37.41322263","long":"127.25742","items":[{"name":"비전월드평생교육원","tel":"031-798-3480","addr":"경기도 광주시 경안동 76-5번지","category":"회원제형태 - 학원"},{"name":"제일정형외과의원","tel":"031-761-3200","addr":"경기도 광주시 경안동 76-5번지","category":"의원 - 의원"},{"name":"제일정형외과의원","tel":"031-761-3200","addr":"경기도 광주시 경안동 76-5번지","category":"병원 - 병원"}]},{"lat":"37.41222352","long":"127.2569535","items":[{"name":"빅마미","tel":"031-768-5587","addr":"경기도 광주시 경안동 73-21","category":"의류 - 정장"}]},{"lat":"37.41886028","long":"127.241398","items":[{"name":"뿌리깊은수학학원","tel":"031-762-4986","addr":"경기도 광주시 경안동 433-14번지 진영빌딩 4층","category":"학원 - 보습학원"}]},{"lat":"37.41089214","long":"127.2601456","items":[{"name":"삼광지물커텐","tel":"031-764-4981","addr":"경기도 광주시 경안동 20-63","category":"직물 - 기타직물"},{"name":"서울의료기","tel":"031-769-5600","addr":"경기도 광주시 경안동 20-61번지","category":"보건위생 - 의료용품"},{"name":"죽이야기 참조은병원점","tel":"031-768-6288","addr":"경기도 광주시 경안동 20-61번지 참조은병원 1동","category":"일반휴게음식 - 일반한식"},{"name":"참조은편의점","tel":"031-365-9955","addr":"경기도 광주시 경안동 20-61번지","category":"유통업 영리 - 편 의 점"},{"name":"티트리카페베이커리","tel":"031-769-0033","addr":"경기도 광주시 경안동 20-61번지 1층","category":"일반휴게음식 - 서양음식"}]},{"lat":"37.40980842","long":"127.2486208","items":[{"name":"삼성영어경안학원","tel":"031-766-3405","addr":"경기도 광주시 경안동 219-43번지 2층","category":"학원 - 보습학원"}]},{"lat":"37.41250591","long":"127.2596993","items":[{"name":"삼성통신","tel":"031-767-1505","addr":"경기도 광주시 경안동 9-6번지","category":"회원제형태 - 기타4"}]},{"lat":"37.40942154","long":"127.2568876","items":[{"name":"삿뽀로의눈내리는날","tel":"031-767-8025","addr":"경기도 광주시 경안동 33-21번지 1층","category":"일반휴게음식 - 일식·회집"}]},{"lat":"37.41877903","long":"127.2414768","items":[{"name":"상하이테라피","tel":"031-764-0375","addr":"경기도 광주시 경안동 433-16번지 성운빌딩 3층","category":"보건위생 - 화장품"},{"name":"에이씨보드카페","tel":"031-797-0711","addr":"경기도 광주시 경안동 433-16번지 성운빌딩 6층","category":"일반휴게음식 - 일반한식"},{"name":"에쿠스노래방","tel":"031-763-9071","addr":"경기도 광주시 경안동 433-16번지 성운빌딩 4층","category":"레저업소 - 노 래 방"},{"name":"청담맥주","tel":"031-797-8142","addr":"경기도 광주시 경안동 433-16번지 성운빌딩 2층","category":"일반휴게음식 - 주점"}]},{"lat":"37.41277943","long":"127.2540072","items":[{"name":"새마을제분소","tel":"031-761-3023","addr":"경기도 광주시 경안동 95-6번지","category":"음료식품 - 기타음료식품"},{"name":"엄마방","tel":"031-2471-9360","addr":"경기도 광주시 경안동 95-6번지","category":"의류 - 정장"}]},{"lat":"37.40725631","long":"127.249708","items":[{"name":"샘물성남가맹점","tel":"","addr":"경기도 광주시 경안동 185-1번지 해태그린아파트","category":"유통업 영리 - 기타유통업"}]},{"lat":"37.41344541","long":"127.2500898","items":[{"name":"서영마리헤어","tel":"031-766-3310","addr":"경기도 광주시 경안동 136-10번지","category":"보건위생 - 미용원"}]},{"lat":"37.40989186","long":"127.2602212","items":[{"name":"서영식세무사사무소","tel":"031-761-3102","addr":"경기도 광주시 경안동 20-65번지","category":"용역 서비스 - 법률회계서비스(개인)"},{"name":"엠에이씨실용음악학원","tel":"031-761-6642","addr":"경기도 광주시 경안동 20-65번지 광영빌딩 5층","category":"회원제형태 - 학원"},{"name":"크리스탈의원","tel":"031-761-8400","addr":"경기도 광주시 경안동 20-65번지 광영빌딩 2층","category":"의원 - 의원"}]},{"lat":"37.40972246","long":"127.2593961","items":[{"name":"서울 더(THE) 안치과의원","tel":"031-798-0331","addr":"경기도 광주시 경안동 24-20번지 경안빌딩 3층","category":"의원 - 치과의원"},{"name":"설빙경안점","tel":"070-0000-0000","addr":"경기도 광주시 경안동 24-20번지","category":"일반휴게음식 - 서양음식"},{"name":"스카이(SKY)당구장","tel":"070-8951-2441","addr":"경기도 광주시 경안동 24-20번지 경안빌딩","category":"레저업소 - 당 구 장"},{"name":"스테이온PC방","tel":"031-1234-1234","addr":"경기도 광주시 경안동 24-20번지","category":"레저업소 - 기타레져업소"},{"name":"청춘텔레콤","tel":"031-767-0018","addr":"경기도 광주시 경안동 24-20번지 경안빌딩 1층 서좌측","category":"사무통신 - 통신기기"}]},{"lat":"37.41014446","long":"127.2473342","items":[{"name":"서울장신대학교 산학협력단","tel":"031-799-9009","addr":"경기도 광주시 경안동 219-1번지","category":"학원 - 대학등록금"},{"name":"씨즈카페","tel":"032-592-1320","addr":"경기도 광주시 경안동 219-1번지 서울장신대 벨엘관 1층","category":"일반휴게음식 - 서양음식"}]},{"lat":"37.4114424","long":"127.2514161","items":[{"name":"성민인테리어건축","tel":"031-765-5240","addr":"경기도 광주시 경안동 156-20번지 101호","category":"건축자재 - 부동산 분양"}]},{"lat":"37.41414194","long":"127.2530629","items":[{"name":"세경자동차용품","tel":"031-762-5707","addr":"경기도 광주시 경안동 96-4번지","category":"자동차정비 유지 - 자동차부품"},{"name":"해성철망휀스공사","tel":"031-764-2902","addr":"경기도 광주시 경안동 96-4","category":"건축자재 - 기타건축자재"}]},{"lat":"37.41397416","long":"127.251447","items":[{"name":"세무그룹송정","tel":"031-797-5114","addr":"경기도 광주시 경안동 440-9번지","category":"용역 서비스 - 법률회계서비스(개인)"},{"name":"하늘케어","tel":"031-699-0220","addr":"경기도 광주시 경안동 440-9번지","category":"보건위생 - 의료용품"}]},{"lat":"37.41305543","long":"127.2513085","items":[{"name":"세무법인 한얼 광주지점","tel":"031-798-3305","addr":"경기도 광주시 경안동 126-4번지 현우빌딩 3층","category":"용역 서비스 - 법률회계서비스(법인)"},{"name":"야후노래연습장","tel":"031-765-7895","addr":"경기도 광주시 경안동 126-4번지 현우빌딩 지층","category":"레저업소 - 노 래 방"},{"name":"자연한의원","tel":"031-764-1575","addr":"경기도 광주시 경안동 126-4번지","category":"의원 - 한의원"}]},{"lat":"37.41347352","long":"127.2580647","items":[{"name":"세무사김형근사무소","tel":"031-763-6601","addr":"경기도 광주시 경안동 442-8번지 2층","category":"용역 서비스 - 법률회계서비스(개인)"},{"name":"해피바이크","tel":"031-764-2414","addr":"경기도 광주시 경안동 442-8번지","category":"레져용품 - 스포츠·레져용품"}]},{"lat":"37.41228376","long":"127.254062","items":[{"name":"세븐일레븐경기광주경안로점","tel":"031-1577-0711","addr":"경기도 광주시 경안동 92-9번지 1층","category":"유통업 영리 - 편 의 점"}]},{"lat":"37.4066716","long":"127.2492543","items":[{"name":"세븐일레븐경기광주안골점","tel":"","addr":"경기도 광주시 경안동 194번지","category":"유통업 영리 - 편 의 점"}]},{"lat":"37.40961218","long":"127.2562218","items":[{"name":"셀파수학교실 경안학원","tel":"070-7680-9359","addr":"경기도 광주시 경안동 36-59번지","category":"학원 - 보습학원"}]},{"lat":"37.41339176","long":"127.2498976","items":[{"name":"소담포차","tel":"031-732-7213","addr":"경기도 광주시 경안동 136-1번지 102호","category":"일반휴게음식 - 일반한식"},{"name":"해솔동태찜","tel":"031-768-3773","addr":"경기도 광주시 경안동 136-1번지","category":"일반휴게음식 - 일반한식"}]},{"lat":"37.41847231","long":"127.2416678","items":[{"name":"소라네파전다됐네","tel":"031-765-7775","addr":"경기도 광주시 경안동 433-17번지 세현빌딩 1층","category":"일반휴게음식 - 일반한식"}]},{"lat":"37.40964414","long":"127.2581195","items":[{"name":"소소살롱","tel":"","addr":"경기도 광주시 경안동 31-8번지 2층","category":"보건위생 - 미용원"},{"name":"쿡잉글리쉬 영어교습소","tel":"031-767-7170","addr":"경기도 광주시 경안동 31-8번지","category":"회원제형태 - 학원"},{"name":"한솔통신","tel":"031-767-0018","addr":"경기도 광주시 경안동 31-8번지 1층","category":"사무통신 - 통신기기"}]},{"lat":"37.41038837","long":"127.2597824","items":[{"name":"소소살롱2","tel":"031-798-1987","addr":"경기도 광주시 경안동 23-3번지 2층","category":"보건위생 - 미용원"},{"name":"하남돼지집","tel":"031-762-9092","addr":"경기도 광주시 경안동 23-3번지 1층","category":"일반휴게음식 - 일반한식"},{"name":"허스뷰티그룹 HAS BEAUTY GROUP","tel":"031-798-1987","addr":"경기도 광주시 경안동 23-3번지 2층","category":"보건위생 - 화장품"}]},{"lat":"37.40839367","long":"127.2572229","items":[{"name":"속옷상설할인매장","tel":"031-764-6465","addr":"경기도 광주시 경안동 33-30번지","category":"의류 - 내의판매"},{"name":"엑스포종합인삼몰","tel":"031-761-5114","addr":"경기도 광주시 경안동 33-30번지","category":"건강식품 - 기타건강식품"}]},{"lat":"37.40684284","long":"127.2492323","items":[{"name":"솔로몬공부방","tel":"031-765-4465","addr":"경기도 광주시 경안동 192 거림이노빌 B-401 5/","category":"회원제형태 - 학원"}]},{"lat":"37.41258205","long":"127.2536112","items":[{"name":"송가네돈촌","tel":"031-798-2466","addr":"경기도 광주시 경안동 92-16번지","category":"일반휴게음식 - 일반한식"}]},{"lat":"37.40611911","long":"127.2506305","items":[{"name":"송스부띠","tel":"","addr":"경기도 광주시 경안동 190번지 현대그린빌","category":"보건위생 - 화장품"}]},{"lat":"37.41206199","long":"127.256648","items":[{"name":"쇼니네네일맛집","tel":"031-111-1111","addr":"경기도 광주시 경안동 72-1번지 1층","category":"보건위생 - 피부미용실"}]},{"lat":"37.41344849","long":"127.2571384","items":[{"name":"수연다방","tel":"031-764-3363","addr":"경기도 광주시 경안동 76번지","category":"일반휴게음식 - 서양음식"},{"name":"스타트리종합건축사사무소","tel":"031-702-1577","addr":"경기도 광주시 경안동 76번지 한성빌딩 301호","category":"용역 서비스 - 사무서비스"},{"name":"파발슈퍼","tel":"031-762-1106","addr":"경기도 광주시 경안동 76번지","category":"유통업 영리 - 슈퍼마켓"}]},{"lat":"37.41105479","long":"127.2557522","items":[{"name":"숨샌드아트교습소","tel":"","addr":"경기도 광주시 경안동 72-25번지 3층","category":"학원 - 예·체능계학원"},{"name":"씨유광주경안중앙점","tel":"080-080-3663","addr":"경기도 광주시 경안동 72-25번지 1층","category":"유통업 영리 - 편 의 점"},{"name":"아이엠학원","tel":"031-768-0945","addr":"경기도 광주시 경안동 72-25 2층.3층","category":"학원 - 보습학원"}]},{"lat":"37.41205565","long":"127.251147","items":[{"name":"스카이 정보통신","tel":"031-797-9033","addr":"경기도 광주시 경안동 155-11번지","category":"회원제형태 - 기타1"}]},{"lat":"37.40877659","long":"127.2593138","items":[{"name":"스카이호텔","tel":"031-798-7950","addr":"경기도 광주시 경안동 28-18번지","category":"숙박업 - 여관/기타숙박업"}]},{"lat":"37.41422608","long":"127.2516173","items":[{"name":"스타일 바이(Style by) 황희","tel":"031-111-1111","addr":"경기도 광주시 경안동 440-6번지 1층","category":"보건위생 - 미용원"},{"name":"우리들세무법인","tel":"031-766-8180","addr":"경기도 광주시 경안동 440-6번지 2층","category":"용역 서비스 - 법률회계서비스(법인)"}]},{"lat":"37.41169457","long":"127.2514734","items":[{"name":"시골민물매운탕","tel":"031-767-3566","addr":"경기도 광주시 경안동 156-9번지 1층","category":"일반휴게음식 - 일반한식"}]},{"lat":"37.41053182","long":"127.2601105","items":[{"name":"시루","tel":"031-761-2233","addr":"경기도 광주시 경안동 21-3번지 1층","category":"음료식품 - 기타음료식품"}]},{"lat":"37.40816847","long":"127.2571996","items":[{"name":"시장의류","tel":"031-765-3739","addr":"경기도 광주시 경안동 33-6번지","category":"의류 - 정장"},{"name":"이불나라","tel":"031-761-2346","addr":"경기도 광주시 경안동 33-6번지","category":"직물 - 침구·수예점"}]},{"lat":"37.41186575","long":"127.251474","items":[{"name":"실비아미용실","tel":"031-769-4422","addr":"경기도 광주시 경안동 154-6번지","category":"보건위생 - 미용원"}]},{"lat":"37.41263757","long":"127.2571469","items":[{"name":"써니","tel":"031-766-2588","addr":"경기도 광주시 경안동 74-20번지","category":"의류 - 정장"},{"name":"청개구리약국","tel":"031-761-2978","addr":"경기도 광주시 경안동 74-20번지 1층","category":"약국 - 약국"}]},{"lat":"37.41186682","long":"127.2552241","items":[{"name":"써니벨라","tel":"031-766-5081","addr":"경기도 광주시 경안동 72-60번지 1층","category":"문화.취미 - 화원"},{"name":"써니벨라(Sunny bella)","tel":"031-766-5081","addr":"경기도 광주시 경안동 72-60번지","category":"일반휴게음식 - 서양음식"},{"name":"진하미용실","tel":"031-761-7735","addr":"경기도 광주시 경안동 72-60번지 1층","category":"보건위생 - 미용원"}]},{"lat":"37.41200321","long":"127.2588391","items":[{"name":"썬 헤어","tel":"031-798-9630","addr":"경기도 광주시 경안동 11-12번지 103호","category":"보건위생 - 미용원"},{"name":"줌마헤어","tel":"031-764-4048","addr":"경기도 광주시 경안동 11-12번지 1층","category":"보건위생 - 미용원"},{"name":"피스메이커","tel":"031-768-5252","addr":"경기도 광주시 경안동 11-12번지","category":"사무통신 - 컴퓨터"}]},{"lat":"37.40911032","long":"127.2591455","items":[{"name":"썬모텔","tel":"031-761-3698","addr":"경기도 광주시 경안동 29-3번지","category":"숙박업 - 여관/기타숙박업"}]},{"lat":"37.40977726","long":"127.2590574","items":[{"name":"쎄","tel":"031-761-8954","addr":"경기도 광주시 경안동 24-26번지","category":"신변잡화 - 가방"}]},{"lat":"37.40894971","long":"127.2584221","items":[{"name":"씨코(XICKO)","tel":"070-8612-9729","addr":"경기도 광주시 경안동 32-10번지 ,1,2층","category":"의류 - 정장"}]},{"lat":"37.4131675","long":"127.2537035","items":[{"name":"아르떼","tel":"031-762-4545","addr":"경기도 광주시 경안동 95-32번지 1층","category":"일반휴게음식 - 서양음식"},{"name":"폼폰리본","tel":"031-8775-2292","addr":"경기도 광주시 경안동 95-32번지","category":"신변잡화 - 액세서리"}]},{"lat":"37.41239568","long":"127.2606703","items":[{"name":"아모레","tel":"031-764-7223","addr":"경기도 광주시 경안동 416번지 2층","category":"보건위생 - 화장품"},{"name":"아모레카운셀러","tel":"031-764-7223","addr":"경기도 광주시 경안동 416번지 2층","category":"보건위생 - 화장품"},{"name":"아모레카운셀러","tel":"031-764-7223","addr":"경기도 광주시 경안동 416번지 2층","category":"보건위생 - 화장품"},{"name":"아모레카운셀러","tel":"031-764-7223","addr":"경기도 광주시 경안동 416번지 2층","category":"보건위생 - 화장품"},{"name":"아모레카운셀러","tel":"031-761-8023","addr":"경기도 광주시 경안동 416번지 2층","category":"보건위생 - 화장품"},{"name":"아모레카운셀러","tel":"031-764-7223","addr":"경기도 광주시 경안동 416번지 2층","category":"보건위생 - 화장품"},{"name":"아모레카운셀러","tel":"031-764-7223","addr":"경기도 광주시 경안동 416번지 2층 아모레퍼시픽","category":"보건위생 - 화장품"},{"name":"아모레카운셀러","tel":"031-764-7223","addr":"경기도 광주시 경안동 416번지 2층","category":"보건위생 - 화장품"},{"name":"아모레카운셀러외판","tel":"031-764-7223","addr":"경기도 광주시 경안동 416번지 2층","category":"보건위생 - 화장품"},{"name":"아모레퍼시픽","tel":"031-764-7223","addr":"경기도 광주시 경안동 416번지 2층","category":"보건위생 - 화장품"},{"name":"아모레퍼시픽(카운셀러)","tel":"031-764-7223","addr":"경기도 광주시 경안동 416번지 2층","category":"보건위생 - 화장품"}]},{"lat":"37.40983563","long":"127.2570584","items":[{"name":"아이노스음악학원","tel":"031-761-4863","addr":"경기도 광주시 경안동 35-3번지 영민빌딩 3층","category":"학원 - 예·체능계학원"},{"name":"옛고향순대","tel":"031-761-2784","addr":"경기도 광주시 경안동 35-3번지","category":"일반휴게음식 - 일반한식"},{"name":"헤브론헤어","tel":"031-769-0378","addr":"경기도 광주시 경안동 35-3번지 영민빌딩 201호","category":"보건위생 - 미용재료"}]},{"lat":"37.40936573","long":"127.2577006","items":[{"name":"아이앤지","tel":"031-761-2796","addr":"경기도 광주시 경안동 33-27번지","category":"의류 - 정장"},{"name":"영복상회","tel":"031-761-2534","addr":"경기도 광주시 경안동 33-27번지","category":"유통업 영리 - 기타유통업"},{"name":"장터소머리국밥","tel":"031-764-1333","addr":"경기도 광주시 경안동 33-27번지","category":"일반휴게음식 - 일반한식"}]},{"lat":"37.40933479","long":"127.2595077","items":[{"name":"아이오텔","tel":"031-797-3951","addr":"경기도 광주시 경안동 20-91번지","category":"숙박업 - 여관/기타숙박업"}]},{"lat":"37.41344501","long":"127.2502818","items":[{"name":"아이펀 에듀","tel":"070-5233-4568","addr":"경기도 광주시 경안동 137번지 모아쉐르빌 3층 301호","category":"서적문구 - 기타서적문구"}]},{"lat":"37.41324653","long":"127.2504054","items":[{"name":"아이펀씽크","tel":"","addr":"경기도 광주시 경안동 137번지 모아쉐르빌 102동 301호","category":"서적문구 - 기타서적문구"}]},{"lat":"37.40681227","long":"127.2509264","items":[{"name":"아침닭(경안점)","tel":"031-761-1830","addr":"경기도 광주시 경안동 189-69번지 1층","category":"일반휴게음식 - 일반한식"}]},{"lat":"37.40792291","long":"127.249778","items":[{"name":"알레르망경기광주점","tel":"031-799-7505","addr":"경기도 광주시 경안동 183-3번지 광주터미널 이프라자 2층동3호","category":"직물 - 옷감·직물"},{"name":"알레르망경기광주점","tel":"031-799-7505","addr":"경기도 광주시 경안동 183-3번지 광주터미널이프라자 2층 3호","category":"의류 - 아동의류"}]},{"lat":"37.41011458","long":"127.2572288","items":[{"name":"앙포레 모리노헤어","tel":"031-768-8337","addr":"경기도 광주시 경안동 52-9번지 1층 101호","category":"보건위생 - 미용원"}]},{"lat":"37.41272211","long":"127.2512848","items":[{"name":"애니락","tel":"031-761-9001","addr":"경기도 광주시 경안동 138-15번지 1층","category":"레저업소 - 기타레져업소"},{"name":"애니락","tel":"","addr":"경기도 광주시 경안동 138-15번지","category":"레저업소 - 기타레져업소"}]},{"lat":"37.4141162","long":"127.2481491","items":[{"name":"야채,과일 청과","tel":"","addr":"경기도 광주시 경안동 129-20번지 102호","category":"음료식품 - 농·축·수산품"}]},{"lat":"37.41253087","long":"127.2606482","items":[{"name":"어도라블 코스메틱","tel":"031-763-3387","addr":"경기도 광주시 경안동 414-5번지 2층","category":"보건위생 - 미용재료"},{"name":"이화원약국","tel":"031-766-1318","addr":"경기도 광주시 경안동 414-5번지 1층","category":"약국 - 약국"}]},{"lat":"37.41361524","long":"127.255004","items":[{"name":"어화생선구이&조림","tel":"","addr":"경기도 광주시 경안동 81-4번지 1층","category":"일반휴게음식 - 일반한식"},{"name":"옛추억","tel":"031-761-9294","addr":"경기도 광주시 경안동 81-4번지","category":"일반휴게음식 - 주점"},{"name":"최낙성법무사사무소","tel":"031-764-7700","addr":"경기도 광주시 경안동 81-4번지","category":"용역 서비스 - 법률회계서비스(개인)"},{"name":"프라우스","tel":"","addr":"경기도 광주시 경안동 81-4번지","category":"문화.취미 - 문화취미기타"}]},{"lat":"37.41408285","long":"127.2511763","items":[{"name":"얼짱노래연습장","tel":"031-761-2882","addr":"경기도 광주시 경안동 437-7번지 국제빌딩","category":"레저업소 - 노 래 방"},{"name":"튼튼영어광주","tel":"031-763-4007","addr":"경기도 광주시 경안동 437-7번지 국제빌딩 3층","category":"회원제형태 - 서적"},{"name":"한고방삼겹살","tel":"031-767-3232","addr":"경기도 광주시 경안동 437-7번지","category":"일반휴게음식 - 일반한식"}]},{"lat":"37.40888822","long":"127.2534746","items":[{"name":"엄마사랑","tel":"031-764-8898","addr":"경기도 광주시 경안동 167-30번지 1층","category":"음료식품 - 기타음료식품"},{"name":"청석골","tel":"031-761-0732","addr":"경기도 광주시 경안동 167-30번지","category":"일반휴게음식 - 일반한식"}]},{"lat":"37.41366437","long":"127.2530839","items":[{"name":"엄마손도시락","tel":"031-765-4789","addr":"경기도 광주시 경안동 122-3번지","category":"일반휴게음식 - 일반한식"}]},{"lat":"37.41022673","long":"127.2595334","items":[{"name":"엄마식당","tel":"031-813-1452","addr":"경기도 광주시 경안동 23번지","category":"일반휴게음식 - 일반한식"},{"name":"탐앤탐스 경기광주점","tel":"031-767-5100","addr":"경기도 광주시 경안동 23번지 2층","category":"일반휴게음식 - 서양음식"}]},{"lat":"37.41256028","long":"127.2511148","items":[{"name":"에덴피아노학원","tel":"031-761-8307","addr":"경기도 광주시 경안동 138-18번지","category":"학원 - 예·체능계학원"}]},{"lat":"37.41163817","long":"127.2609727","items":[{"name":"에스(S)라인휘트니스","tel":"031-761-2400","addr":"경기도 광주시 경안동 14-24번지","category":"회원제형태 - 레져업소"},{"name":"월남쌈김상사 광주경안점","tel":"031-766-9249","addr":"경기도 광주시 경안동 14-24번지 2층","category":"일반휴게음식 - 일반한식"}]},{"lat":"37.41261063","long":"127.2612584","items":[{"name":"에이치엠학원","tel":"031-761-9667","addr":"경기도 광주시 경안동 419번지 ,2.3층","category":"학원 - 보습학원"}]},{"lat":"37.41028272","long":"127.2501698","items":[{"name":"에이치케이약품","tel":"","addr":"경기도 광주시 경안동 157-29번지 101호","category":"약국 - 제약회사"}]},{"lat":"37.4115577","long":"127.2522862","items":[{"name":"엘리트학생복","tel":"031-762-2238","addr":"경기도 광주시 경안동 151-15번지","category":"의류 - 정장"}]},{"lat":"37.41447557","long":"127.2486473","items":[{"name":"엠큐브입시센터교습소","tel":"031-765-4831","addr":"경기도 광주시 경안동 128-9번지 3층","category":"학원 - 보습학원"},{"name":"홍대칼국수와족발경기광주점","tel":"031-767-6988","addr":"경기도 광주시 경안동 128-9번지 1층","category":"일반휴게음식 - 일반한식"}]},{"lat":"37.41089569","long":"127.2585078","items":[{"name":"역발닭발","tel":"031-764-0088","addr":"경기도 광주시 경안동 58-1번지 1층","category":"일반휴게음식 - 일반한식"}]},{"lat":"37.41227855","long":"127.2606699","items":[{"name":"연세와이재활의학과의원","tel":"031-763-0012","addr":"경기도 광주시 경안동 416번지 ,1,4층","category":"의원 - 의원"}]},{"lat":"37.41345098","long":"127.2559749","items":[{"name":"연세웰치과의원","tel":"031-797-7528","addr":"경기도 광주시 경안동 77-12번지","category":"의원 - 치과의원"},{"name":"최영일산부인과","tel":"031-765-1030","addr":"경기도 광주시 경안동 77-12번지","category":"의원 - 의원"}]},{"lat":"37.40718262","long":"127.2504758","items":[{"name":"영광화학상사","tel":"031-769-9926","addr":"경기도 광주시 경안동 185-1번지 해태그린아파트","category":"기타 - 기타 전문점"}]},{"lat":"37.406973","long":"127.2516159","items":[{"name":"영아오까게","tel":"070-7420-3162","addr":"경기도 광주시 경안동 189-38번지 1층","category":"의류 - 정장"}]},{"lat":"37.41200323","long":"127.2503675","items":[{"name":"영헤어","tel":"031-767-4468","addr":"경기도 광주시 경안동 144-2번지 102호","category":"보건위생 - 미용원"}]},{"lat":"37.41105589","long":"127.2594232","items":[{"name":"예랑사주까페","tel":"031-766-0788","addr":"경기도 광주시 경안동 19-1번지","category":"보건위생 - 기타대인서비스"},{"name":"황금분식","tel":"031-718-5436","addr":"경기도 광주시 경안동 19-1번지 1층","category":"일반휴게음식 - 스넥"}]},{"lat":"37.41169522","long":"127.2554155","items":[{"name":"예쁜솜씨","tel":"031-762-3727","addr":"경기도 광주시 경안동 72-62번지","category":"신변잡화 - 액세서리"},{"name":"와와(WAWA)","tel":"031-763-6085","addr":"경기도 광주시 경안동 72-62번지","category":"의류 - 정장"},{"name":"헤어모드스쿨미용실","tel":"031-766-0959","addr":"경기도 광주시 경안동 72-62","category":"보건위생 - 미용원"}]},{"lat":"37.41119707","long":"127.252398","items":[{"name":"예스헤어타운","tel":"031-763-1523","addr":"경기도 광주시 경안동 160-5번지 1층","category":"보건위생 - 이용원"}]},{"lat":"37.41145123","long":"127.2557536","items":[{"name":"옛고을건강원","tel":"031-767-0310","addr":"경기도 광주시 경안동 72-30","category":"건강식품 - 기타건강식품"},{"name":"우리상사","tel":"031-762-2357","addr":"경기도 광주시 경안동 72-30번지","category":"음료식품 - 기타음료식품"}]},{"lat":"37.41278446","long":"127.255871","items":[{"name":"옛날통닭","tel":"031-111-1111","addr":"경기도 광주시 경안동 79-11번지 1층","category":"일반휴게음식 - 스넥"}]},{"lat":"37.41139059","long":"127.2546125","items":[{"name":"오구사구","tel":"031-761-5359","addr":"경기도 광주시 경안동 84-10번지 1층","category":"신변잡화 - 가방"}]},{"lat":"37.41325048","long":"127.2528114","items":[{"name":"오남건설중기(우신)","tel":"","addr":"경기도 광주시 경안동 124-43번지","category":"기타 - 기계공구"},{"name":"우신건설기계","tel":"031-000-0000","addr":"경기도 광주시 경안동 124-43번지","category":"기타 - 기계공구"}]},{"lat":"37.41088734","long":"127.2582028","items":[{"name":"오늘은맑음","tel":"031-764-0709","addr":"경기도 광주시 경안동 60-4번지 1층","category":"일반휴게음식 - 일반한식"},{"name":"파스키친(Pa'skitchen)","tel":"","addr":"경기도 광주시 경안동 60-4번지 1층","category":"일반휴게음식 - 서양음식"}]},{"lat":"37.41341719","long":"127.259115","items":[{"name":"오동엽세무사사무소","tel":"031-764-7007","addr":"경기도 광주시 경안동 446-25번지","category":"용역 서비스 - 법률회계서비스(개인)"}]},{"lat":"37.41335948","long":"127.2523939","items":[{"name":"오땡큐","tel":"031-480-0069","addr":"경기도 광주시 경안동 124-33번지","category":"보건위생 - 화장품"},{"name":"타호르","tel":"031-766-8082","addr":"경기도 광주시 경안동 124-33번지 1층 101호","category":"보건위생 - 피부미용실"}]},{"lat":"37.41192153","long":"127.2549193","items":[{"name":"오렌지미용실","tel":"","addr":"경기도 광주시 경안동 83-31번지","category":"보건위생 - 미용원"}]},{"lat":"37.41413715","long":"127.2510635","items":[{"name":"오리와도야지","tel":"031-761-9644","addr":"경기도 광주시 경안동 437-6번지","category":"일반휴게음식 - 일반한식"}]},{"lat":"37.41394685","long":"127.2515825","items":[{"name":"왕십리곱창","tel":"031-766-6835","addr":"경기도 광주시 경안동 124-7번지","category":"일반휴게음식 - 일반한식"}]},{"lat":"37.40986303","long":"127.256889","items":[{"name":"요호","tel":"031-8027-3933","addr":"경기도 광주시 경안동 33-63번지 1층","category":"일반휴게음식 - 서양음식"}]},{"lat":"37.40897084","long":"127.2569764","items":[{"name":"우리곱창","tel":"031-763-5695","addr":"경기도 광주시 경안동 33-14번지","category":"일반휴게음식 - 일반한식"},{"name":"한우집","tel":"031-797-0092","addr":"경기도 광주시 경안동 33-14번지","category":"일반휴게음식 - 일반한식"}]},{"lat":"37.41394231","long":"127.2537287","items":[{"name":"우리슈퍼","tel":"031-761-5280","addr":"경기도 광주시 경안동 97-22번지","category":"유통업 영리 - 슈퍼마켓"},{"name":"운동장맛집","tel":"031-764-4542","addr":"경기도 광주시 경안동 97-22번지 201호","category":"일반휴게음식 - 일반한식"}]},{"lat":"37.40972822","long":"127.2567305","items":[{"name":"우리집","tel":"031-798-6234","addr":"경기도 광주시 경안동 36-49번지 1층","category":"일반휴게음식 - 일반한식"}]},{"lat":"37.41108158","long":"127.2558653","items":[{"name":"우창공인중개사","tel":"031-798-7405","addr":"경기도 광주시 경안동 72-24번지","category":"용역 서비스 - 부동산 중개·임대"}]},{"lat":"37.40705577","long":"127.2508143","items":[{"name":"원 카오디오","tel":"031-797-6960","addr":"경기도 광주시 경안동 189-47번지 102호","category":"자동차정비 유지 - 자동차부품"}]},{"lat":"37.40997156","long":"127.2566974","items":[{"name":"원조궁중숯불갈비","tel":"031-769-3871","addr":"경기도 광주시 경안동 254-19번지","category":"일반휴게음식 - 일반한식"}]},{"lat":"37.41252739","long":"127.2538934","items":[{"name":"웰빙건강원","tel":"031-765-3229","addr":"경기도 광주시 경안동 92-20번지","category":"건강식품 - 기타건강식품"},{"name":"종합자전거","tel":"031-761-1157","addr":"경기도 광주시 경안동 92-20번지","category":"레져용품 - 스포츠·레져용품"}]},{"lat":"37.41377663","long":"127.2511188","items":[{"name":"육꾼매니저","tel":"070-8118-8892","addr":"경기도 광주시 경안동 125-6번지 은광빌딩","category":"일반휴게음식 - 일반한식"}]},{"lat":"37.40983184","long":"127.2546186","items":[{"name":"윤선생우리집앞영어교실경안교습소","tel":"031-764-3827","addr":"경기도 광주시 경안동 47-3번지","category":"학원 - 외국어학원"}]},{"lat":"37.41036501","long":"127.258088","items":[{"name":"이니스프리광주점","tel":"031-769-5521","addr":"경기도 광주시 경안동 54-4번지 1층","category":"보건위생 - 화장품"}]},{"lat":"37.41286777","long":"127.2548321","items":[{"name":"이레자동차공업사","tel":"031-761-8270","addr":"경기도 광주시 경안동 83-15번지","category":"자동차정비 유지 - 자동차정비"}]},{"lat":"37.40789552","long":"127.2499473","items":[{"name":"이마트24 경안약수점","tel":"","addr":"경기도 광주시 경안동 183-4번지 1층","category":"유통업 영리 - 편 의 점"},{"name":"이마트24경안약수점","tel":"031-761-4296","addr":"경기도 광주시 경안동 183-4번지","category":"유통업 영리 - 슈퍼마켓"}]},{"lat":"37.41255917","long":"127.2516457","items":[{"name":"이모네컴퓨터세탁크리닝","tel":"031-762-8250","addr":"경기도 광주시 경안동 147-7번지","category":"수리서비스 - 세탁소"}]},{"lat":"37.41202941","long":"127.2550326","items":[{"name":"이서윤 터치페이스","tel":"031-1599-9181","addr":"경기도 광주시 경안동 83-3번지 1층","category":"보건위생 - 화장품"}]},{"lat":"37.41003008","long":"127.2588098","items":[{"name":"이슬포장마차","tel":"031-767-4362","addr":"경기도 광주시 경안동 57-10번지","category":"일반휴게음식 - 주점"}]},{"lat":"37.40994881","long":"127.2588886","items":[{"name":"이슬포차","tel":"","addr":"경기도 광주시 경안동 24-7번지","category":"일반휴게음식 - 일반한식"},{"name":"캔디드슈퍼맨","tel":"031-761-2219","addr":"경기도 광주시 경안동 24-7번지","category":"음료식품 - 기타음료식품"},{"name":"탑스칼프 경기광주점","tel":"031-765-8599","addr":"경기도 광주시 경안동 24-7번지 2층","category":"보건위생 - 피부미용실"}]},{"lat":"37.41319441","long":"127.249479","items":[{"name":"이터너티 린 케이크제작소","tel":"031-769-8779","addr":"경기도 광주시 경안동 133-3번지 그린빌라 1층","category":"음료식품 - 제과점"}]},{"lat":"37.41258321","long":"127.2572823","items":[{"name":"이화사","tel":"031-761-6093","addr":"경기도 광주시 경안동 67-30번지","category":"서적문구 - 출판 및 인쇄물"}]},{"lat":"37.41230517","long":"127.256694","items":[{"name":"임정례헤어갤러리","tel":"031-764-6807","addr":"경기도 광주시 경안동 73-6번지","category":"보건위생 - 미용원"}]},{"lat":"37.4269467","long":"127.2565852","items":[{"name":"잉글리쉬무무학원","tel":"031-765-9905","addr":"경기도 광주시 경안동 128-9번지 명성빌딩 2층","category":"회원제형태 - 학원"}]},{"lat":"37.41272159","long":"127.2557804","items":[{"name":"전자키 할인점 부자열쇠도장","tel":"031-000-0000","addr":"경기도 광주시 경안동 80-12번지","category":"건축자재 - 목재·석재·철물"}]},{"lat":"37.41056174","long":"127.2587777","items":[{"name":"전주감자탕","tel":"031-767-5959","addr":"경기도 광주시 경안동 20-4번지 광창빌딩 1층","category":"일반휴게음식 - 일반한식"},{"name":"춘천토종닭갈비","tel":"031-765-0192","addr":"경기도 광주시 경안동 20-4번지","category":"일반휴게음식 - 일반한식"},{"name":"킹덤노래연습장","tel":"031-699-6169","addr":"경기도 광주시 경안동 20-4번지 광창빌딩 2층","category":"레저업소 - 노 래 방"}]},{"lat":"37.41458904","long":"127.2503986","items":[{"name":"점핑스쿨","tel":"031-765-0430","addr":"경기도 광주시 경안동 433-17번지","category":"학원 - 보습학원"}]},{"lat":"37.41192035","long":"127.2554728","items":[{"name":"정겨운알뜰매장","tel":"031-767-8505","addr":"경기도 광주시 경안동 72-85","category":"의류 - 정장"}]},{"lat":"37.41228193","long":"127.2591111","items":[{"name":"정순식당","tel":"031-767-6447","addr":"경기도 광주시 경안동 11-45번지","category":"일반휴게음식 - 일반한식"}]},{"lat":"37.4125043","long":"127.2520296","items":[{"name":"정환종합공사","tel":"031-761-0861","addr":"경기도 광주시 경안동 149번지","category":"용역 서비스 - 기타용역서비스"}]},{"lat":"37.41216839","long":"127.2574503","items":[{"name":"제이엠(JM)푸드","tel":"","addr":"경기도 광주시 경안동 68-3번지 KT광주지점 2층","category":"일반휴게음식 - 위탁급식업"}]},{"lat":"37.41158203","long":"127.2535627","items":[{"name":"제일도어락","tel":"031-765-5113","addr":"경기도 광주시 경안동 85-19번지 1층","category":"건축자재 - 목재·석재·철물"}]},{"lat":"37.40906119","long":"127.2568638","items":[{"name":"종로빈대떡","tel":"031-761-2911","addr":"경기도 광주시 경안동 33-40번지","category":"일반휴게음식 - 일반한식"},{"name":"토종정육","tel":"031-762-1780","addr":"경기도 광주시 경안동 33-40번지","category":"음료식품 - 정육점"}]},{"lat":"37.41127992","long":"127.2558095","items":[{"name":"종이사랑","tel":"031-762-5169","addr":"경기도 광주시 경안동 72-22번지 1층","category":"문화.취미 - 문화취미기타"}]},{"lat":"37.41294479","long":"127.2608981","items":[{"name":"주식회사 엠디엘(MDL)","tel":"02-1111-1111","addr":"경기도 광주시 경안동 417-5번지 3층","category":"보건위생 - 의료용품"}]},{"lat":"37.4129506","long":"127.2582211","items":[{"name":"주식회사 율동","tel":"","addr":"경기도 광주시 경안동 442-22번지","category":"전기제품 - 기타전기제품"}]},{"lat":"37.4121126","long":"127.2582521","items":[{"name":"주희생선조림전문","tel":"031-761-2959","addr":"경기도 광주시 경안동 65-5번지 1층","category":"일반휴게음식 - 일반한식"}]},{"lat":"37.41272325","long":"127.255001","items":[{"name":"준라이브","tel":"031-762-1554","addr":"경기도 광주시 경안동 82-27번지 지하1층","category":"일반휴게음식 - 일반한식"}]},{"lat":"37.40897944","long":"127.2529441","items":[{"name":"중앙셀프손세차","tel":"031-797-3885","addr":"경기도 광주시 경안동 167-60번지","category":"자동차정비 유지 - 세차장"}]},{"lat":"37.4106127","long":"127.2560331","items":[{"name":"즐겨찾기","tel":"031-761-5359","addr":"경기도 광주시 경안동 49-19번지","category":"의류 - 정장"}]},{"lat":"37.41052719","long":"127.2580886","items":[{"name":"지.포인트","tel":"031-762-6241","addr":"경기도 광주시 경안동 54-3번지 외1필지","category":"서적문구 - 문구용품"}]},{"lat":"37.41308701","long":"127.2534209","items":[{"name":"지명희헤어라인","tel":"031-764-2730","addr":"경기도 광주시 경안동 91-11","category":"보건위생 - 미용원"}]},{"lat":"37.4093948","long":"127.2567519","items":[{"name":"진뷰티","tel":"031-764-1500","addr":"경기도 광주시 경안동 36-88번지 1층","category":"보건위생 - 미용재료"}]},{"lat":"37.41139107","long":"127.2585885","items":[{"name":"쭈꾸미아저씨","tel":"031-763-6077","addr":"경기도 광주시 경안동 61-1번지","category":"일반휴게음식 - 일반한식"}]},{"lat":"37.4123387","long":"127.262003","items":[{"name":"청석","tel":"031-764-3131","addr":"경기도 광주시 경안동 418-11번지","category":"일반휴게음식 - 일반한식"}]},{"lat":"37.41235964","long":"127.2565021","items":[{"name":"청춘쭈꾸미닭발","tel":"","addr":"경기도 광주시 경안동 73-13번지 1층","category":"일반휴게음식 - 일반한식"},{"name":"한우부추곱창","tel":"031-762-1348","addr":"경기도 광주시 경안동 73-13번지 1층","category":"일반휴게음식 - 일반한식"}]},{"lat":"37.41222296","long":"127.2613701","items":[{"name":"초코동이광주점","tel":"","addr":"경기도 광주시 경안동 423-1번지","category":"일반휴게음식 - 서양음식"}]},{"lat":"37.4130862","long":"127.2538049","items":[{"name":"최씨네산더미불고기","tel":"031-797-0203","addr":"경기도 광주시 경안동 95-11번지 1층","category":"일반휴게음식 - 일반한식"}]},{"lat":"37.40697834","long":"127.2490633","items":[{"name":"카페드바","tel":"031-764-0410","addr":"경기도 광주시 경안동 193-18번지 1층","category":"일반휴게음식 - 서양음식"}]},{"lat":"37.40672721","long":"127.2485091","items":[{"name":"카페오름","tel":"031-000-0000","addr":"경기도 광주시 경안동 197번지","category":"일반휴게음식 - 서양음식"}]},{"lat":"37.41200279","long":"127.2548405","items":[{"name":"커피나무","tel":"031-762-8331","addr":"경기도 광주시 경안동 83-30번지 1층","category":"일반휴게음식 - 서양음식"}]},{"lat":"37.41192237","long":"127.2502542","items":[{"name":"커피내리는마을","tel":"070-8777-5885","addr":"경기도 광주시 경안동 144번지","category":"일반휴게음식 - 서양음식"},{"name":"커피내리는마을","tel":"070-7760-7563","addr":"경기도 광주시 경안동 144번지","category":"일반휴게음식 - 서양음식"},{"name":"텐플러스 보습학원","tel":"031-761-9221","addr":"경기도 광주시 경안동 144번지","category":"학원 - 보습학원"}]},{"lat":"37.41427962","long":"127.251866","items":[{"name":"커피에기대","tel":"031-762-7339","addr":"경기도 광주시 경안동 123-19번지","category":"일반휴게음식 - 서양음식"}]},{"lat":"37.41464161","long":"127.2511104","items":[{"name":"커피이야기","tel":"031-769-5555","addr":"경기도 광주시 경안동 433-11번지","category":"일반휴게음식 - 서양음식"}]},{"lat":"37.41008175","long":"127.2514794","items":[{"name":"커피퍼니","tel":"031-768-5321","addr":"경기도 광주시 경안동 164-19번지","category":"일반휴게음식 - 서양음식"}]},{"lat":"37.40780431","long":"127.2504779","items":[{"name":"코리아미용실","tel":"070-8197-5565","addr":"경기도 광주시 경안동 172-25번지 1층","category":"보건위생 - 미용원"}]},{"lat":"37.41230664","long":"127.2560049","items":[{"name":"퀼트투하트","tel":"031-763-6690","addr":"경기도 광주시 경안동 73-9번지","category":"직물 - 침구·수예점"}]},{"lat":"37.41255976","long":"127.2513633","items":[{"name":"큐벨","tel":"031-766-3314","addr":"경기도 광주시 경안동 147-1번지","category":"음료식품 - 제과점"}]},{"lat":"37.40995001","long":"127.2583351","items":[{"name":"큰맘할매순대국","tel":"031-761-3337","addr":"경기도 광주시 경안동 57-4번지 1층","category":"일반휴게음식 - 일반한식"},{"name":"헤어미","tel":"031-766-2339","addr":"경기도 광주시 경안동 57-4번지","category":"보건위생 - 미용원"}]},{"lat":"37.41339053","long":"127.2589455","items":[{"name":"타이어테크 경기광주점","tel":"031-764-9660","addr":"경기도 광주시 경안동 446-22번지","category":"자동차정비 유지 - 자동차시트·타이어"}]},{"lat":"37.40766824","long":"127.2509179","items":[{"name":"티는헤어","tel":"031-798-5584","addr":"경기도 광주시 경안동 172-11번지 1층","category":"보건위생 - 미용원"}]},{"lat":"37.41239212","long":"127.2496684","items":[{"name":"티앤비플러스","tel":"031-797-2875","addr":"경기도 광주시 경안동 134-14번지","category":"보건위생 - 의료용품"}]},{"lat":"37.40880518","long":"127.2501197","items":[{"name":"파니유통","tel":"031-763-5568","addr":"경기도 광주시 경안동 179-2번지","category":"의류 - 정장"}]},{"lat":"37.40950548","long":"127.255555","items":[{"name":"편의점ampm","tel":"031-767-4755","addr":"경기도 광주시 경안동 36-14번지","category":"유통업 영리 - 편 의 점"}]},{"lat":"37.41247809","long":"127.2600606","items":[{"name":"푸드이야기630","tel":"031-797-0924","addr":"경기도 광주시 경안동 9-25번지 2층","category":"음료식품 - 기타음료식품"}]},{"lat":"37.41361108","long":"127.2484186","items":[{"name":"풍문공조","tel":"031-798-8193","addr":"경기도 광주시 경안동 130-17번지 송원아트빌","category":"용역 서비스 - 기타용역서비스"}]},{"lat":"37.41325225","long":"127.2519756","items":[{"name":"프린트샵","tel":"031-763-3916","addr":"경기도 광주시 경안동 148-1번지","category":"서적문구 - 출판 및 인쇄물"}]},{"lat":"37.41277579","long":"127.2598922","items":[{"name":"필모텔","tel":"031-761-5259","addr":"경기도 광주시 경안동 9-4번지","category":"숙박업 - 여관/기타숙박업"}]},{"lat":"37.40972312","long":"127.2590911","items":[{"name":"하늘정원","tel":"031-763-6801","addr":"경기도 광주시 경안동 24-15","category":"문화.취미 - 화원"}]},{"lat":"37.41458968","long":"127.2500936","items":[{"name":"하카세","tel":"031-763-2247","addr":"경기도 광주시 경안동 433-20번지","category":"일반휴게음식 - 주점"},{"name":"하카세55","tel":"031-763-2247","addr":"경기도 광주시 경안동 433-20번지 1동","category":"일반휴게음식 - 일반한식"}]},{"lat":"37.40947678","long":"127.2477839","items":[{"name":"한마음너싱홈","tel":"031-798-0081","addr":"경기도 광주시 경안동 214","category":"기타의료기관 - 기타의료기관 및 기타"}]},{"lat":"37.41089039","long":"127.2525551","items":[{"name":"한솔유치원","tel":"031-763-7002","addr":"경기도 광주시 경안동 161-25번지","category":"학원 - 기타 교육기관"}]},{"lat":"37.41030951","long":"127.2587543","items":[{"name":"한신포차 광주경안점","tel":"031-768-3199","addr":"경기도 광주시 경안동 24-14번지","category":"일반휴게음식 - 주점"}]},{"lat":"37.41364363","long":"127.2500905","items":[{"name":"해적선","tel":"031-763-3342","addr":"경기도 광주시 경안동 136-21번지","category":"일반휴게음식 - 일식·회집"}]},{"lat":"37.41102996","long":"127.2504546","items":[{"name":"햇살마트","tel":"031-769-7379","addr":"경기도 광주시 경안동 157-2번지 제상가동 101동 102호","category":"유통업 영리 - 슈퍼마켓"}]},{"lat":"37.41256039","long":"127.2595074","items":[{"name":"행복커텐","tel":"031-767-0788","addr":"경기도 광주시 경안동 10-12번지","category":"직물 - 카페트,커튼,천막,지물"}]},{"lat":"37.41211398","long":"127.253395","items":[{"name":"현진바이크","tel":"031-766-0093","addr":"경기도 광주시 경안동 86-12번지 연세빌리지 202호","category":"회원제형태 - 기타4"}]},{"lat":"37.40955869","long":"127.2473888","items":[{"name":"현호상사","tel":"031-767-3894","addr":"경기도 광주시 경안동 216번지 해봉주택 204호","category":"회원제형태 - 기타4"}]},{"lat":"37.40872302","long":"127.2590877","items":[{"name":"형제종묘","tel":"031-761-2271","addr":"경기도 광주시 경안동 28-17번지 1층","category":"농업 - 비료,사료,종자"},{"name":"형제종합철물","tel":"031-761-2271","addr":"경기도 광주시 경안동 28-17번지","category":"기타 - 기계공구"}]},{"lat":"37.40942322","long":"127.2602761","items":[{"name":"활기찬한의원","tel":"031-764-8275","addr":"경기도 광주시 경안동 20-16번지","category":"의원 - 한의원"}]},{"lat":"37.41375611","long":"127.2523048","items":[{"name":"황금성","tel":"031-767-2351","addr":"경기도 광주시 경안동 124-22번지","category":"일반휴게음식 - 중국식"}]},{"lat":"37.41074833","long":"127.2558077","items":[{"name":"휴게소먹방","tel":"070-8260-3322","addr":"경기도 광주시 경안동 49-3번지","category":"일반휴게음식 - 스넥"}]},{"lat":"37.41378166","long":"127.2530052","items":[{"name":"흥부찜닭&삼겹본능&공수간(광주경안점)","tel":"031-761-0776","addr":"경기도 광주시 경안동 122-16번지","category":"일반휴게음식 - 일반한식"}]},{"lat":"37.40983383","long":"127.2578942","items":[{"name":"희망사진관","tel":"031-761-2537","addr":"경기도 광주시 경안동 56-7번지 희망사진관","category":"광학제품 - 사진관"}]},{"lat":"37.41325073","long":"127.2569231","items":[{"name":"희망전기","tel":"031-764-2889","addr":"경기도 광주시 경안동 75-2번지","category":"건축자재 - 조명기구"}]},{"lat":"37.41372873","long":"127.2524742","items":[{"name":"희망페인트","tel":"031-3765-7845","addr":"경기도 광주시 경안동 91-14번지","category":"건축자재 - 페인트"}]},{"lat":"37.40908328","long":"127.2506967","items":[{"name":"희망할인마트","tel":"031-765-1561","addr":"경기도 광주시 경안동 178-8번지 대우하이빌","category":"유통업 영리 - 슈퍼마켓"}]}]