[{"lat":"37.030908072","long":"127.18180483","items":[{"name":"골드셀프바베큐","tel":"031-676-4909","addr":"경기도 안성시 양성면 방신리 313번지 가동","category":"일반휴게음식 - 일반한식"}]},{"lat":"37.021102616","long":"127.18888388","items":[{"name":"나무에 생명 더하기","tel":"031-611-1845","addr":"경기도 안성시 양성면 방신리 567번지","category":"건축자재 - 인테리어전문"}]},{"lat":"37.030406561","long":"127.17974696","items":[{"name":"나무향기 안성평택","tel":"031-674-8881","addr":"경기도 안성시 양성면 방신리 277-4번지","category":"일반휴게음식 - 일반한식"},{"name":"카페아띠","tel":"031-000-0000","addr":"경기도 안성시 양성면 방신리 277-4번지 2층","category":"일반휴게음식 - 서양음식"},{"name":"하마갤러리커피숍","tel":"031-671-8765","addr":"경기도 안성시 양성면 방신리 277-4","category":"일반휴게음식 - 서양음식"},{"name":"행복한하마(갤러리카페)","tel":"","addr":"경기도 안성시 양성면 방신리 277-4번지 2층","category":"일반휴게음식 - 서양음식"}]},{"lat":"37.037350856","long":"127.18168507","items":[{"name":"농업회사법인 (주) 우창농원","tel":"031-671-0608","addr":"경기도 안성시 양성면 방신리 17-1번지","category":"음료식품 - 농·축·수산품"}]},{"lat":"37.021524508","long":"127.18990752","items":[{"name":"농업회사법인주식회사들빛","tel":"031-676-4767","addr":"경기도 안성시 양성면 방신리 567-4","category":"음료식품 - 농·축·수산품"}]},{"lat":"37.034436406","long":"127.18433073","items":[{"name":"동수원토종닭","tel":"031-674-1155","addr":"경기도 안성시 양성면 방신리 30-4번지","category":"일반휴게음식 - 일반한식"},{"name":"동수원토종닭","tel":"031-674-1155","addr":"경기도 안성시 양성면 방신리 30-4번지","category":"일반휴게음식 - 일반한식"}]},{"lat":"37.030244453","long":"127.17969039","items":[{"name":"맹순네식당","tel":"031-673-7470","addr":"경기도 안성시 양성면 방신리 277-3번지 1층","category":"일반휴게음식 - 일반한식"},{"name":"포시즌마트","tel":"","addr":"경기도 안성시 양성면 방신리 277-3번지 1층","category":"유통업 영리 - 슈퍼마켓"}]},{"lat":"37.03165722","long":"127.18096366","items":[{"name":"보릿고개","tel":"031-675-9607","addr":"경기도 안성시 양성면 방신리 38-10번지","category":"일반휴게음식 - 일반한식"}]},{"lat":"37.026433678","long":"127.1851658","items":[{"name":"샘포도원","tel":"070-8843-6373","addr":"경기도 안성시 양성면 방신리 615-9번지","category":"음료식품 - 농·축·수산품"}]},{"lat":"37.030046103","long":"127.1797686","items":[{"name":"아트원(Art one)","tel":"031-674-4027","addr":"경기도 안성시 양성면 방신리 279-1번지 C동 B동","category":"신변잡화 - 기타잡화"}]},{"lat":"37.031050064","long":"127.18324374","items":[{"name":"영풍농원","tel":"031-674-7079","addr":"경기도 안성시 양성면 방신리 349번지","category":"음료식품 - 농·축·수산품"}]},{"lat":"37.029992608","long":"127.17938636","items":[{"name":"정말맛있는시골집","tel":"031-674-8821","addr":"경기도 안성시 양성면 방신리 277번지","category":"일반휴게음식 - 일반한식"},{"name":"진아짬뽕","tel":"031-675-5233","addr":"경기도 안성시 양성면 방신리 277번지","category":"일반휴게음식 - 중국식"}]},{"lat":"37.028574275","long":"127.18771082","items":[{"name":"정인혜 일러스트","tel":"070-8864-9715","addr":"경기도 안성시 양성면 방신리 368-3번지","category":"문화.취미 - 화랑"}]},{"lat":"37.034076445","long":"127.18402641","items":[{"name":"줌모텔","tel":"031-673-1116","addr":"경기도 안성시 양성면 방신리 30-3번지","category":"숙박업 - 여관/기타숙박업"}]}]