[{"lat":"37.244352235","long":"126.89402032","items":[{"name":"(주)더쎈팜","tel":"031-374-4157","addr":"경기도 화성시 비봉면 쌍학리 208-1번지 가동","category":"보건위생 - 의료용품"},{"name":"디아이피 테크","tel":"031-398-8015","addr":"경기도 화성시 비봉면 쌍학리 208-1번지 가동","category":"수리서비스 - 기타수리서비스"}]},{"lat":"37.247350658","long":"126.89185199","items":[{"name":"광덕상사","tel":"031-355-7888","addr":"경기도 화성시 비봉면 쌍학리 247-4","category":"자동차정비 유지 - 자동차부품"}]},{"lat":"37.247350393","long":"126.89157021","items":[{"name":"근아상사","tel":"031-366-8831","addr":"경기도 화성시 비봉면 쌍학리 246-1","category":"자동차정비 유지 - 자동차부품"}]},{"lat":"37.247485728","long":"126.89176162","items":[{"name":"김상궁밥상","tel":"031-356-5614","addr":"경기도 화성시 비봉면 쌍학리 247-5번지","category":"일반휴게음식 - 일반한식"}]},{"lat":"37.247765396","long":"126.89213315","items":[{"name":"남양호스소매","tel":"031-356-6960","addr":"경기도 화성시 비봉면 쌍학리 265-1","category":"신변잡화 - 기타잡화"},{"name":"동화상사","tel":"031-356-7584","addr":"경기도 화성시 비봉면 쌍학리 265-1번지","category":"자동차정비 유지 - 자동차시트·타이어"}]},{"lat":"37.241624965","long":"126.8875214","items":[{"name":"두원에너지","tel":"031-355-7800","addr":"경기도 화성시 비봉면 쌍학리 304번지 305호","category":"연료판매점 - LPG 취급점"},{"name":"마루조경","tel":"02-1111-1111","addr":"경기도 화성시 비봉면 쌍학리 304번지","category":"문화.취미 - 화원"},{"name":"피싱캣","tel":"","addr":"경기도 화성시 비봉면 쌍학리 304번지 1층","category":"신변잡화 - 기타잡화"}]},{"lat":"37.247152039","long":"126.89143525","items":[{"name":"매송서비스센타","tel":"031-356-2057","addr":"경기도 화성시 비봉면 쌍학리 245-1번지","category":"자동차정비 유지 - 자동차정비"},{"name":"신용푸드","tel":"031-223-5214","addr":"경기도 화성시 비봉면 쌍학리 245-1번지 101호","category":"음료식품 - 정육점"}]},{"lat":"37.229994062","long":"126.89879621","items":[{"name":"비봉윤가네","tel":"031-0000-0000","addr":"경기도 화성시 비봉면 쌍학리 765-1번지 ,765-2,764","category":"음료식품 - 농·축·수산품"}]},{"lat":"37.24382101","long":"126.89443809","items":[{"name":"수성C&D","tel":"031-355-6965","addr":"경기도 화성시 비봉면 쌍학리 207-2번지","category":"음료식품 - 기타음료식품"}]},{"lat":"37.239124573","long":"126.89221341","items":[{"name":"쉐어스","tel":"","addr":"경기도 화성시 비봉면 쌍학리 435-4번지 2층 201호","category":"가구 - 일반가구"}]},{"lat":"37.247350943","long":"126.8921563","items":[{"name":"우렁이각시","tel":"031-356-9148","addr":"경기도 화성시 비봉면 쌍학리 247-1번지","category":"일반휴게음식 - 일반한식"}]},{"lat":"37.248406717","long":"126.89384542","items":[{"name":"유림농원","tel":"031-356-7855","addr":"경기도 화성시 비봉면 쌍학리 258번지","category":"문화.취미 - 화원"}]},{"lat":"37.242930424","long":"126.8960172","items":[{"name":"주식회사 매직엠앤디","tel":"031-355-8721","addr":"경기도 화성시 비봉면 쌍학리 184번지 1층","category":"용역 서비스 - 보관및 창고업"}]},{"lat":"37.240493483","long":"126.9015429","items":[{"name":"화성수산","tel":"","addr":"경기도 화성시 비봉면 쌍학리 136번지","category":"음료식품 - 농·축·수산품"}]},{"lat":"37.227767544","long":"126.89770627","items":[{"name":"화진벌꿀","tel":"031-1577-0000","addr":"경기도 화성시 비봉면 쌍학리 771-2번지","category":"건강식품 - 기타건강식품"}]}]