[{"lat":"37.824522388","long":"126.77307291","items":[{"name":"CU파주서영대학교,커피에반하다","tel":"031-953-0028","addr":"경기도 파주시 월롱면 능산리 248-2번지","category":"일반휴게음식 - 서양음식"},{"name":"그라찌에","tel":"070-7784-4107","addr":"경기도 파주시 월롱면 능산리 248-2번지","category":"일반휴게음식 - 서양음식"},{"name":"씨유파주서영대학교점","tel":"031-954-3650","addr":"경기도 파주시 월롱면 능산리 248-2번지","category":"유통업 영리 - 편 의 점"}]},{"lat":"37.830415122","long":"126.77804125","items":[{"name":"GS25월롱산단점","tel":"","addr":"경기도 파주시 월롱면 능산리 661번지","category":"유통업 영리 - 편 의 점"},{"name":"두리당구클럽","tel":"031-954-2550","addr":"경기도 파주시 월롱면 능산리 661번지","category":"레저업소 - 당 구 장"},{"name":"우래숯불구이","tel":"070-8622-5815","addr":"경기도 파주시 월롱면 능산리 661번지","category":"일반휴게음식 - 일반한식"}]},{"lat":"37.830414276","long":"126.77759825","items":[{"name":"LG빌딩","tel":"02-3664-6131","addr":"경기도 파주시 월롱면 능산리 660-3번지","category":"학원 - 독서실"}]},{"lat":"37.830386116","long":"126.77700766","items":[{"name":"구일프라자","tel":"070-8288-8887","addr":"경기도 파주시 월롱면 능산리 660-1번지","category":"숙박업 - 여관/기타숙박업"}]},{"lat":"37.830107634","long":"126.76820531","items":[{"name":"모닝마트","tel":"031-953-2346","addr":"경기도 파주시 월롱면 능산리 407-6번지","category":"유통업 영리 - 슈퍼마켓"}]},{"lat":"37.82402898","long":"126.77884433","items":[{"name":"신진기업","tel":"031-953-8097","addr":"경기도 파주시 월롱면 능산리 91-1번지","category":"건축자재 - 페인트"}]},{"lat":"37.8294684","long":"126.76842316","items":[{"name":"아이비즈커뮤니케이션","tel":"031-952-7693","addr":"경기도 파주시 월롱면 능산리 286-1번지","category":"용역 서비스 - 사무서비스"}]},{"lat":"37.83002612","long":"126.76798975","items":[{"name":"파주화학","tel":"031-952-3721","addr":"경기도 파주시 월롱면 능산리 406-1","category":"유통업 영리 - 기타유통업"}]},{"lat":"37.825137472","long":"126.76973169","items":[{"name":"홍익조형아트","tel":"","addr":"경기도 파주시 월롱면 능산리 251-8번지","category":"건축자재 - 인테리어전문"}]}]