[{"lat":"36.967108105","long":"127.05831077","items":[{"name":"(주)지남창","tel":"031-691-0149","addr":"경기도 평택시 팽성읍 객사리 218번지","category":"직물 - 카페트,커튼,천막,지물"},{"name":"남창상사","tel":"031-691-0149","addr":"경기도 평택시 팽성읍 객사리 218번지 인터리어필름","category":"직물 - 카페트,커튼,천막,지물"}]},{"lat":"36.964465428","long":"127.06348547","items":[{"name":"21세기김밥천국","tel":"031-691-0078","addr":"경기도 평택시 팽성읍 객사리 111-8","category":"일반휴게음식 - 스넥"},{"name":"부용지물포","tel":"031-656-0203","addr":"경기도 평택시 팽성읍 객사리 111-8번지","category":"소매업 - 벽지 및 바닥재"},{"name":"현대정보통신","tel":"031-000-0000","addr":"경기도 평택시 팽성읍 객사리 111-8번지","category":"사무통신 - 통신기기"}]},{"lat":"36.966467674","long":"127.05972521","items":[{"name":"2에이치파트너(2HPartner)","tel":"","addr":"경기도 평택시 팽성읍 객사리 164-57번지 1층","category":"일반휴게음식 - 서양음식"}]},{"lat":"36.964358873","long":"127.06031879","items":[{"name":"59쌀피자","tel":"031-653-5945","addr":"경기도 평택시 팽성읍 객사리 126-3번지 안트빌딩 1층","category":"일반휴게음식 - 서양음식"},{"name":"GS25평택송화점","tel":"02-2006-2485","addr":"경기도 평택시 팽성읍 객사리 126-3","category":"유통업 영리 - 편 의 점"},{"name":"새우리의원","tel":"031-691-5304","addr":"경기도 평택시 팽성읍 객사리 126-3번지 안트빌딩 3층","category":"의원 - 의원"},{"name":"치아사랑치과의원","tel":"031-652-9399","addr":"경기도 평택시 팽성읍 객사리 126-3번지 안트빌딩 2층","category":"서비스업 - 병원"},{"name":"투다리","tel":"031-651-5593","addr":"경기도 평택시 팽성읍 객사리 126-3번지 안트빌딩 1층","category":"일반휴게음식 - 주점"},{"name":"팽성참좋은보습학원","tel":"031-691-1966","addr":"경기도 평택시 팽성읍 객사리 126-3번지 안트빌딩","category":"학원 - 보습학원"},{"name":"포천이동숯불갈비","tel":"031-651-2394","addr":"경기도 평택시 팽성읍 객사리 126-3번지","category":"일반휴게음식 - 일반한식"},{"name":"포천이동숯불갈비","tel":"031-652-1740","addr":"경기도 평택시 팽성읍 객사리 126-3번지","category":"음식점 - 한식"},{"name":"한마음약국","tel":"031-655-1112","addr":"경기도 평택시 팽성읍 객사리 126-3번지","category":"소매업 - 약국"},{"name":"한마음약국","tel":"031-691-9185","addr":"경기도 평택시 팽성읍 객사리 126-3번지","category":"약국 - 약국"}]},{"lat":"36.96430525","long":"127.05939796","items":[{"name":"69삼겹살","tel":"031-691-2307","addr":"경기도 평택시 팽성읍 객사리 135-6번지 외1필지","category":"일반휴게음식 - 일반한식"},{"name":"왕겨삼겹살","tel":"","addr":"경기도 평택시 팽성읍 객사리 135-6번지","category":"음식점 - 한식"}]},{"lat":"36.964465571","long":"127.06320474","items":[{"name":"88핫도그(평택1호점)","tel":"031-000-0000","addr":"경기도 평택시 팽성읍 객사리 47-11번지 1층","category":"일반휴게음식 - 스넥"},{"name":"가람헤어샵","tel":"031-691-9965","addr":"경기도 평택시 팽성읍 객사리 47-11번지","category":"보건위생 - 미용원"}]},{"lat":"36.964332795","long":"127.05830876","items":[{"name":"BC800커피","tel":"031-657-3804","addr":"경기도 평택시 팽성읍 객사리 144-4번지 1층","category":"음식점 - 카페"},{"name":"비씨800(BC800)","tel":"031-618-0048","addr":"경기도 평택시 팽성읍 객사리 144-4번지","category":"일반휴게음식 - 서양음식"}]},{"lat":"36.965889677","long":"127.06239736","items":[{"name":"GS25 팽성타운점","tel":"","addr":"경기도 평택시 팽성읍 객사리 174-35번지","category":"소매업 - 편의점"},{"name":"GS25팽성타운점","tel":"02-2006-2485","addr":"경기도 평택시 팽성읍 객사리 174-35번지 외2필지","category":"유통업 영리 - 편 의 점"}]},{"lat":"36.964860543","long":"127.06609095","items":[{"name":"GS25평택팽성점","tel":"02-2006-2485","addr":"경기도 평택시 팽성읍 객사리 95-3","category":"유통업 영리 - 편 의 점"},{"name":"사라뷰티","tel":"031-691-4977","addr":"경기도 평택시 팽성읍 객사리 95-3번지 1층","category":"보건위생 - 피부미용실"},{"name":"아라축산유통","tel":"031-655-5655","addr":"경기도 평택시 팽성읍 객사리 95-3번지","category":"음료식품 - 정육점"}]},{"lat":"36.965338781","long":"127.06482244","items":[{"name":"k2카","tel":"031-653-2144","addr":"경기도 평택시 팽성읍 객사리 89-3 중앙타운 105-203호","category":"자동차정비 유지 - 자동차정비"}]},{"lat":"36.966315311","long":"127.05798455","items":[{"name":"가나샷시공사","tel":"031-657-8341","addr":"경기도 평택시 팽성읍 객사리 156-5번지 현대하이츠빌라3차 나동 302호","category":"회원제형태 - 기타4"}]},{"lat":"36.964411295","long":"127.06362018","items":[{"name":"가온누리헤어","tel":"031-691-5837","addr":"경기도 평택시 팽성읍 객사리 111-7번지 1층","category":"보건위생 - 미용원"},{"name":"공간","tel":"031-691-8223","addr":"경기도 평택시 팽성읍 객사리 111-7번지 2층","category":"신변잡화 - 기타잡화"},{"name":"핑크미용실","tel":"031-691-4505","addr":"경기도 평택시 팽성읍 객사리 111-7번지","category":"보건위생 - 미용원"}]},{"lat":"36.966946193","long":"127.05770426","items":[{"name":"강병진갈비탕","tel":"031-653-6008","addr":"경기도 평택시 팽성읍 객사리 222번지","category":"일반휴게음식 - 일반한식"},{"name":"무진장","tel":"031-647-0999","addr":"경기도 평택시 팽성읍 객사리 222번지","category":"음식점 - 한식"}]},{"lat":"36.964861532","long":"127.06420445","items":[{"name":"강촌","tel":"031-691-6920","addr":"경기도 평택시 팽성읍 객사리 92-3번지","category":"일반휴게음식 - 일반한식"}]},{"lat":"36.96546816","long":"127.05828712","items":[{"name":"게리꼬","tel":"070-7776-3424","addr":"경기도 평택시 팽성읍 객사리 154-3번지 행복한집 1층","category":"일반휴게음식 - 서양음식"}]},{"lat":"36.964278856","long":"127.05803922","items":[{"name":"고기특별시팽성점","tel":"031-618-8891","addr":"경기도 평택시 팽성읍 객사리 144-5번지 1층","category":"일반휴게음식 - 일반한식"},{"name":"맘스터치 평택팽성점","tel":"031-691-8825","addr":"경기도 평택시 팽성읍 객사리 144-5번지 서은빌딩 1층","category":"일반휴게음식 - 서양음식"},{"name":"박건영태권도아카데미","tel":"070-4257-9582","addr":"경기도 평택시 팽성읍 객사리 144-5번지","category":"학원 - 예·체능계학원"},{"name":"성지학원","tel":"031-691-1462","addr":"경기도 평택시 팽성읍 객사리 144-5번지 3층","category":"학원 - 보습학원"}]},{"lat":"36.964413629","long":"127.05887027","items":[{"name":"고은빛음악학원","tel":"070-5044-5219","addr":"경기도 평택시 팽성읍 객사리 136-5번지 2층","category":"학원 - 예·체능계학원"},{"name":"우림각","tel":"031-691-6163","addr":"경기도 평택시 팽성읍 객사리 136-5번지","category":"일반휴게음식 - 중국식"},{"name":"우림각","tel":"031-653-7683","addr":"경기도 평택시 팽성읍 객사리 136-5번지","category":"음식점 - 중식"}]},{"lat":"36.964692259","long":"127.06034149","items":[{"name":"국수나무 팽성점","tel":"","addr":"경기도 평택시 팽성읍 객사리 161-12번지 1층","category":"음식점 - 한식"},{"name":"국수나무 팽성점","tel":"031-618-1661","addr":"경기도 평택시 팽성읍 객사리 161-12번지 1층","category":"일반휴게음식 - 스넥"},{"name":"글라스스토리","tel":"031-692-9067","addr":"경기도 평택시 팽성읍 객사리 161-12번지","category":"소매업 - 안경"},{"name":"글라스안경원평택팽성점","tel":"031-618-7925","addr":"경기도 평택시 팽성읍 객사리 161-12번지","category":"보건위생 - 안경"},{"name":"휴타이테라피","tel":"031-655-6408","addr":"경기도 평택시 팽성읍 객사리 161-12번지 3층","category":"보건위생 - 피부미용실"}]},{"lat":"36.969306229","long":"127.05936797","items":[{"name":"그린 에스피(SP)","tel":"031-656-8222","addr":"경기도 평택시 팽성읍 객사리 181-1번지 1층","category":"용역 서비스 - 기타용역서비스"}]},{"lat":"36.9695536","long":"127.06892475","items":[{"name":"금호전기조명","tel":"031-692-5353","addr":"경기도 평택시 팽성읍 객사리 19-3","category":"건축자재 - 조명기구"}]},{"lat":"36.964276459","long":"127.06298001","items":[{"name":"꼬마김밥","tel":"031-652-9399","addr":"경기도 평택시 팽성읍 객사리 116-9번지","category":"일반휴게음식 - 일반한식"},{"name":"꼬마김밥","tel":"031-691-5872","addr":"경기도 평택시 팽성읍 객사리 116-9번지","category":"음식점 - 한식"},{"name":"쥬씨(팽성점)","tel":"031-655-6718","addr":"경기도 평택시 팽성읍 객사리 116-9번지","category":"일반휴게음식 - 서양음식"},{"name":"헬로퍼피","tel":"031-691-1144","addr":"경기도 평택시 팽성읍 객사리 116-9번지","category":"문화.취미 - 애완동물"}]},{"lat":"36.965635717","long":"127.06561996","items":[{"name":"나래아트앤빈(Fruits Palette)","tel":"","addr":"경기도 평택시 팽성읍 객사리 82-11번지 윈저시티빌 107호","category":"학원 - 기타 교육기관"},{"name":"씨유팽성스카이점","tel":"031-898-6568","addr":"경기도 평택시 팽성읍 객사리 82-11번지 1동 104, 105, 106호","category":"유통업 영리 - 편 의 점"}]},{"lat":"36.964639135","long":"127.05836513","items":[{"name":"나유신미용실","tel":"031-691-7196","addr":"경기도 평택시 팽성읍 객사리 150-8번지","category":"보건위생 - 미용원"},{"name":"나유신헤어","tel":"031-691-2307","addr":"경기도 평택시 팽성읍 객사리 150-8번지","category":"서비스업 - 미용"},{"name":"이마트24 평택팽성타운점","tel":"02-6916-1500","addr":"경기도 평택시 팽성읍 객사리 150-8번지","category":"유통업 영리 - 편 의 점"},{"name":"이마트24 평택팽성타운점","tel":"","addr":"경기도 평택시 팽성읍 객사리 150-8번지","category":"유통업 영리 - 편 의 점"},{"name":"참맛있는돈까스","tel":"031-654-1154","addr":"경기도 평택시 팽성읍 객사리 150-8번지","category":"일반휴게음식 - 일반한식"},{"name":"팽성태권도","tel":"031-653-7330","addr":"경기도 평택시 팽성읍 객사리 150-8번지 2층","category":"서비스업 - 교육"}]},{"lat":"36.964080698","long":"127.05787064","items":[{"name":"낙원식당","tel":"031-655-5551","addr":"경기도 평택시 팽성읍 객사리 142-13번지","category":"음식점 - 한식"},{"name":"낙원식당","tel":"031-653-6030","addr":"경기도 평택시 팽성읍 객사리 142-13번지 1층","category":"일반휴게음식 - 일반한식"}]},{"lat":"36.965052191","long":"127.06136362","items":[{"name":"남다른","tel":"","addr":"경기도 평택시 팽성읍 객사리 168-12번지 1층","category":"의류 - 기타의류"},{"name":"윈당구클럽","tel":"031-8094-3949","addr":"경기도 평택시 팽성읍 객사리 168-12번지 2층","category":"레저업소 - 당 구 장"},{"name":"정원갈비","tel":"031-618-7925","addr":"경기도 평택시 팽성읍 객사리 168-12번지","category":"음식점 - 한식"}]},{"lat":"36.965557356","long":"127.06020739","items":[{"name":"놀부보쌈팽성점","tel":"031-111-1111","addr":"경기도 평택시 팽성읍 객사리 161-1번지","category":"일반휴게음식 - 일반한식"},{"name":"놀부보쌈팽성점","tel":"031-657-9998","addr":"경기도 평택시 팽성읍 객사리 161-1번지 1층","category":"음식점 - 한식"}]},{"lat":"36.964303633","long":"127.06269931","items":[{"name":"늘봄화원","tel":"031-691-7716","addr":"경기도 평택시 팽성읍 객사리 116-5번지","category":"문화.취미 - 화원"},{"name":"늘봄화원","tel":"","addr":"경기도 평택시 팽성읍 객사리 116-5번지","category":"소매업 - 꽃집"}]},{"lat":"36.966856112","long":"127.05764805","items":[{"name":"능이백숙","tel":"031-654-4359","addr":"경기도 평택시 팽성읍 객사리 224-2번지 1층","category":"일반휴게음식 - 일반한식"}]},{"lat":"36.963798832","long":"127.06309193","items":[{"name":"담소나and쁘띠아이","tel":"031-685-7345","addr":"경기도 평택시 팽성읍 객사리 114-1번지","category":"의류 - 정장"}]},{"lat":"36.965139564","long":"127.0666751","items":[{"name":"대동설비건재","tel":"031-652-8473","addr":"경기도 평택시 팽성읍 객사리 74-4","category":"용역 서비스 - 기타용역서비스"}]},{"lat":"36.964112399","long":"127.06656195","items":[{"name":"대양코다리","tel":"031-691-2031","addr":"경기도 평택시 팽성읍 객사리 101번지 1층","category":"일반휴게음식 - 일반한식"}]},{"lat":"36.965302479","long":"127.0653165","items":[{"name":"대우설비","tel":"031-658-9080","addr":"경기도 평택시 팽성읍 객사리 81-3번지 한스빌리지 301호","category":"용역 서비스 - 기타용역서비스"},{"name":"롯데이엔지(주)","tel":"031-663-9002","addr":"경기도 평택시 팽성읍 객사리 81-3번지 한스빌리지 403호","category":"기타 - 기타 전문점"},{"name":"지현","tel":"","addr":"경기도 평택시 팽성읍 객사리 81-3번지 한스빌리지 306호","category":"의류 - 정장"}]},{"lat":"36.964889747","long":"127.06186881","items":[{"name":"대원정보통신","tel":"031-655-4640","addr":"경기도 평택시 팽성읍 객사리 169-2","category":"사무통신 - 통신기기"}]},{"lat":"36.96871887","long":"127.06275891","items":[{"name":"대은건재","tel":"031-691-0140","addr":"경기도 평택시 팽성읍 객사리 36-9, 36-2","category":"건축자재 - 기타건축자재"}]},{"lat":"36.965997738","long":"127.06253219","items":[{"name":"대진상회","tel":"031-8029-6648","addr":"경기도 평택시 팽성읍 객사리 42-6번지","category":"직물 - 침구·수예점"},{"name":"타임헤어","tel":"031-681-2824","addr":"경기도 평택시 팽성읍 객사리 42-6번지 1층","category":"보건위생 - 미용원"}]},{"lat":"36.963690618","long":"127.06326028","items":[{"name":"데일리뷰티","tel":"031-653-1786","addr":"경기도 평택시 팽성읍 객사리 113-8번지 주세움빌 1층","category":"서비스업 - 미용, 네일"}]},{"lat":"36.966555482","long":"127.06434056","items":[{"name":"동양설비","tel":"031-652-8204","addr":"경기도 평택시 팽성읍 객사리 53-4번지","category":"건축자재 - 보일러·펌프·샷시"}]},{"lat":"36.964528192","long":"127.06409189","items":[{"name":"뚱돼지돈","tel":"031-656-9016","addr":"경기도 평택시 팽성읍 객사리 111-3번지 1층","category":"일반휴게음식 - 일반한식"},{"name":"맘스반찬앤김밥","tel":"031-651-4383","addr":"경기도 평택시 팽성읍 객사리 111-3번지 1층","category":"음료식품 - 기타음료식품"}]},{"lat":"36.964582949","long":"127.06273321","items":[{"name":"뚱보식당","tel":"031-691-9656","addr":"경기도 평택시 팽성읍 객사리 47-28번지","category":"일반휴게음식 - 일반한식"},{"name":"뚱보식당","tel":"031-652-4998","addr":"경기도 평택시 팽성읍 객사리 47-28번지","category":"음식점 - 한식"},{"name":"은혜풀향기칼국수","tel":"031-654-3677","addr":"경기도 평택시 팽성읍 객사리 47-28번지 1층","category":"일반휴게음식 - 일반한식"},{"name":"은혜풀향기칼국수","tel":"031-691-9656","addr":"경기도 평택시 팽성읍 객사리 47-28번지","category":"음식점 - 한식"}]},{"lat":"36.964501699","long":"127.06303634","items":[{"name":"롯데리아평택팽성점","tel":"031-618-5135","addr":"경기도 평택시 팽성읍 객사리 47-9번지","category":"음식점 - 햄버거"}]},{"lat":"36.964106669","long":"127.06011647","items":[{"name":"루비스킨케어","tel":"031-691-0313","addr":"경기도 평택시 팽성읍 객사리 132-9번지 2층","category":"보건위생 - 화장품"}]},{"lat":"36.965188801","long":"127.05834307","items":[{"name":"리프사무가구","tel":"031-657-2387","addr":"경기도 평택시 팽성읍 객사리 153-1번지","category":"가구 - 기타가구"}]},{"lat":"36.964023832","long":"127.06361987","items":[{"name":"막전","tel":"031-618-0021","addr":"경기도 평택시 팽성읍 객사리 112-21번지","category":"일반휴게음식 - 일반한식"}]},{"lat":"36.969553954","long":"127.06828465","items":[{"name":"맥스엠평택(MAX.M)","tel":"031-654-6220","addr":"경기도 평택시 팽성읍 객사리 19-4번지","category":"자동차정비 유지 - 카인테리어"},{"name":"백호건철","tel":"031-692-7355","addr":"경기도 평택시 팽성읍 객사리 19-4번지 (오른쪽3칸)","category":"건축자재 - 목재·석재·철물"}]},{"lat":"36.967441408","long":"127.05851315","items":[{"name":"명품자동차외형복원","tel":"031-653-1230","addr":"경기도 평택시 팽성읍 객사리 212번지","category":"자동차정비 유지 - 자동차정비"}]},{"lat":"36.966222638","long":"127.06326228","items":[{"name":"모다헤어","tel":"031-653-5001","addr":"경기도 평택시 팽성읍 객사리 39-9번지 호산나빌 1층 상가","category":"보건위생 - 미용원"}]},{"lat":"36.9657456","long":"127.06220635","items":[{"name":"미가네","tel":"031-692-1406","addr":"경기도 평택시 팽성읍 객사리 174-19번지","category":"일반휴게음식 - 일반한식"},{"name":"미가네","tel":"","addr":"경기도 평택시 팽성읍 객사리 174-19번지","category":"음식점 - 한식"},{"name":"주당노가리호프","tel":"031-652-2588","addr":"경기도 평택시 팽성읍 객사리 174-19번지","category":"일반휴게음식 - 주점"}]},{"lat":"36.963998659","long":"127.05986935","items":[{"name":"민줌바&필라테스","tel":"070-8238-8744","addr":"경기도 평택시 팽성읍 객사리 132-7번지 3층","category":"레저업소 - 헬스클럽"},{"name":"캡틴당구장","tel":"","addr":"경기도 평택시 팽성읍 객사리 132-7번지 2층","category":"레저업소 - 당 구 장"},{"name":"티버즈","tel":"031-618-6189","addr":"경기도 평택시 팽성읍 객사리 132-7번지","category":"음식점 - 카페"},{"name":"헤어갤러리 \"시선\"","tel":"","addr":"경기도 평택시 팽성읍 객사리 132-7번지","category":"서비스업 - 이미용"},{"name":"헤어갤러리시선","tel":"031-618-6189","addr":"경기도 평택시 팽성읍 객사리 132-7번지 1층","category":"보건위생 - 미용원"}]},{"lat":"36.964077556","long":"127.06428243","items":[{"name":"믿음인테리어","tel":"031-664-9670","addr":"경기도 평택시 팽성읍 객사리 112-16번지 청담빌딩 201호","category":"건축자재 - 인테리어전문"},{"name":"초대축산","tel":"031-651-0909","addr":"경기도 평택시 팽성읍 객사리 112-16번지 청담빌딩 1층","category":"도소매업 - 정육"},{"name":"프리미엄하우징","tel":"031-664-9670","addr":"경기도 평택시 팽성읍 객사리 112-16번지 청담빌딩 401호","category":"건축자재 - 인테리어전문"}]},{"lat":"36.965827603","long":"127.06036481","items":[{"name":"밥한술","tel":"031-656-2998","addr":"경기도 평택시 팽성읍 객사리 164-74번지 1층","category":"일반휴게음식 - 일반한식"},{"name":"씨유팽성원룸점","tel":"031-655-1779","addr":"경기도 평택시 팽성읍 객사리 164-74번지 101호","category":"도소매업 - 편의점"},{"name":"씨유팽성원룸점","tel":"031-658-4340","addr":"경기도 평택시 팽성읍 객사리 164-74번지 101호","category":"유통업 영리 - 편 의 점"}]},{"lat":"36.964194609","long":"127.06445096","items":[{"name":"방일해장국","tel":"031-691-9185","addr":"경기도 평택시 팽성읍 객사리 109-5번지","category":"음식점 - 한식"},{"name":"방일해장국","tel":"031-691-0606","addr":"경기도 평택시 팽성읍 객사리 109-5번지 109-6 ,1층 상가전부","category":"일반휴게음식 - 일반한식"},{"name":"우리노래연습장","tel":"031-692-2942","addr":"경기도 평택시 팽성읍 객사리 109-5번지 전체 2층","category":"레저업소 - 노 래 방"}]},{"lat":"36.965106689","long":"127.06047656","items":[{"name":"보람엘텍","tel":"031-657-7709","addr":"경기도 평택시 팽성읍 객사리 162-3번지 106호","category":"전기제품 - 기타전기제품"},{"name":"주식회사디에이치아이글로벌","tel":"02-2068-6793","addr":"경기도 평택시 팽성읍 객사리 162-3번지 정스빌 307호","category":"가구 - 기타가구"}]},{"lat":"36.964440304","long":"127.05962264","items":[{"name":"부용세차장","tel":"031-691-0457","addr":"경기도 평택시 팽성읍 객사리 135-5번지","category":"서비스업 - 세차, 자동차용품"},{"name":"부용손세차","tel":"031-691-7303","addr":"경기도 평택시 팽성읍 객사리 135-5번지","category":"자동차정비 유지 - 세차장"}]},{"lat":"36.965467706","long":"127.05925284","items":[{"name":"부용초등학교","tel":"031-691-5945","addr":"경기도 평택시 팽성읍 객사리 160-1번지","category":"학원 - 초중고교육기관"},{"name":"부용초등학교병설유치원[아이행복]","tel":"031-692-1380","addr":"경기도 평택시 팽성읍 객사리 160-1번지","category":"학원 - 유치원"}]},{"lat":"36.964693068","long":"127.0586459","items":[{"name":"부용카프라자","tel":"","addr":"경기도 평택시 팽성읍 객사리 151-2번지","category":"서비스업 - 자동차정비"}]},{"lat":"36.965357606","long":"127.06326159","items":[{"name":"빈스앤비노","tel":"","addr":"경기도 평택시 팽성읍 객사리 44-3번지 1층 2호","category":"음료식품 - 기타음료식품"},{"name":"카페 헤이즐","tel":"031-618-1209","addr":"경기도 평택시 팽성읍 객사리 44-3번지 1층","category":"음식점 - 카페"},{"name":"카페헤이즐","tel":"031-657-1273","addr":"경기도 평택시 팽성읍 객사리 44-3번지 1층","category":"일반휴게음식 - 서양음식"}]},{"lat":"36.965529275","long":"127.06234093","items":[{"name":"빈스앤비노","tel":"031-652-4818","addr":"경기도 평택시 팽성읍 객사리 173-6번지 윤하빌딩 1층 101호","category":"일반휴게음식 - 서양음식"}]},{"lat":"36.964665053","long":"127.06070081","items":[{"name":"빠리미용실","tel":"031-657-2733","addr":"경기도 평택시 팽성읍 객사리 125-4번지 2층","category":"보건위생 - 미용원"},{"name":"파리바게뜨 평택송화점","tel":"031-691-0888","addr":"경기도 평택시 팽성읍 객사리 125-4번지","category":"음식점 - 제과점"},{"name":"파리바게트 송화점","tel":"02-0000-0000","addr":"경기도 평택시 팽성읍 객사리 125-4번지","category":"음료식품 - 제과점"}]},{"lat":"36.964222269","long":"127.06322701","items":[{"name":"빽다방 (평택팽성점)","tel":"031-692-8855","addr":"경기도 평택시 팽성읍 객사리 115-2번지 1층","category":"일반휴게음식 - 서양음식"}]},{"lat":"36.964744019","long":"127.06492302","items":[{"name":"산삼초건강원","tel":"031-618-5009","addr":"경기도 평택시 팽성읍 객사리 92-2","category":"건강식품 - 기타건강식품"},{"name":"태가네동태탕","tel":"031-657-7742","addr":"경기도 평택시 팽성읍 객사리 92-2번지","category":"일반휴게음식 - 일반한식"},{"name":"향교흑염소","tel":"031-691-6175","addr":"경기도 평택시 팽성읍 객사리 92-2번지","category":"건강식품 - 기타건강식품"}]},{"lat":"36.964690965","long":"127.06295788","items":[{"name":"송죽원추어탕매기매운탕","tel":"","addr":"경기도 평택시 팽성읍 객사리 47-2번지","category":"음식점 - 한식"},{"name":"송죽원추어탕메기매운탕","tel":"031-652-4998","addr":"경기도 평택시 팽성읍 객사리 47-2번지 외필지","category":"일반휴게음식 - 일반한식"},{"name":"신행복한밥상","tel":"031-654-8900","addr":"경기도 평택시 팽성읍 객사리 47-2","category":"일반휴게음식 - 일반한식"}]},{"lat":"36.966243777","long":"127.05678295","items":[{"name":"스시락","tel":"070-1111-1111","addr":"경기도 평택시 팽성읍 객사리 155-2번지","category":"일반휴게음식 - 일반한식"},{"name":"팽성수산","tel":"","addr":"경기도 평택시 팽성읍 객사리 155-2번지","category":"음료식품 - 농·축·수산품"}]},{"lat":"36.963969894","long":"127.06337279","items":[{"name":"싱싱스낵","tel":"031-656-4939","addr":"경기도 평택시 팽성읍 객사리 112-13번지 1층","category":"일반휴게음식 - 스넥"},{"name":"싱싱스낵","tel":"","addr":"경기도 평택시 팽성읍 객사리 112-13번지","category":"음식점 - 분식"}]},{"lat":"36.969167426","long":"127.06656616","items":[{"name":"쌍용오토모터스","tel":"031-655-4929","addr":"경기도 평택시 팽성읍 객사리 29-4번지","category":"자동차정비 유지 - 자동차정비"}]},{"lat":"36.964582853","long":"127.06292411","items":[{"name":"쌍용원","tel":"031-654-3677","addr":"경기도 평택시 팽성읍 객사리 47-14번지","category":"음식점 - 중식"}]},{"lat":"36.964854235","long":"127.06079078","items":[{"name":"아이티","tel":"031-692-1797","addr":"경기도 평택시 팽성읍 객사리 124-1번지","category":"사무통신 - 기타 사무용품"}]},{"lat":"36.964077857","long":"127.06369852","items":[{"name":"안정세탁소","tel":"031-656-0703","addr":"경기도 평택시 팽성읍 객사리 112-9번지","category":"서비스업 - 세탁소"},{"name":"필PC방","tel":"031-654-4166","addr":"경기도 평택시 팽성읍 객사리 112-9번지 2층","category":"레저업소 - 기타레져업소"}]},{"lat":"36.964384147","long":"127.06384474","items":[{"name":"얌스 플러스","tel":"031-691-8778","addr":"경기도 평택시 팽성읍 객사리 111-24번지","category":"음식점 - 한식"},{"name":"얌스플러스","tel":"031-618-3988","addr":"경기도 평택시 팽성읍 객사리 111-24번지","category":"일반휴게음식 - 일반한식"}]},{"lat":"36.964194783","long":"127.06411409","items":[{"name":"엄니순대국","tel":"031-656-2998","addr":"경기도 평택시 팽성읍 객사리 112-2번지","category":"음식점 - 한식"},{"name":"엄니순대국","tel":"031-652-2213","addr":"경기도 평택시 팽성읍 객사리 112-2번지","category":"일반휴게음식 - 일반한식"}]},{"lat":"36.964527235","long":"127.06592224","items":[{"name":"에소르핏(평택점)","tel":"","addr":"경기도 평택시 팽성읍 객사리 102-5번지 4층","category":"레저업소 - 헬스클럽"},{"name":"칸타빌레커피앤펍","tel":"031-651-1078","addr":"경기도 평택시 팽성읍 객사리 102-5번지 1층","category":"일반휴게음식 - 서양음식"},{"name":"휴대폰1번가","tel":"031-691-7004","addr":"경기도 평택시 팽성읍 객사리 102-5번지","category":"사무통신 - 통신기기"}]},{"lat":"36.966440914","long":"127.05915249","items":[{"name":"에스(S)포레","tel":"031-654-0308","addr":"경기도 평택시 팽성읍 객사리 164-11번지 201호","category":"보건위생 - 피부미용실"},{"name":"요거프레소 평택팽성점","tel":"031-656-8775","addr":"경기도 평택시 팽성읍 객사리 164-11번지","category":"음식점 - 디저트"},{"name":"요거프레소 평택팽성점","tel":"031-653-6744","addr":"경기도 평택시 팽성읍 객사리 164-11번지","category":"일반휴게음식 - 서양음식"}]},{"lat":"36.964944276","long":"127.0609256","items":[{"name":"영진종합설비","tel":"031-691-0620","addr":"경기도 평택시 팽성읍 객사리 168-10번지 1동","category":"건축자재 - 보일러·펌프·샷시"},{"name":"하나로약국","tel":"031-655-1112","addr":"경기도 평택시 팽성읍 객사리 168-10번지 1층","category":"약국 - 약국"},{"name":"하나로약국","tel":"031-691-7553","addr":"경기도 평택시 팽성읍 객사리 168-10번지","category":"소매업 - 약국"}]},{"lat":"36.966773254","long":"127.06134248","items":[{"name":"영진헤어","tel":"031-691-3636","addr":"경기도 평택시 팽성읍 객사리 172-4번지 1층","category":"보건위생 - 미용원"}]},{"lat":"36.964719183","long":"127.0605661","items":[{"name":"오케이 미용실","tel":"031-655-4504","addr":"경기도 평택시 팽성읍 객사리 125-5번지","category":"보건위생 - 미용원"}]},{"lat":"36.967612512","long":"127.05872663","items":[{"name":"오토케이브","tel":"","addr":"경기도 평택시 팽성읍 객사리 229-8번지","category":"자동차정비 유지 - 자동차부품"}]},{"lat":"36.964050933","long":"127.06348514","items":[{"name":"와이블랙평택팽성점","tel":"031-618-5670","addr":"경기도 평택시 팽성읍 객사리 112-6번지 1층(상가)","category":"일반휴게음식 - 서양음식"},{"name":"카페루앤비 평택팽성점","tel":"031-656-4939","addr":"경기도 평택시 팽성읍 객사리 112-6번지","category":"음식점 - 커피"}]},{"lat":"36.964249788","long":"127.06226133","items":[{"name":"우정분식","tel":"031-691-2779","addr":"경기도 평택시 팽성읍 객사리 119-1","category":"일반휴게음식 - 스넥"},{"name":"하나로마트(팽성농업협동조합)","tel":"031-657-3738","addr":"경기도 평택시 팽성읍 객사리 118-7번지","category":"소매업 - 슈퍼"}]},{"lat":"36.964078279","long":"127.06286757","items":[{"name":"우정분식","tel":"031-692-1881","addr":"경기도 평택시 팽성읍 객사리 115-12번지","category":"음식점 - 분식"},{"name":"윤스튜디오(팽성점)","tel":"031-651-6730","addr":"경기도 평택시 팽성읍 객사리 115-12번지","category":"광학제품 - 사진관"},{"name":"윤스튜디오(팽성점)","tel":"031-618-1661","addr":"경기도 평택시 팽성읍 객사리 115-12번지","category":"서비스업 - 사진관"}]},{"lat":"36.966521277","long":"127.06067975","items":[{"name":"위드미 평택팽성점","tel":"02-1111-1111","addr":"경기도 평택시 팽성읍 객사리 164-1번지 103동 101호","category":"유통업 영리 - 편 의 점"},{"name":"이마트24 평택팽성점","tel":"","addr":"경기도 평택시 팽성읍 객사리 164-1번지 103동 101호","category":"유통업 영리 - 편 의 점"}]},{"lat":"36.96654945","long":"127.05828791","items":[{"name":"육장부대찌개","tel":"031-618-4758","addr":"경기도 평택시 팽성읍 객사리 223-11번지","category":"일반휴게음식 - 일반한식"}]},{"lat":"36.964662793","long":"127.06517","items":[{"name":"이(E)맥스LED조명","tel":"032-6566-3544","addr":"경기도 평택시 팽성읍 객사리 93-1번지 1층 좌측","category":"건축자재 - 조명기구"}]},{"lat":"36.965409976","long":"127.06650689","items":[{"name":"자비동산어린이집[아이행복]","tel":"031-691-9016","addr":"경기도 평택시 팽성읍 객사리 75번지","category":"학원 - 유아원"}]},{"lat":"36.965277674","long":"127.06092585","items":[{"name":"정석통바베큐족구이","tel":"031-691-9245","addr":"경기도 평택시 팽성읍 객사리 167-12번지 가동","category":"일반휴게음식 - 일반한식"}]},{"lat":"36.964244486","long":"127.05431115","items":[{"name":"조이마트 팽성점","tel":"031-692-5777","addr":"경기도 평택시 팽성읍 객사리 192-1번지","category":"소매업 - 슈퍼"}]},{"lat":"36.966359566","long":"127.05968021","items":[{"name":"주식회사 중앙가스산업","tel":"031-656-8414","addr":"경기도 평택시 팽성읍 객사리 164-2번지 102호","category":"용역 서비스 - 기타용역서비스"},{"name":"한끼식사","tel":"031-651-6163","addr":"경기도 평택시 팽성읍 객사리 164-2번지 101호","category":"일반휴게음식 - 일반한식"},{"name":"헤어카라","tel":"031-618-1316","addr":"경기도 평택시 팽성읍 객사리 164-2번지 3호","category":"보건위생 - 미용원"},{"name":"헤어카라","tel":"031-653-0665","addr":"경기도 평택시 팽성읍 객사리 164-2번지","category":"서비스업 - 이미용"}]},{"lat":"36.969445689","long":"127.06853161","items":[{"name":"주식회사엘케이네트웍스","tel":"031-657-5003","addr":"경기도 평택시 팽성읍 객사리 19-32번지","category":"의류 - 단체복"}]},{"lat":"36.964555138","long":"127.06426035","items":[{"name":"줄리앙와플팽성점","tel":"031-682-5892","addr":"경기도 평택시 팽성읍 객사리 111-1번지 1층","category":"일반휴게음식 - 서양음식"},{"name":"휴대폰멀티샵 (통큰모바일)","tel":"031-651-1707","addr":"경기도 평택시 팽성읍 객사리 111-1번지","category":"사무통신 - 통신기기"}]},{"lat":"36.963942936","long":"127.06322679","items":[{"name":"즉석김밥전문점","tel":"031-691-8700","addr":"경기도 평택시 팽성읍 객사리 112-15번지","category":"일반휴게음식 - 스넥"},{"name":"즉석김밥전문점","tel":"031-691-7467","addr":"경기도 평택시 팽성읍 객사리 112-15번지","category":"음식점 - 분식"},{"name":"헤라미용실","tel":"031-658-5502","addr":"경기도 평택시 팽성읍 객사리 112-15번지","category":"보건위생 - 미용원"}]},{"lat":"36.964440148","long":"127.05994829","items":[{"name":"채린헤어","tel":"031-653-6744","addr":"경기도 평택시 팽성읍 객사리 134-4번지 1층","category":"서비스업 - 미용"},{"name":"채린헤어","tel":"031-658-7941","addr":"경기도 평택시 팽성읍 객사리 134-4번지 1층","category":"보건위생 - 미용원"},{"name":"황소부대찌개팽성점","tel":"031-691-4435","addr":"경기도 평택시 팽성읍 객사리 134-4","category":"일반휴게음식 - 일반한식"}]},{"lat":"36.963996685","long":"127.06384443","items":[{"name":"최반장부대찌개","tel":"031-656-0203","addr":"경기도 평택시 팽성읍 객사리 112-29번지","category":"일반휴게음식 - 일반한식"}]},{"lat":"36.963996546","long":"127.06411393","items":[{"name":"최반장부대찌개","tel":"031-618-5670","addr":"경기도 평택시 팽성읍 객사리 112-4번지","category":"음식점 - 한식"}]},{"lat":"36.9647731","long":"127.06086932","items":[{"name":"최뿔따구","tel":"031-691-0288","addr":"경기도 평택시 팽성읍 객사리 124-8번지 B동","category":"일반휴게음식 - 일반한식"}]},{"lat":"36.969301468","long":"127.06862133","items":[{"name":"컨테이너245","tel":"031-691-2277","addr":"경기도 평택시 팽성읍 객사리 19-29번지 1층","category":"음식점 - 카페"},{"name":"컨테이너245","tel":"031-658-0245","addr":"경기도 평택시 팽성읍 객사리 19-29번지 1층","category":"일반휴게음식 - 서양음식"}]},{"lat":"36.966917182","long":"127.06183668","items":[{"name":"코브라독스","tel":"","addr":"경기도 평택시 팽성읍 객사리 176-20번지 1층 서해타워","category":"일반휴게음식 - 일반한식"}]},{"lat":"36.965799417","long":"127.06270048","items":[{"name":"타임헤어","tel":"031-658-7941","addr":"경기도 평택시 팽성읍 객사리 42-4번지 이든빌1","category":"서비스업 - 미용"}]},{"lat":"36.96427124","long":"127.05495122","items":[{"name":"탐라도주막","tel":"031-618-9233","addr":"경기도 평택시 팽성읍 객사리 183-8번지 1층","category":"일반휴게음식 - 일반한식"}]},{"lat":"36.967243329","long":"127.05817612","items":[{"name":"탬버린 노래연습장","tel":"031-652-3280","addr":"경기도 평택시 팽성읍 객사리 216번지","category":"레저업소 - 노 래 방"}]},{"lat":"36.964745714","long":"127.06158797","items":[{"name":"팽성경희한의원","tel":"031-692-5009","addr":"경기도 평택시 팽성읍 객사리 168-21번지","category":"서비스업 - 한의원"}]},{"lat":"36.964472738","long":"127.06673069","items":[{"name":"팽성모터스","tel":"031-692-2355","addr":"경기도 평택시 팽성읍 객사리 100번지","category":"서비스업 - 자동차정비"},{"name":"팽성모터스","tel":"031-656-3804","addr":"경기도 평택시 팽성읍 객사리 100번지","category":"자동차정비 유지 - 자동차정비"},{"name":"팽성모터스","tel":"031-656-3804","addr":"경기도 평택시 팽성읍 객사리 100번지","category":"자동차정비 유지 - 자동차정비"}]},{"lat":"36.965861134","long":"127.06533941","items":[{"name":"팽성유치원[아이행복]","tel":"031-653-2663","addr":"경기도 평택시 팽성읍 객사리 83-3","category":"학원 - 유치원"}]},{"lat":"36.965439922","long":"127.06081368","items":[{"name":"팽성자매네","tel":"031-651-2394","addr":"경기도 평택시 팽성읍 객사리 167-7번지 진송빌","category":"음식점 - 한식"},{"name":"팽성자매네","tel":"031-691-3155","addr":"경기도 평택시 팽성읍 객사리 167-7번지","category":"일반휴게음식 - 일반한식"}]},{"lat":"36.964692014","long":"127.06084681","items":[{"name":"팽성하나의원","tel":"031-658-7551","addr":"경기도 평택시 팽성읍 객사리 124-7","category":"의원 - 의원"}]},{"lat":"36.964303559","long":"127.06284529","items":[{"name":"평택안경팽성점","tel":"031-691-2779","addr":"경기도 평택시 팽성읍 객사리 116-6번지","category":"소매업 - 안경"},{"name":"평택안경팽성점","tel":"031-656-0703","addr":"경기도 평택시 팽성읍 객사리 116-6번지","category":"보건위생 - 안경"}]},{"lat":"36.966772139","long":"127.06356591","items":[{"name":"하늘사랑어린이집[아이행복]","tel":"031-654-2055","addr":"경기도 평택시 팽성읍 객사리 39-2번지","category":"학원 - 유아원"}]},{"lat":"36.964356615","long":"127.06481042","items":[{"name":"한마음헤어","tel":"031-541-4310","addr":"경기도 평택시 팽성읍 객사리 106-5번지 1층 한마음헤어","category":"보건위생 - 미용원"}]},{"lat":"36.965278777","long":"127.05862386","items":[{"name":"한울 태권도","tel":"031-618-2158","addr":"경기도 평택시 팽성읍 객사리 160-5번지","category":"학원 - 예·체능계학원"}]}]