[{"lat":"37.713711268","long":"126.98110682","items":[{"name":"(주)바바우통가뉴질랜드","tel":"02-475-3171","addr":"경기도 양주시 장흥면 울대리 532번지 1층","category":"건강식품 - 기타건강식품"},{"name":"갤러리","tel":"070-7574-5390","addr":"경기도 양주시 장흥면 울대리 532번지 2층","category":"문화.취미 - 화랑"}]},{"lat":"37.718539521","long":"126.97671608","items":[{"name":"(주)팔당냉면","tel":"031-872-9992","addr":"경기도 양주시 장흥면 울대리 385-25번지 1층","category":"일반휴게음식 - 일반한식"},{"name":"송추당구클럽","tel":"031-879-3939","addr":"경기도 양주시 장흥면 울대리 385-25번지 2층","category":"레저업소 - 당 구 장"}]},{"lat":"37.71312582","long":"126.98208233","items":[{"name":"BIUM COFFEE(비움 커피)","tel":"031-826-2016","addr":"경기도 양주시 장흥면 울대리 540번지","category":"일반휴게음식 - 서양음식"}]},{"lat":"37.718657113","long":"126.97891638","items":[{"name":"감성 디자인","tel":"","addr":"경기도 양주시 장흥면 울대리 380-3번지","category":"건축자재 - 인테리어전문"},{"name":"용인식당","tel":"031-826-4038","addr":"경기도 양주시 장흥면 울대리 380-3","category":"일반휴게음식 - 일반한식"}]},{"lat":"37.714567195","long":"126.98118596","items":[{"name":"갤러리 퐁데자르","tel":"031-855-0536","addr":"경기도 양주시 장흥면 울대리 410-2번지","category":"문화.취미 - 화랑"}]},{"lat":"37.724073538","long":"126.98934999","items":[{"name":"갯촌칼국시","tel":"031-855-7006","addr":"경기도 양주시 장흥면 울대리 330-6번지","category":"일반휴게음식 - 일반한식"}]},{"lat":"37.731624091","long":"126.99515671","items":[{"name":"농가","tel":"031-829-9262","addr":"경기도 양주시 장흥면 울대리 82-1번지","category":"음료식품 - 기타음료식품"}]},{"lat":"37.733597199","long":"126.99532666","items":[{"name":"대박곰탕","tel":"031-877-3767","addr":"경기도 양주시 장흥면 울대리 48번지","category":"일반휴게음식 - 일반한식"}]},{"lat":"37.713098655","long":"126.98132248","items":[{"name":"대승불교삼론종약사사","tel":"031-872-3589","addr":"경기도 양주시 장흥면 울대리 536-10번지 2층","category":"보건위생 - 기타대인서비스"}]},{"lat":"37.712963738","long":"126.98260406","items":[{"name":"더 메모리","tel":"031-855-4104","addr":"경기도 양주시 장흥면 울대리 517-5","category":"일반휴게음식 - 주점"}]},{"lat":"37.712630383","long":"126.98260415","items":[{"name":"두리 락","tel":"031-826-4679","addr":"경기도 양주시 장흥면 울대리 517-3번지 1층 2층","category":"일반휴게음식 - 일반한식"}]},{"lat":"37.713540086","long":"126.98110687","items":[{"name":"뚜","tel":"","addr":"경기도 양주시 장흥면 울대리 532-6번지 1층","category":"문화.취미 - 화랑"},{"name":"뚜","tel":"","addr":"경기도 양주시 장흥면 울대리 532-6번지 1층","category":"일반휴게음식 - 서양음식"}]},{"lat":"37.71715252","long":"126.97896223","items":[{"name":"로얄수영장","tel":"031-826-5471","addr":"경기도 양주시 장흥면 울대리 427번지","category":"레저업소 - 수 영 장"},{"name":"미담채","tel":"","addr":"경기도 양주시 장흥면 울대리 427번지","category":"음료식품 - 기타음료식품"}]},{"lat":"37.713540121","long":"126.98129967","items":[{"name":"루츠카페","tel":"","addr":"경기도 양주시 장흥면 울대리 532-2번지","category":"일반휴게음식 - 서양음식"}]},{"lat":"37.713351006","long":"126.98177605","items":[{"name":"리트리움","tel":"","addr":"경기도 양주시 장흥면 울대리 534-4번지 1층","category":"일반휴게음식 - 일반한식"}]},{"lat":"37.717710797","long":"126.97744225","items":[{"name":"미래개발","tel":"031-875-1033","addr":"경기도 양주시 장흥면 울대리 396-3번지 1층","category":"용역 서비스 - 기타용역서비스"},{"name":"아랫목","tel":"031-878-3921","addr":"경기도 양주시 장흥면 울대리 396-3","category":"일반휴게음식 - 일반한식"}]},{"lat":"37.713711304","long":"126.98129962","items":[{"name":"민물고기집","tel":"031-826-4727","addr":"경기도 양주시 장흥면 울대리 532-1번지 1층","category":"일반휴게음식 - 일반한식"}]},{"lat":"37.718377033","long":"126.97533242","items":[{"name":"방태막국수","tel":"031-829-0770","addr":"경기도 양주시 장흥면 울대리 387-5번지","category":"일반휴게음식 - 일반한식"}]},{"lat":"37.72954285","long":"126.99473721","items":[{"name":"백호 냉동 탑차","tel":"031-877-7225","addr":"경기도 양주시 장흥면 울대리 104-1번지","category":"기타 - 기계공구"},{"name":"비타민캠핑","tel":"070-4139-1402","addr":"경기도 양주시 장흥면 울대리 104-1번지","category":"레져용품 - 스포츠·레져용품"}]},{"lat":"37.715513325","long":"126.98185483","items":[{"name":"베르힐이탈리안레스토랑","tel":"070-7768-3612","addr":"경기도 양주시 장흥면 울대리 437-7번지 1층 102호","category":"일반휴게음식 - 서양음식"}]},{"lat":"37.713206998","long":"126.982604","items":[{"name":"산여울","tel":"031-826-4037","addr":"경기도 양주시 장흥면 울대리 519번지 1층","category":"일반휴게음식 - 일반한식"}]},{"lat":"37.713846345","long":"126.98074386","items":[{"name":"서원식품","tel":"031-855-5306","addr":"경기도 양주시 장흥면 울대리 511-1번지 1층","category":"음료식품 - 농·축·수산품"}]},{"lat":"37.715459027","long":"126.98055058","items":[{"name":"서정갤러리카페","tel":"031-855-1008","addr":"경기도 양주시 장흥면 울대리 416-4번지","category":"일반휴게음식 - 서양음식"}]},{"lat":"37.731344861","long":"126.99626844","items":[{"name":"선비잡이콩이랑","tel":"031-855-5953","addr":"경기도 양주시 장흥면 울대리 84-4번지","category":"일반휴게음식 - 일반한식"}]},{"lat":"37.714152624","long":"126.98049426","items":[{"name":"솔뜨락","tel":"031-878-2265","addr":"경기도 양주시 장흥면 울대리 509-1번지","category":"일반휴게음식 - 일반한식"},{"name":"주식회사 수진","tel":"031-855-1013","addr":"경기도 양주시 장흥면 울대리 509-1번지 2층","category":"용역 서비스 - 사무서비스"}]},{"lat":"37.714044609","long":"126.98102733","items":[{"name":"송미정","tel":"031-826-4027","addr":"경기도 양주시 장흥면 울대리 523-2번지","category":"일반휴게음식 - 일반한식"}]},{"lat":"37.719207128","long":"126.9811279","items":[{"name":"송인목재","tel":"031-855-2368","addr":"경기도 양주시 장흥면 울대리 377-3 외3필지","category":"건축자재 - 목재·석재·철물"}]},{"lat":"37.714179944","long":"126.98208203","items":[{"name":"송천마트","tel":"031-826-4059","addr":"경기도 양주시 장흥면 울대리 411-8번지","category":"유통업 영리 - 슈퍼마켓"}]},{"lat":"37.714963628","long":"126.98124255","items":[{"name":"송추골 오봉식당","tel":"031-829-9255","addr":"경기도 양주시 장흥면 울대리 413번지","category":"일반휴게음식 - 일반한식"}]},{"lat":"37.714459111","long":"126.98135611","items":[{"name":"송추광장","tel":"","addr":"경기도 양주시 장흥면 울대리 410-12번지","category":"일반휴게음식 - 일반한식"}]},{"lat":"37.717873185","long":"126.97846295","items":[{"name":"송추낚시터","tel":"031-826-0529","addr":"경기도 양주시 장흥면 울대리 425-2번지","category":"레저업소 - 기타레져업소"}]},{"lat":"37.726677553","long":"126.99168621","items":[{"name":"송추도토리요리전문점","tel":"031-879-5678","addr":"경기도 양주시 장흥면 울대리 256-3번지 1층","category":"일반휴게음식 - 일반한식"}]},{"lat":"37.71407192","long":"126.98260376","items":[{"name":"송추두메골","tel":"031-826-2545","addr":"경기도 양주시 장흥면 울대리 466-3번지","category":"일반휴게음식 - 일반한식"}]},{"lat":"37.715179725","long":"126.98052798","items":[{"name":"송추밤나무","tel":"031-826-4043","addr":"경기도 양주시 장흥면 울대리 416-5번지","category":"일반휴게음식 - 일반한식"}]},{"lat":"37.718539767","long":"126.97785027","items":[{"name":"송추방앗간","tel":"031-826-4178","addr":"경기도 양주시 장흥면 울대리 381-4번지 1층","category":"음료식품 - 제과점"}]},{"lat":"37.713936529","long":"126.98122017","items":[{"name":"송추산장","tel":"031-826-4044","addr":"경기도 양주시 장흥면 울대리 523-1번지","category":"일반휴게음식 - 일반한식"}]},{"lat":"37.717457969","long":"126.97496983","items":[{"name":"송추스포지움","tel":"031-855-2229","addr":"경기도 양주시 장흥면 울대리 398-7번지","category":"레저업소 - 기타레져업소"},{"name":"송추스포지움","tel":"031-855-2229","addr":"경기도 양주시 장흥면 울대리 398-7번지","category":"레저업소 - 기타레져업소"}]},{"lat":"37.718071161","long":"126.97735139","items":[{"name":"송추종합건재","tel":"031-826-4180","addr":"경기도 양주시 장흥면 울대리 396-2","category":"건축자재 - 기타건축자재"}]},{"lat":"37.714296752","long":"126.98035812","items":[{"name":"송추풍천장어","tel":"031-874-5861","addr":"경기도 양주시 장흥면 울대리 509번지 1층","category":"일반휴게음식 - 일반한식"}]},{"lat":"37.718656863","long":"126.97771413","items":[{"name":"숯골가든","tel":"031-826-5500","addr":"경기도 양주시 장흥면 울대리 381-17번지","category":"일반휴게음식 - 일반한식"},{"name":"숯골가든","tel":"031-826-5500","addr":"경기도 양주시 장흥면 울대리 381-17번지","category":"일반휴게음식 - 일반한식"}]},{"lat":"37.713350971","long":"126.98158325","items":[{"name":"씨유송추둘레길점","tel":"070-4106-7892","addr":"경기도 양주시 장흥면 울대리 534-5번지","category":"유통업 영리 - 편 의 점"}]},{"lat":"37.721766661","long":"126.98607245","items":[{"name":"어무이국밥","tel":"031-855-9878","addr":"경기도 양주시 장흥면 울대리 339-2번지","category":"일반휴게음식 - 일반한식"}]},{"lat":"37.730101481","long":"126.99529299","items":[{"name":"올클레버","tel":"031-852-8599","addr":"경기도 양주시 장흥면 울대리 75-4번지 1층","category":"전기제품 - 가전제품"}]},{"lat":"37.713711355","long":"126.98158315","items":[{"name":"우리집","tel":"031-826-4025","addr":"경기도 양주시 장흥면 울대리 534번지 1,2층","category":"일반휴게음식 - 일반한식"}]},{"lat":"37.73039882","long":"126.99565596","items":[{"name":"울대상회","tel":"031-826-4274","addr":"경기도 양주시 장흥면 울대리 78-1번지","category":"음료식품 - 기타음료식품"}]},{"lat":"37.715936583","long":"126.98079995","items":[{"name":"유한회사 헤세의정원","tel":"031-877-5122","addr":"경기도 양주시 장흥면 울대리 419번지","category":"일반휴게음식 - 서양음식"},{"name":"유한회사 헤세의정원","tel":"031-877-5111","addr":"경기도 양주시 장흥면 울대리 419번지","category":"일반휴게음식 - 서양음식"},{"name":"휘바/유한회사 헤세의정원","tel":"031-877-5111","addr":"경기도 양주시 장흥면 울대리 419번지","category":"일반휴게음식 - 일반한식"}]},{"lat":"37.712819405","long":"126.98158341","items":[{"name":"전부치는남편","tel":"031-874-5860","addr":"경기도 양주시 장흥면 울대리 536-8번지","category":"일반휴게음식 - 일반한식"}]},{"lat":"37.712765474","long":"126.98229791","items":[{"name":"정주","tel":"031-826-4636","addr":"경기도 양주시 장흥면 울대리 541-1번지","category":"일반휴게음식 - 일반한식"}]},{"lat":"37.729101005","long":"126.99043805","items":[{"name":"코코 농자재","tel":"031-000-0000","addr":"경기도 양주시 장흥면 울대리 197번지","category":"농업 - 기타농업관련"}]},{"lat":"37.713152616","long":"126.98080077","items":[{"name":"파머스테이블","tel":"031-878-8855","addr":"경기도 양주시 장흥면 울대리 513번지 1층","category":"일반휴게음식 - 일반한식"}]},{"lat":"37.714432124","long":"126.98158294","items":[{"name":"프랜즈(송추둘레길)","tel":"070-7430-8837","addr":"경기도 양주시 장흥면 울대리 410-21번지 1층","category":"유통업 영리 - 편 의 점"}]},{"lat":"37.731011432","long":"126.99504333","items":[{"name":"향우회구판장","tel":"031-826-4278","addr":"경기도 양주시 장흥면 울대리 81-1번지","category":"음료식품 - 기타음료식품"}]},{"lat":"37.730290692","long":"126.99544044","items":[{"name":"후포리생선구이","tel":"031-826-8269","addr":"경기도 양주시 장흥면 울대리 81-5번지 1층","category":"일반휴게음식 - 일반한식"}]}]