[{"lat":"37.194809138","long":"127.46729296","items":[{"name":"GS25모가로드점","tel":"","addr":"경기도 이천시 모가면 소고리 382-6번지 1층 일부","category":"유통업 영리 - 편 의 점"},{"name":"모가순대국","tel":"031-632-3397","addr":"경기도 이천시 모가면 소고리 382-6번지","category":"일반휴게음식 - 일반한식"}]},{"lat":"37.194585298","long":"127.46693118","items":[{"name":"갈미원","tel":"031-631-3593","addr":"경기도 이천시 모가면 소고리 381-7번지","category":"일반휴게음식 - 중국식"}]},{"lat":"37.186945872","long":"127.4596318","items":[{"name":"농업회사법인 주식회사 채담","tel":"031-632-9595","addr":"경기도 이천시 모가면 소고리 183번지","category":"음료식품 - 농·축·수산품"}]},{"lat":"37.194475853","long":"127.4672684","items":[{"name":"대자연호남식당","tel":"031-632-3747","addr":"경기도 이천시 모가면 소고리 374-4번지 외2필지","category":"일반휴게음식 - 일반한식"}]},{"lat":"37.199923096","long":"127.46135448","items":[{"name":"명진 지게차","tel":"","addr":"경기도 이천시 모가면 소고리 404-16번지","category":"수리서비스 - 기타수리서비스"}]},{"lat":"37.182979498","long":"127.46243449","items":[{"name":"미성슈퍼","tel":"031-631-3482","addr":"경기도 이천시 모가면 소고리 145-6번지","category":"유통업 영리 - 슈퍼마켓"}]},{"lat":"37.199561951","long":"127.46154378","items":[{"name":"민속참숯가든","tel":"031-633-2828","addr":"경기도 이천시 모가면 소고리 404-6번지","category":"일반휴게음식 - 일반한식"}]},{"lat":"37.182677123","long":"127.46140789","items":[{"name":"세븐일레븐남이천IC점","tel":"","addr":"경기도 이천시 모가면 소고리 146-3번지","category":"유통업 영리 - 편 의 점"}]},{"lat":"37.196924667","long":"127.46316101","items":[{"name":"아이엠데코","tel":"031-633-6452","addr":"경기도 이천시 모가면 소고리 391-3번지","category":"직물 - 카페트,커튼,천막,지물"}]},{"lat":"37.190841422","long":"127.46810208","items":[{"name":"잉크세상","tel":"031-633-7834","addr":"경기도 이천시 모가면 소고리 8-3","category":"사무통신 - 기타 사무용품"}]},{"lat":"37.17578206","long":"127.46196301","items":[{"name":"주식회사 광민산업","tel":"031-638-3636","addr":"경기도 이천시 모가면 소고리 108-1번지","category":"건축자재 - 기타건축자재"}]},{"lat":"37.184618948","long":"127.46254578","items":[{"name":"주식회사 하나식품","tel":"031-632-6767","addr":"경기도 이천시 모가면 소고리 174","category":"음료식품 - 기타음료식품"}]},{"lat":"37.190476498","long":"127.45765962","items":[{"name":"토토방","tel":"031-633-7504","addr":"경기도 이천시 모가면 소고리 219-2번지","category":"문화.취미 - 골동품점"}]}]