[{"lat":"37.14338853","long":"126.68004109","items":[{"name":"감투섬","tel":"031-357-0334","addr":"경기도 화성시 서신면 백미리 328-2","category":"음료식품 - 기타음료식품"},{"name":"아진이엔지(ENG)","tel":"031-355-2923","addr":"경기도 화성시 서신면 백미리 328-2번지","category":"레저업소 - 기타레져업소"}]},{"lat":"37.143300879","long":"126.70150558","items":[{"name":"덕수궁설렁탕","tel":"031-1111-1111","addr":"경기도 화성시 서신면 백미리 21-1번지","category":"일반휴게음식 - 일반한식"}]},{"lat":"37.139939154","long":"126.69418069","items":[{"name":"둘다섯해누리","tel":"031-357-1945","addr":"경기도 화성시 서신면 백미리 588-1번지","category":"용역 서비스 - 사무서비스"}]},{"lat":"37.138778546","long":"126.69484944","items":[{"name":"둘다섯해누리재활승마센터","tel":"031-357-8996","addr":"경기도 화성시 서신면 백미리 592-2번지","category":"보건위생 - 기타대인서비스"}]},{"lat":"37.146306127","long":"126.69633846","items":[{"name":"베리굿 농원","tel":"031-357-3369","addr":"경기도 화성시 서신면 백미리 112번지","category":"음료식품 - 농·축·수산품"}]},{"lat":"37.148772849","long":"126.69900749","items":[{"name":"열린농원","tel":"031-357-3387","addr":"경기도 화성시 서신면 백미리 164-1번지","category":"음료식품 - 농·축·수산품"}]},{"lat":"37.148603892","long":"126.68609728","items":[{"name":"영풍수산","tel":"031-366-7061","addr":"경기도 화성시 서신면 백미리 265번지","category":"음료식품 - 농·축·수산품"}]},{"lat":"37.145550974","long":"126.6970056","items":[{"name":"우리농원","tel":"031-357-3330","addr":"경기도 화성시 서신면 백미리 788-15","category":"음료식품 - 농·축·수산품"}]},{"lat":"37.140382553","long":"126.70192234","items":[{"name":"포인트낚시,슈퍼","tel":"031-356-7998","addr":"경기도 화성시 서신면 백미리 9-4번지","category":"레져용품 - 스포츠·레져용품"},{"name":"한국워터크리닉","tel":"02-1566-6160","addr":"경기도 화성시 서신면 백미리 9-4번지 101호","category":"주방용구 - 정수기"}]}]