[{"lat":"37.42788771","long":"127.3117222","items":[{"name":"(주)강남물류","tel":"031-768-4567","addr":"경기도 광주시 초월읍 무갑리 630-2","category":"용역 서비스 - 보관및 창고업"}]},{"lat":"37.41224912","long":"127.3208639","items":[{"name":"(주)광주종로기숙학원","tel":"031-797-1882","addr":"경기도 광주시 초월읍 무갑리 520-19번지","category":"학원 - 보습학원"}]},{"lat":"37.42650348","long":"127.3034466","items":[{"name":"(주)서울캠핑","tel":"031-767-8823","addr":"경기도 광주시 초월읍 무갑리 674-1번지","category":"레져용품 - 스포츠·레져용품"}]},{"lat":"37.42333118","long":"127.3037502","items":[{"name":"(주)세리아디자인","tel":"031-792-7888","addr":"경기도 광주시 초월읍 무갑리 675-9번지","category":"가구 - 일반가구"},{"name":"세리아쇼파","tel":"031-792-7888","addr":"경기도 광주시 초월읍 무갑리 675-9","category":"가구 - 일반가구"}]},{"lat":"37.41728295","long":"127.3082446","items":[{"name":"(주)아워홈 동서울물류센터점","tel":"031-8027-7736","addr":"경기도 광주시 초월읍 무갑리 909번지","category":"일반휴게음식 - 위탁급식업"}]},{"lat":"37.42533308","long":"127.3101075","items":[{"name":"(주)에이엠씨","tel":"02-419-4833","addr":"경기도 광주시 초월읍 무갑리 619","category":"유통업 영리 - 기타유통업"},{"name":"델타상사","tel":"031-762-5231","addr":"경기도 광주시 초월읍 무갑리 619번지","category":"유통업 영리 - 기타유통업"}]},{"lat":"37.42322428","long":"127.317137","items":[{"name":"KOSTEM","tel":"031-791-4883","addr":"경기도 광주시 초월읍 무갑리 415-1","category":"주방용구 - 기타주방용구"}]},{"lat":"37.41666806","long":"127.3260223","items":[{"name":"SAMU.I.N.C","tel":"031-764-8646","addr":"경기도 광주시 초월읍 무갑리 228번지","category":"의류 - 맞춤복점"}]},{"lat":"37.42202902","long":"127.3125567","items":[{"name":"SH집하장","tel":"070-8805-1667","addr":"경기도 광주시 초월읍 무갑리 590번지 5층","category":"의류 - 기타의류"}]},{"lat":"37.42691371","long":"127.3086113","items":[{"name":"경희토마토농장","tel":"","addr":"경기도 광주시 초월읍 무갑리 712번지","category":"음료식품 - 농·축·수산품"}]},{"lat":"37.42536134","long":"127.3096331","items":[{"name":"대성종합상사","tel":"031-769-6853","addr":"경기도 광주시 초월읍 무갑리 622-3","category":"직물 - 카페트,커튼,천막,지물"}]},{"lat":"37.41944751","long":"127.3108855","items":[{"name":"도강골휴게소","tel":"031-762-8024","addr":"경기도 광주시 초월읍 무갑리 538-1번지","category":"음료식품 - 기타음료식품"}]},{"lat":"37.42461551","long":"127.3053596","items":[{"name":"떠끼뽀끼","tel":"031-767-4516","addr":"경기도 광주시 초월읍 무갑리 680번지","category":"음료식품 - 기타음료식품"}]},{"lat":"37.42744859","long":"127.3073368","items":[{"name":"뜰애꽃향기","tel":"031-763-5688","addr":"경기도 광주시 초월읍 무갑리 707번지","category":"문화.취미 - 화원"}]},{"lat":"37.41863953","long":"127.3062732","items":[{"name":"리토","tel":"031-761-7730","addr":"경기도 광주시 초월읍 무갑리 810-8번지 A동","category":"레져용품 - 스포츠·레져용품"}]},{"lat":"37.42619818","long":"127.3100545","items":[{"name":"모범카센타","tel":"031-764-8646","addr":"경기도 광주시 초월읍 무갑리 625-7번지","category":"자동차정비 유지 - 자동차정비"},{"name":"무갑산소머리국밥","tel":"031-764-1451","addr":"경기도 광주시 초월읍 무갑리 625-7번지","category":"일반휴게음식 - 일반한식"}]},{"lat":"37.42106235","long":"127.3236688","items":[{"name":"무갑리새마을회","tel":"031-111-1111","addr":"경기도 광주시 초월읍 무갑리 309","category":"음료식품 - 기타음료식품"}]},{"lat":"37.42553238","long":"127.3096903","items":[{"name":"무갑산 노래연습장","tel":"031-761-8778","addr":"경기도 광주시 초월읍 무갑리 621-4번지","category":"레저업소 - 노 래 방"}]},{"lat":"37.42575619","long":"127.3102448","items":[{"name":"무갑산오리탕","tel":"031-764-3807","addr":"경기도 광주시 초월읍 무갑리 625-3번지","category":"일반휴게음식 - 일반한식"},{"name":"사거리휴게소","tel":"031-763-7665","addr":"경기도 광주시 초월읍 무갑리 625-3번지","category":"음료식품 - 기타음료식품"},{"name":"씨유광주무갑점","tel":"031-898-6567","addr":"경기도 광주시 초월읍 무갑리 625-3번지 1층","category":"유통업 영리 - 편 의 점"}]},{"lat":"37.42497388","long":"127.3096428","items":[{"name":"문준식 토마토농장","tel":"031-762-2430","addr":"경기도 광주시 초월읍 무갑리 719-3번지","category":"음료식품 - 농·축·수산품"}]},{"lat":"37.42686506","long":"127.3100007","items":[{"name":"부자농장","tel":"031-762-2384","addr":"경기도 광주시 초월읍 무갑리 626-1","category":"음료식품 - 농·축·수산품"}]},{"lat":"37.42644996","long":"127.3102476","items":[{"name":"사마루오리탕","tel":"031-763-7849","addr":"경기도 광주시 초월읍 무갑리 626-3번지","category":"일반휴게음식 - 일반한식"}]},{"lat":"37.42233391","long":"127.3131115","items":[{"name":"삼우가구","tel":"031-768-4989","addr":"경기도 광주시 초월읍 무갑리 594-3","category":"가구 - 일반가구"}]},{"lat":"37.42561697","long":"127.3048326","items":[{"name":"서경유통","tel":"031-761-7967","addr":"경기도 광주시 초월읍 무갑리 678-1번지","category":"음료식품 - 기타음료식품"}]},{"lat":"37.42264439","long":"127.3183547","items":[{"name":"서광금속","tel":"041-762-3534","addr":"경기도 광주시 초월읍 무갑리 437번지","category":"건축자재 - 기타건축자재"}]},{"lat":"37.41558352","long":"127.3206068","items":[{"name":"성림금속","tel":"031-797-3617","addr":"경기도 광주시 초월읍 무갑리 519-1번지","category":"가구 - 철제가구"}]},{"lat":"37.41953215","long":"127.3129757","items":[{"name":"성호테크","tel":"031-764-1051","addr":"경기도 광주시 초월읍 무갑리 540-2번지","category":"건축자재 - 기타건축자재"}]},{"lat":"37.41877854","long":"127.3082732","items":[{"name":"신기물류센터","tel":"031-761-9195","addr":"경기도 광주시 초월읍 무갑리 814","category":"건축자재 - 기타건축자재"}]},{"lat":"37.42016558","long":"127.3187509","items":[{"name":"아기랑","tel":"031-528-6263","addr":"경기도 광주시 초월읍 무갑리 473번지","category":"음료식품 - 기타음료식품"}]},{"lat":"37.42747762","long":"127.3065574","items":[{"name":"아영농장","tel":"070-7778-2052","addr":"경기도 광주시 초월읍 무갑리 700","category":"음료식품 - 농·축·수산품"}]},{"lat":"37.42169947","long":"127.3041052","items":[{"name":"애니스포츠","tel":"031-764-3611","addr":"경기도 광주시 초월읍 무갑리 790-6","category":"레져용품 - 스포츠·레져용품"}]},{"lat":"37.41752846","long":"127.3405531","items":[{"name":"엘림버섯농장","tel":"","addr":"경기도 광주시 초월읍 무갑리 29-1번지","category":"음료식품 - 농·축·수산품"}]},{"lat":"37.42111156","long":"127.3221327","items":[{"name":"오토원","tel":"02-472-3881","addr":"경기도 광주시 초월읍 무갑리 306-7번지","category":"신변잡화 - 기타잡화"}]},{"lat":"37.42511655","long":"127.3102195","items":[{"name":"인디고 703","tel":"031-764-4421","addr":"경기도 광주시 초월읍 무갑리 618번지","category":"건축자재 - 인테리어전문"}]},{"lat":"37.42161352","long":"127.3197512","items":[{"name":"일리다","tel":"031-8027-0005","addr":"경기도 광주시 초월읍 무갑리 456번지 1층","category":"일반휴게음식 - 서양음식"}]},{"lat":"37.42322737","long":"127.3159734","items":[{"name":"일심기업","tel":"031-796-1544","addr":"경기도 광주시 초월읍 무갑리 408번지","category":"건축자재 - 보일러·펌프·샷시"}]},{"lat":"37.42233758","long":"127.3218894","items":[{"name":"젠골프","tel":"02-574-4653","addr":"경기도 광주시 초월읍 무갑리 358-3번지","category":"레져용품 - 골프용품 전문점"}]},{"lat":"37.42158913","long":"127.3049746","items":[{"name":"주식회사 에이치앤유","tel":"032-0000-0000","addr":"경기도 광주시 초월읍 무갑리 774-10번지 1층","category":"유통업 영리 - 기타유통업"}]},{"lat":"37.4206143","long":"127.3194193","items":[{"name":"주식회사 위앤프렌즈","tel":"031-767-8225","addr":"경기도 광주시 초월읍 무갑리 467-1번지","category":"신변잡화 - 기타잡화"}]},{"lat":"37.42119364","long":"127.3081136","items":[{"name":"주식회사더오리진스톤","tel":"031-796-4031","addr":"경기도 광주시 초월읍 무갑리 554-15번지","category":"건축자재 - 목재·석재·철물"}]},{"lat":"37.42122169","long":"127.3213876","items":[{"name":"주식회사맥스톤스포케어","tel":"031-798-9780","addr":"경기도 광주시 초월읍 무갑리 303번지","category":"레져용품 - 스포츠·레져용품"},{"name":"하이 알파인","tel":"031-000-0000","addr":"경기도 광주시 초월읍 무갑리 303번지","category":"의류 - 스포츠의류"}]},{"lat":"37.42391676","long":"127.3107795","items":[{"name":"준하소우드아트","tel":"031-768-0663","addr":"경기도 광주시 초월읍 무갑리 581-2번지 1층","category":"용역 서비스 - 사무서비스"}]},{"lat":"37.42472284","long":"127.3091673","items":[{"name":"지영사","tel":"031-791-7185","addr":"경기도 광주시 초월읍 무갑리 720-3번지","category":"신변잡화 - 액세서리"}]},{"lat":"37.42208612","long":"127.3148276","items":[{"name":"천현한우집","tel":"031-763-5763","addr":"경기도 광주시 초월읍 무갑리 607번지","category":"일반휴게음식 - 일반한식"}]},{"lat":"37.42558384","long":"127.3036915","items":[{"name":"케이디더블유(KDW)","tel":"031-766-2273","addr":"경기도 광주시 초월읍 무갑리 677-1번지 1동","category":"기타 - 기계공구"}]},{"lat":"37.42199917","long":"127.3237519","items":[{"name":"티미","tel":"031-797-0711","addr":"경기도 광주시 초월읍 무갑리 346-6번지","category":"일반휴게음식 - 스넥"}]},{"lat":"37.42369239","long":"127.3138853","items":[{"name":"한양특장","tel":"031-762-4077","addr":"경기도 광주시 초월읍 무갑리 612-2번지 외 1필지","category":"자동차판매 - 기타운송"}]},{"lat":"37.42575246","long":"127.3046976","items":[{"name":"해송","tel":"031-767-0308","addr":"경기도 광주시 초월읍 무갑리 678번지","category":"음료식품 - 기타음료식품"}]},{"lat":"37.42291566","long":"127.3179943","items":[{"name":"해주디엔지주식회사","tel":"031-765-5059","addr":"경기도 광주시 초월읍 무갑리 419번지","category":"건축자재 - 기타건축자재"}]},{"lat":"37.423641","long":"127.3094114","items":[{"name":"현대종합중기","tel":"031-797-5515","addr":"경기도 광주시 초월읍 무갑리 579","category":"자동차정비 유지 - 중장비수리"},{"name":"현대지게차","tel":"031-765-8852","addr":"경기도 광주시 초월읍 무갑리 579","category":"기타 - 기계공구"}]}]