[{"lat":"37.206562103","long":"127.66222211","items":[{"name":"강나루토종순대국","tel":"031-881-4013","addr":"경기도 여주시 점동면 청안리 604-36번지","category":"일반휴게음식 - 일반한식"},{"name":"벤치","tel":"031-882-6915","addr":"경기도 여주시 점동면 청안리 604-36번지","category":"일반휴게음식 - 일반한식"}]},{"lat":"37.205592678","long":"127.65993824","items":[{"name":"갤러리노래연습장","tel":"031-885-5995","addr":"경기도 여주시 점동면 청안리 141-4번지","category":"레저업소 - 노 래 방"}]},{"lat":"37.206227487","long":"127.66244449","items":[{"name":"건우분식","tel":"031-882-7273","addr":"경기도 여주시 점동면 청안리 124-3번지","category":"일반휴게음식 - 일반한식"},{"name":"동광식당","tel":"031-886-1689","addr":"경기도 여주시 점동면 청안리 124-3번지","category":"일반휴게음식 - 일반한식"}]},{"lat":"37.205538496","long":"127.66158239","items":[{"name":"고려약국","tel":"031-881-1163","addr":"경기도 여주시 점동면 청안리 127-4번지","category":"약국 - 약국"}]},{"lat":"37.207948448","long":"127.66405908","items":[{"name":"광희머리방","tel":"031-882-0577","addr":"경기도 여주시 점동면 청안리 164번지","category":"보건위생 - 미용원"},{"name":"미니스톱여주점동점","tel":"031-1577-9621","addr":"경기도 여주시 점동면 청안리 164번지 1층","category":"유통업 영리 - 편 의 점"},{"name":"삼호종합건재","tel":"031-883-2522","addr":"경기도 여주시 점동면 청안리 164번지","category":"건축자재 - 목재·석재·철물"}]},{"lat":"37.203230487","long":"127.66183268","items":[{"name":"기린가구","tel":"031-883-3691","addr":"경기도 여주시 점동면 청안리 104-11번지","category":"직물 - 카페트,커튼,천막,지물"},{"name":"기린인테리어","tel":"031-883-3691","addr":"경기도 여주시 점동면 청안리 104-11번지","category":"주방용구 - 주방용구"}]},{"lat":"37.205531412","long":"127.66285522","items":[{"name":"김가네치킨","tel":"031-884-9706","addr":"경기도 여주시 점동면 청안리 131-1번지","category":"일반휴게음식 - 주점"}]},{"lat":"37.206649755","long":"127.6626622","items":[{"name":"나루터김밥","tel":"031-881-6070","addr":"경기도 여주시 점동면 청안리 123-3번지","category":"일반휴게음식 - 스넥"}]},{"lat":"37.201928539","long":"127.65613305","items":[{"name":"농업회사법인주식회사영춘","tel":"031-884-7207","addr":"경기도 여주시 점동면 청안리 330번지","category":"학원 - 기타 교육기관"}]},{"lat":"37.206450989","long":"127.66113974","items":[{"name":"러브레터(점동점)","tel":"031-884-9928","addr":"경기도 여주시 점동면 청안리 145-3번지","category":"일반휴게음식 - 주점"},{"name":"만남","tel":"031-881-4826","addr":"경기도 여주시 점동면 청안리 145-3번지","category":"일반휴게음식 - 일반한식"},{"name":"부뚜막","tel":"031-886-5464","addr":"경기도 여주시 점동면 청안리 145-3번지","category":"일반휴게음식 - 일반한식"},{"name":"이집트 밸리댄스","tel":"031-882-5531","addr":"경기도 여주시 점동면 청안리 145-3번지 지하1층 B호","category":"학원 - 예·체능계학원"},{"name":"점동지물","tel":"031-883-3861","addr":"경기도 여주시 점동면 청안리 145-3번지","category":"직물 - 카페트,커튼,천막,지물"},{"name":"청안이발관","tel":"031-000-0000","addr":"경기도 여주시 점동면 청안리 145-3번지 1층 108호","category":"보건위생 - 이용원"},{"name":"해물칼국수","tel":"031-884-2115","addr":"경기도 여주시 점동면 청안리 145-3번지","category":"일반휴게음식 - 일반한식"}]},{"lat":"37.207172008","long":"127.66272307","items":[{"name":"마음대로식당","tel":"031-886-2299","addr":"경기도 여주시 점동면 청안리 159-6번지","category":"일반휴게음식 - 일반한식"},{"name":"순심이치킨","tel":"031-884-9883","addr":"경기도 여주시 점동면 청안리 159-6번지","category":"일반휴게음식 - 스넥"}]},{"lat":"37.206286684","long":"127.66152131","items":[{"name":"보광식당","tel":"031-882-5657","addr":"경기도 여주시 점동면 청안리 155-4번지","category":"일반휴게음식 - 일반한식"},{"name":"알뜰공판장","tel":"031-882-4087","addr":"경기도 여주시 점동면 청안리 155-4번지","category":"유통업 영리 - 슈퍼마켓"},{"name":"재형이네","tel":"050-881-5752","addr":"경기도 여주시 점동면 청안리 155-4번지","category":"일반휴게음식 - 일반한식"},{"name":"점동전기","tel":"031-883-3471","addr":"경기도 여주시 점동면 청안리 155-4번지","category":"전기제품 - 가전제품"},{"name":"제이스베이커리","tel":"031-884-0075","addr":"경기도 여주시 점동면 청안리 155-4번지","category":"음료식품 - 제과점"}]},{"lat":"37.206895465","long":"127.66222501","items":[{"name":"서가한의원","tel":"031-884-1222","addr":"경기도 여주시 점동면 청안리 154-4번지","category":"의원 - 한의원"},{"name":"서향 점동점","tel":"031-884-9331","addr":"경기도 여주시 점동면 청안리 154-4번지 1층","category":"일반휴게음식 - 중국식"},{"name":"와 노래연습장","tel":"031-884-6399","addr":"경기도 여주시 점동면 청안리 154-4번지","category":"레저업소 - 노 래 방"},{"name":"태산산업","tel":"031-881-5885","addr":"경기도 여주시 점동면 청안리 154-4번지","category":"농업 - 비료,사료,종자"},{"name":"헤어컬렉션","tel":"031-881-5313","addr":"경기도 여주시 점동면 청안리 154-4번지","category":"보건위생 - 미용원"}]},{"lat":"37.204699393","long":"127.65691164","items":[{"name":"성문농장 농업회사법인 유한회사","tel":"031-884-9945","addr":"경기도 여주시 점동면 청안리 250-2번지","category":"음료식품 - 기타음료식품"}]},{"lat":"37.207174236","long":"127.66393968","items":[{"name":"세규산업 주식회사","tel":"031-882-2724","addr":"경기도 여주시 점동면 청안리 163-13번지","category":"용역 서비스 - 기타용역서비스"}]},{"lat":"37.206059372","long":"127.66189106","items":[{"name":"술이야","tel":"070-8957-5922","addr":"경기도 여주시 점동면 청안리 126-4번지","category":"일반휴게음식 - 주점"}]},{"lat":"37.209396507","long":"127.66452232","items":[{"name":"스마트노래연습장","tel":"031-884-3017","addr":"경기도 여주시 점동면 청안리 166-19번지 2층","category":"레저업소 - 노 래 방"},{"name":"스마트노래연습장","tel":"","addr":"경기도 여주시 점동면 청안리 166-19번지","category":"레저업소 - 노 래 방"},{"name":"양귀비까페","tel":"031-882-6915","addr":"경기도 여주시 점동면 청안리 166-19번지 1층","category":"일반휴게음식 - 서양음식"},{"name":"양귀비카페","tel":"031-111-1111","addr":"경기도 여주시 점동면 청안리 166-19번지","category":"일반휴게음식 - 서양음식"},{"name":"황토가든","tel":"031-883-6691","addr":"경기도 여주시 점동면 청안리 166-19번지","category":"일반휴게음식 - 일반한식"}]},{"lat":"37.205620125","long":"127.65497082","items":[{"name":"심순어린이집[아이행복]","tel":"031-882-1799","addr":"경기도 여주시 점동면 청안리 286-10번지","category":"학원 - 유아원"}]},{"lat":"37.206481015","long":"127.66222141","items":[{"name":"씨유여주점동점","tel":"031-884-2441","addr":"경기도 여주시 점동면 청안리 125-1번지","category":"유통업 영리 - 편 의 점"}]},{"lat":"37.205814855","long":"127.66211423","items":[{"name":"앵콜노래연습장","tel":"031-885-6725","addr":"경기도 여주시 점동면 청안리 130-3번지","category":"레저업소 - 노 래 방"},{"name":"점동종합마트","tel":"070-8162-4223","addr":"경기도 여주시 점동면 청안리 130-3번지","category":"음료식품 - 기타음료식품"}]},{"lat":"37.207816775","long":"127.66504924","items":[{"name":"엔엘에스 주식회사","tel":"031-339-4777","addr":"경기도 여주시 점동면 청안리 163-9번지","category":"건축자재 - 기타건축자재"}]},{"lat":"37.196206853","long":"127.66105079","items":[{"name":"여주참숯가마식당","tel":"031-883-1268","addr":"경기도 여주시 점동면 청안리 37번지","category":"일반휴게음식 - 일반한식"}]},{"lat":"37.206644445","long":"127.66199753","items":[{"name":"여흥회관","tel":"031-884-0863","addr":"경기도 여주시 점동면 청안리 156-4번지","category":"일반휴게음식 - 일반한식"},{"name":"오갑산구이마당","tel":"031-884-9291","addr":"경기도 여주시 점동면 청안리 156-4번지","category":"일반휴게음식 - 일반한식"},{"name":"오갑산정육점","tel":"031-884-4429","addr":"경기도 여주시 점동면 청안리 156-4번지","category":"음료식품 - 정육점"},{"name":"점동정육점","tel":"031-883-1490","addr":"경기도 여주시 점동면 청안리 156-4번지","category":"음료식품 - 정육점"},{"name":"점동정육점식당","tel":"031-883-1490","addr":"경기도 여주시 점동면 청안리 156-4번지","category":"일반휴게음식 - 일반한식"}]},{"lat":"37.203400111","long":"127.66049371","items":[{"name":"예목공방","tel":"","addr":"경기도 여주시 점동면 청안리 110번지","category":"문화.취미 - 문화취미기타"}]},{"lat":"37.205787261","long":"127.66221537","items":[{"name":"옛날집","tel":"031-884-3133","addr":"경기도 여주시 점동면 청안리 130-5번지","category":"일반휴게음식 - 일반한식"}]},{"lat":"37.206478883","long":"127.66260438","items":[{"name":"우리마트","tel":"031-883-5376","addr":"경기도 여주시 점동면 청안리 123-4번지","category":"유통업 영리 - 슈퍼마켓"}]},{"lat":"37.203148711","long":"127.65544519","items":[{"name":"원진농자재","tel":"031-885-9119","addr":"경기도 여주시 점동면 청안리 317번지","category":"농업 - 기타농업관련"}]},{"lat":"37.194704651","long":"127.66222035","items":[{"name":"원창카센타","tel":"031-881-4118","addr":"경기도 여주시 점동면 청안리 34번지","category":"자동차정비 유지 - 자동차정비"}]},{"lat":"37.209564718","long":"127.66344234","items":[{"name":"이화가든","tel":"031-881-4580","addr":"경기도 여주시 점동면 청안리 169-1번지","category":"일반휴게음식 - 일반한식"}]},{"lat":"37.206699168","long":"127.66349621","items":[{"name":"점동고등학교","tel":"031-882-6705","addr":"경기도 여주시 점동면 청안리 122번지","category":"학원 - 초중고교육기관"},{"name":"점동고등학교_수업료","tel":"031-882-6705","addr":"경기도 여주시 점동면 청안리 122번지","category":"학원 - 초중고교육기관"},{"name":"점동중학교","tel":"031-882-6705","addr":"경기도 여주시 점동면 청안리 122번지","category":"학원 - 초중고교육기관"}]},{"lat":"37.205259944","long":"127.6614448","items":[{"name":"점동떡방앗간","tel":"031-883-7677","addr":"경기도 여주시 점동면 청안리 127-7번지","category":"음료식품 - 제과점"},{"name":"희망오토바이","tel":"031-882-6742","addr":"경기도 여주시 점동면 청안리 127-7번지","category":"자동차판매 - 이륜차판매"}]},{"lat":"37.206002869","long":"127.66232989","items":[{"name":"점동면사무소","tel":"031-887-3822","addr":"경기도 여주시 점동면 청안리 124-1번지","category":"용역 서비스 - 사무서비스"}]},{"lat":"37.205756029","long":"127.66296982","items":[{"name":"점동면주민자취위원회","tel":"031-881-1246","addr":"경기도 여주시 점동면 청안리 124-6번지","category":"음료식품 - 농·축·수산품"}]},{"lat":"37.206562797","long":"127.66047609","items":[{"name":"점동숯불갈비","tel":"031-881-6669","addr":"경기도 여주시 점동면 청안리 147-1번지","category":"일반휴게음식 - 일반한식"}]},{"lat":"37.205421682","long":"127.66152506","items":[{"name":"점동연세의원","tel":"031-881-5047","addr":"경기도 여주시 점동면 청안리 127-5번지","category":"의원 - 의원"}]},{"lat":"37.205560763","long":"127.66243869","items":[{"name":"점동오토바이","tel":"031-883-3191","addr":"경기도 여주시 점동면 청안리 130-9번지","category":"수리서비스 - 레져용품수리"}]},{"lat":"37.207535067","long":"127.66386397","items":[{"name":"점동우체국","tel":"031-882-7004","addr":"경기도 여주시 점동면 청안리 163-1번지","category":"용역 서비스 - 공공요금대행서비스/소"}]},{"lat":"37.206337798","long":"127.66205119","items":[{"name":"점동자율식당","tel":"031-883-8747","addr":"경기도 여주시 점동면 청안리 126-2번지","category":"일반휴게음식 - 일반한식"},{"name":"풍년방앗간","tel":"031-882-7016","addr":"경기도 여주시 점동면 청안리 126-2번지","category":"음료식품 - 제과점"},{"name":"현미용실","tel":"031-882-7128","addr":"경기도 여주시 점동면 청안리 126-2번지","category":"보건위생 - 미용원"}]},{"lat":"37.204479212","long":"127.66249686","items":[{"name":"점동초등학교","tel":"031-882-6709","addr":"경기도 여주시 점동면 청안리 117번지 점동초등학교","category":"학원 - 초중고교육기관"}]},{"lat":"37.2058148548","long":"127.6621142290","items":[{"name":"점동태권도체육관","tel":"031-886-0105","addr":"경기도 여주시 점동면 청안리 130-3번지","category":"학원 - 예·체능계학원"},{"name":"청안가스","tel":"031-883-7323","addr":"경기도 여주시 점동면 청안리 130-3번지","category":"연료판매점 - LPG 취급점"},{"name":"청안철물","tel":"031-882-6720","addr":"경기도 여주시 점동면 청안리 130-3번지","category":"기타 - 기계공구"}]},{"lat":"37.207422776","long":"127.6629956","items":[{"name":"조이당구장","tel":"031-886-7373","addr":"경기도 여주시 점동면 청안리 159-9번지 2층","category":"레저업소 - 당 구 장"}]},{"lat":"37.195454219","long":"127.66191151","items":[{"name":"주식회사 골드여행사","tel":"031-768-7849","addr":"경기도 여주시 점동면 청안리 32번지","category":"여행 - 관광여행"}]},{"lat":"37.199338944","long":"127.66005299","items":[{"name":"주식회사 현로보캅스틸","tel":"02-408-0877","addr":"경기도 여주시 점동면 청안리 46번지","category":"용역 서비스 - 기타용역서비스"}]},{"lat":"37.196479274","long":"127.66067021","items":[{"name":"참숯가마찜질방","tel":"031-883-1268","addr":"경기도 여주시 점동면 청안리 37번지","category":"보건위생 - 사우나"}]},{"lat":"37.203010314","long":"127.66091837","items":[{"name":"철사랑공업사","tel":"031-882-4203","addr":"경기도 여주시 점동면 청안리 103-2번지","category":"수리서비스 - 기타수리서비스"}]},{"lat":"37.205150449","long":"127.66169167","items":[{"name":"충전종합설비","tel":"031-882-7254","addr":"경기도 여주시 점동면 청안리 128-8번지","category":"건축자재 - 보일러·펌프·샷시"}]},{"lat":"37.210117603","long":"127.66447229","items":[{"name":"케이제이(KJ)주유소","tel":"031-883-5189","addr":"경기도 여주시 점동면 청안리 166-13번지","category":"연료판매점 - 현대정유(오일뱅크)"}]},{"lat":"37.208505899","long":"127.65941152","items":[{"name":"크린카","tel":"","addr":"경기도 여주시 점동면 청안리 150-26번지","category":"자동차정비 유지 - 세차장"}]},{"lat":"37.20567333","long":"127.66163989","items":[{"name":"하나미용실","tel":"031-883-7215","addr":"경기도 여주시 점동면 청안리 127-2번지","category":"보건위생 - 미용원"}]},{"lat":"37.207732058","long":"127.66246885","items":[{"name":"한양왕소금구이","tel":"031-881-0317","addr":"경기도 여주시 점동면 청안리 159번지 청안빌라","category":"일반휴게음식 - 일반한식"}]},{"lat":"37.2071720084","long":"127.6627230657","items":[{"name":"한양정육점","tel":"031-882-2573","addr":"경기도 여주시 점동면 청안리 159-6번지","category":"음료식품 - 정육점"}]},{"lat":"37.209757527","long":"127.66441282","items":[{"name":"화림가든","tel":"031-884-5689","addr":"경기도 여주시 점동면 청안리 166-11번지","category":"음료식품 - 미곡상"},{"name":"화림가든","tel":"031-884-5689","addr":"경기도 여주시 점동면 청안리 166-11번지","category":"일반휴게음식 - 일반한식"}]}]