[{"lat":"37.703079189","long":"127.54499117","items":[{"name":"(주)에스피씨삼립 가평(서울방향)휴게소","tel":"031-584-1425","addr":"경기도 가평군 설악면 미사리 145-3번지 외 37필지","category":"음료식품 - 기타음료식품"},{"name":"씨유E가평휴게소상행선점","tel":"02-1577-8007","addr":"경기도 가평군 설악면 미사리 145-3번지 외 37필지","category":"유통업 영리 - 편 의 점"},{"name":"씨유가평휴게소상행선점","tel":"031-584-5902","addr":"경기도 가평군 설악면 미사리 145-3번지 설악휴게소","category":"유통업 영리 - 편 의 점"}]},{"lat":"37.701585674","long":"127.54649975","items":[{"name":"(주)에스피씨삼립 가평(춘천방향)휴게소","tel":"031-000-0000","addr":"경기도 가평군 설악면 미사리 149-4번지 외 47필지","category":"음료식품 - 기타음료식품"},{"name":"대아카센타","tel":"031-765-7443","addr":"경기도 가평군 설악면 미사리 149-4번지","category":"자동차정비 유지 - 자동차정비"},{"name":"설악약국","tel":"031-584-1426","addr":"경기도 가평군 설악면 미사리 149-4번지","category":"약국 - 약국"},{"name":"씨유E가평휴게소하행선점","tel":"02-1577-8007","addr":"경기도 가평군 설악면 미사리 149-4번지 외 47필지","category":"유통업 영리 - 편 의 점"},{"name":"씨유가평휴게소하행선점","tel":"031-584-5901","addr":"경기도 가평군 설악면 미사리 149-4번지","category":"유통업 영리 - 편 의 점"},{"name":"크록스","tel":"","addr":"경기도 가평군 설악면 미사리 149-4번지 가평휴게소 (하행) 춘천방향","category":"신변잡화 - 신발"},{"name":"푸른솔","tel":"070-2699-0807","addr":"경기도 가평군 설악면 미사리 149-4번지","category":"의류 - 정장"}]},{"lat":"37.698695269","long":"127.54024232","items":[{"name":"PET VILLAGE","tel":"","addr":"경기도 가평군 설악면 미사리 266-2번지","category":"문화.취미 - 애완동물"}]},{"lat":"37.714973759","long":"127.53863598","items":[{"name":"대아카센타","tel":"031-584-5872","addr":"경기도 가평군 설악면 미사리 544","category":"자동차정비 유지 - 자동차정비"}]},{"lat":"37.714418632","long":"127.5418302","items":[{"name":"덕고개","tel":"031-585-9755","addr":"경기도 가평군 설악면 미사리 449-2번지","category":"일반휴게음식 - 일반한식"},{"name":"덕고개","tel":"031-585-9755","addr":"경기도 가평군 설악면 미사리 449-2번지","category":"일반휴게음식 - 일반한식"}]},{"lat":"37.72152864","long":"127.5473827","items":[{"name":"레이크힐","tel":"031-584-6331","addr":"경기도 가평군 설악면 미사리 19-6번지 외3필지 외1필지 19-1","category":"숙박업 - 여관/기타숙박업"}]},{"lat":"37.718246038","long":"127.54218683","items":[{"name":"물놀이","tel":"031-584-8616","addr":"경기도 가평군 설악면 미사리 498-1","category":"레저업소 - 기타레져업소"}]},{"lat":"37.718385459","long":"127.54321995","items":[{"name":"미사식당","tel":"031-584-7992","addr":"경기도 가평군 설악면 미사리 743-1번지","category":"일반휴게음식 - 일반한식"}]},{"lat":"37.723301854","long":"127.54968687","items":[{"name":"산울로수상레져","tel":"031-584-9953","addr":"경기도 가평군 설악면 미사리 10-3번지","category":"레저업소 - 기타레져업소"}]},{"lat":"37.722136283","long":"127.54846467","items":[{"name":"이지수상레져","tel":"031-584-6775","addr":"경기도 가평군 설악면 미사리 12-4","category":"레저업소 - 기타레져업소"}]},{"lat":"37.712889916","long":"127.54119537","items":[{"name":"장락식당","tel":"031-1661-2743","addr":"경기도 가평군 설악면 미사리 459-1번지","category":"일반휴게음식 - 일반한식"}]},{"lat":"37.726021739","long":"127.55376764","items":[{"name":"장락원","tel":"070-7716-7789","addr":"경기도 가평군 설악면 미사리 4-1번지","category":"숙박업 - 여관/기타숙박업"}]},{"lat":"37.718166822","long":"127.54177796","items":[{"name":"파로","tel":"","addr":"경기도 가평군 설악면 미사리 498-3번지","category":"음료식품 - 기타음료식품"},{"name":"파로티아 워터하우스","tel":"031-584-6800","addr":"경기도 가평군 설악면 미사리 498-3번지","category":"숙박업 - 여관/기타숙박업"},{"name":"파로티아 워터하우스","tel":"031-584-6800","addr":"경기도 가평군 설악면 미사리 498-3번지","category":"숙박업 - 여관/기타숙박업"},{"name":"파로티아 워터하우스 호텔","tel":"031-582-2123","addr":"경기도 가평군 설악면 미사리 498-3번지","category":"숙박업 - 여관/기타숙박업"}]}]