[{"lat":"37.600645978","long":"127.15248347","items":[{"name":"구리특장","tel":"031-557-5775","addr":"경기도 남양주시 도농동 233-3번지","category":"자동차판매 - 기타운송"}]},{"lat":"37.601060928","long":"127.15208796","items":[{"name":"대광스틸","tel":"031-566-7545","addr":"경기도 남양주시 도농동 236-1번지","category":"건축자재 - 기타건축자재"}]},{"lat":"37.604917241","long":"127.15198241","items":[{"name":"대야철재","tel":"031-562-7870","addr":"경기도 남양주시 도농동 285-4번지","category":"건축자재 - 기타건축자재"},{"name":"한국상사","tel":"031-562-5053","addr":"경기도 남양주시 도농동 285-4번지","category":"기타 - 기계공구"}]},{"lat":"37.607307491","long":"127.15692489","items":[{"name":"도농한의원","tel":"031-565-8575","addr":"경기도 남양주시 도농동 45-146번지 2층","category":"의원 - 한의원"},{"name":"수제담배","tel":"031-3129-7486","addr":"경기도 남양주시 도농동 45-146번지","category":"음료식품 - 기타음료식품"},{"name":"은하네곱창","tel":"031-552-7877","addr":"경기도 남양주시 도농동 45-146번지 1층","category":"일반휴게음식 - 일반한식"},{"name":"최은경헤어샵","tel":"031-552-4684","addr":"경기도 남양주시 도농동 45-146번지","category":"보건위생 - 미용원"},{"name":"티엔 (tian)","tel":"070-8945-3313","addr":"경기도 남양주시 도농동 45-146번지 1층 101호","category":"음료식품 - 제과점"}]},{"lat":"37.60072721","long":"127.15237039","items":[{"name":"미니월드중기(주)","tel":"031-376-1520","addr":"경기도 남양주시 도농동 233-2번지","category":"수리서비스 - 기타수리서비스"}]},{"lat":"37.604585491","long":"127.15070207","items":[{"name":"이차로 자동차매매상사","tel":"031-557-0100","addr":"경기도 남양주시 도농동 250-10번지 250동 7호","category":"자동차판매 - 중고자동차판매"}]},{"lat":"37.605229001","long":"127.15479156","items":[{"name":"좋은사람들","tel":"031-562-2260","addr":"경기도 남양주시 도농동 132-2","category":"의류 - 내의판매"}]},{"lat":"37.600366216","long":"127.15284528","items":[{"name":"준웍스(Jun works)","tel":"031-571-3877","addr":"경기도 남양주시 도농동 233-7번지","category":"자동차정비 유지 - 자동차부품"}]},{"lat":"37.610336351","long":"127.15570799","items":[{"name":"케이라인스포츠","tel":"031-557-7787","addr":"경기도 남양주시 도농동 2-5번지 부영7단지상가 지하1층","category":"회원제형태 - 학원"}]}]