[{"lat":"37.26790916","long":"127.21512619","items":[{"name":"(BBQ)비비큐치킨 용인둔전점","tel":"031-339-5449","addr":"경기도 용인시 처인구 포곡읍 둔전리 386-12번지","category":"일반휴게음식 - 스넥"},{"name":"레드PC방","tel":"070-4465-7760","addr":"경기도 용인시 처인구 포곡읍 둔전리 386-12번지 2층","category":"레저업소 - 기타레져업소"},{"name":"마X포차","tel":"031-111-1111","addr":"경기도 용인시 처인구 포곡읍 둔전리 386-12번지 1층","category":"일반휴게음식 - 일반한식"},{"name":"아름드리학원","tel":"031-335-3511","addr":"경기도 용인시 처인구 포곡읍 둔전리 386-12번지 2층 일부","category":"학원 - 보습학원"},{"name":"청해진","tel":"031-332-3443","addr":"경기도 용인시 처인구 포곡읍 둔전리 386-12번지 외1필지","category":"일반휴게음식 - 일반한식"},{"name":"하누물","tel":"031-323-1054","addr":"경기도 용인시 처인구 포곡읍 둔전리 386-12번지","category":"일반휴게음식 - 일반한식"}]},{"lat":"37.280018488","long":"127.22034704","items":[{"name":"(주) 대명미트","tel":"031-322-1423","addr":"경기도 용인시 처인구 포곡읍 영문리 2-1번지","category":"음료식품 - 정육점"}]},{"lat":"37.273625915","long":"127.2274769","items":[{"name":"(주) 블레스 포곡편의점","tel":"031-243-5720","addr":"경기도 용인시 처인구 포곡읍 둔전리 72-1번지 에코타운 101동","category":"유통업 영리 - 편 의 점"}]},{"lat":"37.273877189","long":"127.24622775","items":[{"name":"(주) 월이앤씨","tel":"031-334-5845","addr":"경기도 용인시 처인구 포곡읍 금어리 416-14번지","category":"건축자재 - 기타건축자재"},{"name":"주식회사 씨푸드팩토리","tel":"031-751-7739","addr":"경기도 용인시 처인구 포곡읍 금어리 416-14번지","category":"음료식품 - 농·축·수산품"},{"name":"주식회사 에스와이글로벌","tel":"031-321-3980","addr":"경기도 용인시 처인구 포곡읍 금어리 416-14번지 2층","category":"음료식품 - 농·축·수산품"},{"name":"주식회사 제이앤에스유통","tel":"031-321-3980","addr":"경기도 용인시 처인구 포곡읍 금어리 416-14번지 1층","category":"음료식품 - 농·축·수산품"}]},{"lat":"37.28334833","long":"127.22729154","items":[{"name":"(주)그린와이즈","tel":"031-332-1196","addr":"경기도 용인시 처인구 포곡읍 전대리 85-9번지","category":"일반휴게음식 - 서양음식"}]},{"lat":"37.287346507","long":"127.23780218","items":[{"name":"(주)다물넷","tel":"0502-144-7777","addr":"경기도 용인시 처인구 포곡읍 삼계리 319-39번지 화전빌라 107동 401호","category":"기타 - 기타 전문점"}]},{"lat":"37.274106038","long":"127.20610111","items":[{"name":"(주)디케이","tel":"031-768-9679","addr":"경기도 용인시 처인구 포곡읍 영문리 385번지","category":"레져용품 - 스포츠·레져용품"},{"name":"그린킹 주식회사","tel":"031-304-3836","addr":"경기도 용인시 처인구 포곡읍 영문리 385번지 B동","category":"건축자재 - 기타건축자재"},{"name":"중광상사","tel":"031-339-1247","addr":"경기도 용인시 처인구 포곡읍 영문리 385","category":"건축자재 - 기타건축자재"},{"name":"한결푸드","tel":"","addr":"경기도 용인시 처인구 포곡읍 영문리 385번지","category":"음료식품 - 기타음료식품"}]},{"lat":"37.275549908","long":"127.22968126","items":[{"name":"(주)루리스","tel":"031-335-1345","addr":"경기도 용인시 처인구 포곡읍 둔전리 84-32번지 1층 소매점","category":"전기제품 - 기타전기제품"},{"name":"K공조시스템","tel":"070-8031-4038","addr":"경기도 용인시 처인구 포곡읍 둔전리 84-32번지 1층 3호","category":"용역 서비스 - 기타용역서비스"},{"name":"왕언니포차","tel":"031-333-8980","addr":"경기도 용인시 처인구 포곡읍 둔전리 84-32번지","category":"일반휴게음식 - 일반한식"}]},{"lat":"37.262793753","long":"127.23770336","items":[{"name":"(주)리치코리아/원격지","tel":"031-334-1054","addr":"경기도 용인시 처인구 포곡읍 금어리 528-2","category":"기타 - 기타 전문점"}]},{"lat":"37.267601092","long":"127.23523802","items":[{"name":"(주)모모도디자인","tel":"031-321-7902","addr":"경기도 용인시 처인구 포곡읍 금어리 556-1번지","category":"가구 - 일반가구"}]},{"lat":"37.276518149","long":"127.22750804","items":[{"name":"(주)성우피앤씨","tel":"031-339-3830","addr":"경기도 용인시 처인구 포곡읍 둔전리 345-10번지","category":"건축자재 - 조명기구"},{"name":"EP열림행정사사무소","tel":"031-335-2878","addr":"경기도 용인시 처인구 포곡읍 둔전리 345-10번지 1층 4호","category":"용역 서비스 - 법률회계서비스(개인)"},{"name":"대박나라","tel":"031-333-3310","addr":"경기도 용인시 처인구 포곡읍 둔전리 345-10번지","category":"음료식품 - 기타음료식품"},{"name":"비타민피부샵","tel":"031-663-0447","addr":"경기도 용인시 처인구 포곡읍 둔전리 345-10번지","category":"보건위생 - 피부미용실"}]},{"lat":"37.280349902","long":"127.25326215","items":[{"name":"(주)스카이리프트","tel":"031-321-8400","addr":"경기도 용인시 처인구 포곡읍 금어리 320-1번지","category":"기타 - 기계공구"}]},{"lat":"37.297067144","long":"127.2245127","items":[{"name":"(주)아트라스비엑스모터스포츠","tel":"031-334-5804","addr":"경기도 용인시 처인구 포곡읍 유운리 138-2번지 1층","category":"자동차정비 유지 - 자동차정비"}]},{"lat":"37.280576104","long":"127.22090117","items":[{"name":"(주)오성전자","tel":"070-8614-1545","addr":"경기도 용인시 처인구 포곡읍 전대리 160-3번지","category":"전기제품 - 가전제품"}]},{"lat":"37.286604747","long":"127.25667717","items":[{"name":"(주)용인럭키","tel":"031-321-3520","addr":"경기도 용인시 처인구 포곡읍 금어리 257-1번지","category":"직물 - 카페트,커튼,천막,지물"}]},{"lat":"37.294597684","long":"127.22000555","items":[{"name":"(주)이레인모터스포트","tel":"031-322-0065","addr":"경기도 용인시 처인구 포곡읍 유운리384-12","category":"레저업소 - 기타레져업소"}]},{"lat":"37.279625023","long":"127.23306493","items":[{"name":"(주)캠핑박스","tel":"070-4117-9100","addr":"경기도 용인시 처인구 포곡읍 삼계리 555-5번지 1층 101호","category":"레져용품 - 스포츠·레져용품"}]},{"lat":"37.278709629","long":"127.23117912","items":[{"name":"(주)컨슈머프랜들리","tel":"031-323-6501","addr":"경기도 용인시 처인구 포곡읍 삼계리666-29","category":"사무통신 - 컴퓨터"},{"name":"마운틴컴퍼니(MOUNTAIN COMPANY)","tel":"031-336-1336","addr":"경기도 용인시 처인구 포곡읍 삼계리 666-29번지","category":"레져용품 - 스포츠·레져용품"}]},{"lat":"37.267742086","long":"127.21281456","items":[{"name":"(주)케이지에이치인더스트리엘티디","tel":"031-339-9456","addr":"경기도 용인시 처인구 포곡읍 둔전리 406-51번지 인정멜로디 상가 402호","category":"농업 - 비료,사료,종자"},{"name":"GS25용인멜로디점","tel":"","addr":"경기도 용인시 처인구 포곡읍 둔전리 406-51번지 인정멜로디 지층 009호","category":"유통업 영리 - 편 의 점"},{"name":"OKYES전자","tel":"031-339-5828","addr":"경기도 용인시 처인구 포곡읍 둔전리 406-51번지","category":"사무통신 - 컴퓨터"},{"name":"네츄럴휴","tel":"070-8990-5893","addr":"경기도 용인시 처인구 포곡읍 둔전리 406-51번지 121호 인성멜로디상가","category":"건강식품 - 기타건강식품"},{"name":"맘스라이스","tel":"031-000-0000","addr":"경기도 용인시 처인구 포곡읍 둔전리 406-51번지 인정멜로디 상가동 1층 108호","category":"일반휴게음식 - 스넥"},{"name":"멜로디세탁소","tel":"031-334-4710","addr":"경기도 용인시 처인구 포곡읍 둔전리406-51","category":"수리서비스 - 세탁소"},{"name":"멜로디수선집","tel":"031-334-4710","addr":"경기도 용인시 처인구 포곡읍 둔전리 406-51번지 인정멜로디 105호","category":"수리서비스 - 세탁소"},{"name":"멜로디헤어샵","tel":"031-323-1622","addr":"경기도 용인시 처인구 포곡읍 둔전리 406-51번지 인정프린스 상가 119호","category":"보건위생 - 미용원"},{"name":"엠투엠학원","tel":"031-339-0979","addr":"경기도 용인시 처인구 포곡읍 둔전리406-51 인정멜로디상가202호~203호","category":"학원 - 보습학원"},{"name":"와이티어학원","tel":"031-339-3933","addr":"경기도 용인시 처인구 포곡읍 둔전리 406-51번지 인정프린스 상가 3층","category":"학원 - 외국어학원"},{"name":"이가보쌈","tel":"031-322-2988","addr":"경기도 용인시 처인구 포곡읍 둔전리 406-51 인정멜로디상가 7","category":"일반휴게음식 - 스넥"},{"name":"주식회사 라이프푸드컴퍼니","tel":"","addr":"경기도 용인시 처인구 포곡읍 둔전리 406-51번지 인정멜로디 상가동 205호","category":"용역 서비스 - 사무서비스"},{"name":"주식회사 백향이앤씨","tel":"032-250-7050","addr":"경기도 용인시 처인구 포곡읍 둔전리 406-51번지 인정멜로디 상가 3층 305호","category":"자동차정비 유지 - 주차장"},{"name":"하이정보통신","tel":"031-338-5600","addr":"경기도 용인시 처인구 포곡읍 둔전리 406-51번지 인정멜로디 B07호","category":"사무통신 - 사무용 OA기기"},{"name":"한동길감자탕","tel":"031-323-1692","addr":"경기도 용인시 처인구 포곡읍 둔전리 406-51번지 인정멜로디 상가 113,114호","category":"일반휴게음식 - 일반한식"},{"name":"한솔컴퓨터학원","tel":"031-334-2714","addr":"경기도 용인시 처인구 포곡읍 둔전리 406-51번지","category":"학원 - 컴퓨터학원"},{"name":"후펍 (Hoo Pub)","tel":"031-000-0000","addr":"경기도 용인시 처인구 포곡읍 둔전리 406-51번지 인정멜로디 상가 120호","category":"일반휴게음식 - 주점"}]},{"lat":"37.296096214","long":"127.2233482","items":[{"name":"(주)코리아킹스","tel":"031-321-7747","addr":"경기도 용인시 처인구 포곡읍 유운리 86-10","category":"레저업소 - 기타레져업소"}]},{"lat":"37.303961674","long":"127.22359674","items":[{"name":"(주)팀일공육","tel":"070-8224-3106","addr":"경기도 용인시 처인구 포곡읍 유운리 239-4","category":"회원제형태 - 기타4"}]},{"lat":"37.272631294","long":"127.21968314","items":[{"name":"1004식자재마트","tel":"031-322-3456","addr":"경기도 용인시 처인구 포곡읍 둔전리 179-2번지","category":"유통업 영리 - 슈퍼마켓"},{"name":"킹콩마트","tel":"031-322-3456","addr":"경기도 용인시 처인구 포곡읍 둔전리 179-2번지","category":"유통업 영리 - 슈퍼마켓"}]},{"lat":"37.268406614","long":"127.21906223","items":[{"name":"139오리골","tel":"031-338-1390","addr":"경기도 용인시 처인구 포곡읍 둔전리 139-32번지 외1필지","category":"일반휴게음식 - 일반한식"},{"name":"운동화손세탁이불","tel":"031-322-8284","addr":"경기도 용인시 처인구 포곡읍 둔전리 139-32번지 6호","category":"수리서비스 - 세탁소"},{"name":"천하통신","tel":"031-321-8588","addr":"경기도 용인시 처인구 포곡읍 둔전리 139-32번지 3호","category":"사무통신 - 통신기기"}]},{"lat":"37.268634046","long":"127.21786783","items":[{"name":"1988고기불패","tel":"031-339-3988","addr":"경기도 용인시 처인구 포곡읍 둔전리 151-8번지 에이층","category":"일반휴게음식 - 일반한식"},{"name":"뮤즈헤어","tel":"031-321-5666","addr":"경기도 용인시 처인구 포곡읍 둔전리 151-8번지 2호","category":"보건위생 - 미용원"},{"name":"에스모바일","tel":"031-336-3125","addr":"경기도 용인시 처인구 포곡읍 둔전리 151-8번지 3호","category":"사무통신 - 통신기기"},{"name":"찡떡둔전점","tel":"031-322-0086","addr":"경기도 용인시 처인구 포곡읍 둔전리 151-8번지","category":"일반휴게음식 - 일반한식"},{"name":"한아름김밥","tel":"031-322-5070","addr":"경기도 용인시 처인구 포곡읍 둔전리 151-8번지","category":"일반휴게음식 - 스넥"}]},{"lat":"37.269376835","long":"127.21568274","items":[{"name":"1석3조카센타","tel":"031-321-5211","addr":"경기도 용인시 처인구 포곡읍 둔전리 12-20번지","category":"자동차정비 유지 - 자동차정비"},{"name":"조춘식동갑이네","tel":"031-334-3320","addr":"경기도 용인시 처인구 포곡읍 둔전리 12-20번지 외1필지 1층","category":"일반휴게음식 - 일반한식"},{"name":"플로렌스","tel":"031-332-7766","addr":"경기도 용인시 처인구 포곡읍 둔전리 12-20번지 1층 2호","category":"문화.취미 - 화원"}]},{"lat":"37.269293487","long":"127.21693394","items":[{"name":"2층술집","tel":"031-334-2322","addr":"경기도 용인시 처인구 포곡읍 둔전리 393-11번지 미성빌딩 2층","category":"일반휴게음식 - 주점"},{"name":"감사사임당떡방","tel":"031-332-5989","addr":"경기도 용인시 처인구 포곡읍 둔전리393-11","category":"음료식품 - 제과점"},{"name":"땡초불닭발동대문엽기떡볶이 용인포곡점","tel":"031-222-8592","addr":"경기도 용인시 처인구 포곡읍 둔전리 393-11번지 미성빌딩 1층","category":"일반휴게음식 - 일반한식"},{"name":"명랑시대쌀핫도그용인둔전점","tel":"031-333-1661","addr":"경기도 용인시 처인구 포곡읍 둔전리 393-11번지 미성빌딩 가동","category":"일반휴게음식 - 일반한식"},{"name":"아이미안경","tel":"031-338-0997","addr":"경기도 용인시 처인구 포곡읍 둔전리 393-11번지 미성빌딩 가동 1층 5호","category":"보건위생 - 안경"},{"name":"엠제이씨","tel":"","addr":"경기도 용인시 처인구 포곡읍 둔전리 393-11번지 미성빌딩 4층","category":"용역 서비스 - 사무서비스"},{"name":"이니스프리 둔전점","tel":"070-4206-5151","addr":"경기도 용인시 처인구 포곡읍 둔전리 393-11번지 미성빌딩 1층","category":"보건위생 - 화장품"},{"name":"이한의원","tel":"031-321-7545","addr":"경기도 용인시 처인구 포곡읍 둔전리 393-11번지 미성빌딩 2층","category":"의원 - 한의원"},{"name":"자연미술학원","tel":"031-334-7792","addr":"경기도 용인시 처인구 포곡읍 둔전리 393-11번지","category":"학원 - 예·체능계학원"},{"name":"제이에이치 트레이닝W","tel":"031-334-9906","addr":"경기도 용인시 처인구 포곡읍 둔전리 393-11번지 미성빌딩 지하1층","category":"레저업소 - 헬스클럽"},{"name":"제이에이치(JH)트레이닝W","tel":"031-334-9906","addr":"경기도 용인시 처인구 포곡읍 둔전리 393-11번지 미성빌딩 지하1층","category":"레저업소 - 헬스클럽"},{"name":"파로스학원","tel":"031-332-3312","addr":"경기도 용인시 처인구 포곡읍 둔전리 393-11번지 미성빌딩 가동 3층일부","category":"학원 - 보습학원"}]},{"lat":"37.286625006","long":"127.20915694","items":[{"name":"333가든","tel":"031-332-5850","addr":"경기도 용인시 처인구 포곡읍 전대리 473-1번지","category":"일반휴게음식 - 일반한식"}]},{"lat":"37.271017337","long":"127.22514662","items":[{"name":"5708부대","tel":"031-333-3396","addr":"경기도 용인시 처인구 포곡읍 둔전리 91번지","category":"일반휴게음식 - 일반한식"},{"name":"5708부대","tel":"031-329-6101","addr":"경기도 용인시 처인구 포곡읍 둔전리 91번지 사서함 1호","category":"유통업 비영리 - 구내매점(국가기관"},{"name":"5708부대(이발소)","tel":"","addr":"경기도 용인시 처인구 포곡읍 둔전리 91번지","category":"유통업 비영리 - 구내매점(국가기관"}]},{"lat":"37.286214151","long":"127.21726378","items":[{"name":"59쌀피자(전대점)","tel":"031-339-5982","addr":"경기도 용인시 처인구 포곡읍 전대리 191-29번지","category":"일반휴게음식 - 서양음식"}]},{"lat":"37.276825683","long":"127.19620869","items":[{"name":"AND탑저울제작","tel":"031-323-2981","addr":"경기도 용인시 처인구 포곡읍 마성리53-1","category":"기타 - 기계공구"}]},{"lat":"37.281238931","long":"127.18599267","items":[{"name":"BB단열 (비비단열)","tel":"","addr":"경기도 용인시 처인구 포곡읍 마성리 561-2번지","category":"건축자재 - 기타건축자재"}]},{"lat":"37.28063222","long":"127.19912761","items":[{"name":"BSAC Korea","tel":"031-1899-0231","addr":"경기도 용인시 처인구 포곡읍 마성리 72-17번지 302호","category":"레져용품 - 스포츠·레져용품"},{"name":"카페 윈디고 (cafe windigo)/플라이스테이","tel":"031-1855-3946","addr":"경기도 용인시 처인구 포곡읍 마성리 72-17번지 2층 일부","category":"일반휴게음식 - 서양음식"},{"name":"케렌시아(Querencia)/주식회사 네오테크앤","tel":"070-4649-1102","addr":"경기도 용인시 처인구 포곡읍 마성리 72-17번지 1층","category":"일반휴게음식 - 서양음식"},{"name":"플라이스테이션코리아 주식회사","tel":"031-1855-3946","addr":"경기도 용인시 처인구 포곡읍 마성리 72-17번지","category":"레저업소 - 기타레져업소"}]},{"lat":"37.269823497","long":"127.21781484","items":[{"name":"BYC","tel":"031-323-4541","addr":"경기도 용인시 처인구 포곡읍 둔전리 154-1번지 상일빌딩 1층","category":"의류 - 내의판매"},{"name":"궁전사진관","tel":"031-332-0731","addr":"경기도 용인시 처인구 포곡읍 둔전리 154-1번지 상일빌딩 1층","category":"광학제품 - 사진관"},{"name":"김밥나라","tel":"031-323-0509","addr":"경기도 용인시 처인구 포곡읍 둔전리 154-1 145-3","category":"일반휴게음식 - 스넥"},{"name":"김예경 에스테틱","tel":"031-334-1288","addr":"경기도 용인시 처인구 포곡읍 둔전리 154-1","category":"회원제형태 - 기타4"},{"name":"뉴욕치과의원","tel":"031-321-7582","addr":"경기도 용인시 처인구 포곡읍 둔전리 154-1번지 상일빌딩 2층","category":"의원 - 치과의원"},{"name":"당구노리터","tel":"031-338-0325","addr":"경기도 용인시 처인구 포곡읍 둔전리 154-1번지 상일빌딩","category":"레저업소 - 당 구 장"},{"name":"대신환경","tel":"031-337-0945","addr":"경기도 용인시 처인구 포곡읍 둔전리 154-1번지 삼일빌딩 1층","category":"용역 서비스 - 종합용역"},{"name":"라라제이","tel":"031-323-7200","addr":"경기도 용인시 처인구 포곡읍 둔전리 154-1번지 우상빌딩","category":"의류 - 정장"},{"name":"루팡전자담배","tel":"031-339-3456","addr":"경기도 용인시 처인구 포곡읍 둔전리 154-1번지 상일빌딩 지층","category":"기타 - 기타 전문점"},{"name":"본죽둔전점","tel":"031-333-2274","addr":"경기도 용인시 처인구 포곡읍 둔전리154-1","category":"일반휴게음식 - 일반한식"},{"name":"새늘헤어","tel":"031-321-4630","addr":"경기도 용인시 처인구 포곡읍 둔전리 154-1번지 1층","category":"보건위생 - 미용원"},{"name":"수노래연습장","tel":"031-321-4247","addr":"경기도 용인시 처인구 포곡읍 둔전리 154-1번지 상일빌딩 지하1층","category":"레저업소 - 노 래 방"},{"name":"시크릿","tel":"031-322-3015","addr":"경기도 용인시 처인구 포곡읍 둔전리 154-1번지","category":"신변잡화 - 액세서리"},{"name":"아날로그모먼트","tel":"031-000-0000","addr":"경기도 용인시 처인구 포곡읍 둔전리 154-1번지 상일빌딩 1층","category":"일반휴게음식 - 서양음식"},{"name":"아리따움","tel":"031-339-5447","addr":"경기도 용인시 처인구 포곡읍 둔전리 154-1번지 상일빌딩 1층","category":"보건위생 - 화장품"},{"name":"어텀리브스","tel":"031-000-0000","addr":"경기도 용인시 처인구 포곡읍 둔전리 154-1번지 상일빌딩 1층","category":"문화.취미 - 화원"},{"name":"에덴자수","tel":"031-339-0313","addr":"경기도 용인시 처인구 포곡읍 둔전리 154-1번지 상일빌딩 1층","category":"직물 - 침구·수예점"},{"name":"울프노래연습장","tel":"","addr":"경기도 용인시 처인구 포곡읍 둔전리 154-1번지 상일빌딩 지하1층","category":"레저업소 - 노 래 방"},{"name":"제이에이치트레이닝(H GYM)","tel":"031-339-9905","addr":"경기도 용인시 처인구 포곡읍 둔전리 154-1번지 상일빌딩 5층","category":"레저업소 - 헬스클럽"},{"name":"제이에이치트레이닝(H GYM)","tel":"031-339-9905","addr":"경기도 용인시 처인구 포곡읍 둔전리 154-1번지 상일빌딩 5층","category":"회원제형태 - 레져업소"},{"name":"제이에이치트레이닝센터 둔전점","tel":"031-339-9905","addr":"경기도 용인시 처인구 포곡읍 둔전리 154-1번지 상일빌딩 5층","category":"레저업소 - 헬스클럽"},{"name":"제일메디플러스의원","tel":"031-322-7582","addr":"경기도 용인시 처인구 포곡읍 둔전리 154-1번지 상일빌딩 3층 4층","category":"의원 - 의원"},{"name":"제일의원","tel":"031-322-7582","addr":"경기도 용인시 처인구 포곡읍 둔전리 154-1번지 상일빌딩 4층","category":"의원 - 의원"},{"name":"지블리스","tel":"031-336-0309","addr":"경기도 용인시 처인구 포곡읍 둔전리 154-1번지 상일빌딩","category":"의류 - 정장"},{"name":"타임-티(Time-T)","tel":"031-322-8693","addr":"경기도 용인시 처인구 포곡읍 둔전리 154-1번지 상일빌딩 2층","category":"일반휴게음식 - 주점"},{"name":"파리바게뜨","tel":"031-334-3727","addr":"경기도 용인시 처인구 포곡읍 둔전리 154-1번지 상일빌딩","category":"음료식품 - 제과점"},{"name":"페스크린","tel":"031-338-0538","addr":"경기도 용인시 처인구 포곡읍 둔전리 154-1번지 상일빌딩 2층 201호","category":"용역 서비스 - 종합용역"},{"name":"피자어셈블","tel":"031-332-0304","addr":"경기도 용인시 처인구 포곡읍 둔전리 154-1번지 상일빌딩 1층","category":"일반휴게음식 - 서양음식"},{"name":"해밀","tel":"031-339-6970","addr":"경기도 용인시 처인구 포곡읍 둔전리 154-1번지 상일빌딩 1층","category":"일반휴게음식 - 서양음식"},{"name":"헤어포맨","tel":"031-339-5479","addr":"경기도 용인시 처인구 포곡읍 둔전리 154-1번지 1층","category":"보건위생 - 이용원"},{"name":"홍진텔레콤","tel":"031-322-4949","addr":"경기도 용인시 처인구 포곡읍 둔전리 154-1번지 상일빌딩 1층","category":"사무통신 - 통신기기"}]},{"lat":"37.289854188","long":"127.21731921","items":[{"name":"CELERBRATION BAR/(주) 유씨몽키","tel":"02-1111-1111","addr":"경기도 용인시 처인구 포곡읍 전대리 310번지 삼성에버랜드","category":"일반휴게음식 - 일반한식"},{"name":"게스트헤어덕","tel":"031-320-8395","addr":"경기도 용인시 처인구 포곡읍 전대리 310번지 삼성에버랜드 삼성에버랜드 게스트하우스","category":"보건위생 - 미용원"},{"name":"씨유에버랜드캐스트하우스점","tel":"080-080-3663","addr":"경기도 용인시 처인구 포곡읍 전대리 310번지 캐스트하우스 내 1층 매점","category":"유통업 영리 - 편 의 점"},{"name":"씨유홈브리지유스호스텔1호점","tel":"031-321-6894","addr":"경기도 용인시 처인구 포곡읍 전대리 310번지","category":"유통업 영리 - 편 의 점"},{"name":"제이드이엔지 주식회사","tel":"031-321-8482","addr":"경기도 용인시 처인구 포곡읍 전대리 310번지 삼성에버랜드","category":"문화.취미 - 화원"},{"name":"케스트라운지","tel":"031-339-0221","addr":"경기도 용인시 처인구 포곡읍 전대리 310번지 캐스트하우스 2층","category":"일반휴게음식 - 일반한식"}]},{"lat":"37.282129111","long":"127.23345594","items":[{"name":"DK전기조명인테리어","tel":"031-526-6773","addr":"경기도 용인시 처인구 포곡읍 삼계리 484-7번지 1층 3-4호","category":"건축자재 - 조명기구"},{"name":"바이크디자인","tel":"031-321-5086","addr":"경기도 용인시 처인구 포곡읍 삼계리 484-7번지 102(외1필지)","category":"수리서비스 - 레져용품수리"},{"name":"엘림헤어","tel":"031-321-2476","addr":"경기도 용인시 처인구 포곡읍 삼계리 484-7번지 외1필지","category":"보건위생 - 미용원"}]},{"lat":"37.276515818","long":"127.1983502","items":[{"name":"EDITION(에디션)","tel":"","addr":"경기도 용인시 처인구 포곡읍 마성리 44-1번지","category":"자동차정비 유지 - 자동차부품"}]},{"lat":"37.296347126","long":"127.21920982","items":[{"name":"GHP용인점","tel":"031-321-4884","addr":"경기도 용인시 처인구 포곡읍 유운리 343-4번지","category":"자동차정비 유지 - 자동차부품"}]},{"lat":"37.270407644","long":"127.2186508","items":[{"name":"GS25둔전영재점","tel":"","addr":"경기도 용인시 처인구 포곡읍 둔전리 190-11번지","category":"유통업 영리 - 편 의 점"},{"name":"개나리지업사","tel":"031-333-6163","addr":"경기도 용인시 처인구 포곡읍 둔전리 190-11","category":"직물 - 카페트,커튼,천막,지물"},{"name":"고산촌","tel":"031-333-0471","addr":"경기도 용인시 처인구 포곡읍 둔전리 190-11번지","category":"일반휴게음식 - 일반한식"},{"name":"네일승아(nail Seunga)","tel":"031-321-9689","addr":"경기도 용인시 처인구 포곡읍 둔전리 190-11번지 3호 (외1필지 영재빌딩)","category":"보건위생 - 피부미용실"},{"name":"다이소","tel":"031-334-0217","addr":"경기도 용인시 처인구 포곡읍 둔전리 190-11번지 101호","category":"신변잡화 - 기타잡화"},{"name":"또봉이치킨","tel":"031-336-8286","addr":"경기도 용인시 처인구 포곡읍 둔전리 190-11번지 108호","category":"일반휴게음식 - 스넥"},{"name":"미래영어학원","tel":"031-334-3521","addr":"경기도 용인시 처인구 포곡읍 둔전리 190-11번지 3층","category":"학원 - 보습학원"},{"name":"박한숙머리한올","tel":"031-321-6743","addr":"경기도 용인시 처인구 포곡읍 둔전리290-11영재빌딩1층","category":"보건위생 - 미용원"},{"name":"삼보컴퓨터 용인점","tel":"031-321-3582","addr":"경기도 용인시 처인구 포곡읍 둔전리 190-11번지 106호","category":"사무통신 - 컴퓨터"},{"name":"시크","tel":"","addr":"경기도 용인시 처인구 포곡읍 둔전리 190-11번지 104호","category":"의류 - 정장"},{"name":"이십일세기미래보습학원","tel":"031-334-3521","addr":"경기도 용인시 처인구 포곡읍 둔전리 190-11번지 3층","category":"학원 - 보습학원"},{"name":"캐스트라운지라","tel":"031-339-0221","addr":"경기도 용인시 처인구 포곡읍 둔전리 190-11번지 2층 202호","category":"일반휴게음식 - 주점"}]},{"lat":"37.268768625","long":"127.21818388","items":[{"name":"GS25둔전제일점","tel":"02-2006-2485","addr":"경기도 용인시 처인구 포곡읍 둔전리 150번지 1층","category":"유통업 영리 - 편 의 점"},{"name":"고추닭발","tel":"031-321-0303","addr":"경기도 용인시 처인구 포곡읍 둔전리 150번지 1층 일부","category":"일반휴게음식 - 일반한식"},{"name":"김수연헤어샵","tel":"070-8976-4610","addr":"경기도 용인시 처인구 포곡읍 둔전리 150번지 105호","category":"보건위생 - 미용원"},{"name":"놀러와","tel":"031-322-9559","addr":"경기도 용인시 처인구 포곡읍 둔전리 150","category":"일반휴게음식 - 주점"},{"name":"두리생고깃집","tel":"031-336-1127","addr":"경기도 용인시 처인구 포곡읍 둔전리 150번지","category":"일반휴게음식 - 일반한식"},{"name":"이모리순대국","tel":"031-322-1714","addr":"경기도 용인시 처인구 포곡읍 둔전리 150번지 101호","category":"일반휴게음식 - 일반한식"},{"name":"팔팔양꼬치","tel":"031-333-5032","addr":"경기도 용인시 처인구 포곡읍 둔전리 150번지 1층 101호","category":"일반휴게음식 - 일반한식"},{"name":"헤어아라","tel":"070-8976-4610","addr":"경기도 용인시 처인구 포곡읍 둔전리 150번지 가람빌딩 105호","category":"보건위생 - 미용원"}]},{"lat":"37.288239517","long":"127.21332257","items":[{"name":"GS25에버랜드점","tel":"02-2006-2485","addr":"경기도 용인시 처인구 포곡읍 전대리 346-9","category":"유통업 영리 - 편 의 점"}]},{"lat":"37.268354963","long":"127.22264723","items":[{"name":"GS25용인목련점","tel":"","addr":"경기도 용인시 처인구 포곡읍 둔전리 122-5번지 목련아파트 104호","category":"유통업 영리 - 편 의 점"}]},{"lat":"37.279402892","long":"127.23145183","items":[{"name":"GS25용인삼계점","tel":"031-332-2192","addr":"경기도 용인시 처인구 포곡읍 삼계리562-1","category":"유통업 영리 - 편 의 점"},{"name":"우리통신","tel":"031-339-0230","addr":"경기도 용인시 처인구 포곡읍 삼계리 562-1번지","category":"사무통신 - 통신기기"},{"name":"정선식당","tel":"031-334-6789","addr":"경기도 용인시 처인구 포곡읍 삼계리 562-1번지","category":"일반휴게음식 - 일반한식"}]},{"lat":"37.304185073","long":"127.22458998","items":[{"name":"GS25용인유신점","tel":"02-2006-2485","addr":"경기도 용인시 처인구 포곡읍 유운리 242-3번지 외1필지","category":"유통업 영리 - 편 의 점"}]},{"lat":"37.303679096","long":"127.2347286","items":[{"name":"GS25용인초현점","tel":"02-2006-2118","addr":"경기도 용인시 처인구 포곡읍 삼계리 59-3번지 외1필지","category":"유통업 영리 - 편 의 점"},{"name":"모터스피드","tel":"031-332-0502","addr":"경기도 용인시 처인구 포곡읍 삼계리 59-3번지 주성프라자 1층","category":"자동차정비 유지 - 자동차부품"},{"name":"비봉손칼국수","tel":"031-111-1111","addr":"경기도 용인시 처인구 포곡읍 삼계리 59-3번지 1층","category":"일반휴게음식 - 일반한식"},{"name":"타이마이더스","tel":"031-323-0977","addr":"경기도 용인시 처인구 포곡읍 삼계리 59-3번지 주성프라자","category":"신변잡화 - 기타잡화"},{"name":"한끼","tel":"031-338-7388","addr":"경기도 용인시 처인구 포곡읍 삼계리 59-3번지","category":"일반휴게음식 - 일반한식"}]},{"lat":"37.268043767","long":"127.21543096","items":[{"name":"GS25용인포곡로점","tel":"","addr":"경기도 용인시 처인구 포곡읍 둔전리 386-15번지 101호","category":"유통업 영리 - 편 의 점"},{"name":"갤러리PC","tel":"031-000-0000","addr":"경기도 용인시 처인구 포곡읍 둔전리 386-15번지 B02호","category":"레저업소 - 기타레져업소"},{"name":"놀러와노래연습장","tel":"031-337-3946","addr":"경기도 용인시 처인구 포곡읍 둔전리 386-15번지 지하1층","category":"레저업소 - 노 래 방"},{"name":"란미용실","tel":"031-322-6389","addr":"경기도 용인시 처인구 포곡읍 둔전리 386-15번지 104호","category":"보건위생 - 미용원"},{"name":"미스터힐링","tel":"070-9128-9986","addr":"경기도 용인시 처인구 포곡읍 둔전리 386-15번지 201호","category":"레저업소 - 헬스클럽"},{"name":"안경매니저","tel":"031-323-3237","addr":"경기도 용인시 처인구 포곡읍 둔전리 386-15번지 미니스톱 1층 102호","category":"보건위생 - 안경"},{"name":"자연한의원","tel":"031-322-1025","addr":"경기도 용인시 처인구 포곡읍 둔전리 386-15번지 동광 상가 202호","category":"의원 - 한의원"},{"name":"진짜만두","tel":"031-338-2992","addr":"경기도 용인시 처인구 포곡읍 둔전리 386-15번지 103호","category":"일반휴게음식 - 스넥"},{"name":"피자알볼로 용인포곡점","tel":"031-333-8495","addr":"경기도 용인시 처인구 포곡읍 둔전리 386-15번지 1층 105호","category":"일반휴게음식 - 서양음식"}]},{"lat":"37.276240522","long":"127.2013487","items":[{"name":"GS25처인영문점","tel":"","addr":"경기도 용인시 처인구 포곡읍 영문리 288-2번지 1층","category":"유통업 영리 - 편 의 점"},{"name":"다올농산","tel":"031-322-7377","addr":"경기도 용인시 처인구 포곡읍 영문리 288-2번지 103호","category":"음료식품 - 농·축·수산품"},{"name":"조아저씨쪽갈비","tel":"031-336-0885","addr":"경기도 용인시 처인구 포곡읍 영문리 288-2번지","category":"일반휴게음식 - 일반한식"}]},{"lat":"37.286962916","long":"127.21675844","items":[{"name":"GS25포곡골든점","tel":"","addr":"경기도 용인시 처인구 포곡읍 전대리 356-1번지 골든튤립에버호텔 103호","category":"유통업 영리 - 편 의 점"},{"name":"골든틀립에버용인호텔","tel":"031-8097-3300","addr":"경기도 용인시 처인구 포곡읍 전대리 356-1번지 3층","category":"숙박업 - 여관/기타숙박업"},{"name":"이디야커피 용인에버랜드역점","tel":"","addr":"경기도 용인시 처인구 포곡읍 전대리 356-1번지 골든튤립에버호텔 102호","category":"일반휴게음식 - 서양음식"},{"name":"코코이찌방야 골든튤립에버용인점","tel":"031-323-3382","addr":"경기도 용인시 처인구 포곡읍 전대리 356-1번지 골든툴립에버호텔 103호","category":"일반휴게음식 - 일반한식"},{"name":"한양호텔","tel":"031-333-6221","addr":"경기도 용인시 처인구 포곡읍 전대리 356-1번지","category":"숙박업 - 2급 호텔"}]},{"lat":"37.281881357","long":"127.22157022","items":[{"name":"GS25포곡으뜸점","tel":"","addr":"경기도 용인시 처인구 포곡읍 전대리 137-3번지","category":"유통업 영리 - 편 의 점"}]},{"lat":"37.2868181","long":"127.21711889","items":[{"name":"GS25포곡전대리점","tel":"","addr":"경기도 용인시 처인구 포곡읍 전대리 357-1번지 1층","category":"유통업 영리 - 편 의 점"},{"name":"메가커피에버랜드역점","tel":"031-1111-1111","addr":"경기도 용인시 처인구 포곡읍 전대리 357-1번지","category":"일반휴게음식 - 서양음식"},{"name":"버스마트,만물,앰프","tel":"031-323-2239","addr":"경기도 용인시 처인구 포곡읍 전대리 357-1번지 2층","category":"자동차정비 유지 - 자동차부품"},{"name":"영광미디어","tel":"","addr":"경기도 용인시 처인구 포곡읍 전대리 357-1번지 2층","category":"전기제품 - 가전제품"}]},{"lat":"37.28515211","long":"127.216618","items":[{"name":"GS25포곡제일점","tel":"02-2006-2485","addr":"경기도 용인시 처인구 포곡읍 전대리 360-5번지 1층","category":"유통업 영리 - 편 의 점"}]},{"lat":"37.284629553","long":"127.23570759","items":[{"name":"GS25포곡타운점","tel":"","addr":"경기도 용인시 처인구 포곡읍 삼계리 379-7번지","category":"유통업 영리 - 편 의 점"}]},{"lat":"37.267657278","long":"127.2149","items":[{"name":"IM에스테틱","tel":"031-322-4085","addr":"경기도 용인시 처인구 포곡읍 둔전리 384-11번지 청석빌딩 204호","category":"회원제형태 - 기타4"},{"name":"도미노피자(포곡점)","tel":"031-335-3081","addr":"경기도 용인시 처인구 포곡읍 둔전리 384-11번지 청석빌딩 101호","category":"일반휴게음식 - 서양음식"},{"name":"둔전GnB영어전문학원","tel":"031-322-1441","addr":"경기도 용인시 처인구 포곡읍 둔전리384-11외1필지,청석빌딩301호~302호","category":"회원제형태 - 학원"},{"name":"모모(MOMO)","tel":"031-323-4380","addr":"경기도 용인시 처인구 포곡읍 둔전리 384-11번지 청석빌딩 102호","category":"수리서비스 - 세탁소"},{"name":"모모(MOMO)","tel":"031-323-4380","addr":"경기도 용인시 처인구 포곡읍 둔전리 384-11번지 청석빌딩 102호","category":"용역 서비스 - 사무서비스"},{"name":"육감만족","tel":"031-321-9212","addr":"경기도 용인시 처인구 포곡읍 둔전리 384-11번지 202호 201호,202호","category":"일반휴게음식 - 일반한식"},{"name":"정포토스튜디오","tel":"031-333-3720","addr":"경기도 용인시 처인구 포곡읍 둔전리 384-11번지 청석빌딩 103호","category":"광학제품 - 사진관"},{"name":"청석고시텔","tel":"031-333-4921","addr":"경기도 용인시 처인구 포곡읍 둔전리 384-11번지 청석빌딩 107호","category":"학원 - 독서실"},{"name":"칸토피아노학원","tel":"031-335-3008","addr":"경기도 용인시 처인구 포곡읍 둔전리 384-11번지 청석빌딩 3층 일부","category":"학원 - 예·체능계학원"},{"name":"풍경미술학원","tel":"031-335-0854","addr":"경기도 용인시 처인구 포곡읍 둔전리 384-11번지 청석빌딩 305동 306호","category":"학원 - 예·체능계학원"},{"name":"힐링토가","tel":"","addr":"경기도 용인시 처인구 포곡읍 둔전리 384-11번지 청석빌딩 105호","category":"신변잡화 - 기타잡화"}]},{"lat":"37.268522985","long":"127.2194797","items":[{"name":"Item(아이템)","tel":"031-334-9500","addr":"경기도 용인시 처인구 포곡읍 둔전리 138-12번지 1층","category":"신변잡화 - 기타잡화"},{"name":"경화네손만두","tel":"031-336-1717","addr":"경기도 용인시 처인구 포곡읍 둔전리 138-12번지","category":"일반휴게음식 - 일반한식"},{"name":"신전떡볶이 (둔전점)","tel":"031-334-2733","addr":"경기도 용인시 처인구 포곡읍 둔전리 138-12번지 1층","category":"일반휴게음식 - 스넥"},{"name":"아이엠주니어","tel":"031-334-9500","addr":"경기도 용인시 처인구 포곡읍 둔전리 138-12번지 1층 미니미상점","category":"신변잡화 - 기타잡화"},{"name":"아침닭통닭과닭발","tel":"031-321-1999","addr":"경기도 용인시 처인구 포곡읍 둔전리 138-12번지 1층","category":"일반휴게음식 - 일반한식"}]},{"lat":"37.269686724","long":"127.21870511","items":[{"name":"J.J헤어","tel":"031-334-2373","addr":"경기도 용인시 처인구 포곡읍 둔전리 155-5","category":"보건위생 - 미용원"},{"name":"믿음반점","tel":"031-321-7577","addr":"경기도 용인시 처인구 포곡읍 둔전리 155-5번지 1층 일부","category":"일반휴게음식 - 중국식"},{"name":"배부장찌개","tel":"031-323-0233","addr":"경기도 용인시 처인구 포곡읍 둔전리 155-5번지 1층 3호","category":"일반휴게음식 - 일반한식"},{"name":"타임푸드","tel":"031-333-5388","addr":"경기도 용인시 처인구 포곡읍 둔전리 155-5번지","category":"일반휴게음식 - 스넥"},{"name":"파스타마마","tel":"031-321-9787","addr":"경기도 용인시 처인구 포곡읍 둔전리 155-5번지 1층 2호","category":"일반휴게음식 - 서양음식"}]},{"lat":"37.270823181","long":"127.21806572","items":[{"name":"JH트레이닝센터","tel":"031-321-9907","addr":"경기도 용인시 처인구 포곡읍 둔전리 164-11번지 401호","category":"회원제형태 - 레져업소"}]},{"lat":"37.272797999","long":"127.18490113","items":[{"name":"JPCOM(제이피컴)","tel":"031-337-0214","addr":"경기도 용인시 처인구 포곡읍 마성리 427-5 5/3","category":"용역 서비스 - 정보서비스"}]},{"lat":"37.280853109","long":"127.22215359","items":[{"name":"J스크린골프","tel":"031-322-0753","addr":"경기도 용인시 처인구 포곡읍 전대리 120-1번지 1층","category":"레저업소 - 스크린골프"}]},{"lat":"37.29713","long":"127.2197647","items":[{"name":"LUXON","tel":"031-336-6759","addr":"경기도 용인시 처인구 포곡읍 유운리346-3","category":"자동차정비 유지 - 자동차부품"}]},{"lat":"37.267099555","long":"127.21937416","items":[{"name":"PALM공방","tel":"031-339-4510","addr":"경기도 용인시 처인구 포곡읍 둔전리 141-1번지 7호","category":"문화.취미 - 문화취미기타"},{"name":"더9900샵","tel":"031-328-2556","addr":"경기도 용인시 처인구 포곡읍 둔전리 141-1번지","category":"의류 - 정장"},{"name":"더달달 아이스크림","tel":"070-7423-6603","addr":"경기도 용인시 처인구 포곡읍 둔전리 141-1번지 105호","category":"음료식품 - 기타음료식품"},{"name":"밥먹을까 면먹을까","tel":"031-332-9896","addr":"경기도 용인시 처인구 포곡읍 둔전리 141-1번지 1층","category":"일반휴게음식 - 일반한식"},{"name":"오오(55)온족발포곡점","tel":"031-322-5568","addr":"경기도 용인시 처인구 포곡읍 둔전리 141-1번지 1층 1,2호","category":"일반휴게음식 - 일반한식"},{"name":"조이헤어","tel":"031-336-6965","addr":"경기도 용인시 처인구 포곡읍 둔전리 141-1번지","category":"보건위생 - 미용원"}]},{"lat":"37.286847288","long":"127.21592363","items":[{"name":"Q(큐)호텔","tel":"031-339-8881","addr":"경기도 용인시 처인구 포곡읍 전대리 355-15번지","category":"숙박업 - 여관/기타숙박업"}]},{"lat":"37.298150912","long":"127.22315118","items":[{"name":"R-TECH","tel":"031-335-3012","addr":"경기도 용인시 처인구 포곡읍 유운리321-9","category":"자동차정비 유지 - 자동차부품"}]},{"lat":"37.294291587","long":"127.22473012","items":[{"name":"SH 컴퍼니","tel":"031-407-8982","addr":"경기도 용인시 처인구 포곡읍 유운리 79-4번지","category":"용역 서비스 - 종합용역"},{"name":"그리핀모터스","tel":"070-7578-2599","addr":"경기도 용인시 처인구 포곡읍 유운리 79-4","category":"자동차판매 - 기타운송"},{"name":"좋은친구들","tel":"070-4082-5869","addr":"경기도 용인시 처인구 포곡읍 유운리 79-4번지","category":"자동차정비 유지 - 자동차부품"}]},{"lat":"37.272328195","long":"127.21790088","items":[{"name":"SJ아트","tel":"070-8171-9655","addr":"경기도 용인시 처인구 포곡읍 둔전리 171-2번지 대두타운 106호","category":"자동차정비 유지 - 카인테리어"}]},{"lat":"37.296020175","long":"127.22061866","items":[{"name":"SL모터스포츠","tel":"","addr":"경기도 용인시 처인구 포곡읍 유운리 369-2번지","category":"자동차판매 - 기타운송"}]},{"lat":"37.295321385","long":"127.2184287","items":[{"name":"SL엔지니어링","tel":"031-321-3917","addr":"경기도 용인시 처인구 포곡읍 유운리 383-4번지 SART 가동","category":"기타 - 기계공구"},{"name":"토보더블탑","tel":"031-333-1309","addr":"경기도 용인시 처인구 포곡읍 유운리383-4","category":"자동차정비 유지 - 자동차부품"}]},{"lat":"37.280461022","long":"127.21978453","items":[{"name":"THE꽃스러움","tel":"031-334-6500","addr":"경기도 용인시 처인구 포곡읍 전대리 164-3번지 봉화아파트 102동 101호","category":"문화.취미 - 화원"}]},{"lat":"37.275150316","long":"127.23131495","items":[{"name":"US 글로벌펫","tel":"","addr":"경기도 용인시 처인구 포곡읍 삼계리 535-4번지 골든그랑빌 B동 302호","category":"문화.취미 - 애완동물"}]},{"lat":"37.285627487","long":"127.21781467","items":[{"name":"WeFix(위픽스)","tel":"070-8285-2330","addr":"경기도 용인시 처인구 포곡읍 전대리 190-3번지","category":"용역 서비스 - 기타용역서비스"}]},{"lat":"37.271765342","long":"127.22021056","items":[{"name":"YJ BEAN HOUSE","tel":"031-339-8687","addr":"경기도 용인시 처인구 포곡읍 둔전리 192-70번지 1층","category":"일반휴게음식 - 서양음식"}]},{"lat":"37.2679935","long":"127.21831697","items":[{"name":"e해법수학&멘사영재학원","tel":"031-339-7179","addr":"경기도 용인시 처인구 포곡읍 둔전리 150-1번지","category":"학원 - 보습학원"},{"name":"개선문수학학원","tel":"031-322-1446","addr":"경기도 용인시 처인구 포곡읍 둔전리 150-1번지","category":"학원 - 보습학원"},{"name":"고려수학학원","tel":"","addr":"경기도 용인시 처인구 포곡읍 둔전리 150-1번지 301호일부,302호일부","category":"학원 - 보습학원"},{"name":"늘푸른학원","tel":"031-322-9644","addr":"경기도 용인시 처인구 포곡읍 둔전리 150-1번지 (302호일부.303호)","category":"학원 - 보습학원"},{"name":"닭치고싸가지","tel":"","addr":"경기도 용인시 처인구 포곡읍 둔전리 150-1번지 라데팡스2차 115호","category":"일반휴게음식 - 일반한식"},{"name":"동그랑땡","tel":"031-323-3275","addr":"경기도 용인시 처인구 포곡읍 둔전리 150-1번지 라데팡스2차 103호","category":"일반휴게음식 - 일반한식"},{"name":"둔전골프존","tel":"031-336-7755","addr":"경기도 용인시 처인구 포곡읍 둔전리 150-1번지 라데팡스2차 308동 307호","category":"레저업소 - 스크린골프"},{"name":"둘둘치킨","tel":"031-336-2282","addr":"경기도 용인시 처인구 포곡읍 둔전리 150-1번지","category":"일반휴게음식 - 스넥"},{"name":"드림에듀학원","tel":"031-334-8205","addr":"경기도 용인시 처인구 포곡읍 둔전리 150-1번지 402,403호","category":"학원 - 보습학원"},{"name":"디디미","tel":"070-4274-1375","addr":"경기도 용인시 처인구 포곡읍 둔전리 150-1번지 라데팡스2차 104호","category":"신변잡화 - 신발"},{"name":"라이또 PC 둔전점","tel":"070-7997-4034","addr":"경기도 용인시 처인구 포곡읍 둔전리 150-1번지 2층 203,4호","category":"수리서비스 - 사무·통신기기수리"},{"name":"명지음악학원","tel":"031-334-3134","addr":"경기도 용인시 처인구 포곡읍 둔전리 150-1번지","category":"학원 - 예·체능계학원"},{"name":"바다양푼이동태탕","tel":"031-321-9244","addr":"경기도 용인시 처인구 포곡읍 둔전리 150-1번지 라데팡스2차 109호","category":"일반휴게음식 - 스넥"},{"name":"보헤미안","tel":"","addr":"경기도 용인시 처인구 포곡읍 둔전리 150-1번지 106,107호","category":"일반휴게음식 - 주점"},{"name":"뿔샵","tel":"031-321-5990","addr":"경기도 용인시 처인구 포곡읍 둔전리 150-1번지 라데팡스2차 109호","category":"의류 - 정장"},{"name":"새마을식당(용인포곡점)","tel":"031-322-9202","addr":"경기도 용인시 처인구 포곡읍 둔전리 150-1번지 111,112호","category":"일반휴게음식 - 일반한식"},{"name":"솥뚜껑이면 돼지","tel":"070-4133-9646","addr":"경기도 용인시 처인구 포곡읍 둔전리 150-1번지 외4필지 라데팡스2차 110호","category":"일반휴게음식 - 일반한식"},{"name":"신우치과","tel":"031-322-2879","addr":"경기도 용인시 처인구 포곡읍 둔전리150-1,외150-2","category":"의원 - 치과의원"},{"name":"씨유용인라데팡스점","tel":"02-1577-8007","addr":"경기도 용인시 처인구 포곡읍 둔전리 150-1번지 117호 116호, 117호","category":"유통업 영리 - 편 의 점"},{"name":"윤선생영어숲둔전학원","tel":"031-333-0003","addr":"경기도 용인시 처인구 포곡읍 둔전리 150-1번지 라데팡스2차 304호","category":"학원 - 보습학원"},{"name":"졸라쭈꾸미","tel":"031-333-0287","addr":"경기도 용인시 처인구 포곡읍 둔전리 150-1번지 라데팡스2차 111호","category":"일반휴게음식 - 일반한식"},{"name":"토모뷰티헤어","tel":"031-321-7174","addr":"경기도 용인시 처인구 포곡읍 둔전리 150-1번지 라데팡스2차 108호","category":"보건위생 - 미용원"},{"name":"하나텔레콤(동천점)","tel":"031-262-4990","addr":"경기도 용인시 처인구 포곡읍 둔전리 150-1번지 113호 114호","category":"사무통신 - 통신기기"},{"name":"하우스터디학원","tel":"031-339-2901","addr":"경기도 용인시 처인구 포곡읍 둔전리 150-1번지 라데팡스2차 308호","category":"학원 - 보습학원"}]},{"lat":"37.270217112","long":"127.21937181","items":[{"name":"kim's 생돈가스","tel":"031-339-1180","addr":"경기도 용인시 처인구 포곡읍 둔전리 190-6번지","category":"일반휴게음식 - 일반한식"},{"name":"둔전오토바이","tel":"031-333-9186","addr":"경기도 용인시 처인구 포곡읍 둔전리 190-6번지","category":"자동차판매 - 이륜차판매"},{"name":"소문난 감자탕","tel":"031-111-1111","addr":"경기도 용인시 처인구 포곡읍 둔전리 190-6번지","category":"일반휴게음식 - 일반한식"},{"name":"용인토종순대","tel":"031-322-6788","addr":"경기도 용인시 처인구 포곡읍 둔전리 190-6번지","category":"일반휴게음식 - 일반한식"}]},{"lat":"37.272795617","long":"127.22340427","items":[{"name":"가실","tel":"031-322-8889","addr":"경기도 용인시 처인구 포곡읍 둔전리 52-6번지 1층","category":"일반휴게음식 - 일반한식"},{"name":"불타는생고기","tel":"031-332-5531","addr":"경기도 용인시 처인구 포곡읍 둔전리 52-6번지","category":"일반휴게음식 - 일반한식"},{"name":"커피 방앗간","tel":"","addr":"경기도 용인시 처인구 포곡읍 둔전리 52-6번지 1층","category":"일반휴게음식 - 서양음식"}]},{"lat":"37.281355047","long":"127.23303637","items":[{"name":"가야종합설비","tel":"031-334-0074","addr":"경기도 용인시 처인구 포곡읍 삼계리 490-7","category":"용역 서비스 - 기타용역서비스"}]},{"lat":"37.275544833","long":"127.2276179","items":[{"name":"강냥이와 나드리","tel":"031-332-7136","addr":"경기도 용인시 처인구 포곡읍 둔전리 340번지 105호","category":"문화.취미 - 애완동물"},{"name":"굿-샷 SG 스크린골프 둔전점","tel":"031-329-3100","addr":"경기도 용인시 처인구 포곡읍 둔전리 340번지 3층 301,302호","category":"레저업소 - 스크린골프"},{"name":"마루한콩나물국밥","tel":"031-335-6969","addr":"경기도 용인시 처인구 포곡읍 둔전리 340번지 포곡제일 가동 101호","category":"일반휴게음식 - 일반한식"},{"name":"백채김치찌개","tel":"","addr":"경기도 용인시 처인구 포곡읍 둔전리 340번지 1층 102호","category":"일반휴게음식 - 일반한식"},{"name":"엘로이심리상담센터","tel":"031-337-2054","addr":"경기도 용인시 처인구 포곡읍 둔전리 340번지 304호","category":"보건위생 - 기타대인서비스"},{"name":"영당구클럽","tel":"070-7018-5392","addr":"경기도 용인시 처인구 포곡읍 둔전리 340번지 가동 305,306,307호","category":"레저업소 - 당 구 장"},{"name":"이디야(용인포곡점)","tel":"","addr":"경기도 용인시 처인구 포곡읍 둔전리 340번지 1층 107호","category":"일반휴게음식 - 서양음식"},{"name":"이마트24용인포곡로점","tel":"","addr":"경기도 용인시 처인구 포곡읍 둔전리 340번지 106호","category":"유통업 영리 - 편 의 점"},{"name":"쭈꾸쭈꾸아용인포곡점","tel":"031-335-8770","addr":"경기도 용인시 처인구 포곡읍 둔전리 340번지 2층 203,204,205호","category":"일반휴게음식 - 일반한식"}]},{"lat":"37.279297464","long":"127.22045773","items":[{"name":"강변오리마당","tel":"031-333-5031","addr":"경기도 용인시 처인구 포곡읍 영문리 497-7번지 1,2층","category":"일반휴게음식 - 일반한식"},{"name":"무영글로벌","tel":"070-7725-0406","addr":"경기도 용인시 처인구 포곡읍 영문리 497-7번지 303호","category":"신변잡화 - 기타잡화"}]},{"lat":"37.297124528","long":"127.22273089","items":[{"name":"개그스토리마트","tel":"031-332-5698","addr":"경기도 용인시 처인구 포곡읍 유운리 361-1번지","category":"유통업 영리 - 슈퍼마켓"},{"name":"세븐일레븐용인유운리점","tel":"","addr":"경기도 용인시 처인구 포곡읍 유운리 361-1번지","category":"유통업 영리 - 편 의 점"}]},{"lat":"37.268520627","long":"127.22076494","items":[{"name":"개미상회","tel":"031-334-9500","addr":"경기도 용인시 처인구 포곡읍 둔전리 129-2번지 유성빌리지 101동 301호","category":"음료식품 - 농·축·수산품"}]},{"lat":"37.269432604","long":"127.21970779","items":[{"name":"개성순대","tel":"031-321-9191","addr":"경기도 용인시 처인구 포곡읍 둔전리 155-15번지","category":"일반휴게음식 - 일반한식"},{"name":"내품에돼지&찜닭","tel":"031-336-3408","addr":"경기도 용인시 처인구 포곡읍 둔전리 155-15번지","category":"일반휴게음식 - 일반한식"},{"name":"쌍파닭","tel":"031-336-6779","addr":"경기도 용인시 처인구 포곡읍 둔전리 155-15번지 1층","category":"일반휴게음식 - 스넥"},{"name":"아리불닭발","tel":"031-333-2219","addr":"경기도 용인시 처인구 포곡읍 둔전리 155-15번지 1층","category":"일반휴게음식 - 일반한식"},{"name":"왕십리곱창","tel":"031-322-0161","addr":"경기도 용인시 처인구 포곡읍 둔전리 155-15번지","category":"일반휴게음식 - 일반한식"}]},{"lat":"37.276101299","long":"127.22875835","items":[{"name":"개성집","tel":"031-322-3883","addr":"경기도 용인시 처인구 포곡읍 둔전리 84-37번지 1층","category":"일반휴게음식 - 일반한식"}]},{"lat":"37.282769647","long":"127.23304068","items":[{"name":"갯바위","tel":"031-000-0000","addr":"경기도 용인시 처인구 포곡읍 삼계리 479-17번지 경림빌딩","category":"일반휴게음식 - 일반한식"}]},{"lat":"37.285096989","long":"127.21720422","items":[{"name":"갱갱이샵","tel":"031-333-1507","addr":"경기도 용인시 처인구 포곡읍 전대리 360-10번지 1층 (진가네)","category":"의류 - 정장"},{"name":"페이머스치킨","tel":"031-339-7170","addr":"경기도 용인시 처인구 포곡읍 전대리 360-10번지","category":"일반휴게음식 - 스넥"}]},{"lat":"37.284771108","long":"127.21803776","items":[{"name":"거농정육점","tel":"031-323-0389","addr":"경기도 용인시 처인구 포곡읍 전대리 194-2번지","category":"음료식품 - 정육점"},{"name":"거농횟집","tel":"031-339-2425","addr":"경기도 용인시 처인구 포곡읍 전대리 194-2번지","category":"일반휴게음식 - 일식·회집"}]},{"lat":"37.268550805","long":"127.24245634","items":[{"name":"거북이가든","tel":"031-334-8180","addr":"경기도 용인시 처인구 포곡읍 금어리 472번지","category":"일반휴게음식 - 일반한식"}]},{"lat":"37.270576758","long":"127.21978999","items":[{"name":"거산상사","tel":"031-336-7642","addr":"경기도 용인시 처인구 포곡읍 둔전리190-1","category":"자동차정비 유지 - 자동차부품"},{"name":"북창동곱창","tel":"031-337-3392","addr":"경기도 용인시 처인구 포곡읍 둔전리 190-1","category":"일반휴게음식 - 일반한식"},{"name":"안경마을(둔전점)","tel":"031-335-1280","addr":"경기도 용인시 처인구 포곡읍 둔전리 190-1번지","category":"보건위생 - 안경"},{"name":"월드크리닝","tel":"031-526-7115","addr":"경기도 용인시 처인구 포곡읍 둔전리 190-1번지 3층 305~307호","category":"수리서비스 - 세탁소"},{"name":"해피독","tel":"031-323-0097","addr":"경기도 용인시 처인구 포곡읍 190-1","category":"문화.취미 - 애완동물"},{"name":"헤어리빙","tel":"031-336-7930","addr":"경기도 용인시 처인구 포곡읍 둔전리 190-1번지","category":"보건위생 - 미용원"}]},{"lat":"37.305456329","long":"127.22415381","items":[{"name":"건민유통(자연촌)","tel":"031-333-3961","addr":"경기도 용인시 처인구 포곡읍 신원리34-19","category":"음료식품 - 기타음료식품"},{"name":"스토머레이싱","tel":"031-333-0551","addr":"경기도 용인시 처인구 포곡읍 신원리34-19","category":"자동차정비 유지 - 자동차정비"}]},{"lat":"37.285376488","long":"127.23617223","items":[{"name":"경기쌀상회","tel":"031-334-2949","addr":"경기도 용인시 처인구 포곡읍 삼계리 369-20번지 대명빌라 1층","category":"음료식품 - 미곡상"},{"name":"모도리","tel":"","addr":"경기도 용인시 처인구 포곡읍 삼계리 369-20번지 대명빌라 1층 103호","category":"일반휴게음식 - 서양음식"},{"name":"세탁프라자","tel":"070-7018-5366","addr":"경기도 용인시 처인구 포곡읍 삼계리 369-20번지 대명빌라 101호","category":"수리서비스 - 세탁소"}]},{"lat":"37.28074007","long":"127.21993191","items":[{"name":"경동스크린골프","tel":"051-516-3727","addr":"경기도 용인시 처인구 포곡읍 전대리 162-3번지","category":"회원제형태 - 레져업소"}]},{"lat":"37.276070846","long":"127.20576813","items":[{"name":"경수원스톱마트","tel":"031-334-5324","addr":"경기도 용인시 처인구 포곡읍 영문리 369-2","category":"전기제품 - 기타전기제품"}]},{"lat":"37.272542778","long":"127.21881474","items":[{"name":"경원대 최고 태권도 별관","tel":"","addr":"경기도 용인시 처인구 포곡읍 둔전리 178번지 최고어린이집 B동 1층","category":"학원 - 예·체능계학원"},{"name":"더이룸학원","tel":"031-334-7370","addr":"경기도 용인시 처인구 포곡읍 둔전리 178번지","category":"학원 - 보습학원"}]},{"lat":"37.267965093","long":"127.21907224","items":[{"name":"경원대최고태권도장","tel":"031-339-4385","addr":"경기도 용인시 처인구 포곡읍 둔전리 139-10번지 라데팡스 204호","category":"학원 - 예·체능계학원"},{"name":"독서실닷컴","tel":"031-526-7557","addr":"경기도 용인시 처인구 포곡읍 둔전리 139-10번지 라데팡스 3층 302호","category":"학원 - 독서실"},{"name":"돼지랑맥주랑퓨전호프","tel":"031-335-5153","addr":"경기도 용인시 처인구 포곡읍 둔전리 139-10번지 라데팡스 102호","category":"일반휴게음식 - 일반한식"},{"name":"릴리N투어다이버","tel":"031-338-1218","addr":"경기도 용인시 처인구 포곡읍 둔전리 139-10번지 라데팡스 3층 302호","category":"레저업소 - 기타레져업소"},{"name":"명지미술교습소","tel":"031-334-3134","addr":"경기도 용인시 처인구 포곡읍 둔전리 139-10번지 라데팡스 204호 일부","category":"학원 - 예·체능계학원"},{"name":"북경대반점","tel":"031-335-1512","addr":"경기도 용인시 처인구 포곡읍 둔전리 139-10번지 라데팡스 101호","category":"일반휴게음식 - 중국식"},{"name":"북경반점","tel":"031-335-1512","addr":"경기도 용인시 처인구 포곡읍 둔전리 139-10번지 라데팡스 1층 101호","category":"일반휴게음식 - 중국식"},{"name":"소리나무음악학원","tel":"031-333-1315","addr":"경기도 용인시 처인구 포곡읍 둔전리 139-10번지 라데팡스 201호","category":"학원 - 예·체능계학원"},{"name":"알파 용인포곡점","tel":"031-337-0780","addr":"경기도 용인시 처인구 포곡읍 둔전리 139-10번지 2층 202호,204호","category":"서적문구 - 문구용품"},{"name":"위스터디학원","tel":"031-323-0350","addr":"경기도 용인시 처인구 포곡읍 둔전리 139-10번지 라데팡스 202호","category":"학원 - 보습학원"},{"name":"최강서점","tel":"031-333-6819","addr":"경기도 용인시 처인구 포곡읍 둔전리 139-10번지 라데팡스 2층 201호","category":"서적문구 - 일반서적"},{"name":"최강서점","tel":"031-333-6819","addr":"경기도 용인시 처인구 포곡읍 둔전리 139-10번지 라데팡스 2층 201호","category":"서적문구 - 문구용품"},{"name":"해동검도합기도태권도","tel":"031-333-0099","addr":"경기도 용인시 처인구 포곡읍 둔전리 139-10번지 라데팡스 203호","category":"학원 - 예·체능계학원"}]},{"lat":"37.291017774","long":"127.26175556","items":[{"name":"계곡","tel":"031-333-0389","addr":"경기도 용인시 처인구 포곡읍 금어리 244번지","category":"일반휴게음식 - 일반한식"}]},{"lat":"37.28604306","long":"127.21720691","items":[{"name":"고가네","tel":"031-332-5590","addr":"경기도 용인시 처인구 포곡읍 전대리 191-35번지","category":"일반휴게음식 - 일반한식"},{"name":"치킨 신세계","tel":"030-3344-3753","addr":"경기도 용인시 처인구 포곡읍 전대리 191-35번지 1층 일부","category":"일반휴게음식 - 스넥"}]},{"lat":"37.280572079","long":"127.2325604","items":[{"name":"고깃집","tel":"031-332-3433","addr":"경기도 용인시 처인구 포곡읍 삼계리 491-1번지 진형월드복합상가 102호","category":"일반휴게음식 - 일반한식"},{"name":"한국아이지에이용인포곡점","tel":"031-322-3886","addr":"경기도 용인시 처인구 포곡읍 삼계리 491-1번지 진형월드주상복합상가 102호","category":"유통업 영리 - 편 의 점"}]},{"lat":"37.267487551","long":"127.21907088","items":[{"name":"고래펍","tel":"031-322-7982","addr":"경기도 용인시 처인구 포곡읍 둔전리 142-2번지 1층","category":"일반휴게음식 - 스넥"}]},{"lat":"37.271740766","long":"127.21886882","items":[{"name":"고려OA","tel":"02-588-8055","addr":"경기도 용인시 처인구 포곡읍 둔전리 175","category":"사무통신 - 사무용 OA기기"}]},{"lat":"37.269659457","long":"127.18682147","items":[{"name":"고려동충하초","tel":"031-321-9545","addr":"경기도 용인시 처인구 포곡읍 마성리 375-2번지 3층","category":"음료식품 - 농·축·수산품"},{"name":"주식회사 제이테크","tel":"031-336-3261","addr":"경기도 용인시 처인구 포곡읍 마성리 375-2번지 1층.2층","category":"자동차정비 유지 - 자동차부품"},{"name":"주식회사 케이씨디","tel":"070-4900-3112","addr":"경기도 용인시 처인구 포곡읍 마성리 375-2번지 1층","category":"레져용품 - 스포츠·레져용품"}]},{"lat":"37.286152181","long":"127.21665466","items":[{"name":"고봉이","tel":"","addr":"경기도 용인시 처인구 포곡읍 전대리 356-4번지 1층 일부","category":"일반휴게음식 - 일반한식"},{"name":"최고봉갈매기","tel":"031-334-0354","addr":"경기도 용인시 처인구 포곡읍 전대리 356-4","category":"일반휴게음식 - 일반한식"}]},{"lat":"37.275822511","long":"127.21381793","items":[{"name":"고은유치원","tel":"031-334-4534","addr":"경기도 용인시 처인구 포곡읍 영문리 31-5","category":"학원 - 유치원"}]},{"lat":"37.28176489","long":"127.22120905","items":[{"name":"고은음악미술학원","tel":"031-334-3367","addr":"경기도 용인시 처인구 포곡읍 전대리 152-2번지 2층","category":"학원 - 예·체능계학원"},{"name":"서울댄스아카데이","tel":"031-334-9500","addr":"경기도 용인시 처인구 포곡읍 전대리 152-2번지","category":"회원제형태 - 레져업소"},{"name":"포곡동물병원","tel":"031-334-3304","addr":"경기도 용인시 처인구 포곡읍 전대리 152-2번지","category":"기타의료기관 - 동물병원"},{"name":"포곡동물병원","tel":"031-334-3304","addr":"경기도 용인시 처인구 포곡읍 전대리 152-2번지","category":"기타의료기관 - 동물병원"},{"name":"포곡마루태권도장","tel":"031-332-5329","addr":"경기도 용인시 처인구 포곡읍 전대리 152-2번지","category":"학원 - 예·체능계학원"}]},{"lat":"37.280962378","long":"127.22153373","items":[{"name":"고은인테리어","tel":"031-332-0003","addr":"경기도 용인시 처인구 포곡읍 전대리 157-13","category":"건축자재 - 인테리어전문"}]},{"lat":"37.269630375","long":"127.21995639","items":[{"name":"고창식당","tel":"031-335-9908","addr":"경기도 용인시 처인구 포곡읍 둔전리 191-12번지 1층 일부","category":"일반휴게음식 - 일반한식"},{"name":"친구들호프","tel":"031-321-2556","addr":"경기도 용인시 처인구 포곡읍 둔전리 191-12번지","category":"일반휴게음식 - 일반한식"},{"name":"토마토호프","tel":"031-333-7998","addr":"경기도 용인시 처인구 포곡읍 둔전리191-12","category":"일반휴게음식 - 칵테일바"}]},{"lat":"37.285268326","long":"127.21712577","items":[{"name":"고향막걸리","tel":"031-323-4165","addr":"경기도 용인시 처인구 포곡읍 전대리 360-7번지 외1필지","category":"일반휴게음식 - 주점"},{"name":"서울세탁소","tel":"031-333-2239","addr":"경기도 용인시 처인구 포곡읍 전대리 360-7번지","category":"수리서비스 - 세탁소"},{"name":"페리카나치킨","tel":"031-333-2272","addr":"경기도 용인시 처인구 포곡읍 전대리 360-7번지","category":"일반휴게음식 - 스넥"}]},{"lat":"37.280544019","long":"127.23309028","items":[{"name":"고향사철탕","tel":"031-323-4716","addr":"경기도 용인시 처인구 포곡읍 삼계리 491-4번지","category":"일반휴게음식 - 일반한식"}]},{"lat":"37.296407849","long":"127.23472884","items":[{"name":"고향솥삼겹살","tel":"031-333-2819","addr":"경기도 용인시 처인구 포곡읍 삼계리106-3","category":"일반휴게음식 - 일반한식"}]},{"lat":"37.269272192","long":"127.21873775","items":[{"name":"고향집(솥뚜껑삼겹살)","tel":"031-332-3620","addr":"경기도 용인시 처인구 포곡읍 둔전리155-14","category":"일반휴게음식 - 일반한식"},{"name":"신오징어바다","tel":"031-339-5288","addr":"경기도 용인시 처인구 포곡읍 둔전리 155-14번지","category":"일반휴게음식 - 일식·회집"},{"name":"헤어토닉","tel":"031-321-1837","addr":"경기도 용인시 처인구 포곡읍 둔전리 155-14번지","category":"보건위생 - 미용원"}]},{"lat":"37.280266463","long":"127.22268185","items":[{"name":"곤콩커피 GONKONG COFFEE","tel":"031-323-5009","addr":"경기도 용인시 처인구 포곡읍 전대리 120-4번지 1층","category":"일반휴게음식 - 일반한식"},{"name":"씨유용인포곡중앞점","tel":"031-321-5695","addr":"경기도 용인시 처인구 포곡읍 전대리 120-4번지","category":"유통업 영리 - 편 의 점"}]},{"lat":"37.268408688","long":"127.21792356","items":[{"name":"골드비어","tel":"","addr":"경기도 용인시 처인구 포곡읍 둔전리 151-12번지 A동","category":"일반휴게음식 - 주점"},{"name":"치킨매니아(둔전점)","tel":"031-333-9255","addr":"경기도 용인시 처인구 포곡읍 둔전리 151-12번지","category":"일반휴게음식 - 스넥"}]},{"lat":"37.287297188","long":"127.21626321","items":[{"name":"골든벨비어앤스포츠바","tel":"031-321-4151","addr":"경기도 용인시 처인구 포곡읍 전대리 324-1번지 2층","category":"일반휴게음식 - 주점"}]},{"lat":"37.286069845","long":"127.2173423","items":[{"name":"골목길","tel":"031-338-4738","addr":"경기도 용인시 처인구 포곡읍 전대리 191-44번지 1층","category":"일반휴게음식 - 일반한식"}]},{"lat":"37.269132057","long":"127.21651634","items":[{"name":"곱창고 둔전점","tel":"031-321-5353","addr":"경기도 용인시 처인구 포곡읍 둔전리 378-26번지","category":"일반휴게음식 - 일반한식"},{"name":"맘스터치 용인둔전점","tel":"031-333-9991","addr":"경기도 용인시 처인구 포곡읍 둔전리 378-26번지 1층","category":"일반휴게음식 - 서양음식"},{"name":"이디야둔전점","tel":"031-334-3555","addr":"경기도 용인시 처인구 포곡읍 둔전리 378-26번지 1층 일부","category":"일반휴게음식 - 서양음식"},{"name":"정가네감자탕코다리찜","tel":"031-338-6783","addr":"경기도 용인시 처인구 포곡읍 둔전리 378-26번지 1층 일부","category":"일반휴게음식 - 일반한식"}]},{"lat":"37.282739942","long":"127.2201519","items":[{"name":"곱창마을","tel":"031-321-9211","addr":"경기도 용인시 처인구 포곡읍 전대리 150-7번지","category":"일반휴게음식 - 일반한식"}]},{"lat":"37.276877979","long":"127.22781355","items":[{"name":"공감디자인","tel":"031-321-7378","addr":"경기도 용인시 처인구 포곡읍 둔전리 380-1번지","category":"유통업 영리 - 기타유통업"}]},{"lat":"37.315207378","long":"127.21818087","items":[{"name":"광명기업","tel":"031-334-6113","addr":"경기도 용인시 처인구 포곡읍 신원리 241-2번지","category":"건축자재 - 유리"}]},{"lat":"37.268153627","long":"127.21446171","items":[{"name":"교촌치킨(둔전점)","tel":"031-333-9245","addr":"경기도 용인시 처인구 포곡읍 둔전리 400-2번지","category":"일반휴게음식 - 스넥"},{"name":"더고운인테리어","tel":"","addr":"경기도 용인시 처인구 포곡읍 둔전리 400-2번지 1층 2호","category":"건축자재 - 인테리어전문"},{"name":"롤로 둔전점","tel":"031-339-6444","addr":"경기도 용인시 처인구 포곡읍 둔전리 400-2번지 지암빌딩 101호","category":"음료식품 - 기타음료식품"},{"name":"밥앤찬","tel":"031-335-6068","addr":"경기도 용인시 처인구 포곡읍 둔전리 400-2번지 1층 103호","category":"음료식품 - 기타음료식품"},{"name":"뱅뱅 용인 둔전점","tel":"031-323-3662","addr":"경기도 용인시 처인구 포곡읍 둔전리 400-2,1층4-2,5,6호","category":"의류 - 정장"},{"name":"연세플란트치과","tel":"031-338-4777","addr":"경기도 용인시 처인구 포곡읍 둔전리 400-2번지 지암빌딩 3층","category":"의원 - 치과의원"}]},{"lat":"37.270435127","long":"127.21840284","items":[{"name":"구구롱(GUGURON)","tel":"070-7529-8843","addr":"경기도 용인시 처인구 포곡읍 둔전리 189-5번지 킹스힐하우스 101호","category":"일반휴게음식 - 서양음식"}]},{"lat":"37.272736824","long":"127.22592963","items":[{"name":"구내매점","tel":"031-333-3966","addr":"경기도 용인시 처인구 포곡읍 둔전리 74-1번지","category":"음료식품 - 기타음료식품"},{"name":"주식회사 고센","tel":"031-333-3966","addr":"경기도 용인시 처인구 포곡읍 둔전리 74-1번지","category":"서적문구 - 기타서적문구"}]},{"lat":"37.273237428","long":"127.21834318","items":[{"name":"구름빵카페","tel":"031-337-1941","addr":"경기도 용인시 처인구 포곡읍 둔전리 220번지 1층","category":"일반휴게음식 - 서양음식"}]},{"lat":"37.284988356","long":"127.21748583","items":[{"name":"국대떡볶이용인포곡점","tel":"031-328-1112","addr":"경기도 용인시 처인구 포곡읍 전대리 188-3번지","category":"일반휴게음식 - 스넥"},{"name":"금똥통닭","tel":"031-336-5892","addr":"경기도 용인시 처인구 포곡읍 전대리 188-3번지","category":"일반휴게음식 - 스넥"},{"name":"애경헤어샵","tel":"031-338-9666","addr":"경기도 용인시 처인구 포곡읍 전대리 188-3","category":"보건위생 - 미용원"},{"name":"연세켈리포니아치과","tel":"031-339-1028","addr":"경기도 용인시 처인구 포곡읍 전대리 188-3번지 2층","category":"의원 - 치과의원"},{"name":"우리지업사","tel":"031-334-4737","addr":"경기도 용인시 처인구 포곡읍 전대리 188-3번지","category":"직물 - 카페트,커튼,천막,지물"},{"name":"커피트리","tel":"031-323-7301","addr":"경기도 용인시 처인구 포곡읍 전대리 188-3번지","category":"일반휴게음식 - 서양음식"},{"name":"한진텔레콤","tel":"031-322-9933","addr":"경기도 용인시 처인구 포곡읍 전대리 188-3번지","category":"사무통신 - 통신기기"}]},{"lat":"37.267523656","long":"127.21404281","items":[{"name":"굽네치킨","tel":"031-333-2336","addr":"경기도 용인시 처인구 포곡읍 둔전리 405-19번지 대두 상가 105호","category":"일반휴게음식 - 스넥"},{"name":"굽네치킨둔전점","tel":"031-333-2336","addr":"경기도 용인시 처인구 포곡읍 둔전리 405-19번지 대두빌딩 105호","category":"일반휴게음식 - 주점"},{"name":"대두떡방아간","tel":"031-339-4440","addr":"경기도 용인시 처인구 포곡읍 둔전리 405-19번지","category":"음료식품 - 제과점"},{"name":"디센트","tel":"","addr":"경기도 용인시 처인구 포곡읍 둔전리 405-19번지 대두빌딩 109호","category":"신변잡화 - 기타잡화"},{"name":"문소아과의원","tel":"031-334-7188","addr":"경기도 용인시 처인구 포곡읍 둔전리 405-19번지 대두빌딩 2층 202호","category":"의원 - 의원"},{"name":"박선생수시전문학원/주식회사박선생입시학","tel":"031-338-0504","addr":"경기도 용인시 처인구 포곡읍 둔전리 405-19번지 대두빌딩 3층 301호,302호","category":"학원 - 보습학원"},{"name":"반박불가샐러드","tel":"031-337-4029","addr":"경기도 용인시 처인구 포곡읍 둔전리 405-19번지 대두빌딩 G동 1층 102호","category":"일반휴게음식 - 서양음식"},{"name":"서울경희한의원","tel":"031-339-3740","addr":"경기도 용인시 처인구 포곡읍 삼계리 405-19번지 대두빌딩 302호","category":"의원 - 한의원"},{"name":"오렌지25","tel":"070-8262-8053","addr":"경기도 용인시 처인구 포곡읍 둔전리 405-19번지 대두빌딩 107호","category":"유통업 영리 - 편 의 점"},{"name":"와우노래연습장","tel":"031-322-3236","addr":"경기도 용인시 처인구 포곡읍 둔전리 405-19번지 대두빌딩 지하1층 101호 비","category":"레저업소 - 노 래 방"},{"name":"용인윤약국","tel":"031-339-7429","addr":"경기도 용인시 처인구 포곡읍 둔전리 405-19번지 대두빌딩 108호","category":"약국 - 약국"},{"name":"주니어랩영어한솔플러스수학학원","tel":"031-335-0582","addr":"경기도 용인시 처인구 포곡읍 둔전리 405-19번지 대두빌딩 201호","category":"학원 - 보습학원"},{"name":"진머리","tel":"031-321-2333","addr":"경기도 용인시 처인구 포곡읍 둔전리 405-19번지 대두 상가 110호","category":"보건위생 - 미용원"},{"name":"짠짠실용음악학원","tel":"070-8842-1344","addr":"경기도 용인시 처인구 포곡읍 둔전리 405-19번지 대두상가 502호","category":"학원 - 예·체능계학원"},{"name":"창유상사","tel":"031-339-6371","addr":"경기도 용인시 처인구 포곡읍 둔전리 405-19번지 대두 상가 101호","category":"자동차정비 유지 - 자동차부품"},{"name":"포곡치과의원","tel":"031-339-2276","addr":"경기도 용인시 처인구 포곡읍 둔전리 405-19번지 대두빌딩 203호","category":"의원 - 치과의원"},{"name":"포곡치과의원","tel":"031-339-2276","addr":"경기도 용인시 처인구 포곡읍 둔전리 405-19번지 대두빌딩 2층","category":"의원 - 치과의원"},{"name":"플레이영 점프파크","tel":"031-336-1115","addr":"경기도 용인시 처인구 포곡읍 둔전리 405-19번지 4층401,402호(대두상가)","category":"레저업소 - 기타레져업소"}]},{"lat":"37.294436261","long":"127.23845579","items":[{"name":"권혁진골프아카데미","tel":"02-2613-5000","addr":"경기도 용인시 처인구 포곡읍 삼계리 672번지 계수마을수목원우림필유 103동 303호","category":"레저업소 - 골프연습장"}]},{"lat":"37.282794168","long":"127.22006185","items":[{"name":"그랜드(grand)떡볶이&치킨호프","tel":"031-335-0099","addr":"경기도 용인시 처인구 포곡읍 전대리 150-6번지 1층","category":"일반휴게음식 - 스넥"}]},{"lat":"37.31365611","long":"127.21901123","items":[{"name":"그리드","tel":"031-286-2501","addr":"경기도 용인시 처인구 포곡읍 신원리 253-11번지 가동","category":"자동차정비 유지 - 카인테리어"},{"name":"그리드","tel":"031-286-2501","addr":"경기도 용인시 처인구 포곡읍 신원리 253-11번지 가동","category":"자동차정비 유지 - 카인테리어"}]},{"lat":"37.285854458","long":"127.21686807","items":[{"name":"그린베이커리","tel":"031-334-9274","addr":"경기도 용인시 처인구 포곡읍 전대리 360-1번지","category":"음료식품 - 제과점"},{"name":"항아리탁주","tel":"031-334-9895","addr":"경기도 용인시 처인구 포곡읍 전대리 360-1번지 2층","category":"일반휴게음식 - 주점"},{"name":"헤어아트","tel":"031-322-4993","addr":"경기도 용인시 처인구 포곡읍 전대리360-1","category":"보건위생 - 미용원"}]},{"lat":"37.284962326","long":"127.21693321","items":[{"name":"그린포크숯불갈비","tel":"031-339-3833","addr":"경기도 용인시 처인구 포곡읍 전대리 362-1번지","category":"일반휴게음식 - 갈비전문점"},{"name":"도원한의원","tel":"031-334-1075","addr":"경기도 용인시 처인구 포곡읍 전대리 362-1번지","category":"의원 - 한의원"},{"name":"볼륨노래연습장","tel":"070-8943-2459","addr":"경기도 용인시 처인구 포곡읍 전대리 362-1번지","category":"레저업소 - 노 래 방"},{"name":"산오징어바다","tel":"031-334-5788","addr":"경기도 용인시 처인구 포곡읍 전대리 362-1번지 1층","category":"일반휴게음식 - 일반한식"},{"name":"솔로몬영재스쿨","tel":"031-322-1942","addr":"경기도 용인시 처인구 포곡읍 전대리362-1","category":"학원 - 보습학원"},{"name":"원더포차","tel":"","addr":"경기도 용인시 처인구 포곡읍 전대리 362-1번지 1층","category":"일반휴게음식 - 일반한식"},{"name":"콩PC방","tel":"070-5022-4846","addr":"경기도 용인시 처인구 포곡읍 전대리 362-1번지","category":"레저업소 - 기타레져업소"},{"name":"하은음악학원","tel":"031-328-6362","addr":"경기도 용인시 처인구 포곡읍 전대리 362-1번지 3층","category":"학원 - 예·체능계학원"},{"name":"한국의원","tel":"031-333-1348","addr":"경기도 용인시 처인구 포곡읍 전대리 362-1번지","category":"의원 - 의원"},{"name":"힘을내요 Mr.Moon","tel":"070-8991-9916","addr":"경기도 용인시 처인구 포곡읍 전대리 362-1번지 지하1층","category":"일반휴게음식 - 주점"}]},{"lat":"37.27023926","long":"127.2407029","items":[{"name":"그린푸드","tel":"02-1111-1111","addr":"경기도 용인시 처인구 포곡읍 금어리 435-2번지 우림화학 2호","category":"음료식품 - 기타음료식품"}]},{"lat":"37.270102705","long":"127.21285494","items":[{"name":"그림그리는사람","tel":"031-328-8803","addr":"경기도 용인시 처인구 포곡읍 둔전리 319번지 인정멜로디아파트","category":"회원제형태 - 기타4"}]},{"lat":"37.283681468","long":"127.21770765","items":[{"name":"극동공조시스템","tel":"031-332-5953","addr":"경기도 용인시 처인구 포곡읍 전대리 182-24번지 자연빌라 203호","category":"용역 서비스 - 기타용역서비스"}]},{"lat":"37.267161493","long":"127.21502263","items":[{"name":"근화식품","tel":"031-335-1593","addr":"경기도 용인시 처인구 포곡읍 둔전리 447번지 금전마을계룡리슈빌","category":"음료식품 - 농·축·수산품"}]},{"lat":"37.297205628","long":"127.19696009","items":[{"name":"금강유통주식회사","tel":"031-320-1011","addr":"경기도 용인시 처인구 포곡읍 가실리 101-4번지","category":"서적문구 - 문구용품"}]},{"lat":"37.268715978","long":"127.22232133","items":[{"name":"금돼지축산","tel":"031-339-6686","addr":"경기도 용인시 처인구 포곡읍 둔전리 120-9번지","category":"음료식품 - 정육점"}]},{"lat":"37.269435648","long":"127.21803922","items":[{"name":"금산정육점","tel":"031-333-4481","addr":"경기도 용인시 처인구 포곡읍 둔전리154-3","category":"음료식품 - 농·축·수산품"},{"name":"메가엠지씨커피용인둔전점","tel":"070-1111-1111","addr":"경기도 용인시 처인구 포곡읍 둔전리 154-3번지","category":"일반휴게음식 - 서양음식"},{"name":"백금통닭","tel":"031-322-7199","addr":"경기도 용인시 처인구 포곡읍 둔전리 154-3번지 1층","category":"일반휴게음식 - 스넥"},{"name":"브이아이피(VIP)당구장","tel":"031-000-0000","addr":"경기도 용인시 처인구 포곡읍 둔전리 154-3번지 3층","category":"레저업소 - 당 구 장"},{"name":"스카이노래연습장","tel":"","addr":"경기도 용인시 처인구 포곡읍 둔전리 154-3번지 4층","category":"레저업소 - 노 래 방"},{"name":"신성찬한의원","tel":"031-333-7547","addr":"경기도 용인시 처인구 포곡읍 둔전리 154-3번지","category":"의원 - 한의원"},{"name":"안경박사(둔진점)","tel":"031-333-3233","addr":"경기도 용인시 처인구 포곡읍 둔전리154-3,1층","category":"보건위생 - 안경"},{"name":"쟁반","tel":"031-333-7945","addr":"경기도 용인시 처인구 포곡읍 둔전리 154-3번지 지하1층","category":"레저업소 - 노 래 방"},{"name":"주식회사와이앤에이치컴퍼니","tel":"070-7420-9473","addr":"경기도 용인시 처인구 포곡읍 둔전리 154-3번지 1층","category":"사무통신 - 통신기기"},{"name":"참미소치과","tel":"031-332-2875","addr":"경기도 용인시 처인구 포곡읍 둔전리 154-3번지 3층","category":"의원 - 치과의원"},{"name":"플레이나인","tel":"031-332-9903","addr":"경기도 용인시 처인구 포곡읍 둔전리 154-3번지 2층","category":"레저업소 - 기타레져업소"},{"name":"피자스쿨","tel":"031-333-5508","addr":"경기도 용인시 처인구 포곡읍 둔전리 154-3 나동1층","category":"일반휴게음식 - 서양음식"},{"name":"필","tel":"031-334-6226","addr":"경기도 용인시 처인구 포곡읍 둔전리 154-3번지","category":"일반휴게음식 - 주점"},{"name":"휴대폰마트","tel":"031-339-9010","addr":"경기도 용인시 처인구 포곡읍 둔전리 154-3번지 1층","category":"사무통신 - 통신기기"}]},{"lat":"37.278050213","long":"127.21762399","items":[{"name":"금선가설","tel":"031-333-6409","addr":"경기도 용인시 처인구 포곡읍 영문리2-57","category":"건축자재 - 기타건축자재"}]},{"lat":"37.303735641","long":"127.22401342","items":[{"name":"금성철물","tel":"031-321-3150","addr":"경기도 용인시 처인구 포곡읍 유운리 238-2번지","category":"건축자재 - 목재·석재·철물"},{"name":"남매식당","tel":"031-334-8688","addr":"경기도 용인시 처인구 포곡읍 유운리238-2","category":"일반휴게음식 - 일반한식"}]},{"lat":"37.269190195","long":"127.21923358","items":[{"name":"기발한치킨","tel":"031-321-3400","addr":"경기도 용인시 처인구 포곡읍 둔전리 139-2번지","category":"일반휴게음식 - 스넥"},{"name":"하늘정원꽃집","tel":"031-321-0507","addr":"경기도 용인시 처인구 포곡읍 둔전리 139-2번지","category":"문화.취미 - 화원"},{"name":"하늘정원꽃집(세탁을위한사람들)","tel":"031-321-0507","addr":"경기도 용인시 처인구 포곡읍 둔전리 139-2번지","category":"수리서비스 - 세탁소"}]},{"lat":"37.286456977","long":"127.21751255","items":[{"name":"기업카독크","tel":"031-332-0861","addr":"경기도 용인시 처인구 포곡읍 전대리191-51","category":"자동차정비 유지 - 자동차정비"},{"name":"김밥천하(에버랜드점)","tel":"031-323-2787","addr":"경기도 용인시 처인구 포곡읍 전대리 191-51번지","category":"일반휴게음식 - 일반한식"},{"name":"서가네돌솥부대찌개","tel":"031-328-1035","addr":"경기도 용인시 처인구 포곡읍 전대리 191-51번지","category":"일반휴게음식 - 일반한식"}]},{"lat":"37.286322335","long":"127.21723025","items":[{"name":"길손식당","tel":"031-333-7973","addr":"경기도 용인시 처인구 포곡읍 전대리 191-17번지","category":"일반휴게음식 - 일반한식"},{"name":"중앙다방","tel":"031-334-5515","addr":"경기도 용인시 처인구 포곡읍 전대리 191-17번지 2층","category":"일반휴게음식 - 서양음식"}]},{"lat":"37.268405126","long":"127.2149021","items":[{"name":"김가네","tel":"031-322-0640","addr":"경기도 용인시 처인구 포곡읍 둔전리 12-22번지","category":"일반휴게음식 - 스넥"},{"name":"더감","tel":"031-334-7277","addr":"경기도 용인시 처인구 포곡읍 둔전리 12-22번지","category":"의류 - 정장"},{"name":"민구텔레콤","tel":"031-335-3387","addr":"경기도 용인시 처인구 포곡읍 둔전리 12-22번지","category":"사무통신 - 통신기기"},{"name":"변사또","tel":"031-335-8788","addr":"경기도 용인시 처인구 포곡읍 둔전리 12-22번지","category":"일반휴게음식 - 스넥"},{"name":"북촌손만두","tel":"031-321-0042","addr":"경기도 용인시 처인구 포곡읍 둔전리 12-22번지 1층","category":"일반휴게음식 - 일반한식"},{"name":"삽교곱창","tel":"031-321-8294","addr":"경기도 용인시 처인구 포곡읍 둔전리 12-22번지 외1필지","category":"일반휴게음식 - 일반한식"},{"name":"천지&인테리어","tel":"031-334-0559","addr":"경기도 용인시 처인구 포곡읍 둔전리 12-22번지","category":"건축자재 - 인테리어전문"},{"name":"청담동말자싸롱둔전리점","tel":"031-111-1111","addr":"경기도 용인시 처인구 포곡읍 둔전리 12-22번지","category":"일반휴게음식 - 일반한식"}]},{"lat":"37.285513108","long":"127.216292","items":[{"name":"김가네연탄구이","tel":"070-6254-8787","addr":"경기도 용인시 처인구 포곡읍 전대리 369-1번지 1층 일부","category":"일반휴게음식 - 일반한식"},{"name":"새물내춘천닭갈비&뽀글이신닭발","tel":"031-312-9963","addr":"경기도 용인시 처인구 포곡읍 전대리 369-1번지","category":"일반휴게음식 - 일반한식"},{"name":"족발오에프(5f)","tel":"031-334-7773","addr":"경기도 용인시 처인구 포곡읍 전대리 369-1번지","category":"일반휴게음식 - 일반한식"},{"name":"티나헤어","tel":"031-337-3028","addr":"경기도 용인시 처인구 포곡읍 전대리 369-1번지 1층","category":"보건위생 - 미용원"},{"name":"핫족(에버랜드점)","tel":"031-339-3200","addr":"경기도 용인시 처인구 포곡읍 전대리 369-1","category":"일반휴게음식 - 일반한식"}]},{"lat":"37.288154557","long":"127.21548751","items":[{"name":"김기영쭈꾸미보쌈","tel":"031-339-3948","addr":"경기도 용인시 처인구 포곡읍 전대리 546-52번지","category":"일반휴게음식 - 일반한식"}]},{"lat":"37.271426292","long":"127.21838312","items":[{"name":"김은희헤어샵","tel":"031-332-3642","addr":"경기도 용인시 처인구 포곡읍 둔전리 188-2번지 재원주택 1동 102호","category":"보건위생 - 미용원"},{"name":"삼시세끼","tel":"031-333-5096","addr":"경기도 용인시 처인구 포곡읍 둔전리 188-2번지 재원주택 1동 101호","category":"일반휴게음식 - 일반한식"}]},{"lat":"37.269296376","long":"127.22029366","items":[{"name":"김찬명가","tel":"031-337-2493","addr":"경기도 용인시 처인구 포곡읍 둔전리 192-25번지 1층 일부","category":"음료식품 - 기타음료식품"},{"name":"필컬헤어커커","tel":"031-322-2993","addr":"경기도 용인시 처인구 포곡읍 둔전리192-25","category":"보건위생 - 미용원"}]},{"lat":"37.282737003","long":"127.22656805","items":[{"name":"김치사랑","tel":"031-335-6633","addr":"경기도 용인시 처인구 포곡읍 전대리 91번지","category":"음료식품 - 기타음료식품"}]},{"lat":"37.281908618","long":"127.22627242","items":[{"name":"김치사랑","tel":"031-335-6633","addr":"경기도 용인시 처인구 포곡읍 전대리 89-9번지 글로벌타운 B동 101호","category":"음료식품 - 기타음료식품"}]},{"lat":"37.315152911","long":"127.21339756","items":[{"name":"까사아리랑","tel":"070-7755-9952","addr":"경기도 용인시 처인구 포곡읍 신원리 508-1번지 제B","category":"가구 - 일반가구"}]},{"lat":"37.273981751","long":"127.22027331","items":[{"name":"깜지I","tel":"031-281-0522","addr":"경기도 용인시 처인구 포곡읍 둔전리 449번지 용인포곡삼성쉐르빌아파트","category":"의류 - 아동의류"}]},{"lat":"37.26991163","long":"127.21889742","items":[{"name":"깨돌이김밥","tel":"031-339-8086","addr":"경기도 용인시 처인구 포곡읍 둔전리 156-5번지","category":"일반휴게음식 - 일반한식"},{"name":"반사빛조건","tel":"031-334-4956","addr":"경기도 용인시 처인구 포곡읍 둔전리 156-5번지","category":"보건위생 - 미용원"},{"name":"송월타올용인기프트갤러리","tel":"031-321-8984","addr":"경기도 용인시 처인구 포곡읍 둔전리 156-5번지","category":"직물 - 옷감·직물"},{"name":"어?제이","tel":"031-334-9500","addr":"경기도 용인시 처인구 포곡읍 둔전리 156-5번지 1층일부","category":"보건위생 - 미용원"},{"name":"통큰닭요리","tel":"031-333-1714","addr":"경기도 용인시 처인구 포곡읍 둔전리 156-5번지","category":"일반휴게음식 - 일반한식"}]},{"lat":"37.267349291","long":"127.21581233","items":[{"name":"꼬매 옷수선& 리폼 전문점","tel":"","addr":"경기도 용인시 처인구 포곡읍 둔전리 385번지 신원아파트 상가동 1층 106호","category":"수리서비스 - 세탁소"},{"name":"백강민BARBERSHOP","tel":"","addr":"경기도 용인시 처인구 포곡읍 둔전리 385번지 신원아파트","category":"보건위생 - 이용원"},{"name":"신원열쇠","tel":"031-339-1304","addr":"경기도 용인시 처인구 포곡읍 둔전리385신원@상가동104","category":"기타 - 기계공구"}]},{"lat":"37.282071611","long":"127.22100696","items":[{"name":"꼬지네일(Cozy Nail)","tel":"031-321-2152","addr":"경기도 용인시 처인구 포곡읍 전대리 151-4번지","category":"보건위생 - 피부미용실"}]},{"lat":"37.26915627","long":"127.21807225","items":[{"name":"꼬지사께(둔전점)","tel":"031-335-8733","addr":"경기도 용인시 처인구 포곡읍 둔전리 150-4번지 1동 202호 201호","category":"일반휴게음식 - 주점"},{"name":"아로마테라피","tel":"031-323-4040","addr":"경기도 용인시 처인구 포곡읍 둔전리 150-4번지 아보아빌 301호,302호","category":"보건위생 - 화장품"}]},{"lat":"37.285961825","long":"127.21728561","items":[{"name":"꼭지다방","tel":"031-338-4589","addr":"경기도 용인시 처인구 포곡읍 전대리 190-4번지 2층","category":"일반휴게음식 - 서양음식"},{"name":"샤방호프","tel":"031-338-9220","addr":"경기도 용인시 처인구 포곡읍 전대리 190-4번지 1층","category":"일반휴게음식 - 스넥"},{"name":"헤어21","tel":"031-332-5575","addr":"경기도 용인시 처인구 포곡읍 전대리 190-4번지","category":"보건위생 - 미용원"}]},{"lat":"37.267448586","long":"127.21571114","items":[{"name":"꽃을담다","tel":"031-376-0486","addr":"경기도 용인시 처인구 포곡읍 둔전리 385번지 신원아파트","category":"문화.취미 - 문화취미기타"}]},{"lat":"37.28321031","long":"127.21914967","items":[{"name":"꿈나무미술교습소","tel":"031-339-8824","addr":"경기도 용인시 처인구 포곡읍 전대리 179-4번지 3층","category":"학원 - 예·체능계학원"},{"name":"꿈나무영어교습소","tel":"031-339-8824","addr":"경기도 용인시 처인구 포곡읍 전대리 179-4번지 3층","category":"학원 - 보습학원"},{"name":"꿈나무학원","tel":"031-636-1199","addr":"경기도 용인시 처인구 포곡읍 전대리 179-4번지 2층","category":"학원 - 예·체능계학원"},{"name":"쏘이(Soi)","tel":"031-334-9500","addr":"경기도 용인시 처인구 포곡읍 전대리 179-4번지","category":"가구 - 기타가구"}]},{"lat":"37.283016713","long":"127.21660068","items":[{"name":"꿈샘공부방","tel":"","addr":"경기도 용인시 처인구 포곡읍 전대리 409-3번지 다인빌 102호","category":"학원 - 기타 교육기관"}]},{"lat":"37.266767098","long":"127.21387159","items":[{"name":"나경미용재료","tel":"031-335-6547","addr":"경기도 용인시 처인구 포곡읍 둔전리 406-19","category":"보건위생 - 미용재료"},{"name":"나눔로또,미니마트","tel":"031-328-7061","addr":"경기도 용인시 처인구 포곡읍 둔전리 406-19번지","category":"유통업 영리 - 슈퍼마켓"},{"name":"서해회수산","tel":"031-333-7309","addr":"경기도 용인시 처인구 포곡읍 둔전리 406-19","category":"일반휴게음식 - 일식·회집"},{"name":"존가네 둔전점","tel":"031-332-2555","addr":"경기도 용인시 처인구 포곡읍 둔전리 406-19번지 1층","category":"일반휴게음식 - 일반한식"},{"name":"커피에반하다 용인둔전점","tel":"","addr":"경기도 용인시 처인구 포곡읍 둔전리 406-19번지 1층","category":"일반휴게음식 - 서양음식"},{"name":"하이난","tel":"031-334-8565","addr":"경기도 용인시 처인구 포곡읍 둔전리 406-19번지","category":"일반휴게음식 - 중국식"}]},{"lat":"37.280930606","long":"127.18726611","items":[{"name":"나들이밥상","tel":"031-333-9911","addr":"경기도 용인시 처인구 포곡읍 마성리 559-9번지","category":"일반휴게음식 - 일반한식"},{"name":"다육이카페","tel":"","addr":"경기도 용인시 처인구 포곡읍 마성리 559-9번지","category":"일반휴게음식 - 서양음식"}]},{"lat":"37.270021558","long":"127.21790559","items":[{"name":"나들이포차오구냥","tel":"","addr":"경기도 용인시 처인구 포곡읍 둔전리 158-2번지","category":"일반휴게음식 - 일반한식"},{"name":"대관령양꼬치","tel":"","addr":"경기도 용인시 처인구 포곡읍 둔전리 158-2번지 1층","category":"일반휴게음식 - 일반한식"},{"name":"둘리아구찜","tel":"031-335-5895","addr":"경기도 용인시 처인구 포곡읍 둔전리 158-2번지","category":"일반휴게음식 - 일반한식"},{"name":"머리이야기","tel":"031-323-7200","addr":"경기도 용인시 처인구 포곡읍 둔전리 158-2번지 1층","category":"보건위생 - 미용원"},{"name":"모란봉","tel":"031-297-6055","addr":"경기도 용인시 처인구 포곡읍 둔전리 158-2번지","category":"일반휴게음식 - 주점"},{"name":"반달포차","tel":"","addr":"경기도 용인시 처인구 포곡읍 둔전리 158-2번지 2층","category":"일반휴게음식 - 일반한식"},{"name":"통영굴집","tel":"031-335-2776","addr":"경기도 용인시 처인구 포곡읍 둔전리 158-2번지 3호","category":"일반휴게음식 - 일반한식"},{"name":"한일건강원","tel":"031-333-3236","addr":"경기도 용인시 처인구 포곡읍 둔전리158-2","category":"건강식품 - 기타건강식품"},{"name":"한일건강원","tel":"031-333-3236","addr":"경기도 용인시 처인구 포곡읍 둔전리 158-2번지","category":"건강식품 - 기타건강식품"}]},{"lat":"37.282629787","long":"127.25312311","items":[{"name":"나무깎는카페부엉이","tel":"031-333-1969","addr":"경기도 용인시 처인구 포곡읍 금어리 309-7번지 1층","category":"음료식품 - 기타음료식품"}]},{"lat":"37.303961","long":"127.22395768","items":[{"name":"나윤이네국수","tel":"031-332-7520","addr":"경기도 용인시 처인구 포곡읍 유운리 239-1번지","category":"일반휴게음식 - 일반한식"},{"name":"유운자동차정비공업사","tel":"031-332-0330","addr":"경기도 용인시 처인구 포곡읍 유운리239-1","category":"자동차정비 유지 - 자동차정비"}]},{"lat":"37.280381581","long":"127.22376467","items":[{"name":"남매찻집","tel":"070-4042-0605","addr":"경기도 용인시 처인구 포곡읍 전대리 109-9번지 1,2층","category":"일반휴게음식 - 서양음식"},{"name":"전대우편취급소","tel":"031-339-3396","addr":"경기도 용인시 처인구 포곡읍 전대리 109-9번지","category":"용역 서비스 - 공공요금대행서비스/소"}]},{"lat":"37.29667983","long":"127.23387253","items":[{"name":"남성컷전문점(가위손헤어)","tel":"031-332-5497","addr":"경기도 용인시 처인구 포곡읍 삼계리 84-1번지 우림부동산 103호","category":"보건위생 - 미용원"},{"name":"다정","tel":"031-333-7400","addr":"경기도 용인시 처인구 포곡읍 삼계리 84-1번지 2층","category":"레저업소 - 노 래 방"},{"name":"동안","tel":"031-323-4065","addr":"경기도 용인시 처인구 포곡읍 삼계리 84-1번지 일부","category":"보건위생 - 화장품"},{"name":"유진명품세탁","tel":"031-336-3569","addr":"경기도 용인시 처인구 포곡읍 삼계리 84-1번지 (1층우측계단쪽)","category":"수리서비스 - 세탁소"},{"name":"직거래회포차","tel":"031-333-8860","addr":"경기도 용인시 처인구 포곡읍 삼계리 84-1번지","category":"일반휴게음식 - 일식·회집"}]},{"lat":"37.285575488","long":"127.21667558","items":[{"name":"남원식당","tel":"031-332-5738","addr":"경기도 용인시 처인구 포곡읍 전대리360-3","category":"일반휴게음식 - 일반한식"}]},{"lat":"37.269244915","long":"127.21887297","items":[{"name":"남호","tel":"031-334-0234","addr":"경기도 용인시 처인구 포곡읍 둔전리 155-23번지","category":"일반휴게음식 - 일반한식"},{"name":"설화","tel":"031-334-0234","addr":"경기도 용인시 처인구 포곡읍 둔전리 155-23번지 2층","category":"일반휴게음식 - 일반한식"}]},{"lat":"37.27057155","long":"127.21770422","items":[{"name":"내고향둔전","tel":"031-335-0860","addr":"경기도 용인시 처인구 포곡읍 둔전리 161-1번지","category":"일반휴게음식 - 일반한식"},{"name":"퓨전포차","tel":"031-334-8189","addr":"경기도 용인시 처인구 포곡읍 둔전리 161-1번지","category":"일반휴게음식 - 일반한식"}]},{"lat":"37.268761551","long":"127.22203961","items":[{"name":"내고향통닭호프","tel":"031-322-9282","addr":"경기도 용인시 처인구 포곡읍 둔전리 120번지 태영맨션 101동 101호","category":"일반휴게음식 - 스넥"},{"name":"옷목욕탕","tel":"031-339-7993","addr":"경기도 용인시 처인구 포곡읍 둔전리 120번지 태영맨션 101동 103호","category":"수리서비스 - 세탁소"},{"name":"홍대마약떡복이&찜닭","tel":"031-336-0908","addr":"경기도 용인시 처인구 포곡읍 둔전리 120번지 태영맨션 101동 102호","category":"일반휴게음식 - 일반한식"}]},{"lat":"37.268711683","long":"127.2197621","items":[{"name":"너가 보고 싶어","tel":"031-321-3032","addr":"경기도 용인시 처인구 포곡읍 둔전리 131-15번지 그랜져타운 1층 102호","category":"일반휴게음식 - 주점"},{"name":"미트마니아","tel":"031-338-6140","addr":"경기도 용인시 처인구 포곡읍 둔전리 131-15번지 그랜져타운 1층 101호","category":"음료식품 - 정육점"}]},{"lat":"37.269828848","long":"127.21982167","items":[{"name":"네네치킨","tel":"031-321-4447","addr":"경기도 용인시 처인구 포곡읍 둔전리 191-19번지","category":"일반휴게음식 - 스넥"},{"name":"샵작은술상샵피자갬성","tel":"031-332-3231","addr":"경기도 용인시 처인구 포곡읍 둔전리 191-19번지","category":"일반휴게음식 - 서양음식"},{"name":"장강","tel":"031-334-5070","addr":"경기도 용인시 처인구 포곡읍 둔전리191-19","category":"일반휴게음식 - 중국식"},{"name":"찌찌닭발","tel":"031-321-7798","addr":"경기도 용인시 처인구 포곡읍 둔전리 191-19번지","category":"일반휴게음식 - 일반한식"}]},{"lat":"37.26910268","long":"127.21781279","items":[{"name":"네시","tel":"070-8991-8991","addr":"경기도 용인시 처인구 포곡읍 둔전리 151-5번지 신성빌딩 6호","category":"일반휴게음식 - 서양음식"},{"name":"닭이봉 춘천 닭갈비","tel":"031-321-0110","addr":"경기도 용인시 처인구 포곡읍 둔전리 151-5번지 신성빌딩 7호","category":"일반휴게음식 - 일반한식"},{"name":"둔전횟집","tel":"031-322-2121","addr":"경기도 용인시 처인구 포곡읍 둔전리 151-5번지","category":"일반휴게음식 - 일식·회집"},{"name":"마미쿡","tel":"031-328-8314","addr":"경기도 용인시 처인구 포곡읍 둔전리 151-5번지 신성빌딩 1층 3호","category":"일반휴게음식 - 서양음식"},{"name":"복싱멘토스쿨","tel":"031-335-1022","addr":"경기도 용인시 처인구 포곡읍 둔전리 151-5번지 3층","category":"회원제형태 - 레져업소"},{"name":"설렘헤어(hair)","tel":"070-7788-1253","addr":"경기도 용인시 처인구 포곡읍 둔전리 151-5번지 신성빌딩","category":"보건위생 - 미용원"},{"name":"스피드PC방","tel":"031-323-7200","addr":"경기도 용인시 처인구 포곡읍 둔전리 151-5번지 신성빌딩 지하1층 F1-1","category":"레저업소 - 기타레져업소"},{"name":"신건강100세약국","tel":"031-339-1336","addr":"경기도 용인시 처인구 포곡읍 둔전리151-5","category":"약국 - 약국"},{"name":"하프하우스","tel":"031-334-8434","addr":"경기도 용인시 처인구 포곡읍 둔전리 151-5번지","category":"의류 - 정장"}]},{"lat":"37.271210297","long":"127.24173193","items":[{"name":"네이밍카페카페미나","tel":"031-338-0970","addr":"경기도 용인시 처인구 포곡읍 금어리 434-7번지","category":"일반휴게음식 - 서양음식"},{"name":"한솔바스","tel":"031-323-5155","addr":"경기도 용인시 처인구 포곡읍 금어리 434-7번지 1층 102호","category":"건축자재 - 건축용 요업제품"}]},{"lat":"37.28640757","long":"127.21493004","items":[{"name":"네추럴 라이팅","tel":"070-8283-3217","addr":"경기도 용인시 처인구 포곡읍 전대리 378-4번지 1층","category":"신변잡화 - 기타잡화"},{"name":"에이치제이홀딩스","tel":"","addr":"경기도 용인시 처인구 포곡읍 전대리 378-4번지 1층","category":"의류 - 기타의류"}]},{"lat":"37.269187756","long":"127.22056393","items":[{"name":"네츄럴 Body design","tel":"031-337-1258","addr":"경기도 용인시 처인구 포곡읍 둔전리 193-3번지 영광빌딩","category":"레저업소 - 헬스클럽"},{"name":"돈탑","tel":"031-334-8295","addr":"경기도 용인시 처인구 포곡읍 둔전리 193-3번지 영광빌딩 1층","category":"일반휴게음식 - 일반한식"},{"name":"뛰어라방방이","tel":"031-322-7753","addr":"경기도 용인시 처인구 포곡읍 둔전리 193-3번지 2층 영광빌딩","category":"레저업소 - 기타레져업소"},{"name":"왕서방치킨피자","tel":"031-691-1316","addr":"경기도 용인시 처인구 포곡읍 둔전리 193-3번지 영광빌딩","category":"일반휴게음식 - 스넥"}]},{"lat":"37.310345075","long":"127.22617603","items":[{"name":"노다지","tel":"031-333-4539","addr":"경기도 용인시 처인구 포곡읍 신원리 154-1번지","category":"음료식품 - 농·축·수산품"}]},{"lat":"37.273128894","long":"127.21856837","items":[{"name":"노리터분식","tel":"031-337-3903","addr":"경기도 용인시 처인구 포곡읍 둔전리 220-3번지","category":"일반휴게음식 - 스넥"},{"name":"최강EM학원","tel":"031-322-1922","addr":"경기도 용인시 처인구 포곡읍 둔전리 220-3번지 혜현빌딩 2층 전체","category":"학원 - 보습학원"}]},{"lat":"37.294460385","long":"127.22600502","items":[{"name":"농업회사법인 굿농 주식회사","tel":"031-334-9500","addr":"경기도 용인시 처인구 포곡읍 유운리 115번지","category":"음료식품 - 농·축·수산품"}]},{"lat":"37.279798403","long":"127.20204586","items":[{"name":"농업회사법인 용인팜랜드 주식회사","tel":"","addr":"경기도 용인시 처인구 포곡읍 영문리 232-1번지","category":"음료식품 - 농·축·수산품"},{"name":"드림푸드","tel":"","addr":"경기도 용인시 처인구 포곡읍 영문리 232-1번지","category":"음료식품 - 농·축·수산품"},{"name":"용인팜랜드","tel":"031-0000-0000","addr":"경기도 용인시 처인구 포곡읍 영문리 232-1번지","category":"음료식품 - 농·축·수산품"}]},{"lat":"37.277521557","long":"127.20040493","items":[{"name":"농업회사법인 참조은 푸드 주식회사","tel":"031-335-3362","addr":"경기도 용인시 처인구 포곡읍 마성리 37-1번지","category":"음료식품 - 농·축·수산품"}]},{"lat":"37.276988878","long":"127.22634808","items":[{"name":"농업회사법인용인로컬푸드주식회사","tel":"031-889-9611","addr":"경기도 용인시 처인구 포곡읍 둔전리 349-2번지 3호","category":"음료식품 - 농·축·수산품"}]},{"lat":"37.288095955","long":"127.21298386","items":[{"name":"농원가든","tel":"031-322-2143","addr":"경기도 용인시 처인구 포곡읍 전대리 342-1번지","category":"일반휴게음식 - 일반한식"},{"name":"에버크리닝","tel":"031-334-3631","addr":"경기도 용인시 처인구 포곡읍 전대리 342-1번지","category":"용역 서비스 - 종합용역"}]},{"lat":"37.283943152","long":"127.21749414","items":[{"name":"누리건축디자인","tel":"031-321-1035","addr":"경기도 용인시 처인구 포곡읍 전대리 182-14번지 동광맨션 B동 301호","category":"회원제형태 - 기타4"}]},{"lat":"37.294798259","long":"127.23765618","items":[{"name":"누수의 달인 종합설비","tel":"","addr":"경기도 용인시 처인구 포곡읍 삼계리 672번지 계수마을용인수목원우림필유 102동 1501호","category":"용역 서비스 - 기타용역서비스"},{"name":"리본봉봉","tel":"070-4202-1464","addr":"경기도 용인시 처인구 포곡읍 삼계리 672번지 계수마을용인수목원 102동 102호","category":"의류 - 기타의류"},{"name":"블라인드소울","tel":"031-321-1522","addr":"경기도 용인시 처인구 포곡읍 삼계리 672번지 우림필유아파트 102동 704호","category":"직물 - 카페트,커튼,천막,지물"},{"name":"태양산업","tel":"031-000-0000","addr":"경기도 용인시 처인구 포곡읍 삼계리 672번지 계수마을수목원우림필유 102동 1005호","category":"건축자재 - 목재·석재·철물"}]},{"lat":"37.269820663","long":"127.21937068","items":[{"name":"느티나무아래김치찌개","tel":"031-339-5432","addr":"경기도 용인시 처인구 포곡읍 둔전리 156-7번지","category":"일반휴게음식 - 일반한식"},{"name":"청주보쌈푸드","tel":"031-339-5432","addr":"경기도 용인시 처인구 포곡읍 둔전리 156-7번지","category":"일반휴게음식 - 일반한식"}]},{"lat":"37.268718042","long":"127.2212052","items":[{"name":"니가네가쏠까","tel":"031-336-3326","addr":"경기도 용인시 처인구 포곡읍 둔전리 125-9번지 1층","category":"일반휴게음식 - 주점"},{"name":"단지국수집","tel":"031-323-4668","addr":"경기도 용인시 처인구 포곡읍 둔전리 125-9번지","category":"일반휴게음식 - 일반한식"},{"name":"미소기획","tel":"031-336-3402","addr":"경기도 용인시 처인구 포곡읍 둔전리 125-9번지","category":"건축자재 - 인테리어전문"},{"name":"힐링캠프","tel":"070-7018-5392","addr":"경기도 용인시 처인구 포곡읍 둔전리 125-9번지","category":"의류 - 정장"}]},{"lat":"37.268856858","long":"127.21921008","items":[{"name":"니치헤어","tel":"031-332-7403","addr":"경기도 용인시 처인구 포곡읍 둔전리 139-24번지","category":"보건위생 - 미용원"},{"name":"다여니네","tel":"031-336-8107","addr":"경기도 용인시 처인구 포곡읍 둔전리 139-24번지 5호","category":"의류 - 정장"},{"name":"미미옷장","tel":"070-8628-4077","addr":"경기도 용인시 처인구 포곡읍 둔전리 139-24번지 1층","category":"의류 - 정장"},{"name":"원투쓰리포차","tel":"031-334-5900","addr":"경기도 용인시 처인구 포곡읍 둔전리 139-24번지","category":"일반휴게음식 - 주점"},{"name":"제주뿔소라","tel":"031-336-7727","addr":"경기도 용인시 처인구 포곡읍 둔전리 139-24번지 1층","category":"일반휴게음식 - 일반한식"},{"name":"처인성화로구이","tel":"","addr":"경기도 용인시 처인구 포곡읍 둔전리 139-24번지","category":"일반휴게음식 - 일반한식"},{"name":"츄사랑아튀","tel":"070-7018-5391","addr":"경기도 용인시 처인구 포곡읍 둔전리 139-24번지 1층","category":"일반휴게음식 - 일반한식"}]},{"lat":"37.270570629","long":"127.21821156","items":[{"name":"다구어","tel":"031-323-3701","addr":"경기도 용인시 처인구 포곡읍 둔전리 189-3번지 인성빌딩","category":"일반휴게음식 - 일반한식"}]},{"lat":"37.284238481","long":"127.21860007","items":[{"name":"다른꼴","tel":"","addr":"경기도 용인시 처인구 포곡읍 전대리 196-9번지 1층","category":"일반휴게음식 - 주점"},{"name":"더 타이","tel":"031-322-0171","addr":"경기도 용인시 처인구 포곡읍 전대리 196-9번지 2층","category":"보건위생 - 화장품"},{"name":"피자스쿨 용인전대리점","tel":"031-338-0066","addr":"경기도 용인시 처인구 포곡읍 전대리 196-9번지","category":"일반휴게음식 - 서양음식"}]},{"lat":"37.265908182","long":"127.21551515","items":[{"name":"다미가","tel":"031-333-2236","addr":"경기도 용인시 처인구 포곡읍 둔전리 422-73번지 1층 104,105,106호","category":"일반휴게음식 - 일반한식"},{"name":"둔전검도관","tel":"031-322-6997","addr":"경기도 용인시 처인구 포곡읍 둔전리 422-73번지 B102호","category":"학원 - 예·체능계학원"},{"name":"멘토학원","tel":"031-338-0088","addr":"경기도 용인시 처인구 포곡읍 둔전리 422-73번지 가동 3층","category":"학원 - 보습학원"},{"name":"박경화무용교습소","tel":"031-336-5242","addr":"경기도 용인시 처인구 포곡읍 둔전리 422-73번지 2층 204-205호","category":"학원 - 예·체능계학원"},{"name":"배드짐","tel":"031-322-5042","addr":"경기도 용인시 처인구 포곡읍 둔전리 422-73번지 계룡리슈빌 상가 B층 101호","category":"레저업소 - 헬스클럽"},{"name":"본스치킨","tel":"031-335-4845","addr":"경기도 용인시 처인구 포곡읍 둔전리 422-73번지 (가동101호,102호)","category":"일반휴게음식 - 스넥"},{"name":"히어로핏","tel":"070-7420-3681","addr":"경기도 용인시 처인구 포곡읍 둔전리 422-73번지 지하1층 101호","category":"레저업소 - 헬스클럽"}]},{"lat":"37.271410257","long":"127.21728945","items":[{"name":"다올헤어","tel":"031-335-1620","addr":"경기도 용인시 처인구 포곡읍 둔전리 360-2번지 유로빌리지","category":"보건위생 - 미용원"},{"name":"도야지돈마을","tel":"031-323-0897","addr":"경기도 용인시 처인구 포곡읍 둔전리 360-2번지 외2필지 유로빌리지","category":"일반휴게음식 - 일반한식"},{"name":"세븐일레븐용인둔전빌리지점","tel":"031-1577-0711","addr":"경기도 용인시 처인구 포곡읍 둔전리 360-2번지 유로빌리지","category":"유통업 영리 - 편 의 점"}]},{"lat":"37.283877558","long":"127.25531485","items":[{"name":"다인","tel":"031-323-1015","addr":"경기도 용인시 처인구 포곡읍 금어리 287번지","category":"일반휴게음식 - 일반한식"}]},{"lat":"37.293935727","long":"127.19087292","items":[{"name":"다현","tel":"031-320-1847","addr":"경기도 용인시 처인구 포곡읍 가실리 201번지","category":"일반휴게음식 - 서양음식"}]},{"lat":"37.313906618","long":"127.2199821","items":[{"name":"닥치고곱창","tel":"070-4177-9797","addr":"경기도 용인시 처인구 포곡읍 신원리 251-1번지","category":"음료식품 - 기타음료식품"},{"name":"성림축산","tel":"031-321-9952","addr":"경기도 용인시 처인구 포곡읍 신원리 251-1번지 그린식당 1층 3호","category":"음료식품 - 정육점"}]},{"lat":"37.271022817","long":"127.21728835","items":[{"name":"닥터PC정보전자","tel":"031-323-2911","addr":"경기도 용인시 처인구 포곡읍 둔전리361.104","category":"수리서비스 - 사무·통신기기수리"},{"name":"둔전당구장","tel":"","addr":"경기도 용인시 처인구 포곡읍 둔전리 361번지 201호","category":"레저업소 - 당 구 장"},{"name":"둔전당구장","tel":"","addr":"경기도 용인시 처인구 포곡읍 둔전리 361번지 2층","category":"레저업소 - 당 구 장"},{"name":"촌","tel":"031-336-3256","addr":"경기도 용인시 처인구 포곡읍 둔전리 361번지","category":"일반휴게음식 - 일반한식"},{"name":"탑스타정보통신","tel":"031-337-3875","addr":"경기도 용인시 처인구 포곡읍 둔전리 361번지 102호","category":"사무통신 - 통신기기"}]},{"lat":"37.283932356","long":"127.23284124","items":[{"name":"달구지","tel":"031-339-0134","addr":"경기도 용인시 처인구 포곡읍 삼계리 399-9번지 1층","category":"일반휴게음식 - 일반한식"},{"name":"포곡자동차공업사","tel":"031-333-0229","addr":"경기도 용인시 처인구 포곡읍 삼계리 399-9번지","category":"자동차정비 유지 - 자동차정비"}]},{"lat":"37.268498708","long":"127.21796891","items":[{"name":"달빛두둥","tel":"","addr":"경기도 용인시 처인구 포곡읍 둔전리 151-12번지 A동 4호","category":"일반휴게음식 - 일반한식"},{"name":"인생해장국","tel":"031-332-3339","addr":"경기도 용인시 처인구 포곡읍 둔전리 151-12번지 A동 1호","category":"일반휴게음식 - 일반한식"}]},{"lat":"37.275458812","long":"127.23019965","items":[{"name":"달콤한마카롱by황언니","tel":"","addr":"경기도 용인시 처인구 포곡읍 삼계리 532번지 1층","category":"일반휴게음식 - 서양음식"}]},{"lat":"37.281213935","long":"127.22192912","items":[{"name":"닭발과두루치기","tel":"031-338-6960","addr":"경기도 용인시 처인구 포곡읍 전대리 132-5번지 1층 일부","category":"일반휴게음식 - 일반한식"},{"name":"미스터보쌈 용인포곡점","tel":"031-323-5379","addr":"경기도 용인시 처인구 포곡읍 전대리 132-5번지 1층","category":"일반휴게음식 - 일반한식"},{"name":"에이스모터스","tel":"031-322-5752","addr":"경기도 용인시 처인구 포곡읍 전대리 132-5번지","category":"자동차정비 유지 - 자동차부품"}]},{"lat":"37.269406131","long":"127.21940331","items":[{"name":"당구클럽","tel":"031-333-1534","addr":"경기도 용인시 처인구 포곡읍 둔전리 155-3번지 2층","category":"레저업소 - 당 구 장"}]},{"lat":"37.272716849","long":"127.22215254","items":[{"name":"대게마을","tel":"","addr":"경기도 용인시 처인구 포곡읍 둔전리 208-14번지 1층","category":"일반휴게음식 - 일반한식"}]},{"lat":"37.266992394","long":"127.21384967","items":[{"name":"대나무집","tel":"031-337-1779","addr":"경기도 용인시 처인구 포곡읍 둔전리 406-29번지","category":"일반휴게음식 - 일반한식"},{"name":"이지바이크","tel":"070-8227-3663","addr":"경기도 용인시 처인구 포곡읍 둔전리 406-29번지 1호 외1필지 왼쪽첫번째","category":"레져용품 - 스포츠·레져용품"},{"name":"허미숙헤어샵","tel":"031-336-7950","addr":"경기도 용인시 처인구 포곡읍 둔전리 406-29","category":"보건위생 - 미용원"}]},{"lat":"37.286267804","long":"127.21748946","items":[{"name":"대동한약방","tel":"031-338-3232","addr":"경기도 용인시 처인구 포곡읍 전대리 191-30","category":"약국 - 한약방"}]},{"lat":"37.274935849","long":"127.20026287","items":[{"name":"대륜(대륜간판)","tel":"031-335-3737","addr":"경기도 용인시 처인구 포곡읍 영문리 297-1번지","category":"건축자재 - 인테리어전문"}]},{"lat":"37.270605314","long":"127.21895577","items":[{"name":"대림공구열쇠","tel":"031-323-3345","addr":"경기도 용인시 처인구 포곡읍 둔전리 190-9번지","category":"기타 - 기계공구"},{"name":"포유헤어가든","tel":"031-332-7345","addr":"경기도 용인시 처인구 포곡읍 둔전리 190-9번지 1층 제1호","category":"보건위생 - 미용원"},{"name":"흑돼지삼백식당 (포곡점)","tel":"031-334-9232","addr":"경기도 용인시 처인구 포곡읍 둔전리 190-9번지","category":"일반휴게음식 - 일반한식"}]},{"lat":"37.285637494","long":"127.23631963","items":[{"name":"대명마트","tel":"031-334-8693","addr":"경기도 용인시 처인구 포곡읍 삼계리 369-8번지 대명맨션 6동 105호","category":"유통업 영리 - 슈퍼마켓"}]},{"lat":"37.295737923","long":"127.22220806","items":[{"name":"대성음향","tel":"031-335-5838","addr":"경기도 용인시 처인구 포곡읍 유운리 364-4번지","category":"전기제품 - 가전제품"}]},{"lat":"37.285520917","long":"127.21695734","items":[{"name":"대성파크","tel":"031-339-0589","addr":"경기도 용인시 처인구 포곡읍 전대리 361-2번지 대성파크","category":"숙박업 - 여관/기타숙박업"},{"name":"동명전업사","tel":"031-332-0490","addr":"경기도 용인시 처인구 포곡읍 전대리361-2","category":"건축자재 - 보일러·펌프·샷시"},{"name":"마셔마셔","tel":"070-8187-4816","addr":"경기도 용인시 처인구 포곡읍 전대리 361-2번지","category":"일반휴게음식 - 스넥"},{"name":"씨유용인전대로점","tel":"031-322-7801","addr":"경기도 용인시 처인구 포곡읍 전대리 361-2번지","category":"유통업 영리 - 편 의 점"},{"name":"아밀리아헤어","tel":"031-339-8945","addr":"경기도 용인시 처인구 포곡읍 전대리 361-2","category":"보건위생 - 미용원"},{"name":"이슬당구장","tel":"031-333-1396","addr":"경기도 용인시 처인구 포곡읍 전대리 361-2번지","category":"레저업소 - 당 구 장"},{"name":"코끼리분식","tel":"031-338-8183","addr":"경기도 용인시 처인구 포곡읍 전대리 361-2번지 1층","category":"일반휴게음식 - 스넥"}]},{"lat":"37.280216049","long":"127.22070844","items":[{"name":"대성환경","tel":"031-321-3372","addr":"경기도 용인시 처인구 포곡읍 영문리 2-60번지 101호","category":"용역 서비스 - 종합용역"},{"name":"에버유리","tel":"031-335-6863","addr":"경기도 용인시 처인구 포곡읍 영문리2-60","category":"건축자재 - 유리"},{"name":"유니씽크","tel":"070-8244-3331","addr":"경기도 용인시 처인구 포곡읍 영문리 2-60번지 1층","category":"서적문구 - 과학기자재"}]},{"lat":"37.280295507","long":"127.25341983","items":[{"name":"대양안전","tel":"031-328-4888","addr":"경기도 용인시 처인구 포곡읍 금어리 320-2번지","category":"기타 - 기계공구"}]},{"lat":"37.272742317","long":"127.21809373","items":[{"name":"대원상회","tel":"031-332-9299","addr":"경기도 용인시 처인구 포곡읍 둔전리 225번지 대두빌라","category":"음료식품 - 기타음료식품"}]},{"lat":"37.299067466","long":"127.22448473","items":[{"name":"대한농장","tel":"031-339-9991","addr":"경기도 용인시 처인구 포곡읍 유운리156-4","category":"음료식품 - 농·축·수산품"}]},{"lat":"37.268995211","long":"127.21745171","items":[{"name":"더벤티용인둔전점","tel":"070-8920-4991","addr":"경기도 용인시 처인구 포곡읍 둔전리 152-8번지 1층","category":"일반휴게음식 - 서양음식"},{"name":"둔전한의원","tel":"031-339-5259","addr":"경기도 용인시 처인구 포곡읍 둔전리 152-8번지 2층","category":"의원 - 한의원"},{"name":"둔전한의원","tel":"031-339-5250","addr":"경기도 용인시 처인구 포곡읍 둔전리 152-8번지 2층 1호","category":"의원 - 한의원"},{"name":"베스띠벨리 용인점","tel":"031-332-9433","addr":"경기도 용인시 처인구 포곡읍 둔전리 152-8번지","category":"레져용품 - 스포츠·레져용품"},{"name":"쿨노래연습장","tel":"031-334-5113","addr":"경기도 용인시 처인구 포곡읍 둔전리 152-8","category":"레저업소 - 노 래 방"},{"name":"한가네숯불닭갈비","tel":"","addr":"경기도 용인시 처인구 포곡읍 둔전리 152-8번지","category":"일반휴게음식 - 일반한식"}]},{"lat":"37.27506949","long":"127.21165102","items":[{"name":"더퍼스트컴퍼니","tel":"070-7755-7701","addr":"경기도 용인시 처인구 포곡읍 영문리 113-5번지 3동 1층","category":"레져용품 - 스포츠·레져용품"},{"name":"퀀텀 유니버스","tel":"031-328-0704","addr":"경기도 용인시 처인구 포곡읍 영문리 113-5번지","category":"용역 서비스 - 사무서비스"}]},{"lat":"37.283019919","long":"127.21979187","items":[{"name":"더폴","tel":"","addr":"경기도 용인시 처인구 포곡읍 전대리 150-1번지","category":"일반휴게음식 - 서양음식"},{"name":"송선생영어수학학원","tel":"031-323-4752","addr":"경기도 용인시 처인구 포곡읍 전대리 150-1번지 3층","category":"학원 - 보습학원"},{"name":"치킨플러스에버랜드점","tel":"031-336-2171","addr":"경기도 용인시 처인구 포곡읍 전대리 150-1번지","category":"일반휴게음식 - 스넥"},{"name":"타닉음악학원","tel":"031-335-2149","addr":"경기도 용인시 처인구 포곡읍 전대리 150-1번지 2층","category":"학원 - 예·체능계학원"}]},{"lat":"37.270074821","long":"127.21834544","items":[{"name":"던킨도너츠","tel":"031-334-0327","addr":"경기도 용인시 처인구 포곡읍 둔전리158","category":"음료식품 - 제과점"},{"name":"베스킨라빈스31","tel":"031-334-0331","addr":"경기도 용인시 처인구 포곡읍 둔전리 158번지 1층","category":"음료식품 - 제과점"},{"name":"서울에스치과","tel":"031-333-2853","addr":"경기도 용인시 처인구 포곡읍 둔전리158 중앙빌딩2층 1호","category":"의원 - 치과의원"},{"name":"시즌아이PC방 용인포곡점","tel":"070-8816-1183","addr":"경기도 용인시 처인구 포곡읍 둔전리 158번지 3층","category":"레저업소 - 기타레져업소"},{"name":"에뛰드하우스 용인둔전점","tel":"031-322-6692","addr":"경기도 용인시 처인구 포곡읍 둔전리 158번지 1층 2호","category":"보건위생 - 화장품"},{"name":"우리약국","tel":"031-333-6346","addr":"경기도 용인시 처인구 포곡읍 둔전리 158번지 중앙빌딩 103호","category":"약국 - 약국"},{"name":"인배스주막","tel":"031-1111-1111","addr":"경기도 용인시 처인구 포곡읍 둔전리 158번지 2층","category":"일반휴게음식 - 주점"},{"name":"채플린노래연습장","tel":"031-335-5582","addr":"경기도 용인시 처인구 포곡읍 둔전리 158","category":"레저업소 - 노 래 방"}]},{"lat":"37.277854963","long":"127.22576432","items":[{"name":"데이지화원","tel":"031-334-4446","addr":"경기도 용인시 처인구 포곡읍 둔전리351-2","category":"문화.취미 - 화원"}]},{"lat":"37.274599832","long":"127.24533935","items":[{"name":"도깨비 식당","tel":"031-335-9656","addr":"경기도 용인시 처인구 포곡읍 금어리 363-2번지","category":"일반휴게음식 - 일반한식"}]},{"lat":"37.27185186","long":"127.21723432","items":[{"name":"도둑골화로구이","tel":"031-322-5292","addr":"경기도 용인시 처인구 포곡읍 둔전리167-2","category":"일반휴게음식 - 일반한식"}]},{"lat":"37.268518359","long":"127.22199381","items":[{"name":"도배나라","tel":"070-5022-4846","addr":"경기도 용인시 처인구 포곡읍 둔전리 120-10번지 태영맨션 102동 102호","category":"용역 서비스 - 기타용역서비스"},{"name":"동우씨엠","tel":"031-762-6453","addr":"경기도 용인시 처인구 포곡읍 둔전리 120-10번지 태영맨션 102동 103호","category":"신변잡화 - 기타잡화"},{"name":"클라라음악학원","tel":"","addr":"경기도 용인시 처인구 포곡읍 둔전리 120-10번지 태영맨션 102동 101호","category":"학원 - 예·체능계학원"},{"name":"표준중국어","tel":"070-8285-9993","addr":"경기도 용인시 처인구 포곡읍 둔전리 120-10번지 태영맨션 102동 203호","category":"회원제형태 - 학원"}]},{"lat":"37.285160162","long":"127.21714802","items":[{"name":"독일약국","tel":"031-333-2920","addr":"경기도 용인시 처인구 포곡읍 전대리 360-9번지","category":"약국 - 약국"}]},{"lat":"37.268270389","long":"127.21964809","items":[{"name":"돈돈이","tel":"","addr":"경기도 용인시 처인구 포곡읍 둔전리 138-10번지","category":"일반휴게음식 - 일반한식"},{"name":"두바이연탄갈비","tel":"031-321-3006","addr":"경기도 용인시 처인구 포곡읍 둔전리 138-10번지","category":"일반휴게음식 - 일반한식"},{"name":"마님닭발","tel":"031-335-9009","addr":"경기도 용인시 처인구 포곡읍 둔전리 138-10번지 2호","category":"일반휴게음식 - 일반한식"},{"name":"선착순","tel":"031-337-3700","addr":"경기도 용인시 처인구 포곡읍 둔전리 138-10번지","category":"일반휴게음식 - 일반한식"}]},{"lat":"37.270184213","long":"127.21764675","items":[{"name":"돈소리","tel":"031-332-9111","addr":"경기도 용인시 처인구 포곡읍 둔전리 160-2번지 1층","category":"일반휴게음식 - 일반한식"},{"name":"성산밥상","tel":"031-333-0594","addr":"경기도 용인시 처인구 포곡읍 둔전리 160-2번지 까치네식당 1층 6호","category":"일반휴게음식 - 일반한식"}]},{"lat":"37.285493091","long":"127.21739705","items":[{"name":"돈이돼지","tel":"031-1111-1111","addr":"경기도 용인시 처인구 포곡읍 전대리 191-13번지","category":"일반휴게음식 - 일반한식"},{"name":"시옷시옷(ㅅㅅ)","tel":"","addr":"경기도 용인시 처인구 포곡읍 전대리 191-13번지 2층","category":"일반휴게음식 - 주점"}]},{"lat":"37.278467005","long":"127.23084012","items":[{"name":"동네열쇠","tel":"031-332-0220","addr":"경기도 용인시 처인구 포곡읍 삼계리 666-12","category":"건축자재 - 목재·석재·철물"},{"name":"신통치킨","tel":"031-338-8982","addr":"경기도 용인시 처인구 포곡읍 삼계리 666-12번지","category":"일반휴게음식 - 스넥"},{"name":"카파커피","tel":"031-333-0243","addr":"경기도 용인시 처인구 포곡읍 삼계리 666-12번지","category":"일반휴게음식 - 서양음식"},{"name":"포곡라이온스클럽","tel":"031-334-4224","addr":"경기도 용인시 처인구 포곡읍 삼계리 666-12번지","category":"기타 - 비영리/비대상"}]},{"lat":"37.313681261","long":"127.22003786","items":[{"name":"동방푸드","tel":"031-334-4644","addr":"경기도 용인시 처인구 포곡읍 신원리 251-2번지","category":"음료식품 - 기타음료식품"}]},{"lat":"37.279876652","long":"127.22395488","items":[{"name":"동영자동차정비공업사","tel":"031-339-0904","addr":"경기도 용인시 처인구 포곡읍 전대리 110-3번지","category":"자동차정비 유지 - 자동차정비"}]},{"lat":"37.272462323","long":"127.21846499","items":[{"name":"동용인로타리클럽","tel":"031-335-5238","addr":"경기도 용인시 처인구 포곡읍 둔전리 172번지 베스트빌 101동 401호","category":"기타 - 비영리/비대상"}]},{"lat":"37.270045155","long":"127.21978847","items":[{"name":"동원이엔지","tel":"031-323-7200","addr":"경기도 용인시 처인구 포곡읍 둔전리 191-39","category":"전기제품 - 냉열기기"}]},{"lat":"37.269460501","long":"127.21923436","items":[{"name":"돼지랑","tel":"031-334-9892","addr":"경기도 용인시 처인구 포곡읍 둔전리155-10","category":"일반휴게음식 - 일반한식"},{"name":"민서네보리밥집","tel":"031-333-6662","addr":"경기도 용인시 처인구 포곡읍 둔전리 155-10번지","category":"일반휴게음식 - 일반한식"},{"name":"박가네고깃집","tel":"","addr":"경기도 용인시 처인구 포곡읍 둔전리 155-10번지 녹돈 다동 1층","category":"일반휴게음식 - 일반한식"},{"name":"아재포차","tel":"031-334-8299","addr":"경기도 용인시 처인구 포곡읍 둔전리 155-10번지 녹돈 나동 1층","category":"일반휴게음식 - 일반한식"},{"name":"처가집양념치킨 둔전점","tel":"031-334-7292","addr":"경기도 용인시 처인구 포곡읍 둔전리 155-10번지 녹돈 나동 103호","category":"일반휴게음식 - 스넥"},{"name":"현주식당","tel":"031-333-6292","addr":"경기도 용인시 처인구 포곡읍 둔전리 155-10번지 외2필지 녹돈 다동","category":"일반휴게음식 - 일반한식"}]},{"lat":"37.277405671","long":"127.19415805","items":[{"name":"돼지삼촌네","tel":"031-321-3113","addr":"경기도 용인시 처인구 포곡읍 마성리 284-1번지 201호","category":"일반휴게음식 - 일반한식"}]},{"lat":"37.280880674","long":"127.23139992","items":[{"name":"두계울방앗간","tel":"031-332-1247","addr":"경기도 용인시 처인구 포곡읍 삼계리 471-2","category":"음료식품 - 제과점"}]},{"lat":"37.277298234","long":"127.2295061","items":[{"name":"두드림","tel":"031-322-9287","addr":"경기도 용인시 처인구 포곡읍 삼계리 577-2번지","category":"일반휴게음식 - 중국식"},{"name":"쓰리에버","tel":"070-4502-0461","addr":"경기도 용인시 처인구 포곡읍 삼계리 577-2 제3층04호","category":"기타 - 기계공구"},{"name":"에버스크린골프","tel":"031-333-0091","addr":"경기도 용인시 처인구 포곡읍 삼계리 577-2번지 2층","category":"레저업소 - 스크린골프"},{"name":"에버스크린골프","tel":"031-333-0019","addr":"경기도 용인시 처인구 포곡읍 삼계리 577-2번지 2층","category":"레저업소 - 스크린골프"}]},{"lat":"37.272770493","long":"127.22237819","items":[{"name":"두마리치킨마당","tel":"031-335-9277","addr":"경기도 용인시 처인구 포곡읍 둔전리 201-1번지","category":"일반휴게음식 - 스넥"},{"name":"차곱","tel":"031-321-5583","addr":"경기도 용인시 처인구 포곡읍 둔전리 201-1번지 1층","category":"일반휴게음식 - 일반한식"},{"name":"포곡블랙박스","tel":"031-338-0915","addr":"경기도 용인시 처인구 포곡읍 둔전리 201-1번지 4호","category":"자동차정비 유지 - 자동차부품"},{"name":"향리동태탕","tel":"031-335-0188","addr":"경기도 용인시 처인구 포곡읍 둔전리 201-1번지 1층","category":"일반휴게음식 - 일반한식"}]},{"lat":"37.288130009","long":"127.21410037","items":[{"name":"두메가든","tel":"031-334-3894","addr":"경기도 용인시 처인구 포곡읍 전대리347-4","category":"일반휴게음식 - 일반한식"},{"name":"이츠커피","tel":"","addr":"경기도 용인시 처인구 포곡읍 전대리 347-4번지 2층","category":"일반휴게음식 - 서양음식"},{"name":"타이어테크 에버랜드점","tel":"031-332-7793","addr":"경기도 용인시 처인구 포곡읍 전대리 347-4번지","category":"자동차정비 유지 - 자동차시트·타이어"}]},{"lat":"37.284383019","long":"127.23276368","items":[{"name":"두부마당","tel":"031-334-3335","addr":"경기도 용인시 처인구 포곡읍 삼계리 401-3번지 하은빌라","category":"일반휴게음식 - 일반한식"}]},{"lat":"37.304240315","long":"127.2239585","items":[{"name":"두성천막기업","tel":"031-338-7796","addr":"경기도 용인시 처인구 포곡읍 유운리 244-3번지","category":"직물 - 카페트,커튼,천막,지물"}]},{"lat":"37.280487226","long":"127.22023563","items":[{"name":"두진","tel":"031-333-6433","addr":"경기도 용인시 처인구 포곡읍 전대리 163-2번지","category":"음료식품 - 농·축·수산품"}]},{"lat":"37.26971078","long":"127.215368","items":[{"name":"둔전 생활용품 DC백화점","tel":"031-321-0550","addr":"경기도 용인시 처인구 포곡읍 둔전리 12-14번지","category":"전기제품 - 가전제품"}]},{"lat":"37.268072748","long":"127.22420222","items":[{"name":"둔전문구완구","tel":"031-323-1534","addr":"경기도 용인시 처인구 포곡읍 둔전리 110-3번지 신흥빌라 102호","category":"서적문구 - 문구용품"}]},{"lat":"37.270599337","long":"127.21728715","items":[{"name":"둔전사철탕","tel":"031-332-6677","addr":"경기도 용인시 처인구 포곡읍 둔전리 367번지 곰나루 라동 1층","category":"일반휴게음식 - 일반한식"},{"name":"리즈요가테스","tel":"","addr":"경기도 용인시 처인구 포곡읍 둔전리 367번지 송암빌딩 2층 2호","category":"레저업소 - 헬스클럽"},{"name":"맥돈한우","tel":"031-322-4104","addr":"경기도 용인시 처인구 포곡읍 둔전리 367번지 송암빌딩 B동 1층","category":"일반휴게음식 - 일반한식"},{"name":"배틀PC존","tel":"","addr":"경기도 용인시 처인구 포곡읍 둔전리 367번지 송암빌딩 3층","category":"레저업소 - 기타레져업소"},{"name":"송암당구장","tel":"031-332-0515","addr":"경기도 용인시 처인구 포곡읍 둔전리 367번지","category":"레저업소 - 당 구 장"},{"name":"씨유용인둔전점","tel":"031-239-6698","addr":"경기도 용인시 처인구 포곡읍 둔전리 367번지","category":"유통업 영리 - 편 의 점"},{"name":"오징어가좋아조개가좋아난다좋아","tel":"031-339-0043","addr":"경기도 용인시 처인구 포곡읍 둔전리 367번지 곰나루 바동 1층","category":"일반휴게음식 - 일반한식"},{"name":"위즈음악무용학원","tel":"070-7420-0737","addr":"경기도 용인시 처인구 포곡읍 둔전리 367번지 송암빌딩 바동 2층","category":"학원 - 예·체능계학원"},{"name":"자금성","tel":"031-334-5395","addr":"경기도 용인시 처인구 포곡읍 둔전리 367 송암빌딩 101","category":"일반휴게음식 - 중국식"},{"name":"퓨전은가비","tel":"031-339-8877","addr":"경기도 용인시 처인구 포곡읍 둔전리 367번지 곰나루 다동 1층","category":"일반휴게음식 - 스넥"}]},{"lat":"37.270959194","long":"127.21759258","items":[{"name":"둔전소머리국밥","tel":"031-334-4072","addr":"경기도 용인시 처인구 포곡읍 둔전리 367-5번지","category":"일반휴게음식 - 일반한식"},{"name":"숏다리족발.보쌈","tel":"031-336-1124","addr":"경기도 용인시 처인구 포곡읍 둔전리 367-5번지","category":"일반휴게음식 - 일반한식"},{"name":"육천칡냉면","tel":"031-339-6043","addr":"경기도 용인시 처인구 포곡읍 둔전리 367-5번지","category":"일반휴게음식 - 일반한식"}]},{"lat":"37.269434992","long":"127.21839999","items":[{"name":"둔전식당","tel":"031-332-6767","addr":"경기도 용인시 처인구 포곡읍 둔전리 155-8번지","category":"일반휴게음식 - 일반한식"},{"name":"명륜진사갈비둔전점","tel":"031-322-9279","addr":"경기도 용인시 처인구 포곡읍 둔전리 155-8번지 외1필지","category":"일반휴게음식 - 일반한식"},{"name":"오징어나라","tel":"031-322-0994","addr":"경기도 용인시 처인구 포곡읍 둔전리 155-8번지","category":"일반휴게음식 - 일식·회집"}]},{"lat":"37.281183853","long":"127.23303585","items":[{"name":"둔전유리샷시","tel":"031-339-3601","addr":"경기도 용인시 처인구 포곡읍 삼계리 490-25","category":"건축자재 - 유리"},{"name":"또봉이통닭 삼계점","tel":"031-322-7665","addr":"경기도 용인시 처인구 포곡읍 삼계리 490-25번지 청송세탁소 1층 4호","category":"일반휴게음식 - 주점"},{"name":"청송세탁소","tel":"031-334-8704","addr":"경기도 용인시 처인구 포곡읍 삼계리490-25","category":"수리서비스 - 세탁소"}]},{"lat":"37.26954291","long":"127.21851304","items":[{"name":"둔전제분소","tel":"031-334-2970","addr":"경기도 용인시 처인구 포곡읍 둔전리155-20","category":"음료식품 - 제과점"}]},{"lat":"37.273300704","long":"127.21823061","items":[{"name":"둔전제일공부방","tel":"031-335-5477","addr":"경기도 용인시 처인구 포곡읍 둔전리 223-3번지 삼성타운 102동 202호","category":"학원 - 보습학원"}]},{"lat":"37.311094518","long":"127.22048163","items":[{"name":"드림가설산업","tel":"031-338-4512","addr":"경기도 용인시 처인구 포곡읍 신원리 339번지 외3필지","category":"건축자재 - 기타건축자재"}]},{"lat":"37.300238249","long":"127.24323353","items":[{"name":"드림농산","tel":"","addr":"경기도 용인시 처인구 포곡읍 삼계리 46-10번지","category":"음료식품 - 농·축·수산품"},{"name":"투비(TWO-B)","tel":"031-000-0000","addr":"경기도 용인시 처인구 포곡읍 삼계리 46-10번지","category":"음료식품 - 기타음료식품"}]},{"lat":"37.302825087","long":"127.22429273","items":[{"name":"등산나라","tel":"031-322-5859","addr":"경기도 용인시 처인구 포곡읍 유운리 204-7","category":"의류 - 정장"}]},{"lat":"37.298318998","long":"127.23422717","items":[{"name":"디앤에쓰(D&S)조동희색소폰","tel":"031-333-9841","addr":"경기도 용인시 처인구 포곡읍 삼계리 79-7번지","category":"레져용품 - 악기점"},{"name":"양평해장국","tel":"031-322-3775","addr":"경기도 용인시 처인구 포곡읍 삼계리 79-7번지","category":"일반휴게음식 - 일반한식"},{"name":"현대중앙자동차공업사","tel":"031-332-0232","addr":"경기도 용인시 처인구 포곡읍 삼계리 79-7번지","category":"자동차정비 유지 - 자동차정비"}]},{"lat":"37.29015376","long":"127.26131278","items":[{"name":"디오공방","tel":"031-332-5248","addr":"경기도 용인시 처인구 포곡읍 금어리 237번지","category":"문화.취미 - 문화취미기타"}]},{"lat":"37.280264911","long":"127.22351626","items":[{"name":"디직스컴퓨터","tel":"031-334-9500","addr":"경기도 용인시 처인구 포곡읍 전대리 110-5번지 1층","category":"사무통신 - 컴퓨터"},{"name":"봉희이모","tel":"031-495-3852","addr":"경기도 용인시 처인구 포곡읍 전대리 110-5번지 1층","category":"일반휴게음식 - 일반한식"},{"name":"엔오에이치(NOH)","tel":"070-8849-5632","addr":"경기도 용인시 처인구 포곡읍 전대리 110-5번지","category":"건강식품 - 기타건강식품"},{"name":"전대리자전거","tel":"031-332-5293","addr":"경기도 용인시 처인구 포곡읍 전대리 110-5번지","category":"레져용품 - 스포츠·레져용품"},{"name":"카배터리마트","tel":"031-332-5293","addr":"경기도 용인시 처인구 포곡읍 전대리 110-5번지","category":"자동차정비 유지 - 자동차부품"}]},{"lat":"37.295599907","long":"127.2676697","items":[{"name":"딩글애견카페","tel":"031-339-0599","addr":"경기도 용인시 처인구 포곡읍 금어리 60번지","category":"일반휴게음식 - 일반한식"}]},{"lat":"37.280993937","long":"127.2333961","items":[{"name":"땡큐당구장","tel":"031-334-4497","addr":"경기도 용인시 처인구 포곡읍 삼계리 490-28번지","category":"레저업소 - 당 구 장"},{"name":"카페아다지오","tel":"070-3164-8365","addr":"경기도 용인시 처인구 포곡읍 삼계리 490-28번지 포곡설비 1층 102호","category":"일반휴게음식 - 서양음식"}]},{"lat":"37.268683007","long":"127.21570334","items":[{"name":"떡볶이가족","tel":"","addr":"경기도 용인시 처인구 포곡읍 둔전리 379-5번지 1층","category":"일반휴게음식 - 스넥"},{"name":"수정보통신 둔전점","tel":"031-332-5022","addr":"경기도 용인시 처인구 포곡읍 둔전리 379-5번지 가동","category":"사무통신 - 통신기기"},{"name":"시우네안경가게","tel":"031-321-7318","addr":"경기도 용인시 처인구 포곡읍 둔전리 379-5번지","category":"보건위생 - 안경"},{"name":"이주원통닭","tel":"","addr":"경기도 용인시 처인구 포곡읍 둔전리 379-5번지 1층","category":"일반휴게음식 - 스넥"},{"name":"주식회사 신농민유통","tel":"032-332-7770","addr":"경기도 용인시 처인구 포곡읍 둔전리 379-5번지 97-3","category":"유통업 영리 - 슈퍼마켓"},{"name":"홍진텔레콤2호점","tel":"031-323-7777","addr":"경기도 용인시 처인구 포곡읍 둔전리 379-5번지 외3필지가동호","category":"사무통신 - 통신기기"}]},{"lat":"37.269606289","long":"127.21834411","items":[{"name":"떡쟁이","tel":"031-333-3319","addr":"경기도 용인시 처인구 포곡읍 둔전리 157-3번지","category":"음료식품 - 제과점"},{"name":"보금당","tel":"031-334-5652","addr":"경기도 용인시 처인구 포곡읍 둔전리157-3","category":"신변잡화 - 귀금속"}]},{"lat":"37.268439597","long":"127.22073088","items":[{"name":"또래오래","tel":"031-335-9932","addr":"경기도 용인시 처인구 포곡읍 둔전리 129-2번지 유성시티빌","category":"일반휴게음식 - 스넥"},{"name":"머리향기","tel":"031-334-9500","addr":"경기도 용인시 처인구 포곡읍 둔전리 129-2번지 유성시티빌 101호","category":"보건위생 - 미용원"},{"name":"씨유용인포곡둔전점","tel":"031-339-0747","addr":"경기도 용인시 처인구 포곡읍 둔전리 129-2번지 유성시티빌 103호","category":"유통업 영리 - 편 의 점"},{"name":"창대인테리어","tel":"031-338-8115","addr":"경기도 용인시 처인구 포곡읍 둔전리 129-2번지 유성시티빌 1층 101호","category":"직물 - 카페트,커튼,천막,지물"}]},{"lat":"37.298075811","long":"127.23418131","items":[{"name":"뚝배기왕갈비탕","tel":"031-335-3395","addr":"경기도 용인시 처인구 포곡읍 삼계리 79-12번지","category":"일반휴게음식 - 일반한식"},{"name":"시후네집밥한끼","tel":"031-321-6120","addr":"경기도 용인시 처인구 포곡읍 삼계리 79-12번지","category":"일반휴게음식 - 일반한식"}]},{"lat":"37.268655385","long":"127.22097954","items":[{"name":"뜨개마루","tel":"0331-338-1988","addr":"경기도 용인시 처인구 포곡읍 둔전리 126-6번지 1층","category":"직물 - 침구·수예점"},{"name":"물소운동화빨래방","tel":"031-333-1050","addr":"경기도 용인시 처인구 포곡읍 둔전리 126-6번지","category":"수리서비스 - 세탁소"},{"name":"오늘도예쁜데이(Day)","tel":"031-321-8974","addr":"경기도 용인시 처인구 포곡읍 둔전리 126-6번지 이레부동산 3호","category":"보건위생 - 미용원"}]},{"lat":"37.275299577","long":"127.21400815","items":[{"name":"뜨락","tel":"031-321-2330","addr":"경기도 용인시 처인구 포곡읍 영문리20-5","category":"일반휴게음식 - 일반한식"}]},{"lat":"37.272406657","long":"127.21934426","items":[{"name":"라라디쉬","tel":"","addr":"경기도 용인시 처인구 포곡읍 둔전리 179-5번지","category":"일반휴게음식 - 서양음식"},{"name":"뽕뜨락피자 둔전점","tel":"031-334-0509","addr":"경기도 용인시 처인구 포곡읍 둔전리 179-5번지 1층","category":"일반휴게음식 - 서양음식"},{"name":"오후의 쉼표","tel":"","addr":"경기도 용인시 처인구 포곡읍 둔전리 179-5번지 2층","category":"신변잡화 - 기타잡화"}]},{"lat":"37.281076694","long":"127.23253938","items":[{"name":"라온제나어린이집","tel":"031-334-1204","addr":"경기도 용인시 처인구 포곡읍 삼계리 488-5","category":"학원 - 유아원"}]},{"lat":"37.278354386","long":"127.21882006","items":[{"name":"라운즈","tel":"031-332-6622","addr":"경기도 용인시 처인구 포곡읍 영문리 497-8번지 2층 일부","category":"일반휴게음식 - 일반한식"}]},{"lat":"37.287409668","long":"127.23775727","items":[{"name":"라이프레시피","tel":"","addr":"경기도 용인시 처인구 포곡읍 삼계리 319-20번지 화전빌라2차 105동 302호","category":"음료식품 - 기타음료식품"}]},{"lat":"37.267740675","long":"127.23756088","items":[{"name":"라인디자인","tel":"031-769-0974","addr":"경기도 용인시 처인구 포곡읍 금어리 568-1번지","category":"가구 - 일반가구"}]},{"lat":"37.282403412","long":"127.22667982","items":[{"name":"락시원","tel":"031-281-1950","addr":"경기도 용인시 처인구 포곡읍 전대리 90번지 외 1","category":"가구 - 일반가구"}]},{"lat":"37.280764194","long":"127.18996064","items":[{"name":"럭키골프","tel":"070-4102-7393","addr":"경기도 용인시 처인구 포곡읍 마성리 172-4번지 B동","category":"신변잡화 - 가방"},{"name":"주식회사 와이드테크","tel":"031-1670-1142","addr":"경기도 용인시 처인구 포곡읍 마성리 172-4번지 제비동호","category":"전기제품 - 가전제품"}]},{"lat":"37.26873802","long":"127.21517361","items":[{"name":"레드폭스","tel":"","addr":"경기도 용인시 처인구 포곡읍 둔전리 12-1번지 2층 205호","category":"일반휴게음식 - 일반한식"},{"name":"모듬빈대떡","tel":"031-336-4064","addr":"경기도 용인시 처인구 포곡읍 둔전리 12-1번지 1층","category":"일반휴게음식 - 스넥"},{"name":"바코드(BARCODE)","tel":"031-322-5556","addr":"경기도 용인시 처인구 포곡읍 둔전리 12-1번지 206호","category":"일반휴게음식 - 주점"},{"name":"에이스노래연습장","tel":"031-000-0000","addr":"경기도 용인시 처인구 포곡읍 둔전리 12-1번지 2층","category":"레저업소 - 노 래 방"},{"name":"에이스노래연습장","tel":"031-338-0369","addr":"경기도 용인시 처인구 포곡읍 둔전리 12-1번지 2층","category":"레저업소 - 노 래 방"},{"name":"원당구장","tel":"070-8757-3949","addr":"경기도 용인시 처인구 포곡읍 둔전리 12-1번지 대일 상가 203호","category":"레저업소 - 당 구 장"},{"name":"제리아로마테라피","tel":"031-322-6288","addr":"경기도 용인시 처인구 포곡읍 둔전리 12-1번지 2층 207호","category":"보건위생 - 피부미용실"},{"name":"크린토피아 포곡점","tel":"031-338-4569","addr":"경기도 용인시 처인구 포곡읍 둔전리 12-1번지 102호","category":"수리서비스 - 세탁소"},{"name":"푸줏간꾸이꾸이","tel":"031-333-2955","addr":"경기도 용인시 처인구 포곡읍 둔전리 12-1외1필지105호~106호","category":"음료식품 - 정육점"},{"name":"푸줏간꾸이꾸이","tel":"031-333-2955","addr":"경기도 용인시 처인구 포곡읍 둔전리 12-1번지 외1필지 106호","category":"일반휴게음식 - 일반한식"},{"name":"한마음정육식당","tel":"031-328-2192","addr":"경기도 용인시 처인구 포곡읍 둔전리 12-1번지","category":"일반휴게음식 - 일반한식"},{"name":"해피로피씨 둔전겜블점","tel":"","addr":"경기도 용인시 처인구 포곡읍 둔전리 12-1번지 2층 대일상가","category":"레저업소 - 기타레져업소"}]},{"lat":"37.29601411","long":"127.23334042","items":[{"name":"레저크래프트 이지트레일","tel":"031-333-4333","addr":"경기도 용인시 처인구 포곡읍 삼계리 91-6번지","category":"수리서비스 - 레져용품수리"},{"name":"타이어세븐","tel":"031-323-3077","addr":"경기도 용인시 처인구 포곡읍 삼계리 91-6","category":"자동차정비 유지 - 자동차시트·타이어"}]},{"lat":"37.269463988","long":"127.21731775","items":[{"name":"롯데리아 용인둔전점","tel":"031-321-1047","addr":"경기도 용인시 처인구 포곡읍 둔전리 152-1번지 1층","category":"일반휴게음식 - 서양음식"},{"name":"미래에스엔치과의원","tel":"031-323-2804","addr":"경기도 용인시 처인구 포곡읍 둔전리 152-1번지 3층 2","category":"의원 - 치과의원"},{"name":"미래에스엔치과의원","tel":"031-323-2804","addr":"경기도 용인시 처인구 포곡읍 둔전리 152-1번지 2, 3층","category":"의원 - 치과의원"},{"name":"미래영어교습소","tel":"031-339-0533","addr":"경기도 용인시 처인구 포곡읍 둔전리 152-1번지 나동 3층 301호","category":"학원 - 외국어학원"}]},{"lat":"37.281014687","long":"127.22248106","items":[{"name":"루미영어수학전문학원","tel":"031-338-6687","addr":"경기도 용인시 처인구 포곡읍 전대리 125-2번지","category":"학원 - 보습학원"}]},{"lat":"37.273963673","long":"127.19420572","items":[{"name":"루트(Route)889","tel":"031-000-0000","addr":"경기도 용인시 처인구 포곡읍 마성리 325번지 A,B동 1층","category":"일반휴게음식 - 서양음식"}]},{"lat":"37.2810733","long":"127.22487173","items":[{"name":"르솔레일커피(Le soleil coffee)","tel":"","addr":"경기도 용인시 처인구 포곡읍 전대리 102-2번지 1층","category":"일반휴게음식 - 서양음식"},{"name":"송정누룽지백숙","tel":"031-336-0294","addr":"경기도 용인시 처인구 포곡읍 전대리 102-2번지 외1필지","category":"일반휴게음식 - 일반한식"}]},{"lat":"37.282658643","long":"127.22026443","items":[{"name":"리드앤톡전쌤영어학원","tel":"031-337-0913","addr":"경기도 용인시 처인구 포곡읍 전대리 150-8번지","category":"학원 - 외국어학원"},{"name":"본가쫄갈비족발","tel":"031-333-9266","addr":"경기도 용인시 처인구 포곡읍 전대리 150-8번지 1층","category":"일반휴게음식 - 일반한식"}]},{"lat":"37.282903988","long":"127.23345831","items":[{"name":"리빙가이드","tel":"031-339-9311","addr":"경기도 용인시 처인구 포곡읍 479-4번지","category":"신변잡화 - 기타잡화"}]},{"lat":"37.286375947","long":"127.21747849","items":[{"name":"리츠모텔","tel":"031-334-3573","addr":"경기도 용인시 처인구 포곡읍 전대리 191-28번지","category":"숙박업 - 여관/기타숙박업"}]},{"lat":"37.278210795","long":"127.23286894","items":[{"name":"마구산오리골","tel":"031-321-1701","addr":"경기도 용인시 처인구 포곡읍 삼계리 550-16","category":"일반휴게음식 - 일반한식"}]},{"lat":"37.264494254","long":"127.22495835","items":[{"name":"마구산옻닭","tel":"031-336-2662","addr":"경기도 용인시 처인구 포곡읍 금어리 643-1번지 1층","category":"일반휴게음식 - 일반한식"}]},{"lat":"37.280715739","long":"127.23282018","items":[{"name":"마녀스타일","tel":"031-334-6950","addr":"경기도 용인시 처인구 포곡읍 삼계리 490-15번지","category":"의류 - 정장"},{"name":"할매산가마솥순대국","tel":"031-000-0000","addr":"경기도 용인시 처인구 포곡읍 삼계리 490-15번지","category":"일반휴게음식 - 일반한식"}]},{"lat":"37.284545505","long":"127.21822882","items":[{"name":"마당맛골","tel":"031-338-3815","addr":"경기도 용인시 처인구 포곡읍 전대리 196-4번지","category":"일반휴게음식 - 일반한식"},{"name":"셀트리온헤어&스킨","tel":"031-333-2886","addr":"경기도 용인시 처인구 포곡읍 전대리 196-4번지","category":"보건위생 - 미용원"},{"name":"엄마의식탁","tel":"031-339-1267","addr":"경기도 용인시 처인구 포곡읍 전대리 196-4번지","category":"일반휴게음식 - 일반한식"},{"name":"제주도니돈","tel":"070-4036-5119","addr":"경기도 용인시 처인구 포곡읍 전대리 196-4번지","category":"일반휴게음식 - 일반한식"}]},{"lat":"37.272487276","long":"127.20952426","items":[{"name":"마당엘푸드","tel":"031-287-8488","addr":"경기도 용인시 처인구 포곡읍 영문리 555번지 배머루마을인정베네치아빌리지 104동 1202호","category":"신변잡화 - 기타잡화"}]},{"lat":"37.283463603","long":"127.21859785","items":[{"name":"마리오","tel":"031-338-2172","addr":"경기도 용인시 처인구 포곡읍 전대리 184-6번지","category":"일반휴게음식 - 일반한식"}]},{"lat":"37.300324736","long":"127.21695417","items":[{"name":"마마트 (삼성화재교통박물관점)","tel":"","addr":"경기도 용인시 처인구 포곡읍 유운리 432번지 삼성교통박물관 삼성교통박물관부지내마마트","category":"유통업 영리 - 슈퍼마켓"},{"name":"삼성화재 교통박물관","tel":"031-320-9905","addr":"경기도 용인시 처인구 포곡읍 유운리 432번지","category":"신변잡화 - 기념품점"}]},{"lat":"37.27326806","long":"127.18970532","items":[{"name":"마성낚시터식당","tel":"031-332-3901","addr":"경기도 용인시 처인구 포곡읍 마성리 311-1번지","category":"일반휴게음식 - 일반한식"}]},{"lat":"37.278433118","long":"127.18831992","items":[{"name":"마성농원","tel":"031-332-5945","addr":"경기도 용인시 처인구 포곡읍 마성리 497-3","category":"음료식품 - 농·축·수산품"}]},{"lat":"37.29809748","long":"127.22281267","items":[{"name":"마인드정공","tel":"","addr":"경기도 용인시 처인구 포곡읍 유운리 321-5번지","category":"기타 - 기계공구"},{"name":"움모터스포츠(UM)","tel":"070-4123-6363","addr":"경기도 용인시 처인구 포곡읍 유운리 321-5번지","category":"자동차정비 유지 - 자동차부품"}]},{"lat":"37.270046269","long":"127.21917966","items":[{"name":"마초족발","tel":"031-336-1050","addr":"경기도 용인시 처인구 포곡읍 둔전리 190-13번지 보라빌딩 2층","category":"일반휴게음식 - 일반한식"},{"name":"보라보습학원","tel":"031-339-3818","addr":"경기도 용인시 처인구 포곡읍 둔전리 190-13번지 보라빌딩 3층","category":"학원 - 보습학원"},{"name":"보라보습학원","tel":"031-339-3818","addr":"경기도 용인시 처인구 포곡읍 둔전리 190-13번지 보라빌딩 3층","category":"학원 - 보습학원"},{"name":"보라음악학원","tel":"","addr":"경기도 용인시 처인구 포곡읍 둔전리 190-13번지 보라빌딩 3층","category":"학원 - 예·체능계학원"},{"name":"비이카페펀비어킹","tel":"031-333-6893","addr":"경기도 용인시 처인구 포곡읍 둔전리190-13","category":"일반휴게음식 - 일반한식"},{"name":"스시담","tel":"031-322-1117","addr":"경기도 용인시 처인구 포곡읍 둔전리 190-13번지 보라빌딩 1층 일부","category":"일반휴게음식 - 일식·회집"},{"name":"유진파라팜","tel":"031-334-7036","addr":"경기도 용인시 처인구 포곡읍 둔전리 190-13번지","category":"보건위생 - 미용원"}]},{"lat":"37.285267631","long":"127.21750918","items":[{"name":"막창일번지","tel":"031-337-2131","addr":"경기도 용인시 처인구 포곡읍 전대리 189-2번지 1층","category":"일반휴게음식 - 일반한식"},{"name":"신바람노래연습장","tel":"031-332-0855","addr":"경기도 용인시 처인구 포곡읍 전대리189-2","category":"레저업소 - 노 래 방"},{"name":"자연사진관","tel":"031-333-6542","addr":"경기도 용인시 처인구 포곡읍 전대리189-2","category":"광학제품 - 사진관"}]},{"lat":"37.280105622","long":"127.23148778","items":[{"name":"맛고을","tel":"031-323-5679","addr":"경기도 용인시 처인구 포곡읍 삼계리 463-8번지","category":"일반휴게음식 - 일반한식"},{"name":"포곡식당","tel":"031-339-2722","addr":"경기도 용인시 처인구 포곡읍 삼계리 463-8번지 민영빌딩","category":"일반휴게음식 - 일반한식"}]},{"lat":"37.280158244","long":"127.23223214","items":[{"name":"맛고을","tel":"031-323-5679","addr":"경기도 용인시 처인구 포곡읍 삼계리 465-8번지 지하","category":"일반휴게음식 - 일반한식"},{"name":"빨간펜수학의달인포곡삼계점수학교습소","tel":"031-332-2477","addr":"경기도 용인시 처인구 포곡읍 삼계리 465-8번지 2층","category":"학원 - 보습학원"},{"name":"우리집 강아지","tel":"031-322-1171","addr":"경기도 용인시 처인구 포곡읍 삼계리 465-8번지","category":"문화.취미 - 애완동물"},{"name":"윤인숙미용실","tel":"031-339-8221","addr":"경기도 용인시 처인구 포곡읍 삼계리465-8","category":"보건위생 - 미용원"},{"name":"한양대태권도체육관","tel":"031-332-2477","addr":"경기도 용인시 처인구 포곡읍 삼계리 465-8번지 2층","category":"학원 - 예·체능계학원"}]},{"lat":"37.271543999","long":"127.21806777","items":[{"name":"매코미닭발","tel":"031-333-9288","addr":"경기도 용인시 처인구 포곡읍 둔전리 171-9번지 1층","category":"일반휴게음식 - 스넥"},{"name":"한아름슈퍼","tel":"031-338-5304","addr":"경기도 용인시 처인구 포곡읍 둔전리 171-9번지 한아름슈퍼 103호","category":"유통업 영리 - 슈퍼마켓"}]},{"lat":"37.31279407","long":"127.21739562","items":[{"name":"맥가이버만물","tel":"031-334-8988","addr":"경기도 용인시 처인구 포곡읍 신원리 472-4번지 1층","category":"자동차정비 유지 - 카인테리어"}]},{"lat":"37.268737701","long":"127.2203146","items":[{"name":"머리나라","tel":"031-322-8321","addr":"경기도 용인시 처인구 포곡읍 둔전리131-2,1층1호","category":"보건위생 - 미용원"},{"name":"수선 박사","tel":"070-8945-7242","addr":"경기도 용인시 처인구 포곡읍 둔전리 131-2번지 유로빌리지 1층 102호","category":"수리서비스 - 세탁소"},{"name":"하우연","tel":"031-336-1860","addr":"경기도 용인시 처인구 포곡읍 둔전리 131-2번지 유로빌리지 105호","category":"신변잡화 - 기타잡화"}]},{"lat":"37.269490712","long":"127.21748694","items":[{"name":"메디팜용인약국","tel":"031-339-9346","addr":"경기도 용인시 처인구 포곡읍 둔전리 152-9번지","category":"약국 - 약국"},{"name":"범세이비인후과","tel":"031-322-1219","addr":"경기도 용인시 처인구 포곡읍 둔전리 152-9번지 2층","category":"의원 - 의원"},{"name":"헤어하우스","tel":"031-335-3270","addr":"경기도 용인시 처인구 포곡읍 둔전리 152-9번지 1층","category":"보건위생 - 미용원"}]},{"lat":"37.286296548","long":"127.2165423","items":[{"name":"메밀향기","tel":"031-334-8937","addr":"경기도 용인시 처인구 포곡읍 전대리 356-10 외2필지 B","category":"일반휴게음식 - 일반한식"}]},{"lat":"37.271764575","long":"127.22062772","items":[{"name":"메탈냉장","tel":"031-336-3009","addr":"경기도 용인시 처인구 포곡읍 둔전리 192-1번지","category":"회원제형태 - 기타4"},{"name":"서주건재철물","tel":"031-333-9136","addr":"경기도 용인시 처인구 포곡읍 둔전리192-1","category":"기타 - 기계공구"},{"name":"탑당구클럽","tel":"031-321-1938","addr":"경기도 용인시 처인구 포곡읍 둔전리 192-1번지 2층","category":"레저업소 - 당 구 장"},{"name":"한국스틸하우스","tel":"031-322-2770","addr":"경기도 용인시 처인구 포곡읍 둔전리 192-1번지","category":"건축자재 - 기타건축자재"}]},{"lat":"37.277184875","long":"127.19695379","items":[{"name":"멘토오피스","tel":"031-321-8078","addr":"경기도 용인시 처인구 포곡읍 마성리 59-2번지","category":"사무통신 - 사무용 OA기기"},{"name":"하나컴퓨터","tel":"070-8676-8230","addr":"경기도 용인시 처인구 포곡읍 마성리 59-2번지 1층 101호","category":"사무통신 - 컴퓨터"}]},{"lat":"37.277319857","long":"127.23231374","items":[{"name":"명가","tel":"031-323-1151","addr":"경기도 용인시 처인구 포곡읍 삼계리 544-3번지 1층","category":"일반휴게음식 - 일반한식"}]},{"lat":"37.28501508","long":"127.21765505","items":[{"name":"명동칡냉면","tel":"031-333-6599","addr":"경기도 용인시 처인구 포곡읍 전대리 188-2번지","category":"일반휴게음식 - 중국식"}]},{"lat":"37.306042411","long":"127.22392993","items":[{"name":"명성공업사","tel":"031-322-8187","addr":"경기도 용인시 처인구 포곡읍 신원리 40-3","category":"자동차정비 유지 - 자동차시트·타이어"},{"name":"백년손님","tel":"031-338-4590","addr":"경기도 용인시 처인구 포곡읍 신원리 40-3번지","category":"일반휴게음식 - 일반한식"},{"name":"예원","tel":"031-322-8089","addr":"경기도 용인시 처인구 포곡읍 신원리 40-3","category":"일반휴게음식 - 중국식"},{"name":"은영식당","tel":"031-334-6099","addr":"경기도 용인시 처인구 포곡읍 신원리 40-3번지","category":"일반휴게음식 - 일반한식"}]},{"lat":"37.266605925","long":"127.21831301","items":[{"name":"명성하이마트","tel":"031-339-8095","addr":"경기도 용인시 처인구 포곡읍 둔전리 144-12 제1층 111-104","category":"유통업 영리 - 슈퍼마켓"}]},{"lat":"37.269849011","long":"127.21864921","items":[{"name":"명인참치","tel":"031-323-2006","addr":"경기도 용인시 처인구 포곡읍 둔전리 156-10번지 2층","category":"일반휴게음식 - 일식·회집"},{"name":"어머나노래연습장","tel":"031-332-7418","addr":"경기도 용인시 처인구 포곡읍 둔전리 156-10번지 종합전자프라자 3층","category":"레저업소 - 노 래 방"},{"name":"육회지존","tel":"070-8289-9956","addr":"경기도 용인시 처인구 포곡읍 둔전리 156-10번지","category":"일반휴게음식 - 일반한식"},{"name":"정관장 포곡점","tel":"031-322-2304","addr":"경기도 용인시 처인구 포곡읍 둔전리 156-10번지 종합전자프라자 1층","category":"건강식품 - 홍삼제품"}]},{"lat":"37.3007098","long":"127.23723467","items":[{"name":"명품콘테이너","tel":"031-767-0883","addr":"경기도 용인시 처인구 포곡읍 삼계리 46번지","category":"건축자재 - 기타건축자재"}]},{"lat":"37.279158963","long":"127.23178936","items":[{"name":"모나코","tel":"031-332-2232","addr":"경기도 용인시 처인구 포곡읍 삼계리 562-6번지","category":"숙박업 - 여관/기타숙박업"}]},{"lat":"37.268932182","long":"127.2223445","items":[{"name":"모던","tel":"","addr":"경기도 용인시 처인구 포곡읍 둔전리 123-1번지 302호","category":"주방용구 - 정수기"}]},{"lat":"37.299491682","long":"127.22409122","items":[{"name":"모던콘테이너","tel":"031-321-4031","addr":"경기도 용인시 처인구 포곡읍 유운리 157-4","category":"기타 - 기계공구"}]},{"lat":"37.282382274","long":"127.23300567","items":[{"name":"모두와노래연습장","tel":"031-332-5069","addr":"경기도 용인시 처인구 포곡읍 삼계리 479-18번지 2층","category":"레저업소 - 노 래 방"},{"name":"주막집냉막걸리","tel":"031-323-6066","addr":"경기도 용인시 처인구 포곡읍 삼계리479-18","category":"일반휴게음식 - 주점"},{"name":"즐거운집","tel":"031-322-2208","addr":"경기도 용인시 처인구 포곡읍 삼계리 479-18번지 1층","category":"일반휴게음식 - 일반한식"}]},{"lat":"37.28079982","long":"127.22173623","items":[{"name":"모든공구수리","tel":"031-336-5230","addr":"경기도 용인시 처인구 포곡읍 전대리 157-15번지","category":"수리서비스 - 기타수리서비스"},{"name":"열매문구","tel":"031-334-8423","addr":"경기도 용인시 처인구 포곡읍 전대리157-15","category":"서적문구 - 문구용품"}]},{"lat":"37.275382586","long":"127.24589434","items":[{"name":"모모갤러리","tel":"031-339-2032","addr":"경기도 용인시 처인구 포곡읍 금어리 363-8번지","category":"가구 - 일반가구"}]},{"lat":"37.268661143","long":"127.22273831","items":[{"name":"모모헤어","tel":"031-338-5909","addr":"경기도 용인시 처인구 포곡읍 둔전리 122-1번지 1층 일부","category":"보건위생 - 미용원"},{"name":"전자담배","tel":"","addr":"경기도 용인시 처인구 포곡읍 둔전리 122-1번지 은파샘교회 4호","category":"기타 - 기타 전문점"},{"name":"한뚝수육국밥","tel":"031-337-0703","addr":"경기도 용인시 처인구 포곡읍 둔전리 122-1번지 1층 일부","category":"일반휴게음식 - 일반한식"},{"name":"홍익미술보습학원","tel":"031-334-3826","addr":"경기도 용인시 처인구 포곡읍 둔전리122-1","category":"학원 - 예·체능계학원"}]},{"lat":"37.273853849","long":"127.20604406","items":[{"name":"모아캠","tel":"031-322-4917","addr":"경기도 용인시 처인구 포곡읍 영문리 386번지","category":"건축자재 - 인테리어전문"}]},{"lat":"37.275935963","long":"127.23040403","items":[{"name":"목림분식","tel":"031-332-5042","addr":"경기도 용인시 처인구 포곡읍 삼계리533","category":"일반휴게음식 - 스넥"}]},{"lat":"37.274599884","long":"127.21225857","items":[{"name":"몬스터 펫샵 용인포곡점","tel":"031-321-4794","addr":"경기도 용인시 처인구 포곡읍 영문리 113-6번지 수하림 1층 201호","category":"문화.취미 - 애완동물"},{"name":"살롱 드 수하림","tel":"031-321-6232","addr":"경기도 용인시 처인구 포곡읍 영문리 113-6번지 수하림 1동 115호","category":"음료식품 - 기타음료식품"},{"name":"수하림","tel":"031-321-6232","addr":"경기도 용인시 처인구 포곡읍 영문리 113-6번지 수하림 1동 116호","category":"문화.취미 - 화원"},{"name":"어웨이 스튜디오","tel":"","addr":"경기도 용인시 처인구 포곡읍 영문리 113-6번지 1동 123호 124호","category":"광학제품 - 사진관"},{"name":"웹트리스(webttress)용인점","tel":"","addr":"경기도 용인시 처인구 포곡읍 영문리 113-6번지 1동 111~114호","category":"가구 - 일반가구"}]},{"lat":"37.295738946","long":"127.22165544","items":[{"name":"몬스터펫샵 에버랜드점","tel":"","addr":"경기도 용인시 처인구 포곡읍 유운리 364-1번지 1층","category":"문화.취미 - 애완동물"}]},{"lat":"37.275765226","long":"127.19451471","items":[{"name":"무궁화식당","tel":"031-332-7574","addr":"경기도 용인시 처인구 포곡읍 마성리 23-6번지 1층","category":"일반휴게음식 - 일반한식"}]},{"lat":"37.282270292","long":"127.22075946","items":[{"name":"무지개 피아노 교습소","tel":"031-322-7949","addr":"경기도 용인시 처인구 포곡읍 전대리 151-2번지 (외1필지롯데A(1층)104호)","category":"학원 - 예·체능계학원"}]},{"lat":"37.313959954","long":"127.22037708","items":[{"name":"무진장","tel":"031-339-9378","addr":"경기도 용인시 처인구 포곡읍 신원리251-5","category":"일반휴게음식 - 일반한식"}]},{"lat":"37.275295155","long":"127.20623961","items":[{"name":"물어 실내바다낚시터 (용인점)","tel":"","addr":"경기도 용인시 처인구 포곡읍 영문리 82번지","category":"레저업소 - 기타레져업소"}]},{"lat":"37.277327137","long":"127.23320451","items":[{"name":"뮤직게스트","tel":"070-8944-5609","addr":"경기도 용인시 처인구 포곡읍 삼계리 544-4번지","category":"숙박업 - 여관/기타숙박업"}]},{"lat":"37.282902332","long":"127.22003961","items":[{"name":"미경이네식당","tel":"031-321-7096","addr":"경기도 용인시 처인구 포곡읍 전대리 150-4번지 1층","category":"일반휴게음식 - 일반한식"},{"name":"박쌤의바른수학학원","tel":"031-332-3661","addr":"경기도 용인시 처인구 포곡읍 전대리 150-4번지 2층","category":"학원 - 보습학원"}]},{"lat":"37.316375979","long":"127.21967333","items":[{"name":"미니스톱 용인신원리점","tel":"031-1577-9621","addr":"경기도 용인시 처인구 포곡읍 신원리 223-2번지 1층","category":"유통업 영리 - 편 의 점"}]},{"lat":"37.268184357","long":"127.23184633","items":[{"name":"미니스톱용인금어점","tel":"031-426-3992","addr":"경기도 용인시 처인구 포곡읍 금어리 613-6","category":"유통업 영리 - 편 의 점"}]},{"lat":"37.268432263","long":"127.21981767","items":[{"name":"미뎅","tel":"031-335-7889","addr":"경기도 용인시 처인구 포곡읍 둔전리 131-14번지","category":"일반휴게음식 - 스넥"},{"name":"쭈헤어","tel":"031-335-9165","addr":"경기도 용인시 처인구 포곡읍 둔전리 131-14번지 돈내고돈먹기 2호","category":"보건위생 - 미용원"},{"name":"착한밥도둑둔전점","tel":"031-321-7828","addr":"경기도 용인시 처인구 포곡읍 둔전리 131-14번지 1층","category":"음료식품 - 기타음료식품"},{"name":"춘천소양강닭갈비","tel":"031-333-9897","addr":"경기도 용인시 처인구 포곡읍 둔전리 131-14번지","category":"일반휴게음식 - 일반한식"}]},{"lat":"37.28124036","long":"127.2222562","items":[{"name":"미래식당","tel":"031-334-1013","addr":"경기도 용인시 처인구 포곡읍 전대리130-4","category":"일반휴게음식 - 일반한식"}]},{"lat":"37.279824384","long":"127.21809134","items":[{"name":"미르컴퍼니","tel":"070-7420-6785","addr":"경기도 용인시 처인구 포곡읍 전대리 419-13번지 110동 201호","category":"의류 - 기타의류"},{"name":"효원아트","tel":"031-446-4437","addr":"경기도 용인시 처인구 포곡읍 전대리 419-13번지 펠리체타운 110동 502호","category":"학원 - 기타 교육기관"}]},{"lat":"37.266713884","long":"127.21840351","items":[{"name":"미소미용실","tel":"070-8976-6562","addr":"경기도 용인시 처인구 포곡읍 둔전리 144-12번지 상우빌라 111동 104호","category":"보건위생 - 미용원"}]},{"lat":"37.286601447","long":"127.21734381","items":[{"name":"미스터포차","tel":"031-332-9616","addr":"경기도 용인시 처인구 포곡읍 전대리 191-50번지","category":"일반휴게음식 - 일반한식"},{"name":"에버당구클럽","tel":"031-321-7760","addr":"경기도 용인시 처인구 포곡읍 전대리 191-50번지 2층","category":"레저업소 - 당 구 장"},{"name":"에버부여만물","tel":"031-335-9973","addr":"경기도 용인시 처인구 포곡읍 전대리 191-50번지","category":"자동차정비 유지 - 자동차부품"},{"name":"진사운드만물","tel":"031-332-6036","addr":"경기도 용인시 처인구 포곡읍 전대리 191-50번지","category":"자동차정비 유지 - 자동차부품"},{"name":"카페포유(Cafe for you)","tel":"031-333-0906","addr":"경기도 용인시 처인구 포곡읍 전대리 191-50번지 1층","category":"일반휴게음식 - 서양음식"}]},{"lat":"37.268795963","long":"127.21801485","items":[{"name":"미코(mico)","tel":"031-335-7987","addr":"경기도 용인시 처인구 포곡읍 둔전리 151-10번지 3호","category":"의류 - 정장"},{"name":"밤새지기","tel":"031-336-0420","addr":"경기도 용인시 처인구 포곡읍 둔전리 151-10번지 1층 2호","category":"일반휴게음식 - 일반한식"},{"name":"전설의곱창","tel":"031-333-1113","addr":"경기도 용인시 처인구 포곡읍 둔전리 151-10번지","category":"일반휴게음식 - 일반한식"}]},{"lat":"37.284852794","long":"127.21771097","items":[{"name":"민속보쌈","tel":"031-333-2294","addr":"경기도 용인시 처인구 포곡읍 전대리 187-1번지","category":"일반휴게음식 - 일반한식"},{"name":"에버교복","tel":"031-337-0720","addr":"경기도 용인시 처인구 포곡읍 전대리 187-1번지 2층","category":"의류 - 단체복"},{"name":"특공무술정도관","tel":"031-334-5260","addr":"경기도 용인시 처인구 포곡읍 전대리187-1","category":"회원제형태 - 학원"}]},{"lat":"37.269828041","long":"127.22026137","items":[{"name":"바빈스 용인둔전점","tel":"031-334-2299","addr":"경기도 용인시 처인구 포곡읍 둔전리 191-11번지 A동 1층","category":"일반휴게음식 - 일반한식"}]},{"lat":"37.278348253","long":"127.2496248","items":[{"name":"바에이치(Bar H)","tel":"031-337-1458","addr":"경기도 용인시 처인구 포곡읍 금어리 386-13번지 외1필지 201호","category":"일반휴게음식 - 일반한식"}]},{"lat":"37.295822322","long":"127.22526468","items":[{"name":"바이퍼샵","tel":"031-000-0000","addr":"경기도 용인시 처인구 포곡읍 유운리 103-2번지 나동","category":"자동차정비 유지 - 자동차부품"}]},{"lat":"37.281097156","long":"127.22173709","items":[{"name":"바탕소창작소미술학원","tel":"031-337-3379","addr":"경기도 용인시 처인구 포곡읍 전대리 157-10번지 외3필지 2층 일부","category":"학원 - 예·체능계학원"},{"name":"화이트크리닝","tel":"031-339-8281","addr":"경기도 용인시 처인구 포곡읍 전대리 157-10","category":"수리서비스 - 세탁소"}]},{"lat":"37.272731417","long":"127.21913097","items":[{"name":"바하티슬링(Vehati)","tel":"031-335-6949","addr":"경기도 용인시 처인구 포곡읍 둔전리 179번지 창원그린빌 다동 201호","category":"의류 - 내의판매"}]},{"lat":"37.286461128","long":"127.21012629","items":[{"name":"밤나무골","tel":"031-333-6615","addr":"경기도 용인시 처인구 포곡읍 전대리 473-4번지","category":"일반휴게음식 - 일반한식"}]},{"lat":"37.281208408","long":"127.18823652","items":[{"name":"방배동순대국밥뼈해장국","tel":"031-338-1771","addr":"경기도 용인시 처인구 포곡읍 마성리 554번지 1층","category":"일반휴게음식 - 일반한식"}]},{"lat":"37.269016044","long":"127.22084529","items":[{"name":"배둘레24인치족발보쌈","tel":"031-338-8925","addr":"경기도 용인시 처인구 포곡읍 둔전리194-21","category":"일반휴게음식 - 일반한식"}]},{"lat":"37.270297895","long":"127.21954116","items":[{"name":"백두산갈비","tel":"031-323-4777","addr":"경기도 용인시 처인구 포곡읍 둔전리 190-27번지","category":"일반휴게음식 - 일반한식"}]},{"lat":"37.277739595","long":"127.19382064","items":[{"name":"백터 바이오","tel":"031-334-6678","addr":"경기도 용인시 처인구 포곡읍 마성리 268-1번지 4층 401호","category":"용역 서비스 - 사무서비스"},{"name":"삼미당막국수","tel":"031-000-0000","addr":"경기도 용인시 처인구 포곡읍 마성리 268-1번지","category":"일반휴게음식 - 일반한식"}]},{"lat":"37.268431809","long":"127.22006569","items":[{"name":"번영마트","tel":"031-333-8831","addr":"경기도 용인시 처인구 포곡읍 둔전리 131-7번지","category":"유통업 영리 - 슈퍼마켓"}]},{"lat":"37.269433882","long":"127.2190088","items":[{"name":"베스트올(둔전점)","tel":"031-334-8186","addr":"경기도 용인시 처인구 포곡읍 둔전리 155-4","category":"유통업 영리 - 편 의 점"},{"name":"숯구소","tel":"031-337-3975","addr":"경기도 용인시 처인구 포곡읍 둔전리 155-4번지","category":"일반휴게음식 - 일반한식"},{"name":"신기세탁소","tel":"031-332-9769","addr":"경기도 용인시 처인구 포곡읍 둔전리 155-4번지","category":"수리서비스 - 세탁소"}]},{"lat":"37.309011508","long":"127.22620593","items":[{"name":"벨리노","tel":"031-322-0587","addr":"경기도 용인시 처인구 포곡읍 신원리 163번지","category":"가구 - 일반가구"}]},{"lat":"37.27604829","long":"127.22820571","items":[{"name":"병천아우네장터순대","tel":"031-321-5655","addr":"경기도 용인시 처인구 포곡읍 둔전리 84-34번지 상가제1호 1층","category":"일반휴게음식 - 일반한식"},{"name":"전가복북경오리","tel":"031-323-5289","addr":"경기도 용인시 처인구 포곡읍 둔전리 84-34번지 1층","category":"일반휴게음식 - 중국식"}]},{"lat":"37.282034314","long":"127.22650959","items":[{"name":"보광재활용센타","tel":"","addr":"경기도 용인시 처인구 포곡읍 전대리 88-1번지 동양에버타운 2동 101호","category":"신변잡화 - 기타잡화"}]},{"lat":"37.268907506","long":"127.22107046","items":[{"name":"보글보글찌개방","tel":"031-334-3325","addr":"경기도 용인시 처인구 포곡읍 둔전리 194-33","category":"일반휴게음식 - 일반한식"}]},{"lat":"37.285270117","long":"127.21613344","items":[{"name":"보보","tel":"031-274-0535","addr":"경기도 용인시 처인구 포곡읍 전대리 369-21번지 헤렌하우스 2동 303호","category":"의류 - 내의판매"}]},{"lat":"37.267523097","long":"127.21934155","items":[{"name":"복덕이고추짬뽕","tel":"031-337-0803","addr":"경기도 용인시 처인구 포곡읍 둔전리 141-3번지 1층","category":"일반휴게음식 - 중국식"}]},{"lat":"37.281351684","long":"127.22536869","items":[{"name":"봄푸드고기뷔페","tel":"","addr":"경기도 용인시 처인구 포곡읍 전대리 102-1번지","category":"일반휴게음식 - 일반한식"},{"name":"에버맛집","tel":"","addr":"경기도 용인시 처인구 포곡읍 전대리 102-1번지 2층","category":"일반휴게음식 - 일반한식"}]},{"lat":"37.285186437","long":"127.21756533","items":[{"name":"봉구비어(용인에버랜드점)","tel":"02-0000-0000","addr":"경기도 용인시 처인구 포곡읍 전대리 188-5번지 지하1층","category":"일반휴게음식 - 주점"},{"name":"파리바게뜨 용인포곡점","tel":"031-336-6876","addr":"경기도 용인시 처인구 포곡읍 전대리 188-5번지 1층","category":"음료식품 - 제과점"}]},{"lat":"37.286269069","long":"127.21679031","items":[{"name":"봉부대찌개","tel":"031-339-3522","addr":"경기도 용인시 처인구 포곡읍 전대리 358-2","category":"일반휴게음식 - 일반한식"},{"name":"아지트당구클럽","tel":"070-8116-8290","addr":"경기도 용인시 처인구 포곡읍 전대리 358-2번지","category":"레저업소 - 당 구 장"},{"name":"테크노","tel":"031-339-9666","addr":"경기도 용인시 처인구 포곡읍 전대리 358-2번지","category":"레저업소 - 노 래 방"},{"name":"해피로PC 용인에버랜드점","tel":"","addr":"경기도 용인시 처인구 포곡읍 전대리 358-2번지 지하1층","category":"레저업소 - 기타레져업소"}]},{"lat":"37.2722927","long":"127.2225121","items":[{"name":"부대앞체육사","tel":"031-322-5708","addr":"경기도 용인시 처인구 포곡읍 둔전리 200-8번지","category":"레져용품 - 스포츠·레져용품"},{"name":"한국타이어더타이어샵포곡점","tel":"070-8879-2208","addr":"경기도 용인시 처인구 포곡읍 둔전리 200-8번지","category":"자동차정비 유지 - 자동차정비"}]},{"lat":"37.270435988","long":"127.21792932","items":[{"name":"부흥매운갈비찜","tel":"031-333-3941","addr":"경기도 용인시 처인구 포곡읍 둔전리 160번지","category":"일반휴게음식 - 일반한식"},{"name":"새물내춘천닭갈비","tel":"031-339-6710","addr":"경기도 용인시 처인구 포곡읍 둔전리 160번지 1층","category":"일반휴게음식 - 일반한식"},{"name":"신의한쌈","tel":"031-334-3888","addr":"경기도 용인시 처인구 포곡읍 둔전리 160번지 1층 101,102호","category":"일반휴게음식 - 일반한식"},{"name":"에듀홀릭영수전문학원","tel":"031-334-1318","addr":"경기도 용인시 처인구 포곡읍 둔전리 160번지 4층","category":"회원제형태 - 학원"}]},{"lat":"37.300432135","long":"127.23178614","items":[{"name":"북수원적재함","tel":"031-296-7702","addr":"경기도 용인시 처인구 포곡읍 유운리 11-3번지","category":"자동차정비 유지 - 자동차부품"}]},{"lat":"37.268493139","long":"127.22101289","items":[{"name":"불난닭발","tel":"031-333-4559","addr":"경기도 용인시 처인구 포곡읍 둔전리126-1","category":"일반휴게음식 - 칵테일바"},{"name":"셀파우등생학원","tel":"","addr":"경기도 용인시 처인구 포곡읍 둔전리 126-1번지 J&B빌딩 2층","category":"학원 - 보습학원"},{"name":"씨엘","tel":"031-336-3242","addr":"경기도 용인시 처인구 포곡읍 둔전리 126-1번지 102호 (J&B빌딩)","category":"일반휴게음식 - 서양음식"},{"name":"엠(M)헤어","tel":"031-335-3458","addr":"경기도 용인시 처인구 포곡읍 둔전리 126-1번지 101호 (J&B빌딩)","category":"보건위생 - 미용원"}]},{"lat":"37.267298802","long":"127.21381671","items":[{"name":"뷰티플헤어","tel":"070-4032-2037","addr":"경기도 용인시 처인구 포곡읍 둔전리 406-25번지 1층","category":"보건위생 - 미용원"}]},{"lat":"37.269272459","long":"127.21859119","items":[{"name":"뷰티하우스","tel":"031-322-9136","addr":"경기도 용인시 처인구 포곡읍 둔전리 155-12","category":"보건위생 - 피부미용실"},{"name":"조아저씨","tel":"031-335-0885","addr":"경기도 용인시 처인구 포곡읍 둔전리 155-12번지 1층","category":"일반휴게음식 - 일반한식"}]},{"lat":"37.315682342","long":"127.21959237","items":[{"name":"브이에이지(VAG)","tel":"031-338-5639","addr":"경기도 용인시 처인구 포곡읍 신원리223-4","category":"자동차정비 유지 - 자동차부품"}]},{"lat":"37.308931458","long":"127.22565297","items":[{"name":"블루 스페이스쉽(Blue Spaceship)","tel":"","addr":"경기도 용인시 처인구 포곡읍 신원리 145-2번지","category":"자동차정비 유지 - 자동차부품"}]},{"lat":"37.286628825","long":"127.21715218","items":[{"name":"비바리노래연습장","tel":"031-333-5703","addr":"경기도 용인시 처인구 포곡읍 전대리 191-4번지","category":"레저업소 - 노 래 방"}]},{"lat":"37.281101993","long":"127.23343026","items":[{"name":"비어캠프","tel":"031-335-2710","addr":"경기도 용인시 처인구 포곡읍 삼계리 490-31번지","category":"일반휴게음식 - 일반한식"},{"name":"예술","tel":"031-321-7799","addr":"경기도 용인시 처인구 포곡읍 삼계리 490-31번지","category":"일반휴게음식 - 주점"}]},{"lat":"37.271187423","long":"127.22089664","items":[{"name":"비에이치씨 둔전점","tel":"031-328-8389","addr":"경기도 용인시 처인구 포곡읍 둔전리 192-55번지","category":"일반휴게음식 - 스넥"}]},{"lat":"37.299652457","long":"127.21998624","items":[{"name":"비플라이","tel":"031-333-3773","addr":"경기도 용인시 처인구 포곡읍 유운리 770번지","category":"음료식품 - 농·축·수산품"}]},{"lat":"37.276050196","long":"127.24547931","items":[{"name":"빈앤디쉬","tel":"","addr":"경기도 용인시 처인구 포곡읍 금어리 405-1번지 용인시민체육센터 1층","category":"일반휴게음식 - 일반한식"},{"name":"쿤칸(KUN KHAN)","tel":"031-338-5425","addr":"경기도 용인시 처인구 포곡읍 금어리 405-1번지 용인시시민체육센터스포츠용품점","category":"회원제형태 - 기타4"}]},{"lat":"37.280906012","long":"127.20770929","items":[{"name":"빈투바로스터리카페","tel":"031-000-0000","addr":"경기도 용인시 처인구 포곡읍 영문리 131-3번지 1,2층","category":"음료식품 - 기타음료식품"}]},{"lat":"37.301517298","long":"127.23439487","items":[{"name":"빚자루상사","tel":"031-322-6863","addr":"경기도 용인시 처인구 포곡읍 삼계리62-8","category":"신변잡화 - 액세서리"},{"name":"세인식당","tel":"031-339-8652","addr":"경기도 용인시 처인구 포곡읍 삼계리62-8","category":"일반휴게음식 - 일반한식"},{"name":"신경방3급자동차공업사","tel":"031-322-9285","addr":"경기도 용인시 처인구 포곡읍 삼계리 62-8번지","category":"자동차정비 유지 - 자동차정비"},{"name":"차사랑모터스","tel":"031-322-9285","addr":"경기도 용인시 처인구 포곡읍 삼계리 62-8번지","category":"자동차정비 유지 - 자동차정비"}]},{"lat":"37.283353957","long":"127.21943199","items":[{"name":"빛나라문구","tel":"031-332-5452","addr":"경기도 용인시 처인구 포곡읍 전대리149","category":"서적문구 - 문구용품"},{"name":"샘과아이들학원","tel":"031-332-7631","addr":"경기도 용인시 처인구 포곡읍 전대리149,2층","category":"학원 - 보습학원"},{"name":"스타세탁소","tel":"031-333-3178","addr":"경기도 용인시 처인구 포곡읍 전대리 149","category":"수리서비스 - 세탁소"},{"name":"앤머리방","tel":"031-332-2935","addr":"경기도 용인시 처인구 포곡읍 전대리 149번지","category":"보건위생 - 미용원"}]},{"lat":"37.269461612","long":"127.21862555","items":[{"name":"빵&도넛","tel":"031-000-0000","addr":"경기도 용인시 처인구 포곡읍 둔전리 155-46번지 1,2층","category":"음료식품 - 제과점"}]},{"lat":"37.268658324","long":"127.21937862","items":[{"name":"뽀그리신닭발","tel":"031-334-8889","addr":"경기도 용인시 처인구 포곡읍 둔전리 139-22번지","category":"일반휴게음식 - 일반한식"},{"name":"신통치킨","tel":"031-339-2220","addr":"경기도 용인시 처인구 포곡읍 둔전리 139-22번지 1층일부","category":"일반휴게음식 - 스넥"},{"name":"이끌림헤어","tel":"031-333-9359","addr":"경기도 용인시 처인구 포곡읍 둔전리 139-22번지","category":"보건위생 - 미용원"},{"name":"키즈트리","tel":"070-8758-9899","addr":"경기도 용인시 처인구 포곡읍 둔전리 139-22 2","category":"신변잡화 - 신발"}]},{"lat":"37.311734654","long":"127.22025787","items":[{"name":"사골순대국돈두루치기","tel":"031-323-5035","addr":"경기도 용인시 처인구 포곡읍 신원리342-2","category":"일반휴게음식 - 일반한식"}]},{"lat":"37.295795935","long":"127.22006538","items":[{"name":"사이먼","tel":"031-322-7879","addr":"경기도 용인시 처인구 포곡읍 유운리 366-2번지 SIMON","category":"의류 - 정장"}]},{"lat":"37.28921243","long":"127.24190159","items":[{"name":"사회복지법인 천주교인보회 요한의 집","tel":"031-339-0606","addr":"경기도 용인시 처인구 포곡읍 삼계리 327번지","category":"음료식품 - 기타음료식품"}]},{"lat":"37.290763204","long":"127.24139901","items":[{"name":"사회복지법인천주교인보회","tel":"031-339-4566","addr":"경기도 용인시 처인구 포곡읍 삼계리 332-1","category":"기타의료기관 - 기타의료기관 및 기타"}]},{"lat":"37.278099192","long":"127.22525764","items":[{"name":"산수조경","tel":"031-334-7556","addr":"경기도 용인시 처인구 포곡읍 둔전리 353-1","category":"건축자재 - 인테리어전문"}]},{"lat":"37.302762184","long":"127.22420231","items":[{"name":"삼거리해장국감자탕","tel":"031-336-1229","addr":"경기도 용인시 처인구 포곡읍 유운리 204-3번지","category":"일반휴게음식 - 일반한식"},{"name":"이마트24 용인유은점","tel":"","addr":"경기도 용인시 처인구 포곡읍 유운리 204-3번지","category":"유통업 영리 - 편 의 점"}]},{"lat":"37.276937685","long":"127.19381861","items":[{"name":"삼경기획","tel":"031-322-7707","addr":"경기도 용인시 처인구 포곡읍 마성리 283-1","category":"용역 서비스 - 종합용역"},{"name":"씨에이코리아","tel":"031-337-1643","addr":"경기도 용인시 처인구 포곡읍 마성리 283-1번지","category":"용역 서비스 - 종합용역"}]},{"lat":"37.28159729","long":"127.23356708","items":[{"name":"삼계리고기장터","tel":"031-334-1514","addr":"경기도 용인시 처인구 포곡읍 삼계리 490-1번지","category":"일반휴게음식 - 일반한식"}]},{"lat":"37.267352397","long":"127.21907049","items":[{"name":"삼계리고기장터 둔전점","tel":"031-321-1512","addr":"경기도 용인시 처인구 포곡읍 둔전리 142-3번지 1층","category":"일반휴게음식 - 일반한식"}]},{"lat":"37.27977004","long":"127.23262562","items":[{"name":"삼계제분소","tel":"031-332-5444","addr":"경기도 용인시 처인구 포곡읍 삼계리557-7","category":"음료식품 - 제과점"}]},{"lat":"37.286349855","long":"127.21695969","items":[{"name":"삼광 로그인 전대","tel":"031-332-5732","addr":"경기도 용인시 처인구 포곡읍 전대리 191-9번지","category":"유통업 영리 - 슈퍼마켓"}]},{"lat":"37.286485171","long":"127.21686986","items":[{"name":"삼구포차","tel":"031-338-8295","addr":"경기도 용인시 처인구 포곡읍 전대리 356-3번지 1층","category":"일반휴게음식 - 주점"},{"name":"애버만물","tel":"031-333-9520","addr":"경기도 용인시 처인구 포곡읍 전대리 356-3번지 2층(358-3)","category":"자동차정비 유지 - 카인테리어"},{"name":"해피버스","tel":"031-333-4399","addr":"경기도 용인시 처인구 포곡읍 전대리 356-3번지 2층","category":"자동차정비 유지 - 자동차부품"}]},{"lat":"37.268690179","long":"127.22165608","items":[{"name":"삼성각","tel":"031-337-0288","addr":"경기도 용인시 처인구 포곡읍 둔전리 125-1번지","category":"일반휴게음식 - 중국식"},{"name":"인정","tel":"031-336-1009","addr":"경기도 용인시 처인구 포곡읍 둔전리 125-1번지 다모아호프 101호","category":"일반휴게음식 - 일반한식"}]},{"lat":"37.282464722","long":"127.22281228","items":[{"name":"삼성시스템자판기/삼원(일반)","tel":"","addr":"경기도 용인시 처인구 포곡읍 전대리 145-2번지 녹십자의료공업 2층 사내휴게실","category":"기타 - 기타 전문점"}]},{"lat":"37.298789723","long":"127.19245273","items":[{"name":"삼성웰스토리(주)호암관더블루","tel":"031-320-1014","addr":"경기도 용인시 처인구 포곡읍 가실리 89-1번지 본관 4층 일부","category":"일반휴게음식 - 서양음식"}]},{"lat":"37.274710593","long":"127.20559536","items":[{"name":"삼지통상","tel":"031-332-8231","addr":"경기도 용인시 처인구 포곡읍 영문리 380번지 1층","category":"의류 - 정장"},{"name":"어스틴","tel":"031-332-8231","addr":"경기도 용인시 처인구 포곡읍 영문리 380번지 하하호호빌딩 101호","category":"유통업 영리 - 편 의 점"}]},{"lat":"37.286596044","long":"127.21026199","items":[{"name":"삼학","tel":"031-1111-1111","addr":"경기도 용인시 처인구 포곡읍 전대리 474-5번지","category":"음료식품 - 기타음료식품"},{"name":"삼학가든","tel":"031-323-3551","addr":"경기도 용인시 처인구 포곡읍 전대리 474-5번지","category":"일반휴게음식 - 중국식"},{"name":"에버가참숯구이","tel":"031-336-0003","addr":"경기도 용인시 처인구 포곡읍 전대리 474-5번지 1층 2층","category":"일반휴게음식 - 일반한식"}]},{"lat":"37.316484834","long":"127.20918209","items":[{"name":"새달농원","tel":"031-332-5878","addr":"경기도 용인시 처인구 포곡읍 신원리 586","category":"건강식품 - 기타건강식품"}]},{"lat":"37.281322224","long":"127.22183922","items":[{"name":"새마을회관","tel":"031-323-2322","addr":"경기도 용인시 처인구 포곡읍 전대리 132-4번지 1층","category":"일반휴게음식 - 일반한식"}]},{"lat":"37.286404182","long":"127.21681325","items":[{"name":"새별호프","tel":"031-336-8987","addr":"경기도 용인시 처인구 포곡읍 전대리 358-1번지 2층","category":"일반휴게음식 - 주점"},{"name":"종로순대국","tel":"031-332-4481","addr":"경기도 용인시 처인구 포곡읍 전대리 358-1번지","category":"일반휴게음식 - 일반한식"}]},{"lat":"37.269186971","long":"127.21604298","items":[{"name":"새서울약국","tel":"031-338-9758","addr":"경기도 용인시 처인구 포곡읍 둔전리 379-3","category":"약국 - 약국"},{"name":"서울내과의원","tel":"031-333-2237","addr":"경기도 용인시 처인구 포곡읍 둔전리379-3 388-1번지태성빌딩3층","category":"의원 - 의원"},{"name":"용인밝은안과","tel":"031-334-7588","addr":"경기도 용인시 처인구 포곡읍 둔전리 379-3번지 201호","category":"의원 - 의원"},{"name":"청송해물찜","tel":"031-323-5131","addr":"경기도 용인시 처인구 포곡읍 둔전리 379-3번지 1층","category":"일반휴게음식 - 일반한식"},{"name":"커즈펫","tel":"070-7716-2058","addr":"경기도 용인시 처인구 포곡읍 둔전리 379-3번지 102호","category":"문화.취미 - 애완동물"},{"name":"키즈피아","tel":"031-323-5979","addr":"경기도 용인시 처인구 포곡읍 둔전리 379-3번지 태성빌딩 105호","category":"의류 - 정장"}]},{"lat":"37.2803201","long":"127.23240177","items":[{"name":"새양지약국","tel":"031-332-8741","addr":"경기도 용인시 처인구 포곡읍 삼계리465-7","category":"약국 - 약국"},{"name":"새양지약국","tel":"031-332-8741","addr":"경기도 용인시 처인구 포곡읍 삼계리 465-7번지 1층","category":"약국 - 약국"},{"name":"위드치킨","tel":"031-333-7360","addr":"경기도 용인시 처인구 포곡읍 삼계리 465-7번지","category":"일반휴게음식 - 주점"},{"name":"한양의원","tel":"031-322-7579","addr":"경기도 용인시 처인구 포곡읍 삼계리 465-7번지","category":"의원 - 의원"}]},{"lat":"37.29621075","long":"127.23415305","items":[{"name":"새현대약국","tel":"031-322-6488","addr":"경기도 용인시 처인구 포곡읍 삼계리 86-1","category":"약국 - 약국"},{"name":"장가네해정국","tel":"031-334-5013","addr":"경기도 용인시 처인구 포곡읍 삼계리 86-1번지","category":"일반휴게음식 - 일반한식"}]},{"lat":"37.285375794","long":"127.21748693","items":[{"name":"생활용품점","tel":"031-335-5199","addr":"경기도 용인시 처인구 포곡읍 전대리 189-1번지","category":"신변잡화 - 기타잡화"},{"name":"옥이호프&커피","tel":"031-339-0177","addr":"경기도 용인시 처인구 포곡읍 전대리 189-1번지 2층","category":"일반휴게음식 - 스넥"},{"name":"이모네감자탕","tel":"031-334-8928","addr":"경기도 용인시 처인구 포곡읍 전대리 189-1번지","category":"일반휴게음식 - 일반한식"},{"name":"태양당구장","tel":"","addr":"경기도 용인시 처인구 포곡읍 전대리 189-1번지","category":"레저업소 - 당 구 장"}]},{"lat":"37.264967097","long":"127.22745119","items":[{"name":"샤인스킨","tel":"070-7578-4844","addr":"경기도 용인시 처인구 포곡읍 금어리.산3봉화@라-403","category":"보건위생 - 화장품"}]},{"lat":"37.321231517","long":"127.2152309","items":[{"name":"서가금속","tel":"031-705-1812","addr":"경기도 용인시 처인구 포곡읍 신원리 561-1번지","category":"건축자재 - 건축용 요업제품"}]},{"lat":"37.286902281","long":"127.21540505","items":[{"name":"서울우유용인현곡대리점","tel":"031-332-5748","addr":"경기도 용인시 처인구 포곡읍 전대리 354-5번지","category":"음료식품 - 기타음료식품"}]},{"lat":"37.264184735","long":"127.23598284","items":[{"name":"서정산업","tel":"031-322-7794","addr":"경기도 용인시 처인구 포곡읍 금어리 521번지","category":"가구 - 기타가구"}]},{"lat":"37.282657419","long":"127.22092972","items":[{"name":"석미유통","tel":"031-000-0000","addr":"경기도 용인시 처인구 포곡읍 전대리 138-1번지 가영빌","category":"의류 - 정장"}]},{"lat":"37.282153657","long":"127.2204885","items":[{"name":"선아네농산물","tel":"0000-0000-0000","addr":"경기도 용인시 처인구 포곡읍 전대리 150-30번지 한옥빌라 402호","category":"음료식품 - 농·축·수산품"}]},{"lat":"37.280409086","long":"127.23297711","items":[{"name":"선이식품","tel":"031-332-5266","addr":"경기도 용인시 처인구 포곡읍 삼계리 491-8번지","category":"유통업 영리 - 슈퍼마켓"},{"name":"포곡정육점","tel":"031-332-5266","addr":"경기도 용인시 처인구 포곡읍 삼계리 491-8번지","category":"음료식품 - 정육점"}]},{"lat":"37.28187812","long":"127.23278989","items":[{"name":"선진푸드","tel":"031-335-2111","addr":"경기도 용인시 처인구 포곡읍 삼계리 484-8번지 동양 103호","category":"음료식품 - 기타음료식품"}]},{"lat":"37.287658246","long":"127.21590336","items":[{"name":"성경만두요리전문점","tel":"031-333-4480","addr":"경기도 용인시 처인구 포곡읍 전대리 325-7번지 2,3층","category":"일반휴게음식 - 일반한식"},{"name":"신촌설렁탕","tel":"031-321-4480","addr":"경기도 용인시 처인구 포곡읍 전대리 325-7번지","category":"일반휴게음식 - 일반한식"}]},{"lat":"37.311787386","long":"127.22097997","items":[{"name":"성공모터스","tel":"031-334-5677","addr":"경기도 용인시 처인구 포곡읍 신원리 299-5번지 3동","category":"자동차정비 유지 - 자동차시트·타이어"}]},{"lat":"37.284130974","long":"127.21826147","items":[{"name":"성신상회","tel":"031-334-5416","addr":"경기도 용인시 처인구 포곡읍 전대리186-6","category":"건축자재 - 목재·석재·철물"},{"name":"이삭","tel":"031-333-5218","addr":"경기도 용인시 처인구 포곡읍 전대리 186-6번지","category":"보건위생 - 의료용품"}]},{"lat":"37.272044928","long":"127.21000786","items":[{"name":"성원마트","tel":"031-332-1028","addr":"경기도 용인시 처인구 포곡읍 영문리 555번지 베머루마을인정베네치아빌리지 상가동 101호","category":"유통업 영리 - 슈퍼마켓"}]},{"lat":"37.295353115","long":"127.2256242","items":[{"name":"성화GS","tel":"031-334-9366","addr":"경기도 용인시 처인구 포곡읍 유운리101","category":"용역 서비스 - 기타용역서비스"},{"name":"에스에이치테크","tel":"031-328-7031","addr":"경기도 용인시 처인구 포곡읍 유운리 101번지","category":"자동차정비 유지 - 자동차정비"}]},{"lat":"37.267797417","long":"127.22687334","items":[{"name":"세강싱크","tel":"031-321-8873","addr":"경기도 용인시 처인구 포곡읍 금어리 636번지","category":"주방용구 - 주방용구"}]},{"lat":"37.277598366","long":"127.21334932","items":[{"name":"세모난나무","tel":"031-333-2808","addr":"경기도 용인시 처인구 포곡읍 영문리 14-1","category":"숙박업 - 여관/기타숙박업"}]},{"lat":"37.277409312","long":"127.21325859","items":[{"name":"세모난나무2","tel":"070-8967-2808","addr":"경기도 용인시 처인구 포곡읍 영문리 14-3번지","category":"숙박업 - 여관/기타숙박업"}]},{"lat":"37.268383935","long":"127.22159883","items":[{"name":"세븐일레븐용인둔전점","tel":"","addr":"경기도 용인시 처인구 포곡읍 둔전리 126-2번지 1층","category":"유통업 영리 - 편 의 점"}]},{"lat":"37.283346779","long":"127.21842838","items":[{"name":"세븐일레븐용인전대타운점","tel":"","addr":"경기도 용인시 처인구 포곡읍 전대리 184-29번지","category":"유통업 영리 - 편 의 점"}]},{"lat":"37.280543722","long":"127.21890525","items":[{"name":"세븐일레븐용인포곡타운점","tel":"","addr":"경기도 용인시 처인구 포곡읍 전대리 169-5번지","category":"유통업 영리 - 편 의 점"}]},{"lat":"37.278826392","long":"127.23137116","items":[{"name":"션샤인헤어","tel":"070-8183-0683","addr":"경기도 용인시 처인구 포곡읍 삼계리 666-10번지","category":"보건위생 - 미용원"},{"name":"씨유용인포곡점","tel":"031-338-1439","addr":"경기도 용인시 처인구 포곡읍 삼계리 666-10번지 104호 104~106호","category":"유통업 영리 - 편 의 점"},{"name":"페페","tel":"031-339-0704","addr":"경기도 용인시 처인구 포곡읍 삼계리 666-10번지 103호","category":"일반휴게음식 - 서양음식"},{"name":"포곡분식","tel":"031-336-8016","addr":"경기도 용인시 처인구 포곡읍 삼계리 666-10번지 102호","category":"일반휴게음식 - 스넥"}]},{"lat":"37.311045281","long":"127.21784187","items":[{"name":"소노 산업","tel":"031-333-8850","addr":"경기도 용인시 처인구 포곡읍 신원리 351번지 1층","category":"가구 - 일반가구"}]},{"lat":"37.296790376","long":"127.22314722","items":[{"name":"송골슈퍼","tel":"031-332-3796","addr":"경기도 용인시 처인구 포곡읍 유운리 140-1","category":"유통업 영리 - 슈퍼마켓"}]},{"lat":"37.271099516","long":"127.2197013","items":[{"name":"송림원","tel":"031-322-2006","addr":"경기도 용인시 처인구 포곡읍 둔전리 186-19","category":"일반휴게음식 - 일반한식"}]},{"lat":"37.279907572","long":"127.23139698","items":[{"name":"수산물(소매업)","tel":"070-7018-5391","addr":"경기도 용인시 처인구 포곡읍 삼계리 462-9번지","category":"음료식품 - 농·축·수산품"}]},{"lat":"37.268854109","long":"127.22070953","items":[{"name":"수상한 미용실","tel":"031-333-7423","addr":"경기도 용인시 처인구 포곡읍 둔전리 125-4번지","category":"보건위생 - 미용원"}]},{"lat":"37.27943212","long":"127.22072873","items":[{"name":"수성운반기계","tel":"031-334-8311","addr":"경기도 용인시 처인구 포곡읍 영문리 497-21 1,2호","category":"기타 - 기계공구"},{"name":"용포돼지막갈비","tel":"031-336-0202","addr":"경기도 용인시 처인구 포곡읍 영문리 497-21번지","category":"일반휴게음식 - 일반한식"}]},{"lat":"37.28468252","long":"127.21720305","items":[{"name":"수안헤어","tel":"031-321-5579","addr":"경기도 용인시 처인구 포곡읍 전대리 362-4번지 보령빌딩 1층","category":"보건위생 - 미용원"}]},{"lat":"37.269768165","long":"127.21851368","items":[{"name":"수정보통신","tel":"031-332-5011","addr":"경기도 용인시 처인구 포곡읍 둔전리 157-12번지 1층","category":"사무통신 - 통신기기"},{"name":"헤어그리다","tel":"031-322-2345","addr":"경기도 용인시 처인구 포곡읍 둔전리 157-12번지 2층","category":"보건위생 - 미용원"}]},{"lat":"37.281516214","long":"127.22411754","items":[{"name":"수제갈비진상","tel":"031-333-3389","addr":"경기도 용인시 처인구 포곡읍 전대리 105번지 1층","category":"일반휴게음식 - 일반한식"}]},{"lat":"37.267627084","long":"127.20112316","items":[{"name":"수호천사","tel":"031-322-2588","addr":"경기도 용인시 처인구 포곡읍 영문리 430번지","category":"서적문구 - 일반서적"}]},{"lat":"37.286520702","long":"127.21715188","items":[{"name":"술이빛나는밤에","tel":"031-333-0099","addr":"경기도 용인시 처인구 포곡읍 전대리 191-8번지 2층","category":"일반휴게음식 - 주점"},{"name":"시골맛집","tel":"031-334-8260","addr":"경기도 용인시 처인구 포곡읍 전대리 191-8번지 1층","category":"일반휴게음식 - 일반한식"},{"name":"야주","tel":"031-336-8861","addr":"경기도 용인시 처인구 포곡읍 전대리 191-8번지 2층","category":"일반휴게음식 - 일반한식"},{"name":"한솥도시락","tel":"031-333-5198","addr":"경기도 용인시 처인구 포곡읍 전대리 191-8번지 1층","category":"일반휴게음식 - 일반한식"}]},{"lat":"37.269884229","long":"127.21910028","items":[{"name":"술이술술","tel":"031-322-8150","addr":"경기도 용인시 처인구 포곡읍 둔전리 156-6번지 1층","category":"일반휴게음식 - 주점"},{"name":"코코(coco)","tel":"","addr":"경기도 용인시 처인구 포곡읍 둔전리 156-6번지 2층","category":"일반휴게음식 - 주점"}]},{"lat":"37.292795387","long":"127.26467129","items":[{"name":"숲속아동발달센터","tel":"031-322-6870","addr":"경기도 용인시 처인구 포곡읍 금어리 86-4번지","category":"보건위생 - 기타대인서비스"}]},{"lat":"37.286292649","long":"127.20856965","items":[{"name":"숲속의 하루","tel":"070-8885-1300","addr":"경기도 용인시 처인구 포곡읍 전대리 473-12번지","category":"숙박업 - 여관/기타숙박업"},{"name":"하루(haru)","tel":"","addr":"경기도 용인시 처인구 포곡읍 전대리 473-12번지 지하1층","category":"일반휴게음식 - 서양음식"}]},{"lat":"37.273520924","long":"127.2209823","items":[{"name":"쉐르빌세탁","tel":"031-334-1294","addr":"경기도 용인시 처인구 포곡읍 둔전리 449번지 상가 204호","category":"수리서비스 - 세탁소"},{"name":"지혜셈주산교습소","tel":"070-8843-1368","addr":"경기도 용인시 처인구 포곡읍 둔전리 449번지 101호","category":"회원제형태 - 학원"},{"name":"채플","tel":"031-322-7780","addr":"경기도 용인시 처인구 포곡읍 둔전리449 2층상가동203호","category":"보건위생 - 미용원"}]},{"lat":"37.268019117","long":"127.21410056","items":[{"name":"쉬즈가","tel":"031-321-0644","addr":"경기도 용인시 처인구 포곡읍 둔전리 405-37","category":"직물 - 침구·수예점"},{"name":"아날도바시니 용인둔전점","tel":"070-7737-9662","addr":"경기도 용인시 처인구 포곡읍 둔전리 405-37번지","category":"의류 - 스포츠의류"}]},{"lat":"37.266378593","long":"127.21945101","items":[{"name":"슈헤어","tel":"031-335-5628","addr":"경기도 용인시 처인구 포곡읍 둔전리 422-19번지 1층","category":"보건위생 - 미용원"}]},{"lat":"37.276300318","long":"127.22834176","items":[{"name":"스마트인테리어디자인","tel":"031-333-8845","addr":"경기도 용인시 처인구 포곡읍 둔전리 84-7번지","category":"건축자재 - 인테리어전문"},{"name":"영동종합카센타","tel":"031-339-2788","addr":"경기도 용인시 처인구 포곡읍 둔전리 84-7번지","category":"자동차정비 유지 - 세차장"}]},{"lat":"37.286151692","long":"127.2169253","items":[{"name":"스테이크포차","tel":"070-8785-7142","addr":"경기도 용인시 처인구 포곡읍 전대리 191-22번지","category":"일반휴게음식 - 주점"},{"name":"아싸 노래연습장","tel":"031-333-4711","addr":"경기도 용인시 처인구 포곡읍 전대리 191-22번지 3층","category":"레저업소 - 노 래 방"}]},{"lat":"37.283236423","long":"127.21467306","items":[{"name":"스토리퀼트","tel":"031-322-1845","addr":"경기도 용인시 처인구 포곡읍 전대리 404-10번지","category":"가구 - 기타가구"}]},{"lat":"37.283869103","long":"127.21857646","items":[{"name":"스포텍스","tel":"031-322-6354","addr":"경기도 용인시 처인구 포곡읍 전대리 184-5번지 전원빌라 B동 B01호","category":"레져용품 - 스포츠·레져용품"}]},{"lat":"37.268526931","long":"127.22223059","items":[{"name":"스피드 빨래방 둔전점","tel":"","addr":"경기도 용인시 처인구 포곡읍 둔전리 120-4번지 태영맨션 103동 102호","category":"수리서비스 - 세탁소"}]},{"lat":"37.280987802","long":"127.22240205","items":[{"name":"시골식당","tel":"031-332-8977","addr":"경기도 용인시 처인구 포곡읍 전대리124-2","category":"일반휴게음식 - 일반한식"}]},{"lat":"37.285182929","long":"127.21450937","items":[{"name":"신무교 총본산 계승종 천용당","tel":"031-796-2554","addr":"경기도 용인시 처인구 포곡읍 전대리 373-7번지","category":"신변잡화 - 기념품점"}]},{"lat":"37.281375805","long":"127.22209873","items":[{"name":"신미정","tel":"031-334-0043","addr":"경기도 용인시 처인구 포곡읍 전대리 130-2번지","category":"일반휴게음식 - 일반한식"}]},{"lat":"37.307015572","long":"127.22389894","items":[{"name":"신원상회","tel":"031-334-2293","addr":"경기도 용인시 처인구 포곡읍 신원리 45번지 새마을회관","category":"음료식품 - 기타음료식품"}]},{"lat":"37.280239991","long":"127.23189412","items":[{"name":"신원세탁소","tel":"031-332-5516","addr":"경기도 용인시 처인구 포곡읍 삼계리 463-14","category":"수리서비스 - 세탁소"}]},{"lat":"37.28254358","long":"127.23345721","items":[{"name":"신중앙세차장","tel":"031-332-0177","addr":"경기도 용인시 처인구 포곡읍 삼계리 479-26","category":"자동차정비 유지 - 세차장"},{"name":"신중앙자동차부분정비공업사","tel":"031-332-3020","addr":"경기도 용인시 처인구 포곡읍 삼계리479-26","category":"자동차정비 유지 - 자동차정비"}]},{"lat":"37.268878893","long":"127.22192721","items":[{"name":"신짬뽕","tel":"031-338-5386","addr":"경기도 용인시 처인구 포곡읍 둔전리 123-2번지","category":"일반휴게음식 - 중국식"},{"name":"촌집","tel":"031-323-6262","addr":"경기도 용인시 처인구 포곡읍 둔전리 123-2번지 1층 일부","category":"일반휴게음식 - 일반한식"},{"name":"촌집","tel":"031-323-6262","addr":"경기도 용인시 처인구 포곡읍 둔전리 123-2번지 1층","category":"일반휴게음식 - 일반한식"}]},{"lat":"37.285737162","long":"127.21695795","items":[{"name":"신쭈쭈불닭발","tel":"031-336-3392","addr":"경기도 용인시 처인구 포곡읍 전대리 360-11번지","category":"일반휴게음식 - 스넥"},{"name":"에버순대","tel":"031-337-3738","addr":"경기도 용인시 처인구 포곡읍 전대리 360-11번지","category":"일반휴게음식 - 일반한식"},{"name":"화이트노래연습장","tel":"031-332-1030","addr":"경기도 용인시 처인구 포곡읍 전대리 360-11번지 화이트노래방","category":"레저업소 - 노 래 방"}]},{"lat":"37.273325728","long":"127.18740541","items":[{"name":"십이공방","tel":"","addr":"경기도 용인시 처인구 포곡읍 마성리 465-34번지","category":"문화.취미 - 문화취미기타"}]},{"lat":"37.283263567","long":"127.21958959","items":[{"name":"싱싱회포장배달전문","tel":"031-339-9696","addr":"경기도 용인시 처인구 포곡읍 전대리 149-1번지","category":"일반휴게음식 - 일식·회집"}]},{"lat":"37.281493146","long":"127.22198631","items":[{"name":"써니스잉글리쉬클래스영어학원","tel":"031-334-7402","addr":"경기도 용인시 처인구 포곡읍 전대리 130-1번지 2층","category":"학원 - 보습학원"},{"name":"황순옥옛날감자탕","tel":"031-322-0405","addr":"경기도 용인시 처인구 포곡읍 전대리 130-1번지","category":"일반휴게음식 - 일반한식"}]},{"lat":"37.270765621","long":"127.2199822","items":[{"name":"씨유용인둔전제일점","tel":"031-321-1556","addr":"경기도 용인시 처인구 포곡읍 둔전리 186-18 외 1필지 1층","category":"유통업 영리 - 편 의 점"}]},{"lat":"37.281325982","long":"127.18795491","items":[{"name":"씨유용인마성점","tel":"031-898-6567","addr":"경기도 용인시 처인구 포곡읍 마성리 167-11번지","category":"유통업 영리 - 편 의 점"}]},{"lat":"37.281958686","long":"127.23306076","items":[{"name":"씨유용인삼계점","tel":"031-336-1890","addr":"경기도 용인시 처인구 포곡읍 삼계리 484-16번지","category":"유통업 영리 - 편 의 점"},{"name":"참치정육점","tel":"031-333-2828","addr":"경기도 용인시 처인구 포곡읍 삼계리 484-16번지 외1필지 1층","category":"일반휴게음식 - 일식·회집"}]},{"lat":"37.28831874","long":"127.21437155","items":[{"name":"씨유용인에버랜드점","tel":"031-898-6568","addr":"경기도 용인시 처인구 포곡읍 전대리 347-7번지","category":"유통업 영리 - 편 의 점"}]},{"lat":"37.29440105","long":"127.23803839","items":[{"name":"씨유용인포곡우림점","tel":"080-080-3663","addr":"경기도 용인시 처인구 포곡읍 삼계리 672번지 계수마을수목원우림필유 상가동 B1층 101호","category":"유통업 영리 - 편 의 점"},{"name":"헤어아너스","tel":"031-334-1382","addr":"경기도 용인시 처인구 포곡읍 삼계리 672번지 계수마을수목원우림필유제상가동B102호","category":"보건위생 - 미용원"}]},{"lat":"37.270877487","long":"127.24144902","items":[{"name":"씨유포곡금어점","tel":"031-322-5871","addr":"경기도 용인시 처인구 포곡읍 금어리 434-1번지","category":"유통업 영리 - 편 의 점"}]},{"lat":"37.273934127","long":"127.20651782","items":[{"name":"씨유포곡영문점","tel":"031-239-6695","addr":"경기도 용인시 처인구 포곡읍 영문리 71-1번지 1층","category":"유통업 영리 - 편 의 점"}]},{"lat":"37.316956724","long":"127.21239855","items":[{"name":"씨큐어릿(방범안전)창","tel":"070-8947-8204","addr":"경기도 용인시 처인구 포곡읍 신원리 514-1번지","category":"건축자재 - 기타건축자재"}]},{"lat":"37.284076605","long":"127.21843046","items":[{"name":"씨티에스안전용품","tel":"031-321-9926","addr":"경기도 용인시 처인구 포곡읍 전대리 186-8번지 1층","category":"기타 - 기계공구"}]},{"lat":"37.269962601","long":"127.21562802","items":[{"name":"아가월드 용인센타","tel":"031-339-0631","addr":"경기도 용인시 처인구 포곡읍 둔전리 12번지 다복빌라2차 2014동 301호","category":"회원제형태 - 서적"}]},{"lat":"37.276272191","long":"127.22414729","items":[{"name":"아라네 영농조합법인","tel":"031-334-0120","addr":"경기도 용인시 처인구 포곡읍 둔전리 280-1번지","category":"음료식품 - 농·축·수산품"}]},{"lat":"37.277215197","long":"127.19493557","items":[{"name":"아메리카페","tel":"","addr":"경기도 용인시 처인구 포곡읍 마성리 56번지 A동 1층","category":"일반휴게음식 - 서양음식"}]},{"lat":"37.28115993","long":"127.2014631","items":[{"name":"아이디에스세라믹","tel":"031-321-4888","addr":"경기도 용인시 처인구 포곡읍 영문리 200번지","category":"건축자재 - 기타건축자재"}]},{"lat":"37.271737545","long":"127.19457215","items":[{"name":"아이지에이마트 용인마성점","tel":"031-768-0708","addr":"경기도 용인시 처인구 포곡읍 마성리 333번지","category":"유통업 영리 - 편 의 점"}]},{"lat":"37.270211826","long":"127.21229152","items":[{"name":"아트방","tel":"070-8279-4951","addr":"경기도 용인시 처인구 포곡읍 둔전리 319번지 인정멜로디아파트","category":"문화.취미 - 문화취미기타"},{"name":"아트인클럽","tel":"070-8234-3659","addr":"경기도 용인시 처인구 포곡읍 둔전리 319번지 인정멜로디아파트","category":"회원제형태 - 기타4"}]},{"lat":"37.286849574","long":"127.21464936","items":[{"name":"아트퀸","tel":"070-2699-0807","addr":"경기도 용인시 처인구 포곡읍 전대리 381-1번지 1층","category":"의류 - 내의판매"}]},{"lat":"37.274460443","long":"127.22451407","items":[{"name":"아홉색깔농부협동조합","tel":"031-322-3064","addr":"경기도 용인시 처인구 포곡읍 둔전리 266번지","category":"음료식품 - 농·축·수산품"},{"name":"아홉색깔농부협동조합","tel":"031-548-2249","addr":"경기도 용인시 처인구 포곡읍 둔전리 266번지","category":"음료식품 - 농·축·수산품"}]},{"lat":"37.312099817","long":"127.21765311","items":[{"name":"알지오(RGO)","tel":"070-7951-8851","addr":"경기도 용인시 처인구 포곡읍 신원리 471-5번지","category":"자동차정비 유지 - 자동차부품"},{"name":"지피엑스 (GPX)","tel":"031-000-0000","addr":"경기도 용인시 처인구 포곡읍 신원리 471-5번지","category":"자동차정비 유지 - 자동차부품"},{"name":"케이스메이커","tel":"031-637-7759","addr":"경기도 용인시 처인구 포곡읍 신원리 471-5번지","category":"자동차정비 유지 - 자동차부품"}]},{"lat":"37.285910065","long":"127.2160112","items":[{"name":"앞꼬지닭칼국수","tel":"031-322-5747","addr":"경기도 용인시 처인구 포곡읍 전대리 370번지","category":"일반휴게음식 - 일반한식"}]},{"lat":"37.300013614","long":"127.23387144","items":[{"name":"액자사랑","tel":"031-272-7077","addr":"경기도 용인시 처인구 포곡읍 삼계리 73","category":"문화.취미 - 화방·표구점"},{"name":"영진컨테이너","tel":"031-335-5555","addr":"경기도 용인시 처인구 포곡읍 삼계리 73번지","category":"건축자재 - 기타건축자재"}]},{"lat":"37.269099845","long":"127.21936861","items":[{"name":"양평해장국","tel":"031-333-0714","addr":"경기도 용인시 처인구 포곡읍 둔전리 139-1","category":"일반휴게음식 - 일반한식"}]},{"lat":"37.273486376","long":"127.22017041","items":[{"name":"어나더라탄","tel":"","addr":"경기도 용인시 처인구 포곡읍 둔전리 449번지 용인포곡삼성쉐르빌아파트","category":"문화.취미 - 문화취미기타"}]},{"lat":"37.282102029","long":"127.19290701","items":[{"name":"어니언푸드(ONION FOOD)","tel":"031-333-9342","addr":"경기도 용인시 처인구 포곡읍 마성리 219-2번지","category":"음료식품 - 기타음료식품"}]},{"lat":"37.269046485","long":"127.23790316","items":[{"name":"어량","tel":"031-333-2133","addr":"경기도 용인시 처인구 포곡읍 금어리 585-1번지 외1필지","category":"일반휴게음식 - 일반한식"}]},{"lat":"37.304349532","long":"127.22337229","items":[{"name":"어울림","tel":"","addr":"경기도 용인시 처인구 포곡읍 유운리 245-2번지","category":"음료식품 - 기타음료식품"}]},{"lat":"37.269072145","long":"127.21475741","items":[{"name":"얼레디어썸(Alreadyawesome)","tel":"031-0000-0000","addr":"경기도 용인시 처인구 포곡읍 둔전리 383-13번지","category":"일반휴게음식 - 서양음식"}]},{"lat":"37.268684198","long":"127.22001005","items":[{"name":"엄마밥상","tel":"","addr":"경기도 용인시 처인구 포곡읍 둔전리 131-17번지 그랜져타운 102호","category":"일반휴게음식 - 일반한식"},{"name":"태화촌","tel":"031-322-6284","addr":"경기도 용인시 처인구 포곡읍 둔전리 131-17번지 그랜져타운 103호","category":"일반휴게음식 - 일반한식"},{"name":"혜린양꼬치","tel":"031-339-1881","addr":"경기도 용인시 처인구 포곡읍 둔전리 131-17번지 그랜져타운 101호","category":"일반휴게음식 - 일반한식"}]},{"lat":"37.31518438","long":"127.22089954","items":[{"name":"에노스","tel":"031-323-0255","addr":"경기도 용인시 처인구 포곡읍 신원리 280-1번지","category":"가구 - 일반가구"}]},{"lat":"37.296545381","long":"127.23351121","items":[{"name":"에덴양념통","tel":"031-334-1231","addr":"경기도 용인시 처인구 포곡읍 삼계리85-7","category":"일반휴게음식 - 칵테일바"}]},{"lat":"37.286131751","long":"127.21798525","items":[{"name":"에버 오렌지 펜션","tel":"031-332-5728","addr":"경기도 용인시 처인구 포곡읍 전대리 191-33번지","category":"숙박업 - 여관/기타숙박업"}]},{"lat":"37.303601162","long":"127.22365209","items":[{"name":"에버건재철물","tel":"031-332-9351","addr":"경기도 용인시 처인구 포곡읍 유운리 237-2번지","category":"건축자재 - 목재·석재·철물"}]},{"lat":"37.295706268","long":"127.23867403","items":[{"name":"에버라스트 케스트하우스","tel":"070-5055-6498","addr":"경기도 용인시 처인구 포곡읍 삼계리 152번지","category":"숙박업 - 여관/기타숙박업"}]},{"lat":"37.270460834","long":"127.1984022","items":[{"name":"에버랜드조이","tel":"031-332-3569","addr":"경기도 용인시 처인구 포곡읍 영문리 457번지","category":"숙박업 - 여관/기타숙박업"},{"name":"파인하우스","tel":"031-338-7288","addr":"경기도 용인시 처인구 포곡읍 영문리 457번지","category":"숙박업 - 여관/기타숙박업"}]},{"lat":"37.280715526","long":"127.2234612","items":[{"name":"에버랜드찜질사우나","tel":"031-607-7683","addr":"경기도 용인시 처인구 포곡읍 전대리 109-5번지 1층","category":"음료식품 - 기타음료식품"},{"name":"에버사우나찜질방 매점","tel":"031-333-1212","addr":"경기도 용인시 처인구 포곡읍 전대리 109-5번지 2층","category":"음료식품 - 기타음료식품"},{"name":"에버식당","tel":"031-333-1212","addr":"경기도 용인시 처인구 포곡읍 전대리 109-5번지 2층","category":"일반휴게음식 - 일반한식"},{"name":"에버찜질사우나","tel":"031-333-1212","addr":"경기도 용인시 처인구 포곡읍 전대리 109-5번지","category":"보건위생 - 사우나"},{"name":"에버휘트니스","tel":"031-333-1212","addr":"경기도 용인시 처인구 포곡읍 전대리 109-5번지 4층","category":"레저업소 - 헬스클럽"},{"name":"현광빌딩","tel":"031-333-1212","addr":"경기도 용인시 처인구 포곡읍 전대리 109-5번지","category":"용역 서비스 - 부동산 중개·임대"},{"name":"홍가성운","tel":"070-7420-8799","addr":"경기도 용인시 처인구 포곡읍 전대리 109-5번지","category":"보건위생 - 피부미용실"}]},{"lat":"37.316040344","long":"127.22090201","items":[{"name":"에버리움","tel":"031-335-7878","addr":"경기도 용인시 처인구 포곡읍 신원리 220번지","category":"숙박업 - 여관/기타숙박업"}]},{"lat":"37.316212057","long":"127.22062048","items":[{"name":"에버마루","tel":"031-333-3321","addr":"경기도 용인시 처인구 포곡읍 신원리 220-5번지","category":"숙박업 - 여관/기타숙박업"}]},{"lat":"37.273407218","long":"127.19285134","items":[{"name":"에버밸리","tel":"031-321-3636","addr":"경기도 용인시 처인구 포곡읍 마성리 318-9번지 외4필지","category":"숙박업 - 여관/기타숙박업"}]},{"lat":"37.285684404","long":"127.2162361","items":[{"name":"에버셀프손세차","tel":"031-334-8724","addr":"경기도 용인시 처인구 포곡읍 전대리370-1","category":"자동차정비 유지 - 세차장"}]},{"lat":"37.299844363","long":"127.22340425","items":[{"name":"에버스트리트","tel":"031-332-5822","addr":"경기도 용인시 처인구 포곡읍 유운리 311-57번지","category":"숙박업 - 여관/기타숙박업"}]},{"lat":"37.299961243","long":"127.22353994","items":[{"name":"에버스트리트2","tel":"031-332-5822","addr":"경기도 용인시 처인구 포곡읍 유운리 311-10번지","category":"숙박업 - 여관/기타숙박업"}]},{"lat":"37.295630338","long":"127.23606855","items":[{"name":"에버트레이더스","tel":"031-333-7582","addr":"경기도 용인시 처인구 포곡읍 삼계리 134번지","category":"전기제품 - 기타전기제품"}]},{"lat":"37.285431528","long":"127.21656241","items":[{"name":"에버파크","tel":"031-333-1105","addr":"경기도 용인시 처인구 포곡읍 전대리 360-2번지 에버파크","category":"숙박업 - 여관/기타숙박업"}]},{"lat":"37.268771749","long":"127.2401233","items":[{"name":"에버펠리스","tel":"031-332-3936","addr":"경기도 용인시 처인구 포곡읍 금어리 462-7번지","category":"숙박업 - 여관/기타숙박업"}]},{"lat":"37.279715673","long":"127.23278331","items":[{"name":"에스알에이치(SRH)","tel":"031-233-7203","addr":"경기도 용인시 처인구 포곡읍 삼계리 557-8번지 느티나무슈퍼 101호","category":"유통업 영리 - 슈퍼마켓"},{"name":"타이디","tel":"031-321-2599","addr":"경기도 용인시 처인구 포곡읍 삼계리 557-8번지","category":"보건위생 - 미용원"}]},{"lat":"37.283378619","long":"127.22556636","items":[{"name":"에스에스컴퍼니","tel":"070-7786-0979","addr":"경기도 용인시 처인구 포곡읍 전대리 64-35번지","category":"자동차정비 유지 - 자동차시트·타이어"}]},{"lat":"37.276072662","long":"127.2150138","items":[{"name":"에스원라이팅","tel":"031-322-9488","addr":"경기도 용인시 처인구 포곡읍 영문리 20-10번지 1층","category":"건축자재 - 조명기구"}]},{"lat":"37.285437007","long":"127.20312072","items":[{"name":"에스티코리아(ST korea)","tel":"070-7720-2207","addr":"경기도 용인시 처인구 포곡읍 영문리 158-3 4/2","category":"회원제형태 - 기타4"}]},{"lat":"37.286683396","long":"127.21687042","items":[{"name":"에이앤피코퍼레이션","tel":"02-2051-9911","addr":"경기도 용인시 처인구 포곡읍 전대리 356-12번지 2층","category":"건축자재 - 부동산 분양"},{"name":"크로바커텐","tel":"031-336-4671","addr":"경기도 용인시 처인구 포곡읍 전대리 356-12번지 2층","category":"직물 - 카페트,커튼,천막,지물"},{"name":"허밍마마","tel":"02-1111-1111","addr":"경기도 용인시 처인구 포곡읍 전대리 356-12번지 2층","category":"음료식품 - 제과점"},{"name":"허밍마마","tel":"031-335-9767","addr":"경기도 용인시 처인구 포곡읍 전대리 356-12번지 2층","category":"음료식품 - 제과점"},{"name":"허밍마마","tel":"031-335-9767","addr":"경기도 용인시 처인구 포곡읍 전대리 356-12번지 2층","category":"음료식품 - 제과점"}]},{"lat":"37.28612716","long":"127.25669812","items":[{"name":"에이원 개발(트레비앙)","tel":"","addr":"경기도 용인시 처인구 포곡읍 금어리 258번지","category":"용역 서비스 - 부동산 중개·임대"}]},{"lat":"37.269771966","long":"127.21641668","items":[{"name":"에이치에스(HS)바스인테리어 용접","tel":"","addr":"경기도 용인시 처인구 포곡읍 둔전리 378-16번지 다복그린빌리지 104동 202호","category":"건축자재 - 인테리어전문"}]},{"lat":"37.268244474","long":"127.21404482","items":[{"name":"엔젤스크린골프연습장","tel":"031-339-8220","addr":"경기도 용인시 처인구 포곡읍 둔전리 405-1번지 1층","category":"레저업소 - 스크린골프"}]},{"lat":"37.269817247","long":"127.22123092","items":[{"name":"엘리's펙토리","tel":"031-328-2300","addr":"경기도 용인시 처인구 포곡읍 둔전리 193-2번지 영광주택 다동 103호","category":"문화.취미 - 문화취미기타"}]},{"lat":"37.26929988","long":"127.21837706","items":[{"name":"엘리팝(ALLEY PUB)","tel":"031-333-2022","addr":"경기도 용인시 처인구 포곡읍 둔전리 155-13번지","category":"일반휴게음식 - 일반한식"}]},{"lat":"37.275350454","long":"127.20551815","items":[{"name":"엘이디 미 목재","tel":"031-334-8027","addr":"경기도 용인시 처인구 포곡읍 영문리 377번지","category":"건축자재 - 목재·석재·철물"},{"name":"주식회사 미림상사","tel":"02-2205-3371","addr":"경기도 용인시 처인구 포곡읍 영문리 377번지 103호","category":"신변잡화 - 기타잡화"}]},{"lat":"37.271651404","long":"127.21846268","items":[{"name":"엠제이 정보시스템","tel":"031-322-6595","addr":"경기도 용인시 처인구 포곡읍 둔전리 173-3번지 부강씨티빌 101동 304호","category":"사무통신 - 통신기기"}]},{"lat":"37.267129154","long":"127.21796501","items":[{"name":"엠케이뷰티","tel":"031-334-7556","addr":"경기도 용인시 처인구 포곡읍 둔전리 147번지","category":"회원제형태 - 기타1"},{"name":"튠(TUNE)","tel":"031-935-0460","addr":"경기도 용인시 처인구 포곡읍 둔전리 147번지","category":"전기제품 - 가전제품"}]},{"lat":"37.276485992","long":"127.20537461","items":[{"name":"엠케이시스템","tel":"031-338-8477","addr":"경기도 용인시 처인구 포곡읍 영문리 250-4","category":"가구 - 일반가구"},{"name":"주식회사 세종이앤지","tel":"031-526-9290","addr":"경기도 용인시 처인구 포곡읍 영문리 250-4번지","category":"용역 서비스 - 기타용역서비스"}]},{"lat":"37.268688697","long":"127.22245654","items":[{"name":"연세우유용인대리점","tel":"031-321-8630","addr":"경기도 용인시 처인구 포곡읍 둔전리 121번지 상부목련아파트 102호","category":"음료식품 - 기타음료식품"}]},{"lat":"37.271209903","long":"127.21846142","items":[{"name":"연탄집","tel":"031-332-9299","addr":"경기도 용인시 처인구 포곡읍 둔전리 188번지 재원주택 2동 302호","category":"음료식품 - 농·축·수산품"}]},{"lat":"37.296601477","long":"127.22297749","items":[{"name":"영오토","tel":"031-339-0467","addr":"경기도 용인시 처인구 포곡읍 유운리 86-7번지","category":"자동차정비 유지 - 자동차정비"}]},{"lat":"37.281680055","long":"127.20293035","items":[{"name":"예사랑푸드","tel":"031-335-7558","addr":"경기도 용인시 처인구 포곡읍 영문리 206번지 1층","category":"음료식품 - 기타음료식품"}]},{"lat":"37.26735509","long":"127.23201293","items":[{"name":"옐로우스푼","tel":"","addr":"경기도 용인시 처인구 포곡읍 금어리 620-2번지 1층,2층","category":"일반휴게음식 - 일반한식"}]},{"lat":"37.283516512","long":"127.21922948","items":[{"name":"옛날국수집","tel":"","addr":"경기도 용인시 처인구 포곡읍 전대리 185-2번지","category":"일반휴게음식 - 일반한식"}]},{"lat":"37.267181508","long":"127.21390657","items":[{"name":"옛날순대","tel":"031-332-0765","addr":"경기도 용인시 처인구 포곡읍 둔전리 406-46번지","category":"일반휴게음식 - 일반한식"},{"name":"오페라노래연습장","tel":"031-334-0551","addr":"경기도 용인시 처인구 포곡읍 둔전리 406-46번지","category":"레저업소 - 노 래 방"},{"name":"월드수산","tel":"031-336-8694","addr":"경기도 용인시 처인구 포곡읍 둔전리 406-46번지","category":"일반휴게음식 - 주점"}]},{"lat":"37.29612465","long":"127.22259264","items":[{"name":"오늘밥상","tel":"031-322-0017","addr":"경기도 용인시 처인구 포곡읍 유운리 362-22번지 1층","category":"일반휴게음식 - 일반한식"}]},{"lat":"37.28613023","long":"127.20870452","items":[{"name":"오늘손두부","tel":"031-335-2003","addr":"경기도 용인시 처인구 포곡읍 전대리 473-17번지 가동 1층","category":"일반휴게음식 - 일반한식"},{"name":"주식회사월드씨암/씨암레스토랑카페","tel":"031-323-3235","addr":"경기도 용인시 처인구 포곡읍 전대리 473-17, 473-18","category":"일반휴게음식 - 서양음식"}]},{"lat":"37.276960959","long":"127.20687551","items":[{"name":"오케이 정보","tel":"031-335-5477","addr":"경기도 용인시 처인구 포곡읍 영문리 123-8번지 1층","category":"사무통신 - 통신기기"}]},{"lat":"37.279518149","long":"127.23242189","items":[{"name":"오케이(OK)마트(정육)","tel":"031-764-0501","addr":"경기도 용인시 처인구 포곡읍 삼계리 557-3번지","category":"음료식품 - 정육점"}]},{"lat":"37.266158452","long":"127.22639499","items":[{"name":"오토월드","tel":"031-333-5131","addr":"경기도 용인시 처인구 포곡읍 금어리 722-17","category":"자동차정비 유지 - 자동차정비"}]},{"lat":"37.27082271","long":"127.21832503","items":[{"name":"오토잉크충전","tel":"031-334-6119","addr":"경기도 용인시 처인구 포곡읍 둔전리 189-2번지 재원주택 7동 201호","category":"사무통신 - 기타 사무용품"}]},{"lat":"37.283959123","long":"127.21862182","items":[{"name":"옹고집","tel":"031-322-2578","addr":"경기도 용인시 처인구 포곡읍 전대리186-4","category":"일반휴게음식 - 일반한식"}]},{"lat":"37.296769557","long":"127.23406453","items":[{"name":"와그너치킨호프","tel":"031-332-7370","addr":"경기도 용인시 처인구 포곡읍 삼계리83-12","category":"일반휴게음식 - 주점"},{"name":"이혜선헤어샵","tel":"031-336-1839","addr":"경기도 용인시 처인구 포곡읍 삼계리83-12","category":"보건위생 - 미용원"}]},{"lat":"37.270243173","long":"127.21990178","items":[{"name":"왕산옥.한우소머리국밥","tel":"031-335-7716","addr":"경기도 용인시 처인구 포곡읍 둔전리 191-8번지 1층","category":"일반휴게음식 - 일반한식"}]},{"lat":"37.269937342","long":"127.21961905","items":[{"name":"용인대아이캔태권도","tel":"031-339-5077","addr":"경기도 용인시 처인구 포곡읍 둔전리 191-9번지 3층","category":"학원 - 예·체능계학원"},{"name":"카멜레온미술학원","tel":"031-321-6545","addr":"경기도 용인시 처인구 포곡읍 둔전리 191-9번지 유정빌딩 4층","category":"학원 - 예·체능계학원"},{"name":"틴트어카 용인포곡","tel":"031-322-8468","addr":"경기도 용인시 처인구 포곡읍 둔전리 191-9번지","category":"자동차정비 유지 - 카인테리어"},{"name":"프랜드패밀리유정점","tel":"031-339-0987","addr":"경기도 용인시 처인구 포곡읍 둔전리 191-9번지","category":"유통업 영리 - 편 의 점"}]},{"lat":"37.294492551","long":"127.21836995","items":[{"name":"용인백옥쌀떡협동조합","tel":"031-335-2343","addr":"경기도 용인시 처인구 포곡읍 유운리 381-4번지 외1필지382-4","category":"음료식품 - 제과점"}]},{"lat":"37.286714995","long":"127.25986887","items":[{"name":"용인삼삼사슴농원","tel":"031-338-7007","addr":"경기도 용인시 처인구 포곡읍 금어리 195번지","category":"건강식품 - 기타건강식품"}]},{"lat":"37.284044852","long":"127.21606233","items":[{"name":"용인씽크","tel":"031-334-1498","addr":"경기도 용인시 처인구 포곡읍 전대리 366번지","category":"주방용구 - 주방용구"}]},{"lat":"37.280741479","long":"127.18720927","items":[{"name":"용인칼국수","tel":"031-335-1565","addr":"경기도 용인시 처인구 포곡읍 마성리 561-32번지 1층","category":"일반휴게음식 - 일반한식"}]},{"lat":"37.311237954","long":"127.22087686","items":[{"name":"용일공사","tel":"","addr":"경기도 용인시 처인구 포곡읍 신원리 340-1번지 1층","category":"용역 서비스 - 기타용역서비스"},{"name":"유가네한식부페","tel":"","addr":"경기도 용인시 처인구 포곡읍 신원리 340-1번지 B동 1호","category":"일반휴게음식 - 일반한식"},{"name":"이마트 위드미 용인신원점","tel":"02-6916-1500","addr":"경기도 용인시 처인구 포곡읍 신원리 340-1번지 101호","category":"유통업 영리 - 편 의 점"}]},{"lat":"37.266514851","long":"127.21384834","items":[{"name":"용평공구","tel":"031-322-0949","addr":"경기도 용인시 처인구 포곡읍 둔전리 406-57번지","category":"기타 - 기계공구"}]},{"lat":"37.281990353","long":"127.22109694","items":[{"name":"우리마을머리방","tel":"070-7018-5391","addr":"경기도 용인시 처인구 포곡읍 전대리 151-5번지 1층","category":"보건위생 - 미용원"},{"name":"짱그린종합청소","tel":"","addr":"경기도 용인시 처인구 포곡읍 전대리 151-5번지","category":"용역 서비스 - 종합용역"}]},{"lat":"37.279099902","long":"127.22009634","items":[{"name":"우리민속한우","tel":"031-332-5758","addr":"경기도 용인시 처인구 포곡읍 영문리 497-15번지 1층","category":"일반휴게음식 - 일반한식"}]},{"lat":"37.277126608","long":"127.22973109","items":[{"name":"우리풍천장어","tel":"031-339-1293","addr":"경기도 용인시 처인구 포곡읍 삼계리 577-34번지 1층","category":"일반휴게음식 - 일반한식"}]},{"lat":"37.275658571","long":"127.22939971","items":[{"name":"우성정밀","tel":"031-333-1766","addr":"경기도 용인시 처인구 포곡읍 둔전리 84-3","category":"레져용품 - 스포츠·레져용품"}]},{"lat":"37.281383225","long":"127.22295572","items":[{"name":"우연패키지","tel":"070-8883-2919","addr":"경기도 용인시 처인구 포곡읍 전대리 128-1번지 1층","category":"유통업 영리 - 기타유통업"}]},{"lat":"37.295432492","long":"127.23587621","items":[{"name":"운오통상","tel":"031-333-5945","addr":"경기도 용인시 처인구 포곡읍 삼계리 135","category":"신변잡화 - 기타잡화"}]},{"lat":"37.279355353","long":"127.23273711","items":[{"name":"워크스","tel":"031-339-9373","addr":"경기도 용인시 처인구 포곡읍 삼계리557-9","category":"자동차정비 유지 - 자동차정비"}]},{"lat":"37.312624519","long":"127.22142234","items":[{"name":"원레이싱","tel":"031-338-0852","addr":"경기도 용인시 처인구 포곡읍 신원리 295","category":"자동차정비 유지 - 자동차부품"}]},{"lat":"37.2692971","long":"127.21989907","items":[{"name":"원조이모네곱창","tel":"031-321-8777","addr":"경기도 용인시 처인구 포곡읍 둔전리 131-9","category":"일반휴게음식 - 일반한식"}]},{"lat":"37.286042304","long":"127.21762414","items":[{"name":"월드모텔","tel":"031-339-6900","addr":"경기도 용인시 처인구 포곡읍 전대리 191-45번지","category":"숙박업 - 여관/기타숙박업"}]},{"lat":"37.309126955","long":"127.2270974","items":[{"name":"웨스턴가구","tel":"031-322-4847","addr":"경기도 용인시 처인구 포곡읍 신원리 164-1번지","category":"가구 - 일반가구"}]},{"lat":"37.309127932","long":"127.2217619","items":[{"name":"웨이브패키지","tel":"031-338-6568","addr":"경기도 용인시 처인구 포곡읍 신원리 327번지","category":"유통업 영리 - 기타유통업"}]},{"lat":"37.269157089","long":"127.21762128","items":[{"name":"위드미용인둔전점","tel":"031-334-0729","addr":"경기도 용인시 처인구 포곡읍 둔전리 152-17번지","category":"유통업 영리 - 편 의 점"},{"name":"제이엘모바일","tel":"031-334-3111","addr":"경기도 용인시 처인구 포곡읍 둔전리 152-17번지 1층","category":"사무통신 - 통신기기"},{"name":"피부미인","tel":"031-328-8888","addr":"경기도 용인시 처인구 포곡읍 둔전리 152-17번지 2층","category":"회원제형태 - 기타4"}]},{"lat":"37.283570676","long":"127.21917325","items":[{"name":"유랑식당","tel":"031-334-6655","addr":"경기도 용인시 처인구 포곡읍 전대리 185-1번지","category":"일반휴게음식 - 일반한식"}]},{"lat":"37.268823432","long":"127.22268241","items":[{"name":"유로커먼레일","tel":"031-322-0972","addr":"경기도 용인시 처인구 포곡읍 둔전리 123-4번지","category":"자동차정비 유지 - 자동차부품"},{"name":"혁진카센타","tel":"031-335-0951","addr":"경기도 용인시 처인구 포곡읍 둔전리 123-4","category":"자동차정비 유지 - 자동차정비"}]},{"lat":"37.267523345","long":"127.21920627","items":[{"name":"유미딱닭강정","tel":"031-335-0137","addr":"경기도 용인시 처인구 포곡읍 둔전리 142-1번지","category":"일반휴게음식 - 일반한식"}]},{"lat":"37.268603043","long":"127.18823944","items":[{"name":"유어스홈(주)","tel":"031-322-1633","addr":"경기도 용인시 처인구 포곡읍 마성리 341번지 나동","category":"직물 - 침구·수예점"}]},{"lat":"37.278660415","long":"127.18701251","items":[{"name":"유어파트너스(Ur PARTNERS)","tel":"031-8002-5656","addr":"경기도 용인시 처인구 포곡읍 마성리 497-11번지 나동","category":"용역 서비스 - 사무서비스"},{"name":"청담디자인","tel":"","addr":"경기도 용인시 처인구 포곡읍 마성리 497-11번지 가동","category":"용역 서비스 - 종합용역"}]},{"lat":"37.282874328","long":"127.22056951","items":[{"name":"유일통신","tel":"031-332-1702","addr":"경기도 용인시 처인구 포곡읍 전대리 139-4번지","category":"사무통신 - 통신기기"}]},{"lat":"37.283318653","long":"127.20367892","items":[{"name":"유학남 가구","tel":"031-334-1678","addr":"경기도 용인시 처인구 포곡읍 영문리 173번지 일부","category":"가구 - 일반가구"}]},{"lat":"37.302489563","long":"127.22059219","items":[{"name":"육일목공소","tel":"031-332-0128","addr":"경기도 용인시 처인구 포곡읍 유운리 272","category":"건축자재 - 기타건축자재"}]},{"lat":"37.279602898","long":"127.22095474","items":[{"name":"윤가네","tel":"031-335-9888","addr":"경기도 용인시 처인구 포곡읍 영문리 497-22번지 1층","category":"일반휴게음식 - 일반한식"}]},{"lat":"37.30135176","long":"127.23148439","items":[{"name":"윤에스티","tel":"","addr":"경기도 용인시 처인구 포곡읍 유운리 9-27번지","category":"기타 - 기계공구"},{"name":"태성 레이저","tel":"031-333-1326","addr":"경기도 용인시 처인구 포곡읍 유운리 9-27번지","category":"건축자재 - 기타건축자재"}]},{"lat":"37.280519612","long":"127.2317371","items":[{"name":"은가비","tel":"070-4649-1101","addr":"경기도 용인시 처인구 포곡읍 삼계리 466-3번지 1층","category":"일반휴게음식 - 서양음식"}]},{"lat":"37.282131543","long":"127.2322043","items":[{"name":"은아바디","tel":"031-328-2872","addr":"경기도 용인시 처인구 포곡읍 삼계리 477-12번지 개미아르빌 301동 401호","category":"의류 - 내의판매"}]},{"lat":"37.267022578","long":"127.22203457","items":[{"name":"은재미","tel":"","addr":"경기도 용인시 처인구 포곡읍 둔전리 116-9번지 미래파크빌 201층","category":"의류 - 정장"}]},{"lat":"37.268487439","long":"127.21920902","items":[{"name":"이가네고기사랑","tel":"02-000-0000","addr":"경기도 용인시 처인구 포곡읍 둔전리 139-39번지","category":"일반휴게음식 - 일반한식"},{"name":"훌랄라참숯바베큐","tel":"031-322-9205","addr":"경기도 용인시 처인구 포곡읍 둔전리 139-39번지","category":"일반휴게음식 - 스넥"}]},{"lat":"37.267072644","long":"127.23820142","items":[{"name":"이레과일","tel":"031-323-5416","addr":"경기도 용인시 처인구 포곡읍 금어리 574-9","category":"회원제형태 - 기타1"}]},{"lat":"37.286738902","long":"127.21606992","items":[{"name":"이마트24 용인전대리점","tel":"031-000-0000","addr":"경기도 용인시 처인구 포곡읍 전대리 355-11번지 우주빌 101호","category":"유통업 영리 - 편 의 점"},{"name":"주식회사 129한국이엠에스","tel":"031-000-0000","addr":"경기도 용인시 처인구 포곡읍 전대리 355-11번지 202호","category":"보건위생 - 기타대인서비스"}]},{"lat":"37.285099208","long":"127.21597509","items":[{"name":"인터넷 목공소","tel":"031-328-4919","addr":"경기도 용인시 처인구 포곡읍 전대리 369-4번지 신설빌라 A동 102호","category":"회원제형태 - 기타4"}]},{"lat":"37.310317544","long":"127.2216187","items":[{"name":"인텐","tel":"031-332-7535","addr":"경기도 용인시 처인구 포곡읍 신원리 314번지","category":"가구 - 일반가구"}]},{"lat":"37.274159565","long":"127.18423919","items":[{"name":"일광사","tel":"031-334-8454","addr":"경기도 용인시 처인구 포곡읍 마성리 442-1번지","category":"기타 - 비영리/대상"}]},{"lat":"37.265603713","long":"127.23375504","items":[{"name":"자두야놀자","tel":"","addr":"경기도 용인시 처인구 포곡읍 금어리 516-1번지","category":"일반휴게음식 - 서양음식"}]},{"lat":"37.280382464","long":"127.22329109","items":[{"name":"자수민밥상","tel":"031-338-9755","addr":"경기도 용인시 처인구 포곡읍 전대리 109-7번지 1층","category":"일반휴게음식 - 일반한식"}]},{"lat":"37.28532255","long":"127.21703571","items":[{"name":"자연정육점","tel":"031-322-7502","addr":"경기도 용인시 처인구 포곡읍 전대리 360-4번지","category":"음료식품 - 정육점"},{"name":"자연회관","tel":"031-332-5333","addr":"경기도 용인시 처인구 포곡읍 전대리 360-4번지","category":"일반휴게음식 - 일반한식"},{"name":"자연회관","tel":"031-332-5333","addr":"경기도 용인시 처인구 포곡읍 전대리 360-4번지","category":"일반휴게음식 - 일반한식"}]},{"lat":"37.286015519","long":"127.21748875","items":[{"name":"자연파크","tel":"031-322-7311","addr":"경기도 용인시 처인구 포곡읍 전대리191-36","category":"숙박업 - 여관/기타숙박업"}]},{"lat":"37.2778759","long":"127.22897789","items":[{"name":"장오닭(장수오리닭)","tel":"031-333-8852","addr":"경기도 용인시 처인구 포곡읍 삼계리 586-6번지","category":"일반휴게음식 - 일반한식"}]},{"lat":"37.283045936","long":"127.22034448","items":[{"name":"장오카인테리어","tel":"031-333-4179","addr":"경기도 용인시 처인구 포곡읍 전대리 139-6번지","category":"자동차정비 유지 - 카인테리어"}]},{"lat":"37.272132831","long":"127.22126016","items":[{"name":"장터풍경","tel":"031-321-9674","addr":"경기도 용인시 처인구 포곡읍 둔전리197-10","category":"일반휴게음식 - 일반한식"},{"name":"카메이크업","tel":"031-338-8755","addr":"경기도 용인시 처인구 포곡읍 둔전리 197-10번지","category":"자동차정비 유지 - 자동차정비"},{"name":"포곡농약종묘사","tel":"031-334-7778","addr":"경기도 용인시 처인구 포곡읍 둔전리 197-10번지","category":"농업 - 비료,사료,종자"}]},{"lat":"37.26837582","long":"127.18368417","items":[{"name":"재풍산업","tel":"031-333-9235","addr":"경기도 용인시 처인구 포곡읍 마성리 346번지 재풍산업","category":"건축자재 - 보일러·펌프·샷시"}]},{"lat":"37.308484465","long":"127.21889491","items":[{"name":"전국농자재산업","tel":"031-332-2578","addr":"경기도 용인시 처인구 포곡읍 신원리 375번지","category":"농업 - 기타농업관련"}]},{"lat":"37.281575322","long":"127.22140019","items":[{"name":"전대리커피","tel":"031-334-0157","addr":"경기도 용인시 처인구 포곡읍 전대리 157-17번지","category":"일반휴게음식 - 서양음식"}]},{"lat":"37.284103841","long":"127.21831777","items":[{"name":"전대상사","tel":"031-333-7904","addr":"경기도 용인시 처인구 포곡읍 전대리186-7","category":"건축자재 - 페인트"}]},{"lat":"37.284826418","long":"127.21735005","items":[{"name":"전대청과","tel":"031-334-2592","addr":"경기도 용인시 처인구 포곡읍 전대리362-8","category":"음료식품 - 농·축·수산품"}]},{"lat":"37.286514904","long":"127.21537013","items":[{"name":"전북슈퍼","tel":"031-333-3931","addr":"경기도 용인시 처인구 포곡읍 전대리354-4","category":"유통업 영리 - 슈퍼마켓"}]},{"lat":"37.286575273","long":"127.21687011","items":[{"name":"젊닭","tel":"031-334-6249","addr":"경기도 용인시 처인구 포곡읍 전대리 356-8번지","category":"일반휴게음식 - 일반한식"}]},{"lat":"37.294626119","long":"127.21923873","items":[{"name":"정인","tel":"031-322-3385","addr":"경기도 용인시 처인구 포곡읍 유운리 384-15번지","category":"레져용품 - 스포츠·레져용품"}]},{"lat":"37.311958932","long":"127.2207887","items":[{"name":"정진패키지","tel":"031-332-9421","addr":"경기도 용인시 처인구 포곡읍 신원리 298-1","category":"유통업 영리 - 기타유통업"}]},{"lat":"37.270043632","long":"127.21566207","items":[{"name":"정현서비스","tel":"","addr":"경기도 용인시 처인구 포곡읍 둔전리 12번지 다복빌라 201동 402호","category":"자동차정비 유지 - 세차장"}]},{"lat":"37.300183515","long":"127.27280634","items":[{"name":"제이물류","tel":"031-321-7872","addr":"경기도 용인시 처인구 포곡읍 금어리 1번지","category":"건축자재 - 기타건축자재"}]},{"lat":"37.266544715","long":"127.23172863","items":[{"name":"제이엘오토","tel":"031-335-4977","addr":"경기도 용인시 처인구 포곡읍 금어리 620-4번지 2동 1층","category":"자동차정비 유지 - 자동차부품"}]},{"lat":"37.270130601","long":"127.21739856","items":[{"name":"제이유가구","tel":"031-334-3974","addr":"경기도 용인시 처인구 포곡읍 둔전리 367-2번지 401호","category":"용역 서비스 - 기타용역서비스"}]},{"lat":"37.267716574","long":"127.22192384","items":[{"name":"제이팔육","tel":"031-334-1799","addr":"경기도 용인시 처인구 포곡읍 둔전리 119-14번지 쉐르빌 B동 302호","category":"음료식품 - 기타음료식품"}]},{"lat":"37.301265983","long":"127.23389783","items":[{"name":"제일알이에프","tel":"02-2236-0106","addr":"경기도 용인시 처인구 포곡읍 삼계리 68-6번지","category":"전기제품 - 가전제품"}]},{"lat":"37.271128318","long":"127.21873178","items":[{"name":"제일카(빵구)","tel":"031-334-5941","addr":"경기도 용인시 처인구 포곡읍 둔전리 187-4","category":"자동차정비 유지 - 자동차정비"}]},{"lat":"37.268352903","long":"127.21887042","items":[{"name":"조그린인테리어","tel":"031-339-9529","addr":"경기도 용인시 처인구 포곡읍 둔전리 139-29 1호","category":"건축자재 - 인테리어전문"}]},{"lat":"37.284735531","long":"127.21276026","items":[{"name":"종합냉난방기","tel":"031-333-4577","addr":"경기도 용인시 처인구 포곡읍 전대리 394","category":"전기제품 - 냉열기기"}]},{"lat":"37.308489812","long":"127.22573062","items":[{"name":"좋구먼식품","tel":"031-322-4992","addr":"경기도 용인시 처인구 포곡읍 신원리 106-1번지","category":"음료식품 - 기타음료식품"}]},{"lat":"37.306736931","long":"127.22353717","items":[{"name":"좋은나무공방","tel":"031-265-6014","addr":"경기도 용인시 처인구 포곡읍 신원리 39-3번지 가동","category":"가구 - 일반가구"}]},{"lat":"37.272238105","long":"127.20773091","items":[{"name":"좋은버섯들","tel":"0505-899-5167","addr":"경기도 용인시 처인구 포곡읍 영문리 59번지","category":"음료식품 - 농·축·수산품"}]},{"lat":"37.277601518","long":"127.19562436","items":[{"name":"주)제이제이엘이디","tel":"031-332-8334","addr":"경기도 용인시 처인구 포곡읍 마성리 60번지 1층","category":"전기제품 - 기타전기제품"}]},{"lat":"37.269209634","long":"127.21845572","items":[{"name":"주니하우스","tel":"031-322-7054","addr":"경기도 용인시 처인구 포곡읍 둔전리 155-48번지","category":"보건위생 - 피부미용실"}]},{"lat":"37.268908506","long":"127.21556868","items":[{"name":"주식회사 농민식자재마트","tel":"031-332-7770","addr":"경기도 용인시 처인구 포곡읍 둔전리 387-8번지 포곡로 91","category":"유통업 영리 - 슈퍼마켓"},{"name":"케익하우스 폼므","tel":"031-322-0370","addr":"경기도 용인시 처인구 포곡읍 둔전리 387-8번지 거농마트내","category":"음료식품 - 제과점"}]},{"lat":"37.279958623","long":"127.18654209","items":[{"name":"주식회사 대성엘앤티","tel":"031-526-2213","addr":"경기도 용인시 처인구 포곡읍 마성리 541번지","category":"서적문구 - 과학기자재"}]},{"lat":"37.315513458","long":"127.2133196","items":[{"name":"주식회사 대화타포린","tel":"031-339-2605","addr":"경기도 용인시 처인구 포곡읍 신원리 508번지","category":"직물 - 카페트,커튼,천막,지물"}]},{"lat":"37.296652204","long":"127.23417696","items":[{"name":"주식회사 바라던에프앤비","tel":"","addr":"경기도 용인시 처인구 포곡읍 삼계리 83-13번지 상금빌딩 1층 101호","category":"음료식품 - 기타음료식품"}]},{"lat":"37.307206383","long":"127.22304223","items":[{"name":"주식회사 백년장수가","tel":"031-321-3153","addr":"경기도 용인시 처인구 포곡읍 신원리 37-1번지","category":"가구 - 일반가구"}]},{"lat":"37.298433572","long":"127.22134744","items":[{"name":"주식회사 보림","tel":"031-626-7708","addr":"경기도 용인시 처인구 포곡읍 유운리 320-9번지 서관","category":"서적문구 - 출판 및 인쇄물"}]},{"lat":"37.297849365","long":"127.23478966","items":[{"name":"주식회사 부성이엔씨","tel":"031-526-6391","addr":"경기도 용인시 처인구 포곡읍 삼계리 27-8번지 102동","category":"건축자재 - 기타건축자재"}]},{"lat":"37.305045652","long":"127.22692737","items":[{"name":"주식회사 스스디","tel":"031-337-2524","addr":"경기도 용인시 처인구 포곡읍 신원리 8번지 (주)스스디","category":"가구 - 일반가구"}]},{"lat":"37.288319137","long":"127.23804202","items":[{"name":"주식회사 씨에스큐브(CS Cube Co.,Ltd.)","tel":"031-339-8181","addr":"경기도 용인시 처인구 포곡읍 삼계리 299번지","category":"전기제품 - 가전제품"}]},{"lat":"37.285624401","long":"127.20942485","items":[{"name":"주식회사 앰코리아","tel":"031-000-0000","addr":"경기도 용인시 처인구 포곡읍 전대리 453번지","category":"자동차정비 유지 - 자동차부품"}]},{"lat":"37.268156172","long":"127.23704357","items":[{"name":"주식회사 올에코","tel":"031-335-6282","addr":"경기도 용인시 처인구 포곡읍 금어리 567-1번지","category":"전기제품 - 기타전기제품"}]},{"lat":"37.27384933","long":"127.23312627","items":[{"name":"주식회사 용인에버스포츠","tel":"031-321-9361","addr":"경기도 용인시 처인구 포곡읍 삼계리 525-5번지","category":"레져용품 - 스포츠·레져용품"}]},{"lat":"37.271460317","long":"127.21948812","items":[{"name":"주식회사 우성엘앤에스","tel":"031-321-1151","addr":"경기도 용인시 처인구 포곡읍 둔전리 184-7번지 (비04호(글로벌타운))","category":"자동차정비 유지 - 자동차부품"}]},{"lat":"37.271569037","long":"127.21916147","items":[{"name":"주식회사 이지바이크","tel":"031-272-8828","addr":"경기도 용인시 처인구 포곡읍 둔전리 187-5번지 광장빌라 나동 B04호","category":"레져용품 - 스포츠·레져용품"}]},{"lat":"37.271349192","long":"127.2211226","items":[{"name":"주식회사 진영전기조명","tel":"031-334-3557","addr":"경기도 용인시 처인구 포곡읍 둔전리 192-2번지","category":"건축자재 - 조명기구"}]},{"lat":"37.29498505","long":"127.23887478","items":[{"name":"주식회사 천우에프디","tel":"031-328-8674","addr":"경기도 용인시 처인구 포곡읍 삼계리 142번지 101호","category":"음료식품 - 정육점"},{"name":"카페민트","tel":"031-000-0000","addr":"경기도 용인시 처인구 포곡읍 삼계리 142번지 102호","category":"일반휴게음식 - 서양음식"}]},{"lat":"37.284687982","long":"127.2191539","items":[{"name":"주식회사 카라반베이","tel":"031-323-5511","addr":"경기도 용인시 처인구 포곡읍 전대리 192-2번지 1층","category":"숙박업 - 여관/기타숙박업"}]},{"lat":"37.281211009","long":"127.18656768","items":[{"name":"주식회사 칸도스포츠","tel":"070-4286-6574","addr":"경기도 용인시 처인구 포곡읍 마성리 561-3번지 1층","category":"레져용품 - 스포츠·레져용품"}]},{"lat":"37.298182211","long":"127.23506136","items":[{"name":"주식회사 포스렌탈","tel":"031-334-3007","addr":"경기도 용인시 처인구 포곡읍 삼계리 27-1번지","category":"기타 - 기계공구"}]},{"lat":"37.300627675","long":"127.24225351","items":[{"name":"주식회사가온물산","tel":"031-339-6731","addr":"경기도 용인시 처인구 포곡읍 삼계리 7-7번지 물류창고2층공장일부","category":"음료식품 - 농·축·수산품"}]},{"lat":"37.29665692","long":"127.22223329","items":[{"name":"주식회사미산","tel":"031-333-0162","addr":"경기도 용인시 처인구 포곡읍 유운리 362-6번지","category":"자동차정비 유지 - 자동차부품"}]},{"lat":"37.283264971","long":"127.22370544","items":[{"name":"주식회사예닮여행사","tel":"031-333-1430","addr":"경기도 용인시 처인구 포곡읍 전대리 95-3번지","category":"여행 - 관광여행"}]},{"lat":"37.280683583","long":"127.18965599","items":[{"name":"주식회사인모션모터스","tel":"031-338-8216","addr":"경기도 용인시 처인구 포곡읍 마성리 172-6번지","category":"자동차정비 유지 - 자동차부품"}]},{"lat":"37.298235972","long":"127.22100851","items":[{"name":"주식회사케이엠에스에이","tel":"031-332-3725","addr":"경기도 용인시 처인구 포곡읍 유운리323-2","category":"자동차정비 유지 - 가타자동차서비스"},{"name":"펠롭스","tel":"031-322-8909","addr":"경기도 용인시 처인구 포곡읍 유운리 323-2","category":"자동차정비 유지 - 자동차정비"}]},{"lat":"37.30015869","long":"127.2424776","items":[{"name":"주용실업주식회사","tel":"02-2113-0612","addr":"경기도 용인시 처인구 포곡읍 삼계리46-2","category":"레져용품 - 스포츠·레져용품"}]},{"lat":"37.280293556","long":"127.2226481","items":[{"name":"준타일위생기상사","tel":"031-336-1300","addr":"경기도 용인시 처인구 포곡읍 전대리119-5,120-4","category":"건축자재 - 건축용 요업제품"}]},{"lat":"37.27957365","long":"127.23167786","items":[{"name":"중국성","tel":"031-332-5547","addr":"경기도 용인시 처인구 포곡읍 삼계리 560-5번지","category":"일반휴게음식 - 중국식"}]},{"lat":"37.269848003","long":"127.21920164","items":[{"name":"지니뷰티샵","tel":"031-328-7599","addr":"경기도 용인시 처인구 포곡읍 둔전리 156-9번지 1층","category":"보건위생 - 피부미용실"}]},{"lat":"37.283823621","long":"127.21881313","items":[{"name":"지성닭집","tel":"031-321-6580","addr":"경기도 용인시 처인구 포곡읍 전대리 186-12번지 2호","category":"음료식품 - 정육점"}]},{"lat":"37.300655321","long":"127.24194907","items":[{"name":"지앤피마케팅","tel":"031-338-9918","addr":"경기도 용인시 처인구 포곡읍 삼계리 7-1","category":"신변잡화 - 기타잡화"}]},{"lat":"37.273301135","long":"127.21799384","items":[{"name":"지에이치이엔지(GH ENG)","tel":"","addr":"경기도 용인시 처인구 포곡읍 둔전리 223-2번지 삼성빌라 103동 303호","category":"회원제형태 - 기타4"}]},{"lat":"37.280048341","long":"127.18679037","items":[{"name":"지욘티에스","tel":"070-4254-3571","addr":"경기도 용인시 처인구 포곡읍 마성리 542","category":"전기제품 - 기타전기제품"}]},{"lat":"37.267965518","long":"127.21384111","items":[{"name":"진샤이","tel":"031-335-6660","addr":"경기도 용인시 처인구 포곡읍 둔전리 405-27번지","category":"일반휴게음식 - 일반한식"}]},{"lat":"37.272382932","long":"127.21752897","items":[{"name":"진성푸드","tel":"031-323-5218","addr":"경기도 용인시 처인구 포곡읍 둔전리 167번지 동양힐타운 가동 102호","category":"음료식품 - 정육점"},{"name":"효성엑스메디","tel":"031-323-3244","addr":"경기도 용인시 처인구 포곡읍 둔전리 167번지 동양힐타운 가동 1층 103호","category":"수리서비스 - 기타수리서비스"}]},{"lat":"37.271239063","long":"127.21728896","items":[{"name":"진아헤어샵","tel":"031-338-1177","addr":"경기도 용인시 처인구 포곡읍 둔전리 361-8번지 1층","category":"보건위생 - 미용원"}]},{"lat":"37.284131487","long":"127.21296156","items":[{"name":"진영냉동산업","tel":"031-339-7061","addr":"경기도 용인시 처인구 포곡읍 전대리 397-2번지 사무실 A동","category":"전기제품 - 냉열기기"}]},{"lat":"37.280599233","long":"127.22300982","items":[{"name":"진우전기조명","tel":"031-322-8385","addr":"경기도 용인시 처인구 포곡읍 전대리119-4","category":"건축자재 - 조명기구"}]},{"lat":"37.287378427","long":"127.21112118","items":[{"name":"짬뽕킹","tel":"031-334-1255","addr":"경기도 용인시 처인구 포곡읍 전대리 476-5번지 1층","category":"일반휴게음식 - 중국식"},{"name":"한식맛","tel":"031-321-4700","addr":"경기도 용인시 처인구 포곡읍 전대리 476-5번지","category":"일반휴게음식 - 일반한식"},{"name":"한식맛","tel":"031-321-4700","addr":"경기도 용인시 처인구 포곡읍 전대리 476-5번지","category":"일반휴게음식 - 일반한식"}]},{"lat":"37.268796782","long":"127.21756389","items":[{"name":"참바다텔레콤","tel":"031-334-8025","addr":"경기도 용인시 처인구 포곡읍 둔전리 152-15번지 서광맨숀아파트","category":"사무통신 - 통신기기"}]},{"lat":"37.288179401","long":"127.2116534","items":[{"name":"참솔마당장작구이","tel":"031-334-1011","addr":"경기도 용인시 처인구 포곡읍 전대리 476-3번지","category":"일반휴게음식 - 일반한식"}]},{"lat":"37.303290176","long":"127.23548312","items":[{"name":"참숯구이 장어가","tel":"031-321-3305","addr":"경기도 용인시 처인구 포곡읍 삼계리 58-7번지","category":"일반휴게음식 - 일반한식"}]},{"lat":"37.279766264","long":"127.22031249","items":[{"name":"창조건설 주식회사","tel":"031-335-2005","addr":"경기도 용인시 처인구 포곡읍 영문리 2-40번지","category":"용역 서비스 - 기타용역서비스"}]},{"lat":"37.279543163","long":"127.23345933","items":[{"name":"천일도깨비당","tel":"","addr":"경기도 용인시 처인구 포곡읍 삼계리 555-7번지 해오름하우스 201호","category":"보건위생 - 기타대인서비스"}]},{"lat":"37.267938679","long":"127.21873395","items":[{"name":"청담플라워","tel":"031-1111-111","addr":"경기도 용인시 처인구 포곡읍 둔전리 149-6 102","category":"문화.취미 - 화원"}]},{"lat":"37.305346072","long":"127.22529272","items":[{"name":"청원산업","tel":"031-339-8600","addr":"경기도 용인시 처인구 포곡읍 신원리 51","category":"기타 - 기계공구"}]},{"lat":"37.289181327","long":"127.26100497","items":[{"name":"청평녹야원","tel":"031-338-2150","addr":"경기도 용인시 처인구 포곡읍 금어리 228번지 청평녹야원","category":"건강식품 - 기타건강식품"}]},{"lat":"37.302654809","long":"127.2378385","items":[{"name":"초부2리구판장","tel":"031-333-3427","addr":"경기도 용인시 처인구 포곡읍 삼계리 56-15","category":"신변잡화 - 기타잡화"}]},{"lat":"37.281213528","long":"127.23167155","items":[{"name":"초원농축산","tel":"031-334-5520","addr":"경기도 용인시 처인구 포곡읍 삼계리 470번지 초원농축산","category":"음료식품 - 정육점"}]},{"lat":"37.280958861","long":"127.23289985","items":[{"name":"초원미용실","tel":"031-334-1661","addr":"경기도 용인시 처인구 포곡읍 삼계리 490-14번지","category":"보건위생 - 미용원"}]},{"lat":"37.269197636","long":"127.22009044","items":[{"name":"최가네 부대찌개","tel":"031-337-3925","addr":"경기도 용인시 처인구 포곡읍 둔전리 131-5번지 그랜져타운 7동 103호","category":"일반휴게음식 - 일반한식"}]},{"lat":"37.268426961","long":"127.22269253","items":[{"name":"최선종합설비","tel":"031-2275-9789","addr":"경기도 용인시 처인구 포곡읍 둔전리 122-5번지 목련아파트","category":"용역 서비스 - 기타용역서비스"}]},{"lat":"37.273128175","long":"127.22384495","items":[{"name":"추오정남원추어탕","tel":"031-335-9919","addr":"경기도 용인시 처인구 포곡읍 둔전리 52-21번지 1층","category":"일반휴게음식 - 일반한식"}]},{"lat":"37.283408287","long":"127.21928555","items":[{"name":"카파커피(전대리점)","tel":"031-335-5959","addr":"경기도 용인시 처인구 포곡읍 전대리 185-3번지 1층","category":"일반휴게음식 - 일반한식"}]},{"lat":"37.27887825","long":"127.23251015","items":[{"name":"카페 휴 포곡도서관점","tel":"031-324-9305","addr":"경기도 용인시 처인구 포곡읍 삼계리 556-2번지 포곡도서관 지하휴게실","category":"일반휴게음식 - 서양음식"}]},{"lat":"37.263940904","long":"127.23626393","items":[{"name":"카페데일리","tel":"031-336-1403","addr":"경기도 용인시 처인구 포곡읍 금어리 522-2번지","category":"일반휴게음식 - 서양음식"}]},{"lat":"37.280741917","long":"127.18692737","items":[{"name":"카페시밀레","tel":"","addr":"경기도 용인시 처인구 포곡읍 마성리 561-35번지 1층","category":"일반휴게음식 - 서양음식"}]},{"lat":"37.284435428","long":"127.20920735","items":[{"name":"캐리비안 꽃마름 카페캠프스토리","tel":"031-321-0099","addr":"경기도 용인시 처인구 포곡읍 전대리 457-3번지","category":"일반휴게음식 - 일반한식"},{"name":"캐리비안 꽃마름 카페캠프스토리","tel":"031-321-0099","addr":"경기도 용인시 처인구 포곡읍 전대리 457-3번지","category":"일반휴게음식 - 서양음식"}]},{"lat":"37.287545432","long":"127.21348979","items":[{"name":"캐리비안펜션","tel":"070-4130-3601","addr":"경기도 용인시 처인구 포곡읍 전대리 341-10","category":"숙박업 - 여관/기타숙박업"}]},{"lat":"37.284320702","long":"127.21296209","items":[{"name":"캐리비안휴펜션","tel":"031-1322-2449","addr":"경기도 용인시 처인구 포곡읍 전대리 397-4","category":"숙박업 - 여관/기타숙박업"}]},{"lat":"37.26855123","long":"127.21881461","items":[{"name":"커피89도(coffee89)","tel":"031-338-4253","addr":"경기도 용인시 처인구 포곡읍 둔전리 139-28번지","category":"일반휴게음식 - 일반한식"}]},{"lat":"37.28359876","long":"127.23295299","items":[{"name":"커피볶는사진관다솔","tel":"031-339-5121","addr":"경기도 용인시 처인구 포곡읍 삼계리 398-5번지","category":"일반휴게음식 - 서양음식"}]},{"lat":"37.279097546","long":"127.23093223","items":[{"name":"커피하우스","tel":"031-000-0000","addr":"경기도 용인시 처인구 포곡읍 삼계리 564-3번지 리버파크뷰 101동 101호","category":"일반휴게음식 - 일반한식"},{"name":"헤어라벨르","tel":"031-336-0326","addr":"경기도 용인시 처인구 포곡읍 삼계리 564-3번지 리버파크뷰 101동 103호","category":"보건위생 - 미용원"}]},{"lat":"37.274075818","long":"127.18596405","items":[{"name":"컬러스토리","tel":"031-332-5489","addr":"경기도 용인시 처인구 포곡읍 마성리 455-1번지 다동","category":"숙박업 - 여관/기타숙박업"}]},{"lat":"37.286339153","long":"127.23689691","items":[{"name":"컴닥터","tel":"031-337-1195","addr":"경기도 용인시 처인구 포곡읍 삼계리 368-1번지 대명아파트","category":"사무통신 - 컴퓨터"}]},{"lat":"37.2800981","long":"127.22598517","items":[{"name":"케이브로스커피","tel":"031-339-1777","addr":"경기도 용인시 처인구 포곡읍 전대리 115-6번지 1층2층","category":"일반휴게음식 - 서양음식"}]},{"lat":"37.274934843","long":"127.20618226","items":[{"name":"케이제이오토파츠","tel":"031-323-3246","addr":"경기도 용인시 처인구 포곡읍 영문리 81-3번지","category":"자동차정비 유지 - 자동차부품"}]},{"lat":"37.267714085","long":"127.22326543","items":[{"name":"케이투","tel":"053-742-3455","addr":"경기도 용인시 처인구 포곡읍 둔전리 112-2번지 E동 401호","category":"수리서비스 - 가정용품수리"}]},{"lat":"37.267713844","long":"127.22818087","items":[{"name":"코드당구장","tel":"031-334-9500","addr":"경기도 용인시 처인구 포곡읍 금어리 산275-1번지 2층 203호","category":"레저업소 - 당 구 장"}]},{"lat":"37.280211941","long":"127.22292976","items":[{"name":"코로나커피컴퍼니","tel":"031-336-8945","addr":"경기도 용인시 처인구 포곡읍 전대리 119-8번지 1층","category":"음료식품 - 기타음료식품"}]},{"lat":"37.282403838","long":"127.2264543","items":[{"name":"코리아 칼라","tel":"031-322-6587","addr":"경기도 용인시 처인구 포곡읍 전대리 90-1번지","category":"자동차정비 유지 - 카인테리어"}]},{"lat":"37.286463518","long":"127.2332098","items":[{"name":"코리아현대모터스","tel":"031-333-6503","addr":"경기도 용인시 처인구 포곡읍 삼계리 407-5번지","category":"자동차정비 유지 - 자동차부품"},{"name":"힘쎈지게차렌탈","tel":"","addr":"경기도 용인시 처인구 포곡읍 삼계리 407-5번지 1층","category":"자동차판매 - 기타운송"}]},{"lat":"37.269404209","long":"127.22045181","items":[{"name":"코코헤어 앤 뷰티샵","tel":"031-323-5509","addr":"경기도 용인시 처인구 포곡읍 둔전리 192-48번지 102호","category":"보건위생 - 미용원"}]},{"lat":"37.28674121","long":"127.21478438","items":[{"name":"콩마당손두부","tel":"031-334-7545","addr":"경기도 용인시 처인구 포곡읍 전대리 379-1번지","category":"일반휴게음식 - 일반한식"}]},{"lat":"37.280157216","long":"127.2327621","items":[{"name":"퀸스킨케어","tel":"031-339-7064","addr":"경기도 용인시 처인구 포곡읍 삼계리 492-7번지 2층","category":"회원제형태 - 기타4"}]},{"lat":"37.274465924","long":"127.24473007","items":[{"name":"크랩좋은푸드","tel":"031-334-8875","addr":"경기도 용인시 처인구 포곡읍 금어리 407-2번지","category":"음료식품 - 농·축·수산품"}]},{"lat":"37.272046011","long":"127.24283948","items":[{"name":"크린시스템스코리아(주)/원격지","tel":"031-781-3761","addr":"경기도 용인시 처인구 포곡읍 금어리415","category":"기타 - 기타 전문점"}]},{"lat":"37.274710206","long":"127.20582086","items":[{"name":"키즈팩토리","tel":"070-4159-6122","addr":"경기도 용인시 처인구 포곡읍 영문리 383번지","category":"서적문구 - 완구점"}]},{"lat":"37.303436197","long":"127.23453611","items":[{"name":"타이어크레프트","tel":"031-322-0516","addr":"경기도 용인시 처인구 포곡읍 삼계리 602-1번지","category":"자동차정비 유지 - 자동차시트·타이어"}]},{"lat":"37.284764305","long":"127.21681988","items":[{"name":"탑 남.녀헬스휘트니스클럽","tel":"031-332-9736","addr":"경기도 용인시 처인구 포곡읍 전대리 362-16번지","category":"회원제형태 - 레져업소"},{"name":"풍년식당","tel":"031-322-2344","addr":"경기도 용인시 처인구 포곡읍 전대리 362-16번지","category":"일반휴게음식 - 일반한식"}]},{"lat":"37.282099347","long":"127.22062366","items":[{"name":"탑 엔터테인먼트","tel":"070-4229-7674","addr":"경기도 용인시 처인구 포곡읍 전대리 152-1번지","category":"용역 서비스 - 사무서비스"}]},{"lat":"37.296436225","long":"127.23404096","items":[{"name":"태경슈퍼마켓","tel":"031-339-2631","addr":"경기도 용인시 처인구 포곡읍 삼계리 85-1번지","category":"유통업 영리 - 슈퍼마켓"}]},{"lat":"37.283742323","long":"127.21892566","items":[{"name":"태권도에 반하다","tel":"031-328-8658","addr":"경기도 용인시 처인구 포곡읍 전대리 186-13번지 2층","category":"학원 - 예·체능계학원"},{"name":"펀비어킹 전대에버랜드역점","tel":"","addr":"경기도 용인시 처인구 포곡읍 전대리 186-13번지 1층","category":"일반휴게음식 - 일반한식"},{"name":"해오름","tel":"031-334-6793","addr":"경기도 용인시 처인구 포곡읍 전대리 186-13","category":"음료식품 - 기타음료식품"}]},{"lat":"37.266572318","long":"127.22189798","items":[{"name":"태화루","tel":"031-335-3310","addr":"경기도 용인시 처인구 포곡읍 둔전리 422-25번지 1층","category":"일반휴게음식 - 중국식"}]},{"lat":"37.312517458","long":"127.22084671","items":[{"name":"토스디자인","tel":"070-4113-8462","addr":"경기도 용인시 처인구 포곡읍 신원리 296-1번지 1동 1층","category":"자동차정비 유지 - 자동차부품"}]},{"lat":"37.269601989","long":"127.21573975","items":[{"name":"토탈지게차","tel":"031-8097-6792","addr":"경기도 용인시 처인구 포곡읍 둔전리 12-8번지 다복빌라 103동 103호","category":"자동차판매 - 기타운송"}]},{"lat":"37.284763408","long":"127.21731604","items":[{"name":"통나무호프","tel":"031-322-2519","addr":"경기도 용인시 처인구 포곡읍 전대리 362-7번지","category":"일반휴게음식 - 일반한식"}]},{"lat":"37.294291946","long":"127.22453839","items":[{"name":"티알케이(TRK)프로모션","tel":"031-333-9518","addr":"경기도 용인시 처인구 포곡읍 유운리 79-1번지 1호","category":"레져용품 - 스포츠·레져용품"}]},{"lat":"37.295206949","long":"127.22186818","items":[{"name":"팀오메가레이싱","tel":"031-332-6639","addr":"경기도 용인시 처인구 포곡읍 유운리363-3","category":"자동차정비 유지 - 자동차부품"}]},{"lat":"37.281321598","long":"127.2221775","items":[{"name":"파스디자인","tel":"031-333-2299","addr":"경기도 용인시 처인구 포곡읍 전대리 130-3번지 1층","category":"용역 서비스 - 사무서비스"}]},{"lat":"37.285763601","long":"127.21728505","items":[{"name":"퍼레이드","tel":"031-339-1531","addr":"경기도 용인시 처인구 포곡읍 전대리 191-7번지","category":"일반휴게음식 - 일반한식"}]},{"lat":"37.273872654","long":"127.22080291","items":[{"name":"페퍼민트","tel":"070-7571-0616","addr":"경기도 용인시 처인구 포곡읍 둔전리 449번지 용인포곡삼성쉐르빌아파트","category":"회원제형태 - 기타4"}]},{"lat":"37.290513845","long":"127.23539867","items":[{"name":"포곡선지해장국","tel":"031-339-6510","addr":"경기도 용인시 처인구 포곡읍 삼계리 306번지 1층","category":"일반휴게음식 - 일반한식"},{"name":"포곡올갱이해장국","tel":"031-339-6501","addr":"경기도 용인시 처인구 포곡읍 삼계리 306번지","category":"일반휴게음식 - 일반한식"}]},{"lat":"37.268133089","long":"127.20026767","items":[{"name":"포곡알미늄공업사","tel":"031-334-1441","addr":"경기도 용인시 처인구 포곡읍 영문리 436-1번지","category":"건축자재 - 기타건축자재"}]},{"lat":"37.281186131","long":"127.22234625","items":[{"name":"포곡열쇠방","tel":"","addr":"경기도 용인시 처인구 포곡읍 전대리 130-5번지","category":"건축자재 - 목재·석재·철물"}]},{"lat":"37.282768835","long":"127.23345789","items":[{"name":"포곡우체국","tel":"031-332-5000","addr":"경기도 용인시 처인구 포곡읍 삼계리 479-20번지","category":"용역 서비스 - 공공요금대행서비스/소"}]},{"lat":"37.272627206","long":"127.22190424","items":[{"name":"포곡점기아오토큐","tel":"031-333-8022","addr":"경기도 용인시 처인구 포곡읍 둔전리202-6","category":"자동차정비 유지 - 자동차정비"}]},{"lat":"37.282995278","long":"127.21848375","items":[{"name":"포곡초교실","tel":"031-321-3444","addr":"경기도 용인시 처인구 포곡읍 전대리 179-10번지 세웅빌라 101동 403호","category":"학원 - 보습학원"}]},{"lat":"37.284628687","long":"127.23614737","items":[{"name":"푸드펀","tel":"031-332-9392","addr":"경기도 용인시 처인구 포곡읍 삼계리 354-1번지","category":"음료식품 - 기타음료식품"}]},{"lat":"37.302462332","long":"127.22554365","items":[{"name":"프레스코가구","tel":"031-334-1994","addr":"경기도 용인시 처인구 포곡읍 유운리 208-2번지","category":"가구 - 일반가구"}]},{"lat":"37.281544261","long":"127.23303695","items":[{"name":"피앤","tel":"031-337-0879","addr":"경기도 용인시 처인구 포곡읍 삼계리 485-11번지 피앤","category":"일반휴게음식 - 일반한식"},{"name":"향촌","tel":"031-332-0070","addr":"경기도 용인시 처인구 포곡읍 삼계리 485-11번지","category":"일반휴게음식 - 일반한식"}]},{"lat":"37.284654836","long":"127.21756382","items":[{"name":"피자마루","tel":"031-337-1082","addr":"경기도 용인시 처인구 포곡읍 전대리 186-10","category":"일반휴게음식 - 서양음식"},{"name":"혜빈마트(24시)","tel":"031-333-0915","addr":"경기도 용인시 처인구 포곡읍 전대리 186-10번지","category":"유통업 영리 - 편 의 점"}]},{"lat":"37.266850967","long":"127.22225955","items":[{"name":"핑퐁프렌즈탁구클럽","tel":"","addr":"경기도 용인시 처인구 포곡읍 둔전리 119-15번지 2층","category":"레저업소 - 기타레져업소"}]},{"lat":"37.314707784","long":"127.21542689","items":[{"name":"하나로퍼니처","tel":"031-263-0096","addr":"경기도 용인시 처인구 포곡읍 신원리 481-1","category":"주방용구 - 주방용구"}]},{"lat":"37.271434937","long":"127.24203705","items":[{"name":"하나산업","tel":"031-339-5879","addr":"경기도 용인시 처인구 포곡읍 금어리 425번지","category":"유통업 영리 - 기타유통업"}]},{"lat":"37.266633755","long":"127.21787341","items":[{"name":"하나컴퓨터","tel":"070-8676-8230","addr":"경기도 용인시 처인구 포곡읍 둔전리 144-2번지 상우빌라 107동 104호","category":"수리서비스 - 사무·통신기기수리"}]},{"lat":"37.283462183","long":"127.21937591","items":[{"name":"하모니편의점","tel":"031-332-8512","addr":"경기도 용인시 처인구 포곡읍 전대리 185-4","category":"유통업 영리 - 편 의 점"}]},{"lat":"37.296291135","long":"127.26881122","items":[{"name":"하뫼울","tel":"031-321-0037","addr":"경기도 용인시 처인구 포곡읍 금어리 37-1번지","category":"일반휴게음식 - 일반한식"}]},{"lat":"37.286194923","long":"127.23693029","items":[{"name":"하우스클린","tel":"070-8161-7360","addr":"경기도 용인시 처인구 포곡읍 삼계리 368-2번지 대명맨션 4동 203호","category":"주방용구 - 주방용구"}]},{"lat":"37.270800572","long":"127.1945134","items":[{"name":"하이웨이전자","tel":"031-321-4935","addr":"경기도 용인시 처인구 포곡읍 영문리 496번지","category":"전기제품 - 가전제품"}]},{"lat":"37.30151637","long":"127.22548447","items":[{"name":"한강드론교육원","tel":"031-333-2325","addr":"경기도 용인시 처인구 포곡읍 유운리 210-2, 187-1","category":"학원 - 기능학원"}]},{"lat":"37.273242711","long":"127.22523208","items":[{"name":"한국유체기계총판","tel":"031-322-6382","addr":"경기도 용인시 처인구 포곡읍 둔전리269-1","category":"기타 - 기타 전문점"}]},{"lat":"37.268935926","long":"127.22031517","items":[{"name":"한국유통(둔전점)","tel":"031-339-6832","addr":"경기도 용인시 처인구 포곡읍 둔전리 130-1번지","category":"유통업 영리 - 슈퍼마켓"}]},{"lat":"37.277852528","long":"127.23176286","items":[{"name":"한국지게차","tel":"","addr":"경기도 용인시 처인구 포곡읍 삼계리 666-20번지 아르세움 B02호","category":"자동차정비 유지 - 자동차시트·타이어"}]},{"lat":"37.28104865","long":"127.2551701","items":[{"name":"한국진돗개육종연구소","tel":"031-000-0000","addr":"경기도 용인시 처인구 포곡읍 금어리 327-2번지","category":"문화.취미 - 애완동물"}]},{"lat":"37.270908297","long":"127.23956629","items":[{"name":"한마음","tel":"070-4367-6622","addr":"경기도 용인시 처인구 포곡읍 금어리 596번지 교육관건물 1층","category":"서적문구 - 일반서적"}]},{"lat":"37.270634458","long":"127.21779459","items":[{"name":"한마음광고","tel":"031-322-0888","addr":"경기도 용인시 처인구 포곡읍 둔전리 162번지","category":"건축자재 - 인테리어전문"}]},{"lat":"37.281435195","long":"127.23352148","items":[{"name":"한반도","tel":"070-7639-8915","addr":"경기도 용인시 처인구 포곡읍 삼계리 490-13번지 동신빌라 B동 201호","category":"보건위생 - 기타대인서비스"}]},{"lat":"37.283740816","long":"127.20967906","items":[{"name":"한상","tel":"031-335-5335","addr":"경기도 용인시 처인구 포곡읍 전대리 445-3번지 숲속마을 101동 101호","category":"일반휴게음식 - 일반한식"},{"name":"한상","tel":"031-335-5335","addr":"경기도 용인시 처인구 포곡읍 전대리 445-3번지 숲속마을 101동 101호","category":"음료식품 - 기타음료식품"}]},{"lat":"37.276210557","long":"127.20835053","items":[{"name":"한솔기획","tel":"070-7018-5392","addr":"경기도 용인시 처인구 포곡읍 영문리 122-4번지","category":"건축자재 - 인테리어전문"}]},{"lat":"37.286097876","long":"127.21678982","items":[{"name":"한울생태","tel":"031-322-3114","addr":"경기도 용인시 처인구 포곡읍 전대리 356-7번지 외2필지","category":"일반휴게음식 - 일반한식"}]},{"lat":"37.297321576","long":"127.23742717","items":[{"name":"해피 스토리","tel":"","addr":"경기도 용인시 처인구 포곡읍 삼계리 122번지 석산전원주택 B동 301호","category":"학원 - 기타 교육기관"}]},{"lat":"37.285989448","long":"127.21695867","items":[{"name":"해피데이","tel":"031-323-6016","addr":"경기도 용인시 처인구 포곡읍 전대리 191-21","category":"의류 - 내의판매"}]},{"lat":"37.273652712","long":"127.20245812","items":[{"name":"햇비채농원","tel":"","addr":"경기도 용인시 처인구 포곡읍 영문리 342번지","category":"음료식품 - 농·축·수산품"}]},{"lat":"37.270122839","long":"127.21165991","items":[{"name":"행복한공부방","tel":"031-000-0000","addr":"경기도 용인시 처인구 포곡읍 둔전리 319번지 인정멜로디아파트","category":"학원 - 기타 교육기관"}]},{"lat":"37.276182216","long":"127.19848464","items":[{"name":"헤브론시스템","tel":"050-5577-0607","addr":"경기도 용인시 처인구 포곡읍 마성리 45-2번지 2층","category":"사무통신 - 컴퓨터"}]},{"lat":"37.278849279","long":"127.18723848","items":[{"name":"헬로우렙타일","tel":"","addr":"경기도 용인시 처인구 포곡읍 마성리 497-1번지","category":"문화.취미 - 애완동물"}]},{"lat":"37.27996629","long":"127.22420321","items":[{"name":"현 주방가구 싱크대","tel":"031-334-2437","addr":"경기도 용인시 처인구 포곡읍 전대리 110-12번지","category":"주방용구 - 주방용구"}]},{"lat":"37.271858639","long":"127.21846327","items":[{"name":"현대씽크인테리어","tel":"031-338-5152","addr":"경기도 용인시 처인구 포곡읍 둔전리 173-1번지 부강씨티빌라 102동 303호","category":"주방용구 - 주방용구"}]},{"lat":"37.275378188","long":"127.19426568","items":[{"name":"형근씨갑오징어짬뽕","tel":"031-322-7607","addr":"경기도 용인시 처인구 포곡읍 마성리 292번지 102호","category":"일반휴게음식 - 일반한식"}]},{"lat":"37.287294248","long":"127.21286886","items":[{"name":"호가(Hogar)","tel":"031-338-2728","addr":"경기도 용인시 처인구 포곡읍 전대리 340번지 1층","category":"일반휴게음식 - 일반한식"}]},{"lat":"37.26960206","long":"127.22065531","items":[{"name":"홍희네","tel":"","addr":"경기도 용인시 처인구 포곡읍 둔전리 192-40번지","category":"일반휴게음식 - 일반한식"}]},{"lat":"37.268432282","long":"127.19915231","items":[{"name":"화랑교육","tel":"031-9988-5486","addr":"경기도 용인시 처인구 포곡읍 영문리 443번지 3층","category":"서적문구 - 일반서적"}]},{"lat":"37.292659236","long":"127.26512192","items":[{"name":"황구네","tel":"031-321-0952","addr":"경기도 용인시 처인구 포곡읍 금어리65","category":"일반휴게음식 - 일반한식"}]},{"lat":"37.276576512","long":"127.19429126","items":[{"name":"히터스베이스볼센터","tel":"","addr":"경기도 용인시 처인구 포곡읍 마성리 286번지","category":"학원 - 예·체능계학원"}]}]