[{"lat":"37.157136256","long":"127.01245089","items":[{"name":"(주)바른교육","tel":"070-7634-5679","addr":"경기도 화성시 정남면 내리 187-1번지","category":"건강식품 - 기타건강식품"}]},{"lat":"37.158919543","long":"127.01953227","items":[{"name":"(주)사랑의숲","tel":"031-366-4926","addr":"경기도 화성시 정남면 내리 82-2번지 1동","category":"문화.취미 - 화원"}]},{"lat":"37.162136454","long":"127.0182045","items":[{"name":"GS25정남내리점","tel":"","addr":"경기도 화성시 정남면 내리 48-1번지","category":"유통업 영리 - 편 의 점"},{"name":"좋은사람들","tel":"031-352-1997","addr":"경기도 화성시 정남면 내리 48-1번지","category":"일반휴게음식 - 일반한식"}]},{"lat":"37.162226047","long":"127.02175088","items":[{"name":"경기폴리머","tel":"031-354-2146","addr":"경기도 화성시 정남면 내리 15-1번지","category":"직물 - 기타직물"}]},{"lat":"37.161803039","long":"127.01841834","items":[{"name":"다나모터스","tel":"031-353-9244","addr":"경기도 화성시 정남면 내리 50-2번지 2동","category":"자동차정비 유지 - 자동차정비"}]},{"lat":"37.153693938","long":"127.01583882","items":[{"name":"대진특수용접","tel":"031-237-8334","addr":"경기도 화성시 정남면 내리 171-6번지","category":"용역 서비스 - 기타용역서비스"}]},{"lat":"37.161892945","long":"127.01987067","items":[{"name":"또봉이통닭","tel":"031-354-8213","addr":"경기도 화성시 정남면 내리 64-2번지 1층","category":"일반휴게음식 - 스넥"},{"name":"씨유화성정남내리점","tel":"080-080-3663","addr":"경기도 화성시 정남면 내리 64-2번지 1층","category":"유통업 영리 - 편 의 점"}]},{"lat":"37.155892001","long":"127.01973424","items":[{"name":"만나한식부페","tel":"031-359-9649","addr":"경기도 화성시 정남면 내리 146번지","category":"일반휴게음식 - 일반한식"}]},{"lat":"37.161388196","long":"127.02097385","items":[{"name":"미니스톱화성내리점","tel":"031-1577-9621","addr":"경기도 화성시 정남면 내리 19-6번지","category":"유통업 영리 - 편 의 점"},{"name":"정우한식뷔페","tel":"031-405-4404","addr":"경기도 화성시 정남면 내리 19-6번지 1층","category":"일반휴게음식 - 일반한식"}]},{"lat":"37.157532535","long":"127.01447731","items":[{"name":"미엘","tel":"070-8262-1995","addr":"경기도 화성시 정남면 내리 129번지","category":"가구 - 일반가구"}]},{"lat":"37.161974368","long":"127.01739387","items":[{"name":"석민모터스BOSCH","tel":"031-375-7209","addr":"경기도 화성시 정남면 내리 46-5번지","category":"자동차정비 유지 - 자동차부품"}]},{"lat":"37.159532262","long":"127.01947611","items":[{"name":"신성정밀","tel":"031-222-8535","addr":"경기도 화성시 정남면 내리 82번지","category":"전기제품 - 기타전기제품"}]},{"lat":"37.160135994","long":"127.01925108","items":[{"name":"신승특장차","tel":"031-366-6167","addr":"경기도 화성시 정남면 내리 77-13번지","category":"기타 - 기타 전문점"}]},{"lat":"37.162307381","long":"127.02017473","items":[{"name":"에그로커피","tel":"031-869-3676","addr":"경기도 화성시 정남면 내리 26-1번지","category":"일반휴게음식 - 서양음식"}]},{"lat":"37.16217183","long":"127.02269656","items":[{"name":"에이티엠 (A.T.M)","tel":"031-377-0095","addr":"경기도 화성시 정남면 내리 13번지","category":"전기제품 - 기타전기제품"}]},{"lat":"37.157082221","long":"127.01209064","items":[{"name":"엠에스티(MST)","tel":"031-354-4940","addr":"경기도 화성시 정남면 내리 187-3번지","category":"기타 - 기계공구"}]},{"lat":"37.154720954","long":"127.01736997","items":[{"name":"주식회사 나이스토탈","tel":"070-7686-1340","addr":"경기도 화성시 정남면 내리 160-8번지","category":"건축자재 - 인테리어전문"}]},{"lat":"37.161253365","long":"127.01869968","items":[{"name":"주식회사 닥터에이치바이오","tel":"070-4238-5701","addr":"경기도 화성시 정남면 내리 51-7번지 1층","category":"보건위생 - 화장품"}]},{"lat":"37.162307534","long":"127.01909394","items":[{"name":"진수성찬","tel":"031-353-5222","addr":"경기도 화성시 정남면 내리 41-4번지 1층","category":"일반휴게음식 - 일반한식"}]},{"lat":"37.154919711","long":"127.01209038","items":[{"name":"큰집한식뷔페","tel":"031-352-3849","addr":"경기도 화성시 정남면 내리 183-3번지 1층","category":"일반휴게음식 - 일반한식"}]},{"lat":"37.162226681","long":"127.01722504","items":[{"name":"향촌","tel":"031-354-3824","addr":"경기도 화성시 정남면 내리 46-3번지","category":"일반휴게음식 - 일반한식"}]},{"lat":"37.161505057","long":"127.02269638","items":[{"name":"화성옥","tel":"","addr":"경기도 화성시 정남면 내리 11-4번지","category":"일반휴게음식 - 일반한식"}]},{"lat":"37.162532785","long":"127.01917279","items":[{"name":"휴니웰(수원지사)","tel":"031-236-7553","addr":"경기도 화성시 정남면 내리 41-1","category":"신변잡화 - 기타잡화"}]}]