[{"lat":"37.743380718","long":"127.52047213","items":[{"name":"LKM마린","tel":"031-594-1673","addr":"경기도 가평군 가평읍 산유리 산51-28","category":"레져용품 - 스포츠·레져용품"}]},{"lat":"37.748657397","long":"127.51286139","items":[{"name":"가평숯불막국수","tel":"031-582-1110","addr":"경기도 가평군 가평읍 산유리 113-2번지 1층","category":"일반휴게음식 - 일반한식"}]},{"lat":"37.754858417","long":"127.51227985","items":[{"name":"가평중앙바지락칼국수,막국수,할매순대국","tel":"031-581-9548","addr":"경기도 가평군 가평읍 산유리 195-9번지 1층","category":"일반휴게음식 - 일반한식"}]},{"lat":"37.7611017","long":"127.49322343","items":[{"name":"귀곡산장","tel":"031-562-8759","addr":"경기도 가평군 가평읍 산유리 742-1","category":"일반휴게음식 - 일반한식"},{"name":"행복한정원","tel":"031-582-0492","addr":"경기도 가평군 가평읍 산유리 742-1번지","category":"숙박업 - 여관/기타숙박업"}]},{"lat":"37.748297619","long":"127.51272277","items":[{"name":"디커피숍","tel":"031-581-0731","addr":"경기도 가평군 가평읍 산유리 106-10번지","category":"일반휴게음식 - 서양음식"}]},{"lat":"37.745934375","long":"127.51127696","items":[{"name":"뜰","tel":"031-581-3975","addr":"경기도 가평군 가평읍 산유리 431-5번지 1층","category":"일반휴게음식 - 일반한식"}]},{"lat":"37.745522871","long":"127.51683365","items":[{"name":"리버52로드(RIVER52ROAD)","tel":"031-581-0018","addr":"경기도 가평군 가평읍 산유리 16-1번지 16-3","category":"일반휴게음식 - 서양음식"}]},{"lat":"37.751191405","long":"127.49535931","items":[{"name":"마리오","tel":"070-7778-2759","addr":"경기도 가평군 가평읍 산유리 728번지","category":"일반휴게음식 - 일반한식"}]},{"lat":"37.750992491","long":"127.49552819","items":[{"name":"메종(masion)","tel":"","addr":"경기도 가평군 가평읍 산유리 728-17번지 2층","category":"일반휴게음식 - 서양음식"}]},{"lat":"37.75166043","long":"127.49952673","items":[{"name":"베토벤하우스작품69","tel":"070-1111-1111","addr":"경기도 가평군 가평읍 산유리 722-2번지","category":"신변잡화 - 기타잡화"}]},{"lat":"37.749882555","long":"127.51080472","items":[{"name":"산꼭대기올라가","tel":"032-564-9918","addr":"경기도 가평군 가평읍 산유리 422-4번지","category":"숙박업 - 여관/기타숙박업"}]},{"lat":"37.756546319","long":"127.51155382","items":[{"name":"산유리 휴게소","tel":"031-582-4595","addr":"경기도 가평군 가평읍 산유리 209번지","category":"음료식품 - 기타음료식품"},{"name":"산유리휴게소","tel":"031-582-4295","addr":"경기도 가평군 가평읍 산유리 209번지","category":"음료식품 - 기타음료식품"}]},{"lat":"37.754633089","long":"127.512301","items":[{"name":"신비의 세라믹볼 체험장","tel":"031-581-9549","addr":"경기도 가평군 가평읍 산유리 195-10번지","category":"가구 - 일반가구"}]},{"lat":"37.746942133","long":"127.51157885","items":[{"name":"어부의집","tel":"031-582-0968","addr":"경기도 가평군 가평읍 산유리 103-1번지","category":"일반휴게음식 - 일반한식"}]},{"lat":"37.747273072","long":"127.51213708","items":[{"name":"올댓워터","tel":"031-581-3888","addr":"경기도 가평군 가평읍 산유리 105-9번지","category":"숙박업 - 여관/기타숙박업"}]},{"lat":"37.746136049","long":"127.51047277","items":[{"name":"유니크펜션","tel":"070-4204-1689","addr":"경기도 가평군 가평읍 산유리 430번지","category":"숙박업 - 여관/기타숙박업"}]},{"lat":"37.748551462","long":"127.51443782","items":[{"name":"유동오리","tel":"031-582-0961","addr":"경기도 가평군 가평읍 산유리 73-11번지","category":"일반휴게음식 - 일반한식"}]},{"lat":"37.763049059","long":"127.49936454","items":[{"name":"전통주연구개발원","tel":"031-581-1054","addr":"경기도 가평군 가평읍 산유리 649-8번지","category":"음료식품 - 주류 판매점"}]},{"lat":"37.749384065","long":"127.51149345","items":[{"name":"제이피 에어 (Jayp AIR)","tel":"","addr":"경기도 가평군 가평읍 산유리 422번지 2층 202호","category":"용역 서비스 - 기타용역서비스"}]},{"lat":"37.750991779","long":"127.49569839","items":[{"name":"카페테라","tel":"031-582-8789","addr":"경기도 가평군 가평읍 산유리 728-10번지","category":"일반휴게음식 - 서양음식"}]},{"lat":"37.746053374","long":"127.51707559","items":[{"name":"품에","tel":"031-582-8249","addr":"경기도 가평군 가평읍 산유리 11번지","category":"일반휴게음식 - 서양음식"}]},{"lat":"37.757075453","long":"127.51002551","items":[{"name":"해람","tel":"031-582-3675","addr":"경기도 가평군 가평읍 산유리 370-2번지","category":"문화.취미 - 문화취미기타"}]},{"lat":"37.7494654","long":"127.50088499","items":[{"name":"호명산스카이라운지","tel":"031-581-0047","addr":"경기도 가평군 가평읍 산유리 456번지","category":"음료식품 - 기타음료식품"}]}]