[{"lat":"37.440274086","long":"126.99361611","items":[{"name":"24시자동차공업사(카-젠)","tel":"02-503-5021","addr":"경기도 과천시 관문동 72-5번지","category":"자동차정비 유지 - 자동차정비"},{"name":"고구려짬뽕10101과천점","tel":"02-504-5097","addr":"경기도 과천시 관문동 72-5번지 1층","category":"일반휴게음식 - 중국식"},{"name":"퀸즈키친","tel":"02-507-0404","addr":"경기도 과천시 관문동 72-5번지 2층","category":"일반휴게음식 - 서양음식"}]},{"lat":"37.434705902","long":"126.99377499","items":[{"name":"개성손만두","tel":"02-502-5988","addr":"경기도 과천시 관문동 70-3번지","category":"음식점업 - 분식"}]},{"lat":"37.440823686","long":"126.99346915","items":[{"name":"개성손만두","tel":"","addr":"경기도 과천시 관문동 70-3번지","category":"일반휴게음식 - 스넥"}]},{"lat":"37.459354971","long":"127.02805302","items":[{"name":"고구려짬뽕10101과천점","tel":"02-504-5097","addr":"경기도 과천시 관문동 72-5번지 1층","category":"음식점업 - 중식"}]},{"lat":"37.440914002","long":"126.99674611","items":[{"name":"관문스포츠매점","tel":"02-503-3826","addr":"경기도 과천시 관문동 3번지 관문실내체육관1층","category":"음료식품 - 기타음료식품"}]},{"lat":"37.453185794","long":"127.00169527","items":[{"name":"관문스포츠매점","tel":"02-503-3826","addr":"경기도 과천시 관문동 3번지 관문실내체육관1층","category":"소매업 - 스포츠용품"}]},{"lat":"37.443274432","long":"126.99372875","items":[{"name":"수원예조경","tel":"02-504-4545","addr":"경기도 과천시 관문동 52-10번지","category":"건축자재 - 인테리어전문"}]},{"lat":"37.437381864","long":"126.99355997","items":[{"name":"팔팔낙지","tel":"02-502-6600","addr":"경기도 과천시 관문동 99번지","category":"일반휴게음식 - 일반한식"}]},{"lat":"37.452525193","long":"127.02896616","items":[{"name":"팔팔낙지","tel":"02-507-5988","addr":"경기도 과천시 관문동 99번지","category":"음식점업 - 한식"}]}]