[{"lat":"38.09530256","long":"127.0043981","items":[{"name":"나룻배마을","tel":"031-833-5005","addr":"경기도 연천군 왕징면 북삼리 160-4","category":"음료식품 - 농·축·수산품"}]},{"lat":"38.09107727","long":"127.0070654","items":[{"name":"둔전나루식당","tel":"031-833-0005","addr":"경기도 연천군 왕징면 북삼리 184","category":"일반휴게음식 - 일반한식"}]},{"lat":"38.09127545","long":"127.0074758","items":[{"name":"뜨락애 농원","tel":"031-833-8004","addr":"경기도 연천군 왕징면 북삼리 182-11번지","category":"음료식품 - 농·축·수산품"}]},{"lat":"38.10016744","long":"127.0031213","items":[{"name":"북삼상회","tel":"031-833-9184","addr":"경기도 연천군 왕징면 북삼리 110-1번지","category":"음료식품 - 기타음료식품"}]},{"lat":"38.09060886","long":"127.0013202","items":[{"name":"사나래캠핑장","tel":"031-833-1104","addr":"경기도 연천군 왕징면 북삼리 209-2번지","category":"숙박업 - 여관/기타숙박업"}]},{"lat":"38.09163582","long":"127.0072592","items":[{"name":"연천나룻배마을영농조합법인","tel":"031-833-5449","addr":"경기도 연천군 왕징면 북삼리 182-5번지 2층","category":"레저업소 - 기타레져업소"},{"name":"연천나룻배마을영농조합법인","tel":"031-833-5005","addr":"경기도 연천군 왕징면 북삼리 182-5번지 2층","category":"레저업소 - 기타레져업소"}]},{"lat":"38.09555466","long":"127.0090037","items":[{"name":"올댓코퍼레이션(ALL THAT CORPORATION)","tel":"","addr":"경기도 연천군 왕징면 북삼리 170-1번지","category":"용역 서비스 - 기타용역서비스"}]},{"lat":"38.09327547","long":"127.0069857","items":[{"name":"작은별농원","tel":"031-833-4332","addr":"경기도 연천군 왕징면 북삼리 168-14번지","category":"음료식품 - 농·축·수산품"}]},{"lat":"38.09563587","long":"127.0058459","items":[{"name":"한얼다도예절교육농장","tel":"031-833-6545","addr":"경기도 연천군 왕징면 북삼리 161-4번지","category":"학원 - 기타 교육기관"}]}]