[{"lat":"37.553080212","long":"127.65498715","items":[{"name":"Pension Cafe Yoon&Park","tel":"031-693-3567","addr":"경기도 양평군 단월면 향소리 340-1","category":"숙박업 - 여관/기타숙박업"}]},{"lat":"37.554380281","long":"127.66743566","items":[{"name":"맛나라 음식","tel":"031-774-5031","addr":"경기도 양평군 단월면 향소리 77-3번지","category":"일반휴게음식 - 일반한식"}]},{"lat":"37.554830297","long":"127.66751888","items":[{"name":"승은이네","tel":"031-775-5660","addr":"경기도 양평군 단월면 향소리 79-8","category":"일반휴게음식 - 일반한식"}]},{"lat":"37.562348751","long":"127.65215919","items":[{"name":"신한구운소금정육점","tel":"031-773-0717","addr":"경기도 양평군 단월면 향소리 388번지 가동","category":"음료식품 - 정육점"}]},{"lat":"37.580019512","long":"127.64173907","items":[{"name":"용목가든","tel":"031-772-4842","addr":"경기도 양평군 단월면 향소리 917번지","category":"일반휴게음식 - 일반한식"}]},{"lat":"37.580596594","long":"127.64165343","items":[{"name":"용목찜질방","tel":"031-775-4842","addr":"경기도 양평군 단월면 향소리 914-1","category":"보건위생 - 사우나"}]},{"lat":"37.572045873","long":"127.6549374","items":[{"name":"우정사","tel":"031-772-4982","addr":"경기도 양평군 단월면 향소리 581-3 6/3","category":"회원제형태 - 기타4"}]},{"lat":"37.551688551","long":"127.65899235","items":[{"name":"원가든","tel":"031-773-0489","addr":"경기도 양평군 단월면 향소리 302-1번지","category":"일반휴게음식 - 일반한식"}]}]