[{"lat":"37.496391626","long":"127.70212344","items":[{"name":"(주)펫글로벌","tel":"031-1688-9629","addr":"경기도 양평군 양동면 고송리 606번지","category":"문화.취미 - 애완동물"}]},{"lat":"37.474533035","long":"127.7022702","items":[{"name":"(주)한창산업개발","tel":"031-770-9921","addr":"경기도 양평군 양동면 고송리 산132","category":"레저업소 - 골프경기장"}]},{"lat":"37.486250415","long":"127.69073371","items":[{"name":"J(제이)환경산업","tel":"031-772-3150","addr":"경기도 양평군 양동면 고송리 1145번지","category":"농업 - 농기계"}]},{"lat":"37.508220464","long":"127.70076348","items":[{"name":"고솔길막국수","tel":"031-774-2608","addr":"경기도 양평군 양동면 고송리 539-1번지","category":"일반휴게음식 - 일반한식"}]},{"lat":"37.508609849","long":"127.69275971","items":[{"name":"고송공원","tel":"031-771-6473","addr":"경기도 양평군 양동면 고송리 524-7번지 1층","category":"일반휴게음식 - 일반한식"}]},{"lat":"37.508972795","long":"127.69232196","items":[{"name":"고송횟집","tel":"031-774-5598","addr":"경기도 양평군 양동면 고송리 524-2번지","category":"일반휴게음식 - 일반한식"}]},{"lat":"37.502613503","long":"127.71782176","items":[{"name":"양평폭포펜션","tel":"031-772-4559","addr":"경기도 양평군 양동면 고송리 441번지","category":"숙박업 - 여관/기타숙박업"}]},{"lat":"37.484169092","long":"127.70301577","items":[{"name":"이제이푸드시스템 (EJ FOOD SYSTEM)","tel":"031-770-9931","addr":"경기도 양평군 양동면 고송리 산143번지 지하1층","category":"일반휴게음식 - 위탁급식업"}]},{"lat":"37.486752642","long":"127.7018753","items":[{"name":"햇빛촌","tel":"031-774-2553","addr":"경기도 양평군 양동면 고송리 199번지","category":"일반휴게음식 - 일반한식"}]}]