[{"lat":"37.28693374","long":"127.06275071","items":[{"name":"#뷰티갤러리","tel":"031-211-9889","addr":"경기도 수원시 영통구 하동 1019번지 광교더샵레이크파크 114호","category":"보건위생 - 피부미용실"},{"name":"(주)알라포헤","tel":"031-890-3838","addr":"경기도 수원시 영통구 하동 1019번지 광교더샵레이크파크 B30호","category":"신변잡화 - 기타잡화"},{"name":"Cherry Tree","tel":"","addr":"경기도 수원시 영통구 하동 1019번지 광교더샵레이크파크 판매시설동 B26호","category":"음료식품 - 기타음료식품"},{"name":"가은필라테스","tel":"031-000-0000","addr":"경기도 수원시 영통구 하동 1019번지 광교더샵레이크파크 102동 34층 9호","category":"레저업소 - 헬스클럽"},{"name":"감성스케치 위드","tel":"031-213-7111","addr":"경기도 수원시 영통구 하동 1019번지 판매시설 B11, B12호","category":"일반휴게음식 - 일반한식"},{"name":"광교더샵레이크파크단지관리단","tel":"031-212-3939","addr":"경기도 수원시 영통구 하동 1019번지 광교더샵레이크파크","category":"자동차정비 유지 - 주차장"},{"name":"네일플레르","tel":"","addr":"경기도 수원시 영통구 하동 1019번지 광교 더샵 레이크파크 제판매시설동 제지1층 B06호","category":"보건위생 - 피부미용실"},{"name":"누나홀닭광교점","tel":"031-212-4585","addr":"경기도 수원시 영통구 하동 1019번지 광교더샵레이크파크 B8층 B9호","category":"일반휴게음식 - 일반한식"},{"name":"뉴라인 MS Beauty","tel":"02-1111-1111","addr":"경기도 수원시 영통구 하동 1019번지 광교더샵레이크파크 101동 2011호","category":"보건위생 - 화장품"},{"name":"더사랑마트","tel":"031-215-4860","addr":"경기도 수원시 영통구 하동 1019번지 광교거샵 B1층 레이크파크 24호","category":"유통업 영리 - 편 의 점"},{"name":"라끄로즈","tel":"","addr":"경기도 수원시 영통구 하동 1019번지 광교 더샵 레이크파크 G동 1층 비25호","category":"일반휴게음식 - 서양음식"},{"name":"레이크 퀴진","tel":"031-215-0716","addr":"경기도 수원시 영통구 하동 1019번지 광교더샵레이크파크 1층 101호","category":"일반휴게음식 - 일반한식"},{"name":"레이크 펫 스튜디오","tel":"031-547-9767","addr":"경기도 수원시 영통구 하동 1019번지 상가동 B13호","category":"문화.취미 - 애완동물"},{"name":"로망띠끄(ROMANTIQUE)","tel":"031-0000-0000","addr":"경기도 수원시 영통구 하동 1019번지 지하1층 B01호, B02호","category":"보건위생 - 미용원"},{"name":"말랑","tel":"031-0000-0000","addr":"경기도 수원시 영통구 하동 1019번지 광교더샵레이크파크 지층 B16호","category":"의류 - 아동의류"},{"name":"맥쓰(MEXX)세계치킨 광교호수공원점","tel":"031-215-9090","addr":"경기도 수원시 영통구 하동 1019번지 광교더샵레이크파크 B1층 20호,21호","category":"일반휴게음식 - 스넥"},{"name":"미래로모터스 광교점","tel":"031-211-0664","addr":"경기도 수원시 영통구 하동 1019번지 제지1층 B35호","category":"레져용품 - 스포츠·레져용품"},{"name":"밀겨울","tel":"031-212-9701","addr":"경기도 수원시 영통구 하동 1019번지 광교더샵레이크파크 B17호","category":"일반휴게음식 - 일반한식"},{"name":"반찬샵","tel":"031-212-4850","addr":"경기도 수원시 영통구 하동 1019번지 판매시설동 110호","category":"음료식품 - 기타음료식품"},{"name":"벨라 에 부오노(Bell a Buono)","tel":"","addr":"경기도 수원시 영통구 하동 1019번지 광교더샵레이크파크 판매시설동 지하1층 B28호","category":"일반휴게음식 - 일반한식"},{"name":"빌리엔젤 광교호수공원점","tel":"031-217-0027","addr":"경기도 수원시 영통구 하동 1019번지 광교더샵레이크파크 상가 B22호","category":"일반휴게음식 - 서양음식"},{"name":"사랑마트","tel":"","addr":"경기도 수원시 영통구 하동 1019번지 제지 1층 제비24호","category":"유통업 영리 - 슈퍼마켓"},{"name":"셀렉토커피광교호수공원점","tel":"031-216-0609","addr":"경기도 수원시 영통구 하동 1019번지 판매시설동 지하1층 B31호","category":"일반휴게음식 - 서양음식"},{"name":"씨유광교더샵레이크파크점","tel":"031-898-6569","addr":"경기도 수원시 영통구 하동 1019번지 광교더샵레이크파크 판매시설동 107호","category":"유통업 영리 - 편 의 점"},{"name":"어라인 필라테스","tel":"","addr":"경기도 수원시 영통구 하동 1019번지 광교더샵레이크파크(오) 101동 601호","category":"레저업소 - 헬스클럽"},{"name":"에이닷 LAKESIDE","tel":"","addr":"경기도 수원시 영통구 하동 1019번지 광교더샵레이크파크 판매시설동 B1층 비27호","category":"의류 - 정장"},{"name":"예작Modern","tel":"031-214-1721","addr":"경기도 수원시 영통구 하동 1019번지 더샵레이크파크 1층 105호","category":"일반휴게음식 - 서양음식"},{"name":"오스카 광교점","tel":"070-4789-2381","addr":"경기도 수원시 영통구 하동 1019번지 외2필지 B1층 광교더샵레이크파크오피스텔 017호","category":"일반휴게음식 - 주점"},{"name":"웨어하우스","tel":"02-1234-1234","addr":"경기도 수원시 영통구 하동 1019번지 광교더샵레이크파크 B32호","category":"일반휴게음식 - 서양음식"},{"name":"이디야커피 광교호수공원점","tel":"031-211-8535","addr":"경기도 수원시 영통구 하동 1019번지 광교레이크파크 B14,B15호","category":"일반휴게음식 - 서양음식"},{"name":"조삼원 GH natural","tel":"031-899-8658","addr":"경기도 수원시 영통구 하동 1019번지 광교더샵레이크파크 101동 401호","category":"직물 - 침구·수예점"},{"name":"트리밍 매직","tel":"","addr":"경기도 수원시 영통구 하동 1019번지 광교더샵레이크파크 지하1층 B29호","category":"문화.취미 - 애완동물"},{"name":"프레쉬독","tel":"070-4649-1102","addr":"경기도 수원시 영통구 하동 1019번지 광교더샵레이크파크 B04호","category":"일반휴게음식 - 서양음식"},{"name":"휴필라테스스튜디오","tel":"","addr":"경기도 수원시 영통구 하동 1019번지 광교더샵 레이크파크 101동 305호","category":"레저업소 - 헬스클럽"}]},{"lat":"37.285121765","long":"127.06453097","items":[{"name":"(주)경진관리 광교힐스테이트","tel":"031-217-7918","addr":"경기도 수원시 영통구 하동 1021번지 광교힐스테이트","category":"자동차정비 유지 - 주차장"},{"name":"(주)오닭꼬치 광교점","tel":"031-214-8555","addr":"경기도 수원시 영통구 하동 1021번지 힐스테이트광교 상가 301동 147호","category":"일반휴게음식 - 스넥"},{"name":"GS25광교힐스점","tel":"","addr":"경기도 수원시 영통구 하동 1021번지 힐스테이트광교상가 301동 127호","category":"유통업 영리 - 편 의 점"},{"name":"구름콩","tel":"031-8002-4247","addr":"경기도 수원시 영통구 하동 1021번지 힐스테이트광교 103동 1301호","category":"신변잡화 - 액세서리"},{"name":"달빛맥주 광교호수공원점","tel":"031-214-9595","addr":"경기도 수원시 영통구 하동 1021번지 힐스테이트광교 301동 제지2층 120호","category":"일반휴게음식 - 주점"},{"name":"더클래식헤어레이크","tel":"031-211-6556","addr":"경기도 수원시 영통구 하동 1021번지 힐스테이트 광교 301동 지2층 114호","category":"보건위생 - 미용원"},{"name":"바르바광교점","tel":"031-212-3004","addr":"경기도 수원시 영통구 하동 1021번지 힐스테이트광교 301동 212호","category":"일반휴게음식 - 서양음식"},{"name":"바바빠빠","tel":"031-214-0525","addr":"경기도 수원시 영통구 하동 1021번지 301동 지2층 101호","category":"일반휴게음식 - 일반한식"},{"name":"샌드리아(광교호수공원점)","tel":"","addr":"경기도 수원시 영통구 하동 1021번지 힐스테이트 광교 301동 126호","category":"일반휴게음식 - 서양음식"},{"name":"소이","tel":"","addr":"경기도 수원시 영통구 하동 1021번지 힐스테이트 광교 301동 지2층 133호","category":"일반휴게음식 - 서양음식"},{"name":"시립힐스광교어린이집[아이행복]","tel":"031-211-9686","addr":"경기도 수원시 영통구 하동 1021번지 힐스테이트광교","category":"학원 - 유아원"},{"name":"아싸비어 광교점","tel":"031-214-8555","addr":"경기도 수원시 영통구 하동 1021번지 힐스테이트광교 상가 146-5","category":"음료식품 - 기타음료식품"},{"name":"엠에스피","tel":"","addr":"경기도 수원시 영통구 하동 1021번지 힐스테이트광교 102동 1102호","category":"학원 - 기타 교육기관"},{"name":"영앤아(Young&Aㅏ)","tel":"","addr":"경기도 수원시 영통구 하동 1021번지 힐스테이트 광교 301동 지1층 203호","category":"일반휴게음식 - 서양음식"},{"name":"이마트24 광교호수공원점","tel":"031-000-0000","addr":"경기도 수원시 영통구 하동 1021번지 힐스테이트광교 148호","category":"유통업 영리 - 편 의 점"},{"name":"카비요가,필라테스(광교호수)","tel":"","addr":"경기도 수원시 영통구 하동 1021번지 힐스테이트광교 201동 203호","category":"레저업소 - 헬스클럽"},{"name":"카페 스트라다","tel":"","addr":"경기도 수원시 영통구 하동 1021번지 힐스테이트광교 301동 124호","category":"일반휴게음식 - 일반한식"},{"name":"커피에반하다","tel":"031-214-8484","addr":"경기도 수원시 영통구 하동 1021번지 힐스테이트광교 G동 2층 137호","category":"일반휴게음식 - 서양음식"},{"name":"코다리명가","tel":"031-211-0333","addr":"경기도 수원시 영통구 하동 1021번지 301동 지하1층 204,205호","category":"일반휴게음식 - 일반한식"},{"name":"크래프트한스","tel":"","addr":"경기도 수원시 영통구 하동 1021번지 힐스테이트광교 301동 1층 122호","category":"일반휴게음식 - 일반한식"},{"name":"팜 베이커리(Fam Bakery)","tel":"031-211-2600","addr":"경기도 수원시 영통구 하동 1021번지 힐스테이트 광교 301동 지2층 117호","category":"음료식품 - 제과점"},{"name":"하이아","tel":"031-8002-6601","addr":"경기도 수원시 영통구 하동 1021번지 301동 지1층 217호","category":"일반휴게음식 - 서양음식"},{"name":"한결에프엔씨","tel":"","addr":"경기도 수원시 영통구 하동 1021번지 힐스테이트광교 301동 제지 2층 제102호","category":"음료식품 - 농·축·수산품"},{"name":"허브노리","tel":"031-211-5200","addr":"경기도 수원시 영통구 하동 1021번지 힐스테이트광교 G동 2층 125호","category":"보건위생 - 화장품"},{"name":"호수세탁","tel":"031-211-7770","addr":"경기도 수원시 영통구 하동 1021번지 힐스테이트광교 301동 107호","category":"수리서비스 - 세탁소"}]},{"lat":"37.288627952","long":"127.06218819","items":[{"name":"(주)기획하는 아망","tel":"070-0000-0000","addr":"경기도 수원시 영통구 하동 1014번지 광교힐스테이트레이크 101동 2704호","category":"의류 - 정장"},{"name":"(주)와이에스인터내셔날","tel":"070-4100-8585","addr":"경기도 수원시 영통구 하동 1014번지 광교힐스테이트레이크 103동 405호","category":"신변잡화 - 신발"},{"name":"거창골식당","tel":"031-111-1111","addr":"경기도 수원시 영통구 하동 1014번지 광교힐스테이트레이크 105호","category":"일반휴게음식 - 일반한식"},{"name":"광교힐스테이트레이크단지관리단","tel":"031-213-3395","addr":"경기도 수원시 영통구 하동 1014번지 광교힐스테이트레이크","category":"자동차정비 유지 - 주차장"},{"name":"동해수산","tel":"031-217-5353","addr":"경기도 수원시 영통구 하동 1014번지 지하1층 04호 B","category":"일반휴게음식 - 일식·회집"},{"name":"리안","tel":"031-276-1015","addr":"경기도 수원시 영통구 하동 1014번지 광교힐스테이트레이크 101동 3304호","category":"문화.취미 - 화원"},{"name":"베스트세탁","tel":"031-214-3650","addr":"경기도 수원시 영통구 하동 1014번지 광교힐스테이트레이크 상가동 109호","category":"수리서비스 - 세탁소"},{"name":"비걸(BGIRL)","tel":"031-548-4118","addr":"경기도 수원시 영통구 하동 1014번지 광교힐스테이트레이크 103동 3층 4호","category":"자동차정비 유지 - 가타자동차서비스"},{"name":"서대문족발","tel":"031-215-0012","addr":"경기도 수원시 영통구 하동 1014번지 광교힐스테이트레이크 근린생활시설동 1층 108호","category":"일반휴게음식 - 일반한식"},{"name":"설악유통","tel":"","addr":"경기도 수원시 영통구 하동 1014번지 광교힐스테이트레이크 101동 2805호","category":"음료식품 - 기타음료식품"},{"name":"세븐일레븐광교호수점","tel":"031-1577-0711","addr":"경기도 수원시 영통구 하동 1014번지 광교힐스테이트레이크근린생활시성동 107호","category":"유통업 영리 - 편 의 점"},{"name":"손수엄마손누룽지","tel":"031-232-4224","addr":"경기도 수원시 영통구 하동 1014번지 광교힐스테이트레이크 상가동 117호","category":"음료식품 - 기타음료식품"},{"name":"신사 부대찌개 품격삼겹살","tel":"031-211-0123","addr":"경기도 수원시 영통구 하동 1014번지 광교힐스테이트레이크 B07호","category":"일반휴게음식 - 일반한식"},{"name":"예담은밥상","tel":"031-213-5212","addr":"경기도 수원시 영통구 하동 1014번지 힐스테이트레이크 116호","category":"일반휴게음식 - 일반한식"},{"name":"옛맛찌개마을","tel":"02-2677-7025","addr":"경기도 수원시 영통구 하동 1014번지 지하1층 비03호","category":"일반휴게음식 - 일반한식"},{"name":"파리바게뜨 (광교힐스테이트점)","tel":"031-213-1555","addr":"경기도 수원시 영통구 하동 1014번지 광교힐스테이트레이크 120호","category":"음료식품 - 제과점"},{"name":"펀비어킹호수공원점","tel":"031-213-3432","addr":"경기도 수원시 영통구 하동 1014번지 광교힐스테이트레이크 111호","category":"일반휴게음식 - 일반한식"},{"name":"한스필라테스","tel":"","addr":"경기도 수원시 영통구 하동 1014번지 광교힐스테이트레이크 101동 2203호","category":"레저업소 - 헬스클럽"}]},{"lat":"37.293930538","long":"127.07049287","items":[{"name":"(주)빅싱","tel":"031-896-9535","addr":"경기도 수원시 영통구 하동 959-2번지","category":"레져용품 - 스포츠·레져용품"},{"name":"카페 우리동네","tel":"","addr":"경기도 수원시 영통구 하동 959-2번지 1층","category":"일반휴게음식 - 서양음식"}]},{"lat":"37.284151919","long":"127.05791092","items":[{"name":"(주)참좋은캐터링 광교점","tel":"031-212-0010","addr":"경기도 수원시 영통구 하동 871번지","category":"일반휴게음식 - 일반한식"}]},{"lat":"37.292237642","long":"127.06866438","items":[{"name":"(주)투힘(TWOHIM)","tel":"031-309-0878","addr":"경기도 수원시 영통구 하동 984번지 그랜드프라자 401-1호","category":"신변잡화 - 기타잡화"},{"name":"경성옛불","tel":"031-212-9252","addr":"경기도 수원시 영통구 하동 984번지 그랜드프라자 107호","category":"일반휴게음식 - 일반한식"},{"name":"고운속기사무소","tel":"031-276-5635","addr":"경기도 수원시 영통구 하동 984번지 115호","category":"용역 서비스 - 사무서비스"},{"name":"광교명가부대찌개","tel":"070-5121-4552","addr":"경기도 수원시 영통구 하동 984번지 그랜드프라자 203호","category":"일반휴게음식 - 일반한식"},{"name":"광교벌교집","tel":"031-206-2999","addr":"경기도 수원시 영통구 하동 984번지 211,212호","category":"일반휴게음식 - 일반한식"},{"name":"광교성충현탁구클럽","tel":"031-214-2949","addr":"경기도 수원시 영통구 하동 984번지 6층 604,605호","category":"레저업소 - 기타레져업소"},{"name":"국수나무 광교법조타운점","tel":"031-215-9979","addr":"경기도 수원시 영통구 하동 984번지 그랜드프라자 114호","category":"일반휴게음식 - 일반한식"},{"name":"그랜드프라자관리단주차장","tel":"031-215-0434","addr":"경기도 수원시 영통구 하동 984번지 그랜드프라자 128호","category":"자동차정비 유지 - 주차장"},{"name":"김덕환변호사사무소","tel":"031-213-1144","addr":"경기도 수원시 영통구 하동 984번지 그랜드프라자 407-1호","category":"용역 서비스 - 법률회계서비스(개인)"},{"name":"까르보네 광교법조타운점","tel":"031-214-9510","addr":"경기도 수원시 영통구 하동 984번지 그랜드프라자 112호","category":"일반휴게음식 - 서양음식"},{"name":"농부쌈밥","tel":"031-217-1566","addr":"경기도 수원시 영통구 하동 984번지 207,208호","category":"일반휴게음식 - 일반한식"},{"name":"동경규동","tel":"","addr":"경기도 수원시 영통구 하동 984번지 그랜드프라자 1층 125호","category":"일반휴게음식 - 일반한식"},{"name":"동화경매","tel":"031-212-7765","addr":"경기도 수원시 영통구 하동 984번지 4층 7호","category":"용역 서비스 - 사무서비스"},{"name":"리모션필라테스","tel":"031-214-2456","addr":"경기도 수원시 영통구 하동 984번지 그랜드프라자 4층 404호","category":"레저업소 - 헬스클럽"},{"name":"몽떼espresso","tel":"031-214-2018","addr":"경기도 수원시 영통구 하동 984번지 그랜드프라자 1층 121호","category":"음료식품 - 제과점"},{"name":"반미리광교점","tel":"","addr":"경기도 수원시 영통구 하동 984번지 그랜드프라자 126호","category":"일반휴게음식 - 서양음식"},{"name":"법률사무소 종해","tel":"031-213-0400","addr":"경기도 수원시 영통구 하동 984번지 4층 401-2호","category":"용역 서비스 - 법률회계서비스(개인)"},{"name":"법률사무소 지율","tel":"031-211-2006","addr":"경기도 수원시 영통구 하동 984번지 그랜드프라자 3층 305호","category":"용역 서비스 - 법률회계서비스(개인)"},{"name":"법률사무소 지율","tel":"031-211-2006","addr":"경기도 수원시 영통구 하동 984번지 305호","category":"용역 서비스 - 법률회계서비스(개인)"},{"name":"법률사무소 지한","tel":"031-546-1511","addr":"경기도 수원시 영통구 하동 984번지 505호","category":"용역 서비스 - 법률회계서비스(개인)"},{"name":"법률사무소 지한","tel":"031-546-1511","addr":"경기도 수원시 영통구 하동 984번지 504호","category":"용역 서비스 - 법률회계서비스(개인)"},{"name":"법률사무소동하","tel":"031-548-1194","addr":"경기도 수원시 영통구 하동 984번지 4층 405호","category":"용역 서비스 - 법률회계서비스(개인)"},{"name":"변호사 김예진 법률사무소","tel":"031-211-2006","addr":"경기도 수원시 영통구 하동 984번지 305호","category":"용역 서비스 - 법률회계서비스(개인)"},{"name":"변호사 김헌기 법률사무소","tel":"031-214-5502","addr":"경기도 수원시 영통구 하동 984번지 503호","category":"용역 서비스 - 법률회계서비스(개인)"},{"name":"변호사 송지영 법률사무소","tel":"031-215-9377","addr":"경기도 수원시 영통구 하동 984번지 301-2호","category":"용역 서비스 - 법률회계서비스(개인)"},{"name":"변호사유형빈법률사무소","tel":"031-214-5503","addr":"경기도 수원시 영통구 하동 984번지 503호","category":"용역 서비스 - 법률회계서비스(개인)"},{"name":"변호사한병의법률사무소","tel":"031-212-8811","addr":"경기도 수원시 영통구 하동 984번지 502호","category":"용역 서비스 - 법률회계서비스(개인)"},{"name":"사라디자인","tel":"","addr":"경기도 수원시 영통구 하동 984번지 그랜드프라자 1층 115호","category":"용역 서비스 - 사무서비스"},{"name":"선이네순대국","tel":"02-1111-1111","addr":"경기도 수원시 영통구 하동 984번지 그랜드프라자 1층 104호","category":"일반휴게음식 - 일반한식"},{"name":"수학의품격학원","tel":"031-214-3700","addr":"경기도 수원시 영통구 하동 984번지 302호","category":"학원 - 보습학원"},{"name":"순남시래기 광교법원점","tel":"031-217-5525","addr":"경기도 수원시 영통구 하동 984번지 205호","category":"일반휴게음식 - 일반한식"},{"name":"시루향기 광교점","tel":"031-214-3446","addr":"경기도 수원시 영통구 하동 984번지 119,120","category":"일반휴게음식 - 일반한식"},{"name":"아이지에이마트 광교법조타운점","tel":"","addr":"경기도 수원시 영통구 하동 984번지 124호","category":"유통업 영리 - 편 의 점"},{"name":"영어의품격학원","tel":"031-214-3702","addr":"경기도 수원시 영통구 하동 984번지 303호","category":"학원 - 외국어학원"},{"name":"이한세무회계컨설팅","tel":"031-241-2285","addr":"경기도 수원시 영통구 하동 984번지 그랜드프라자 3층 301-1호","category":"용역 서비스 - 법률회계서비스(개인)"},{"name":"장수진 법률사무소","tel":"031-000-0000","addr":"경기도 수원시 영통구 하동 984번지 그랜드프라자 506호","category":"용역 서비스 - 법률회계서비스(개인)"},{"name":"제일종합법무법인","tel":"031-215-0434","addr":"경기도 수원시 영통구 하동 984번지 그랜드프라자 507-2호","category":"용역 서비스 - 법률회계서비스(법인)"},{"name":"죽이야기 광교법조타운점","tel":"031-217-6233","addr":"경기도 수원시 영통구 하동 984번지 113호","category":"일반휴게음식 - 일반한식"},{"name":"지성","tel":"","addr":"경기도 수원시 영통구 하동 984번지 그랜드프라자 4층 407호","category":"보건위생 - 기타대인서비스"},{"name":"천하주물럭","tel":"031-238-5858","addr":"경기도 수원시 영통구 하동 984번지 1층 101-103호","category":"일반휴게음식 - 일반한식"},{"name":"최씨고집 삼계탕 광교직영점","tel":"031-215-2171","addr":"경기도 수원시 영통구 하동 984번지 2층","category":"일반휴게음식 - 일반한식"},{"name":"카페베프","tel":"031-111-1111","addr":"경기도 수원시 영통구 하동 984번지 1층 108호","category":"일반휴게음식 - 서양음식"},{"name":"컴포즈커피 광교법원점","tel":"070-4503-7829","addr":"경기도 수원시 영통구 하동 984번지 1층 111호","category":"일반휴게음식 - 서양음식"},{"name":"태성추어탕 수원광교점","tel":"031-215-1771","addr":"경기도 수원시 영통구 하동 984번지 그랜드프라자 2층 204호","category":"일반휴게음식 - 일반한식"},{"name":"하민법무사사무소","tel":"031-212-2977","addr":"경기도 수원시 영통구 하동 984번지 122호","category":"용역 서비스 - 법률회계서비스(개인)"},{"name":"한솥도시락 광교법조타운점","tel":"031-211-1559","addr":"경기도 수원시 영통구 하동 984번지 그랜드프라자 110호","category":"일반휴게음식 - 스넥"},{"name":"한촌설렁탕 광교법조타운점","tel":"031-212-3377","addr":"경기도 수원시 영통구 하동 984번지 그랜드프라자 1층 117호 118호","category":"일반휴게음식 - 일반한식"},{"name":"호형호제","tel":"031-211-4191","addr":"경기도 수원시 영통구 하동 984번지 1층 116호","category":"일반휴게음식 - 중국식"}]},{"lat":"37.292759693","long":"127.06963472","items":[{"name":"101호","tel":"031-000-0000","addr":"경기도 수원시 영통구 하동 972-1번지 1층 104호","category":"일반휴게음식 - 서양음식"},{"name":"광교꼬마김밥","tel":"031-213-0034","addr":"경기도 수원시 영통구 하동 972-1번지 1층 일부호","category":"일반휴게음식 - 스넥"},{"name":"나리언니네","tel":"070-7018-5364","addr":"경기도 수원시 영통구 하동 972-1번지 103호","category":"의류 - 정장"},{"name":"디저트하우스 공방","tel":"070-4147-2775","addr":"경기도 수원시 영통구 하동 972-1번지 102호","category":"일반휴게음식 - 일반한식"},{"name":"마이주(MyJoo)","tel":"070-1111-1111","addr":"경기도 수원시 영통구 하동 972-1번지 1층 102호","category":"의류 - 아동의류"}]},{"lat":"37.293822079","long":"127.07107923","items":[{"name":"149플라밍고","tel":"031-213-0149","addr":"경기도 수원시 영통구 하동 960번지 1층 101호","category":"일반휴게음식 - 서양음식"}]},{"lat":"37.288016018","long":"127.06064276","items":[{"name":"365별약국","tel":"031-212-1705","addr":"경기도 수원시 영통구 하동 1016번지 광교효성해링턴타워 3층 311호","category":"약국 - 약국"},{"name":"광교365메디컬의원","tel":"031-213-3655","addr":"경기도 수원시 영통구 하동 1016번지 광교효성해링턴타워 314호","category":"의원 - 의원"},{"name":"광교사진관(원스포토수원점)","tel":"070-4245-2981","addr":"경기도 수원시 영통구 하동 1016번지 광교효성해링턴타워 A동 615호","category":"광학제품 - 사진관"},{"name":"광교삼성치과","tel":"031-212-2875","addr":"경기도 수원시 영통구 하동 1016번지 광교 효성해링턴 타워 3층 325호, 326호, 327호","category":"의원 - 치과의원"},{"name":"바른몸헬스케어","tel":"","addr":"경기도 수원시 영통구 하동 1016번지 광교효성해링턴타워 A동 1515호","category":"레저업소 - 헬스클럽"},{"name":"비아이피(B.I.P)","tel":"031-302-5557","addr":"경기도 수원시 영통구 하동 1016번지 광교효성해링턴타워 2층 225호 ,226,227호","category":"학원 - 예·체능계학원"},{"name":"스웨르떼 광교호수점","tel":"","addr":"경기도 수원시 영통구 하동 1016번지 광교효성해링턴타워 1층 140호","category":"일반휴게음식 - 서양음식"},{"name":"씨유광교해링턴점","tel":"080-080-3663","addr":"경기도 수원시 영통구 하동 1016번지 광교효성해링턴타워 1층 123호","category":"유통업 영리 - 편 의 점"},{"name":"언제나 필라테스","tel":"","addr":"경기도 수원시 영통구 하동 1016번지 광교효성해링턴타워 321,322,323호","category":"레저업소 - 헬스클럽"},{"name":"에이미스커피 광교점","tel":"031-215-7083","addr":"경기도 수원시 영통구 하동 1016번지 광교효성해링턴타워 4층 401호","category":"일반휴게음식 - 서양음식"},{"name":"월드패밀리잉글리쉬수원지사","tel":"031-215-0902","addr":"경기도 수원시 영통구 하동 1016번지 광교효성해링턴타워 3층 332호","category":"서적문구 - 기타서적문구"},{"name":"이가영 치과의원","tel":"031-213-2872","addr":"경기도 수원시 영통구 하동 1016번지 광교효성해링턴타워 2층 212호","category":"의원 - 치과의원"},{"name":"철구PC방 광교신도시점","tel":"070-3065-7865","addr":"경기도 수원시 영통구 하동 1016번지 b2층 b201호,b202호","category":"레저업소 - 기타레져업소"},{"name":"컴어라운드","tel":"031-216-3853","addr":"경기도 수원시 영통구 하동 1016번지 광교효성해링턴타워 127호","category":"일반휴게음식 - 서양음식"},{"name":"킹스짐 퍼스널트레이닝","tel":"031-1544-3906","addr":"경기도 수원시 영통구 하동 1016번지 광교효성해링턴타워 315호","category":"레저업소 - 헬스클럽"}]},{"lat":"37.292930382","long":"127.07052581","items":[{"name":"87바이브스멘스헤어","tel":"","addr":"경기도 수원시 영통구 하동 970-6번지 1층","category":"보건위생 - 이용원"},{"name":"까망머리","tel":"031-217-1591","addr":"경기도 수원시 영통구 하동 970-6번지 1층일부","category":"보건위생 - 미용원"},{"name":"세컨드트랙","tel":"","addr":"경기도 수원시 영통구 하동 970-6번지 103호","category":"일반휴게음식 - 일반한식"}]},{"lat":"37.293516035","long":"127.07054889","items":[{"name":"ALUJ광교점","tel":"031-214-7767","addr":"경기도 수원시 영통구 하동 964번지 1층","category":"보건위생 - 미용원"}]},{"lat":"37.280469008","long":"127.07085294","items":[{"name":"CHOCO SALON 초코살롱","tel":"031-8013-7689","addr":"경기도 수원시 영통구 하동 1027번지 광교레이크파크한양수자인 2304동 1303호","category":"음료식품 - 기타음료식품"}]},{"lat":"37.291986374","long":"127.06680336","items":[{"name":"FUN BIKE (펀바이크)","tel":"031-215-3337","addr":"경기도 수원시 영통구 하동 987-5번지 광교법조프라자 101호","category":"레져용품 - 스포츠·레져용품"},{"name":"더벤티광교법조타운점","tel":"031-215-2660","addr":"경기도 수원시 영통구 하동 987-5번지 110호","category":"일반휴게음식 - 서양음식"},{"name":"법률사무소 이룸","tel":"031-476-4117","addr":"경기도 수원시 영통구 하동 987-5번지 402호","category":"용역 서비스 - 법률회계서비스(개인)"},{"name":"법률사무소소율","tel":"031-216-1555","addr":"경기도 수원시 영통구 하동 987-5번지 302호","category":"용역 서비스 - 법률회계서비스(개인)"},{"name":"아트디자인 광교법조타운점","tel":"070-4649-1102","addr":"경기도 수원시 영통구 하동 987-5번지 범조프라자 104호","category":"건축자재 - 인테리어전문"},{"name":"오피스디자인","tel":"031-214-7488","addr":"경기도 수원시 영통구 하동 987-5번지 1층 111호","category":"용역 서비스 - 사무서비스"},{"name":"이기영변호사사무실","tel":"031-216-7781","addr":"경기도 수원시 영통구 하동 987-5번지 광교법조프라자 401호","category":"용역 서비스 - 법률회계서비스(개인)"},{"name":"해피광고디자인","tel":"070-4649-1101","addr":"경기도 수원시 영통구 하동 987-5번지 1층 104호","category":"신변잡화 - 기념품점"}]},{"lat":"37.295318853","long":"127.08368948","items":[{"name":"GS25광교40단지점","tel":"","addr":"경기도 수원시 영통구 하동 1001번지 광교마을40단지 상가동 101호","category":"유통업 영리 - 편 의 점"},{"name":"광교세탁소","tel":"031-213-5051","addr":"경기도 수원시 영통구 하동 1001번지 광교마을40단지 상가동 206호","category":"수리서비스 - 세탁소"},{"name":"문치과","tel":"031-262-2875","addr":"경기도 수원시 영통구 하동 1001번지 201호","category":"의원 - 치과의원"},{"name":"뮤엠영어광교40단지교습소","tel":"031-212-7776","addr":"경기도 수원시 영통구 하동 1001번지 광교마을40단지 상가 2층 205호","category":"학원 - 외국어학원"},{"name":"크린토피아 수원광교마을점","tel":"031-248-5834","addr":"경기도 수원시 영통구 하동 1001번지 광교마을40단지 상가동 1층 103,104호","category":"수리서비스 - 세탁소"}]},{"lat":"37.29273277","long":"127.06944298","items":[{"name":"GS25광교센터점","tel":"","addr":"경기도 수원시 영통구 하동 972번지","category":"유통업 영리 - 편 의 점"},{"name":"남문떡볶이 (광교법조타운점)","tel":"031-213-5422","addr":"경기도 수원시 영통구 하동 972번지 103호","category":"일반휴게음식 - 스넥"},{"name":"라운드(ROUND)127","tel":"031-215-5127","addr":"경기도 수원시 영통구 하동 972번지 101호","category":"의류 - 정장"}]},{"lat":"37.29092873","long":"127.07289228","items":[{"name":"GS25광교참누리점","tel":"031-9278-1520","addr":"경기도 수원시 영통구 하동 994번지 광교호수마을참누리레이크 1층 108호","category":"유통업 영리 - 편 의 점"},{"name":"경희대석사이의태권도장","tel":"031-214-2544","addr":"경기도 수원시 영통구 하동 994번지 광교호수마을참누리레이크 지층 101호","category":"학원 - 예·체능계학원"},{"name":"참누리명품세탁소","tel":"031-217-3133","addr":"경기도 수원시 영통구 하동 994번지 광교호수마을참누리레이크 상가동 106호","category":"수리서비스 - 세탁소"}]},{"lat":"37.292705171","long":"127.07044667","items":[{"name":"K. raft studio","tel":"031-213-7879","addr":"경기도 수원시 영통구 하동 972-5번지 102호","category":"의류 - 정장"},{"name":"사진에 반하다 스튜디오","tel":"031-213-0724","addr":"경기도 수원시 영통구 하동 972-5번지 1층 101호","category":"광학제품 - 사진관"},{"name":"카페멜레로(cafe melero)","tel":"","addr":"경기도 수원시 영통구 하동 972-5번지 1층 102호","category":"일반휴게음식 - 서양음식"},{"name":"파도랑맥주","tel":"","addr":"경기도 수원시 영통구 하동 972-5번지 1층 103호","category":"일반휴게음식 - 주점"}]},{"lat":"37.293209744","long":"127.07044712","items":[{"name":"THE DARM (더닮)","tel":"011-***-****","addr":"경기도 수원시 영통구 하동 964-4번지 1층","category":"음료식품 - 제과점"}]},{"lat":"37.294419594","long":"127.08106075","items":[{"name":"TOPmaker 영어공부방","tel":"031-214-2834","addr":"경기도 수원시 영통구 하동 1001번지 광교마을40단지 4002동 25층 2501호","category":"학원 - 보습학원"},{"name":"유니크","tel":"070-5148-4715","addr":"경기도 수원시 영통구 하동 1001번지 광교마을40단지 4002동 2104호","category":"회원제형태 - 기타1"}]},{"lat":"37.293291626","long":"127.06904875","items":[{"name":"가온누리","tel":"031-232-1080","addr":"경기도 수원시 영통구 하동 967번지 1층","category":"기타 - 기계공구"},{"name":"디자인4U","tel":"031-206-2347","addr":"경기도 수원시 영통구 하동 967번지 101호","category":"건축자재 - 인테리어전문"},{"name":"위즈네일","tel":"031-217-0613","addr":"경기도 수원시 영통구 하동 967번지","category":"보건위생 - 피부미용실"}]},{"lat":"37.293704593","long":"127.07168812","items":[{"name":"가와공방","tel":"","addr":"경기도 수원시 영통구 하동 960-4번지 1층","category":"문화.취미 - 문화취미기타"}]},{"lat":"37.292985025","long":"127.06949959","items":[{"name":"갓식빵광교법조타운점","tel":"031-211-6204","addr":"경기도 수원시 영통구 하동 970-1번지","category":"일반휴게음식 - 서양음식"},{"name":"나주곰탕 광교점","tel":"031-212-3851","addr":"경기도 수원시 영통구 하동 970-1번지 103,104호","category":"일반휴게음식 - 일반한식"}]},{"lat":"37.292598438","long":"127.06796548","items":[{"name":"갤러리PC","tel":"02-222-2222","addr":"경기도 수원시 영통구 하동 983-2번지 (4층 404호 405호)","category":"레저업소 - 기타레져업소"},{"name":"골든트리","tel":"070-4034-1445","addr":"경기도 수원시 영통구 하동 983-2번지 301호","category":"일반휴게음식 - 주점"},{"name":"다인","tel":"031-216-6176","addr":"경기도 수원시 영통구 하동 983-2번지 107호","category":"일반휴게음식 - 중국식"},{"name":"럭키초이스","tel":"031-222-4893","addr":"경기도 수원시 영통구 하동 983-2번지 B1층","category":"용역 서비스 - 종합용역"},{"name":"법률사무소 건[  ]","tel":"","addr":"경기도 수원시 영통구 하동 983-2번지 탑프라자 4층 406호","category":"용역 서비스 - 법률회계서비스(개인)"},{"name":"법률사무소 공간[    ]","tel":"031-8007-3046","addr":"경기도 수원시 영통구 하동 983-2번지 탑프라자 4층 406호","category":"용역 서비스 - 법률회계서비스(개인)"},{"name":"법원약국","tel":"031-211-7022","addr":"경기도 수원시 영통구 하동 983-2번지 1층 112호","category":"약국 - 약국"},{"name":"변호사 김동욱 법률사무소","tel":"031-8007-3048","addr":"경기도 수원시 영통구 하동 983-2번지 탑프라자 4층 406호","category":"용역 서비스 - 법률회계서비스(개인)"},{"name":"변호사노생만법률사무소","tel":"031-211-4711","addr":"경기도 수원시 영통구 하동 983-2번지 403호","category":"용역 서비스 - 법률회계서비스(개인)"},{"name":"비노래연습장","tel":"031-217-6009","addr":"경기도 수원시 영통구 하동 983-2번지 3층","category":"레저업소 - 노 래 방"},{"name":"빨간석쇠구이 광교점","tel":"","addr":"경기도 수원시 영통구 하동 983-2번지 1층 111호","category":"일반휴게음식 - 일반한식"},{"name":"소국시","tel":"031-212-0755","addr":"경기도 수원시 영통구 하동 983-2번지 1층 206호","category":"일반휴게음식 - 일반한식"},{"name":"알파문구(광교점)","tel":"031-214-2140","addr":"경기도 수원시 영통구 하동 983-2번지 탑프라자 106호","category":"서적문구 - 문구용품"},{"name":"일리헤어","tel":"031-215-3558","addr":"경기도 수원시 영통구 하동 983-2번지 탑프라자 202호","category":"보건위생 - 미용원"},{"name":"짝태앤골뱅이","tel":"070-896-5703","addr":"경기도 수원시 영통구 하동 983-2번지 110호","category":"일반휴게음식 - 일반한식"},{"name":"한승탁마취통증의학과의원","tel":"","addr":"경기도 수원시 영통구 하동 983-2번지 2층 203,204호","category":"의원 - 의원"}]},{"lat":"37.292426046","long":"127.07010809","items":[{"name":"격식주점","tel":"070-4036-4787","addr":"경기도 수원시 영통구 하동 975-1번지","category":"일반휴게음식 - 주점"},{"name":"춘봉식당","tel":"031-000-0000","addr":"경기도 수원시 영통구 하동 975-1번지 1층 101호","category":"일반휴게음식 - 일반한식"}]},{"lat":"37.292427379","long":"127.06771723","items":[{"name":"경희인다움한의원","tel":"031-214-1475","addr":"경기도 수원시 영통구 하동 983-1번지 401호 (4층401~403호)","category":"의원 - 한의원"},{"name":"더피자","tel":"032-217-1082","addr":"경기도 수원시 영통구 하동 983-1번지 드림타워3 106호","category":"일반휴게음식 - 서양음식"},{"name":"맑은눈 안경원","tel":"031-213-2289","addr":"경기도 수원시 영통구 하동 983-1번지 드림타워3 102,103호","category":"보건위생 - 안경"},{"name":"명동칼국수샤브냉면","tel":"031-214-2846","addr":"경기도 수원시 영통구 하동 983-1번지 드림타워,3202호-203호 202호","category":"일반휴게음식 - 일반한식"},{"name":"밥집","tel":"031-203-6957","addr":"경기도 수원시 영통구 하동 983-1번지 드림타워 111호","category":"일반휴게음식 - 일반한식"},{"name":"법률사무소 문현","tel":"031-211-4200","addr":"경기도 수원시 영통구 하동 983-1번지 307-310호","category":"용역 서비스 - 법률회계서비스(개인)"},{"name":"변호사 이명일 법률사무소","tel":"031-8081-1896","addr":"경기도 수원시 영통구 하동 983-1번지 드림타워-3,505호일부","category":"용역 서비스 - 법률회계서비스(개인)"},{"name":"삼청동만둣국","tel":"031-216-6474","addr":"경기도 수원시 영통구 하동 983-1번지 드림타워3 111호","category":"일반휴게음식 - 일반한식"},{"name":"수 노래연습장","tel":"031-214-2808","addr":"경기도 수원시 영통구 하동 983-1번지 드림타워3 5층 501,502,503호","category":"레저업소 - 노 래 방"},{"name":"슬림바디 필라테스","tel":"031-211-9733","addr":"경기도 수원시 영통구 하동 983-1번지 드림타워3 201호","category":"레저업소 - 헬스클럽"},{"name":"시골찌개마을","tel":"","addr":"경기도 수원시 영통구 하동 983-1번지 드림타워3 112호","category":"일반휴게음식 - 일반한식"},{"name":"연세새빛치과","tel":"031-308-7588","addr":"경기도 수원시 영통구 하동 983-1번지 드림타워3 404호, 405호","category":"의원 - 치과의원"},{"name":"영통체형관리교정","tel":"031-217-1553","addr":"경기도 수원시 영통구 하동 983-1번지 204호 드림타워3","category":"보건위생 - 기타대인서비스"},{"name":"웰봄소아청소년과의원","tel":"031-213-1275","addr":"경기도 수원시 영통구 하동 983-1번지 드림타워3 304,305호","category":"의원 - 의원"},{"name":"위트커피","tel":"031-000-0000","addr":"경기도 수원시 영통구 하동 983-1번지 드림타워3 101호","category":"일반휴게음식 - 서양음식"},{"name":"정담갈비","tel":"031-214-8988","addr":"경기도 수원시 영통구 하동 983-1번지 드림타워3 108,109,110호","category":"일반휴게음식 - 일반한식"}]},{"lat":"37.291931877","long":"127.06760403","items":[{"name":"골든플라워","tel":"031-000-0000","addr":"경기도 수원시 영통구 하동 986번지 오름법조프라자 1층 107호","category":"문화.취미 - 화원"},{"name":"라떼떼베이글커피","tel":"031-212-0560","addr":"경기도 수원시 영통구 하동 986번지 1층 105호","category":"일반휴게음식 - 서양음식"},{"name":"열린심리상담센터","tel":"031-216-0788","addr":"경기도 수원시 영통구 하동 986번지 7층 704호","category":"보건위생 - 기타대인서비스"},{"name":"율탑법률사무소","tel":"031-212-2323","addr":"경기도 수원시 영통구 하동 986번지 402호","category":"용역 서비스 - 법률회계서비스(개인)"}]},{"lat":"37.294455186","long":"127.08173747","items":[{"name":"골프클럽연구소","tel":"031-286-3345","addr":"경기도 수원시 영통구 하동 1001번지 광교마을40단지 4003동 29층 02호","category":"레져용품 - 골프용품 전문점"},{"name":"모모","tel":"031-291-0279","addr":"경기도 수원시 영통구 하동 1001번지 광교마을40단지 4003동 304호","category":"가구 - 일반가구"}]},{"lat":"37.293543239","long":"127.07024442","items":[{"name":"공증인황순헌사무소","tel":"031-214-5599","addr":"경기도 수원시 영통구 하동 965-5번지","category":"용역 서비스 - 법률회계서비스(개인)"}]},{"lat":"37.292733249","long":"127.06858587","items":[{"name":"광교 TEAM 무예원","tel":"031-215-9997","addr":"경기도 수원시 영통구 하동 983-4번지 2층 202호","category":"학원 - 예·체능계학원"},{"name":"광교키즈아트미술학원","tel":"031-212-3334","addr":"경기도 수원시 영통구 하동 983-4번지 2층 203호","category":"학원 - 예·체능계학원"},{"name":"맘앤하트","tel":"031-215-7942","addr":"경기도 수원시 영통구 하동 983-4번지 301호 ,302호","category":"보건위생 - 기타대인서비스"},{"name":"방셰프","tel":"031-213-7948","addr":"경기도 수원시 영통구 하동 983-4번지 108호","category":"일반휴게음식 - 일반한식"},{"name":"아이엠현헤어","tel":"02-000-0000","addr":"경기도 수원시 영통구 하동 983-4번지 골드클래스10 107호","category":"보건위생 - 미용원"},{"name":"에듀프라임수학전문학원","tel":"031-214-7889","addr":"경기도 수원시 영통구 하동 983-4번지 3층 304호","category":"학원 - 보습학원"},{"name":"예린뮤즈음악학원","tel":"031-217-0357","addr":"경기도 수원시 영통구 하동 983-4번지 402호","category":"학원 - 예·체능계학원"},{"name":"제이드영어중국어학원","tel":"031-215-6606","addr":"경기도 수원시 영통구 하동 983-4번지 403호","category":"학원 - 외국어학원"}]},{"lat":"37.281732942","long":"127.06635493","items":[{"name":"광교 생태환경체험교육관","tel":"070-4252-9510","addr":"경기도 수원시 영통구 하동 1024번지","category":"학원 - 기타 교육기관"},{"name":"까페라미떼 푸른숲도서관","tel":"","addr":"경기도 수원시 영통구 하동 1024번지","category":"일반휴게음식 - 서양음식"},{"name":"미미원","tel":"031-226-6404","addr":"경기도 수원시 영통구 하동 1024번지","category":"음료식품 - 기타음료식품"},{"name":"전망대까페","tel":"031-215-5354","addr":"경기도 수원시 영통구 하동 1024번지 프라이부르크전망대","category":"일반휴게음식 - 서양음식"}]},{"lat":"37.292182782","long":"127.07008532","items":[{"name":"광교2동주민자치위원회","tel":"031-228-8477","addr":"경기도 수원시 영통구 하동 976번지","category":"학원 - 기타 교육기관"},{"name":"시립광교2동어린이집[아이행복]","tel":"031-228-2874","addr":"경기도 수원시 영통구 하동 976번지","category":"학원 - 유아원"}]},{"lat":"37.29334434","long":"127.07141713","items":[{"name":"광교골프","tel":"031-215-0013","addr":"경기도 수원시 영통구 하동 962번지 1층","category":"레져용품 - 골프용품 전문점"}]},{"lat":"37.291509512","long":"127.0655286","items":[{"name":"광교공인외국어번역행정사사무소","tel":"031-217-0509","addr":"경기도 수원시 영통구 하동 987번지 5층 505호","category":"용역 서비스 - 법률회계서비스(개인)"},{"name":"보글보글찌개백반","tel":"031-214-6002","addr":"경기도 수원시 영통구 하동 987번지 지하1층","category":"일반휴게음식 - 일반한식"},{"name":"제이에이치허특허법률사무소","tel":"031-216-6788","addr":"경기도 수원시 영통구 하동 987번지 드림타워4 5층 504호","category":"용역 서비스 - 법률회계서비스(개인)"}]},{"lat":"37.295102314","long":"127.08411781","items":[{"name":"광교동화나라어린이집[아이행복]","tel":"031-222-3131","addr":"경기도 수원시 영통구 하동 1001번지 광교마을40단지 4006동 104호","category":"학원 - 유아원"},{"name":"그리고 미술공방","tel":"070-2825-6530","addr":"경기도 수원시 영통구 하동 1001번지 광교마을40단지 4006동 102호","category":"학원 - 예·체능계학원"},{"name":"해피아이어린이집[아이행복]","tel":"031-214-3256","addr":"경기도 수원시 영통구 하동 1001번지 광교마을40단지 4006동 103호","category":"학원 - 유아원"}]},{"lat":"37.291469664","long":"127.07235146","items":[{"name":"광교라온어린이집[아이행복]","tel":"031-211-1578","addr":"경기도 수원시 영통구 하동 994번지 광교호수마을참누리레이크 3003동 101호","category":"학원 - 유아원"},{"name":"리틀초록어린이집[아이행복]","tel":"031-8025-3004","addr":"경기도 수원시 영통구 하동 994번지 광교호수마을참누리레이크 3003동 103호","category":"학원 - 유아원"}]},{"lat":"37.296226785","long":"127.08671301","items":[{"name":"광교마을사임당어린이집[아이행복]","tel":"031-212-7979","addr":"경기도 수원시 영통구 하동 1001번지 광교마을40단지 4009동 104호","category":"학원 - 유아원"}]},{"lat":"37.292345393","long":"127.06932986","items":[{"name":"광교맥주","tel":"031-212-7288","addr":"경기도 수원시 영통구 하동 973-2번지","category":"일반휴게음식 - 일반한식"},{"name":"우리말속기사무소","tel":"","addr":"경기도 수원시 영통구 하동 973-2번지 2층 201호","category":"용역 서비스 - 사무서비스"}]},{"lat":"37.29412077","long":"127.06868858","items":[{"name":"광교반점/(주)재화푸드","tel":"031-215-8259","addr":"경기도 수원시 영통구 하동 968-1번지 1층","category":"일반휴게음식 - 중국식"}]},{"lat":"37.296785826","long":"127.08613844","items":[{"name":"광교별나라빅스맘어린이집[아이행복]","tel":"031-216-9579","addr":"경기도 수원시 영통구 하동 1001번지 광교마을40단지 4010동 104호","category":"학원 - 유아원"}]},{"lat":"37.292292373","long":"127.06744645","items":[{"name":"광교상쾌한이비인후과의원","tel":"031-212-7520","addr":"경기도 수원시 영통구 하동 983번지 광교더죤프라자 203호","category":"의원 - 의원"},{"name":"다영약국","tel":"031-214-9678","addr":"경기도 수원시 영통구 하동 983번지 광교더죤프라자 113호","category":"약국 - 약국"},{"name":"다정한의원","tel":"031-214-6963","addr":"경기도 수원시 영통구 하동 983번지 더존프라자 304호","category":"의원 - 한의원"},{"name":"보스턴치과의원","tel":"070-4217-3960","addr":"경기도 수원시 영통구 하동 983번지 광교더죤프라자 404호","category":"의원 - 치과의원"},{"name":"서초오피스","tel":"031-214-4433","addr":"경기도 수원시 영통구 하동 983번지 광교더죤프라자 104호","category":"서적문구 - 문구용품"},{"name":"올리브 도시락","tel":"","addr":"경기도 수원시 영통구 하동 983번지 광교더죤프라자 112호","category":"일반휴게음식 - 일반한식"},{"name":"우리농산","tel":"031-215-5001","addr":"경기도 수원시 영통구 하동 983번지 광교더죤프라자 1층 114호","category":"음료식품 - 농·축·수산품"},{"name":"저스트 콤마","tel":"031-214-8923","addr":"경기도 수원시 영통구 하동 983번지 광교더죤프라자 117,108-1호","category":"일반휴게음식 - 서양음식"},{"name":"황궁","tel":"070-7108-8116","addr":"경기도 수원시 영통구 하동 983번지 광교더죤프라자 201호","category":"보건위생 - 피부미용실"}]},{"lat":"37.291905434","long":"127.06652136","items":[{"name":"광교스마트 전자담배","tel":"031-213-0170","addr":"경기도 수원시 영통구 하동 987-4번지 신명프라자 2차 104호","category":"기타 - 기타 전문점"},{"name":"김호운세무회계","tel":"070-7700-8845","addr":"경기도 수원시 영통구 하동 987-4번지 신명프라자 401호","category":"용역 서비스 - 법률회계서비스(개인)"},{"name":"법률사무소 천선","tel":"","addr":"경기도 수원시 영통구 하동 987-4번지 신명프라자 4층 401, 402호","category":"용역 서비스 - 법률회계서비스(개인)"},{"name":"변화사최성중법률사무소","tel":"031-217-1114","addr":"경기도 수원시 영통구 하동 987-4번지 신명프라자 3층 301호","category":"용역 서비스 - 법률회계서비스(개인)"},{"name":"순보리네식당","tel":"031-216-5464","addr":"경기도 수원시 영통구 하동 987-4번지 신명프라자 109호","category":"일반휴게음식 - 일반한식"},{"name":"태후사랑","tel":"031-263-4018","addr":"경기도 수원시 영통구 하동 987-4번지 신명프라자 1층 106호","category":"보건위생 - 화장품"},{"name":"행복한우리심리상담센타","tel":"031-212-9959","addr":"경기도 수원시 영통구 하동 987-4 신명프라자2,501호","category":"보건위생 - 기타대인서비스"},{"name":"훼미리치과의원","tel":"031-214-8528","addr":"경기도 수원시 영통구 하동 987-4번지 장교신도시 신명프라자 302호","category":"의원 - 치과의원"}]},{"lat":"37.293650819","long":"127.07119185","items":[{"name":"광교오토바이","tel":"031-264-1766","addr":"경기도 수원시 영통구 하동 960-8번지","category":"자동차판매 - 이륜차판매"}]},{"lat":"37.293983891","long":"127.07172221","items":[{"name":"광교차유리","tel":"031-213-5460","addr":"경기도 수원시 영통구 하동 957-19번지 1층 좌측","category":"자동차정비 유지 - 자동차정비"}]},{"lat":"37.292625282","long":"127.06830384","items":[{"name":"광교초밥집","tel":"","addr":"경기도 수원시 영통구 하동 983-5번지 105호","category":"일반휴게음식 - 일식·회집"},{"name":"법무법인 정직","tel":"031-306-2202","addr":"경기도 수원시 영통구 하동 983-5번지 법조프라자 3층","category":"용역 서비스 - 법률회계서비스(법인)"},{"name":"법무법인 정직","tel":"031-306-2202","addr":"경기도 수원시 영통구 하동 983-5번지 법조프라자 3층","category":"용역 서비스 - 법률회계서비스(법인)"},{"name":"법무법인 정직","tel":"031-306-2202","addr":"경기도 수원시 영통구 하동 983-5번지 광교법조프라자 3층","category":"용역 서비스 - 법률회계서비스(법인)"},{"name":"빽다방 광교법조타운점","tel":"031-211-2017","addr":"경기도 수원시 영통구 하동 983-5번지 광교법조프라자 104호","category":"일반휴게음식 - 서양음식"},{"name":"세무회계사무소 서린","tel":"031-223-5214","addr":"경기도 수원시 영통구 하동 983-5번지 광교법조프라자 4층","category":"용역 서비스 - 법률회계서비스(개인)"},{"name":"최미자소머리국밥","tel":"031-212-0902","addr":"경기도 수원시 영통구 하동 983-5번지 1층","category":"일반휴게음식 - 일반한식"}]},{"lat":"37.292794716","long":"127.07141663","items":[{"name":"광교컴퓨터","tel":"031-215-6119","addr":"경기도 수원시 영통구 하동 971-3번지 1층 103호","category":"사무통신 - 컴퓨터"},{"name":"카페우(cafe WOO)","tel":"031-5417-0331","addr":"경기도 수원시 영통구 하동 971-3번지 1층 104호","category":"일반휴게음식 - 서양음식"},{"name":"허.갈닭강정","tel":"031-214-0980","addr":"경기도 수원시 영통구 하동 971-3번지 1층 102호","category":"일반휴게음식 - 스넥"}]},{"lat":"37.29170538","long":"127.06983679","items":[{"name":"광교플러스복사","tel":"031-217-4710","addr":"경기도 수원시 영통구 하동 979번지 105,106호","category":"용역 서비스 - 사무서비스"},{"name":"뜰5커피","tel":"031-212-4520","addr":"경기도 수원시 영통구 하동 979번지 101호","category":"일반휴게음식 - 서양음식"},{"name":"법률사무소 수영","tel":"031-212-3210","addr":"경기도 수원시 영통구 하동 979번지 광교지연빌딩 2층 201호","category":"용역 서비스 - 법률회계서비스(개인)"},{"name":"한산이씨호응공파종중(광교지연빌딩)","tel":"","addr":"경기도 수원시 영통구 하동 979번지","category":"용역 서비스 - 부동산 중개·임대"}]},{"lat":"37.293652036","long":"127.06904906","items":[{"name":"광교한우한돈특수부위","tel":"031-217-1471","addr":"경기도 수원시 영통구 하동 966-2번지","category":"일반휴게음식 - 일반한식"}]},{"lat":"37.293876855","long":"127.06982743","items":[{"name":"굴비한두름","tel":"031-211-4744","addr":"경기도 수원시 영통구 하동 958-6번지 1층","category":"일반휴게음식 - 일반한식"}]},{"lat":"37.292461913","long":"127.07041262","items":[{"name":"그라운드8456플러스","tel":"031-216-8456","addr":"경기도 수원시 영통구 하동 975-3번지 102호","category":"일반휴게음식 - 서양음식"},{"name":"아이니쥬(INEEDYOU)","tel":"","addr":"경기도 수원시 영통구 하동 975-3번지 지하1층","category":"일반휴게음식 - 일반한식"}]},{"lat":"37.291400914","long":"127.06641943","items":[{"name":"그레이스치과의원","tel":"031-546-1557","addr":"경기도 수원시 영통구 하동 989번지 광교원희캐슬법조타운 B동 203호","category":"의원 - 치과의원"},{"name":"까페달다","tel":"031-217-9780","addr":"경기도 수원시 영통구 하동 989번지 원희캐슬 광교 C동 117호","category":"일반휴게음식 - 서양음식"},{"name":"농업회사법인 주식회사 일호","tel":"031-8009-0411","addr":"경기도 수원시 영통구 하동 989번지 원희캐슬광교 B동 10층","category":"용역 서비스 - 부동산 중개·임대"},{"name":"도시정원","tel":"02-9464-5779","addr":"경기도 수원시 영통구 하동 989번지 원희캐슬광교 D동 1층 115호","category":"문화.취미 - 화원"},{"name":"드림문구센터","tel":"031-216-5673","addr":"경기도 수원시 영통구 하동 989번지 2층 B-202호","category":"서적문구 - 문구용품"},{"name":"로고스탠드","tel":"","addr":"경기도 수원시 영통구 하동 989번지 원희캐슬 광교 B동 107호","category":"일반휴게음식 - 일반한식"},{"name":"마린커피","tel":"","addr":"경기도 수원시 영통구 하동 989번지 원희캐슬광교 1층 B-110호","category":"일반휴게음식 - 서양음식"},{"name":"마이법률사무소(My law firm)","tel":"031-211-2200","addr":"경기도 수원시 영통구 하동 989번지 A동 9층 903호 원희캐슬광교","category":"용역 서비스 - 법률회계서비스(개인)"},{"name":"명인만두 광교법조타운점","tel":"031-111-1111","addr":"경기도 수원시 영통구 하동 989번지 원희캐슬 광교 D동 1층 103호","category":"일반휴게음식 - 스넥"},{"name":"명품만두김밥","tel":"031-0000-0000","addr":"경기도 수원시 영통구 하동 989번지 D116호","category":"일반휴게음식 - 일반한식"},{"name":"문성식법률사무소","tel":"031-217-3307","addr":"경기도 수원시 영통구 하동 989번지 원희캐슬 광교 C동 601호","category":"용역 서비스 - 법률회계서비스(개인)"},{"name":"미가 한식뷔페","tel":"031-212-7858","addr":"경기도 수원시 영통구 하동 989번지 원희캐슬 광교 C동 214호","category":"일반휴게음식 - 일반한식"},{"name":"바른말녹취","tel":"","addr":"경기도 수원시 영통구 하동 989번지 원희캐슬광교 8층 A804호","category":"용역 서비스 - 사무서비스"},{"name":"법률사무소 동주","tel":"031-216-1055","addr":"경기도 수원시 영통구 하동 989번지 B동 903호 원희캐슬광교","category":"용역 서비스 - 법률회계서비스(개인)"},{"name":"법률사무소 동주","tel":"031-216-1155","addr":"경기도 수원시 영통구 하동 989번지 원희캐슬광교 B동 902호","category":"용역 서비스 - 법률회계서비스(개인)"},{"name":"법률사무소 로앤탑","tel":"031-216-2003","addr":"경기도 수원시 영통구 하동 989번지 원희캐슬광교 3층 A304호","category":"용역 서비스 - 법률회계서비스(개인)"},{"name":"법률사무소 률","tel":"031-214-7729","addr":"경기도 수원시 영통구 하동 989번지 원희캐슬 광교 A동 8층 808호","category":"용역 서비스 - 법률회계서비스(개인)"},{"name":"법률사무소 서한","tel":"031-000-0000","addr":"경기도 수원시 영통구 하동 989번지 에이동 709-710호","category":"용역 서비스 - 법률회계서비스(개인)"},{"name":"법률사무소 정초","tel":"031-213-0016","addr":"경기도 수원시 영통구 하동 989번지 원희캐슬 광교 C동 6층 603호","category":"용역 서비스 - 법률회계서비스(개인)"},{"name":"법무법인 씨앤케이","tel":"031-216-1399","addr":"경기도 수원시 영통구 하동 989번지 원희캐슬광교 씨동7층701,702호","category":"용역 서비스 - 법률회계서비스(법인)"},{"name":"법무법인 오킴스","tel":"070-4616-2583","addr":"경기도 수원시 영통구 하동 989번지 원희캐슬 광교 A동 2층 208호","category":"용역 서비스 - 법률회계서비스(법인)"},{"name":"법무법인 홍재","tel":"031-212-2180","addr":"경기도 수원시 영통구 하동 989번지 B동 801,802호","category":"용역 서비스 - 법률회계서비스(법인)"},{"name":"법무법인 홍재","tel":"031-214-9400","addr":"경기도 수원시 영통구 하동 989번지 제비동 801,802호","category":"용역 서비스 - 법률회계서비스(법인)"},{"name":"법무법인 홍재","tel":"031-214-9400","addr":"경기도 수원시 영통구 하동 989번지 제비동 801호,802호","category":"용역 서비스 - 법률회계서비스(법인)"},{"name":"법무법인 홍재","tel":"031-211-0051","addr":"경기도 수원시 영통구 하동 989번지 제비동 801,802호","category":"용역 서비스 - 법률회계서비스(법인)"},{"name":"법무법인온","tel":"031-548-2840","addr":"경기도 수원시 영통구 하동 989번지 원희캐슬 광교 비동 701호,702호","category":"용역 서비스 - 법률회계서비스(법인)"},{"name":"변호사 윤석민 법률사무소","tel":"031-212-1350","addr":"경기도 수원시 영통구 하동 989번지 C동404호 원희캐슬광교","category":"용역 서비스 - 법률회계서비스(개인)"},{"name":"변호사김근태법률사무소","tel":"031-890-4848","addr":"경기도 수원시 영통구 하동 989번지 원희캐슬광교 A동 601호","category":"용역 서비스 - 법률회계서비스(개인)"},{"name":"변호사최용석법률사무소","tel":"031-305-1501","addr":"경기도 수원시 영통구 하동 989번지 원희캐슬 광교 A동 601호","category":"용역 서비스 - 법률회계서비스(개인)"},{"name":"블루보넷","tel":"","addr":"경기도 수원시 영통구 하동 989번지 원희캐슬 광교 B동 307호","category":"음료식품 - 제과점"},{"name":"세렌디피티","tel":"031-212-8734","addr":"경기도 수원시 영통구 하동 989번지 원희캐슬 광교 B동 101호","category":"일반휴게음식 - 서양음식"},{"name":"세컨라운드 골프","tel":"031-212-1871","addr":"경기도 수원시 영통구 하동 989번지 원희캐슬광교 지1층 비137호, 비138호, 비139호","category":"레져용품 - 골프용품 전문점"},{"name":"쏭남아(SSONG NAM-A)","tel":"02-1234-1234","addr":"경기도 수원시 영통구 하동 989번지 원희캐슬 광교 A동 1층 116호","category":"일반휴게음식 - 서양음식"},{"name":"씨유광교원희캐슬점","tel":"080-080-3663","addr":"경기도 수원시 영통구 하동 989번지 광교원희캐슬법조타운 A동 101호","category":"유통업 영리 - 편 의 점"},{"name":"에스앤에스(S&S)골프스튜디오","tel":"031-212-1307","addr":"경기도 수원시 영통구 하동 989번지 외 4필지 원희캐슬 광교 B동 305호","category":"레저업소 - 골프연습장"},{"name":"에스제이메딕스","tel":"031-213-4620","addr":"경기도 수원시 영통구 하동 989번지 A동3층8호,원희캐슬광교","category":"보건위생 - 화장품"},{"name":"오감북스앤키즈","tel":"","addr":"경기도 수원시 영통구 하동 989번지 원희캐슬 광교 A동 10층 1008호","category":"서적문구 - 일반서적"},{"name":"오션서퍼 광교점","tel":"031-895-5560","addr":"경기도 수원시 영통구 하동 989번지 제지층제비 136호 원희캐슬광교","category":"레저업소 - 수 영 장"},{"name":"오쓰부","tel":"031-246-6688","addr":"경기도 수원시 영통구 하동 989번지 지하1층 B135호","category":"일반휴게음식 - 중국식"},{"name":"이마트24 광교법원점","tel":"031-000-0000","addr":"경기도 수원시 영통구 하동 989번지 원희캐슬 광교 C동 1층 109호","category":"유통업 영리 - 편 의 점"},{"name":"이화케이앤드씨 통번역센터","tel":"031-213-2260","addr":"경기도 수원시 영통구 하동 989번지 원희캐슬 광교 D동 912호","category":"용역 서비스 - 사무서비스"},{"name":"인성복변호사사무소","tel":"031-211-0080","addr":"경기도 수원시 영통구 하동 989번지 원희캐슬광교법조타운 A동 607,608호","category":"용역 서비스 - 법률회계서비스(개인)"},{"name":"제이제이 키친","tel":"031-217-0878","addr":"경기도 수원시 영통구 하동 989번지 외 4필지 원희캐슬광교 B동 807호","category":"주방용구 - 주방용식기"},{"name":"주식회사 서플로","tel":"070-5118-3330","addr":"경기도 수원시 영통구 하동 989번지 원희캐슬광교 C동 319호","category":"레져용품 - 스포츠·레져용품"},{"name":"주식회사 플로릿(Flowlet Co. Ltd)","tel":"","addr":"경기도 수원시 영통구 하동 989번지 원희캐슬 광교 D동 309호","category":"보건위생 - 화장품"},{"name":"케이비 세무회계","tel":"031-214-6821","addr":"경기도 수원시 영통구 하동 989번지 원희캐슬 광교 A동 8층 801호","category":"용역 서비스 - 법률회계서비스(개인)"},{"name":"코소코소 광교법조타운점","tel":"031-304-7123","addr":"경기도 수원시 영통구 하동 989번지 2층A203호 (989-1,2,4,5번지 광교원희캐슬법조타운)","category":"일반휴게음식 - 일식·회집"},{"name":"하진녹취","tel":"031-111-1111","addr":"경기도 수원시 영통구 하동 989번지 원희캐슬 광교 A동 408호","category":"용역 서비스 - 사무서비스"},{"name":"한우집","tel":"031-217-8450","addr":"경기도 수원시 영통구 하동 989번지 원희캐슬 광교 D동 101호","category":"음료식품 - 정육점"},{"name":"한우집","tel":"031-213-8450","addr":"경기도 수원시 영통구 하동 989번지 원희캐슬광교 D동 1층 102호","category":"일반휴게음식 - 일반한식"},{"name":"황인용법무사사무소","tel":"031-214-2258","addr":"경기도 수원시 영통구 하동 989번지 원희캐슬광교 A동 3층 309호","category":"용역 서비스 - 법률회계서비스(개인)"}]},{"lat":"37.293038044","long":"127.07132663","items":[{"name":"그루메이트(Groomate)","tel":"031-000-0000","addr":"경기도 수원시 영통구 하동 962-4번지 102호","category":"문화.취미 - 애완동물"},{"name":"처갓집양념치킨 광교점","tel":"031-215-9282","addr":"경기도 수원시 영통구 하동 962-4번지 1층","category":"일반휴게음식 - 서양음식"}]},{"lat":"37.292821857","long":"127.07122493","items":[{"name":"꾸밈","tel":"","addr":"경기도 수원시 영통구 하동 971-2번지 103호","category":"보건위생 - 피부미용실"},{"name":"모두의만족 (광교점)","tel":"031-215-8282","addr":"경기도 수원시 영통구 하동 971-2번지 1층 104호","category":"일반휴게음식 - 일반한식"},{"name":"스텐바이키친","tel":"031-216-3535","addr":"경기도 수원시 영통구 하동 971-2번지 101호","category":"일반휴게음식 - 일반한식"},{"name":"엠버","tel":"031-217-5362","addr":"경기도 수원시 영통구 하동 971-2번지","category":"신변잡화 - 액세서리"},{"name":"윤수네마카롱광교점","tel":"","addr":"경기도 수원시 영통구 하동 971-2번지 1층 102호","category":"음료식품 - 기타음료식품"}]},{"lat":"37.290398393","long":"127.07071526","items":[{"name":"꿈누리유치원[아이행복]","tel":"031-213-2950","addr":"경기도 수원시 영통구 하동 982번지","category":"학원 - 유치원"}]},{"lat":"37.293263522","long":"127.07094339","items":[{"name":"끌림 광교점","tel":"","addr":"경기도 수원시 영통구 하동 963-5번지 1층","category":"보건위생 - 미용원"}]},{"lat":"37.279875131","long":"127.06944293","items":[{"name":"끌림헤어","tel":"031-298-8315","addr":"경기도 수원시 영통구 하동 1028번지 광교호반마을22단지 상가 101호","category":"보건위생 - 미용원"},{"name":"데레시나","tel":"031-234-6636","addr":"경기도 수원시 영통구 하동 1028번지 광교호반마을22단지 2202동 1602호","category":"회원제형태 - 기타4"}]},{"lat":"37.29348892","long":"127.07069548","items":[{"name":"나인","tel":"031-212-1373","addr":"경기도 수원시 영통구 하동 964-1번지 1층","category":"일반휴게음식 - 서양음식"}]},{"lat":"37.292984301","long":"127.07077397","items":[{"name":"날마다소풍","tel":"031-217-8216","addr":"경기도 수원시 영통구 하동 971번지 1층","category":"일반휴게음식 - 스넥"},{"name":"우렁각시","tel":"031-215-3335","addr":"경기도 수원시 영통구 하동 971번지 103호","category":"음료식품 - 기타음료식품"},{"name":"이향","tel":"031-405-4404","addr":"경기도 수원시 영통구 하동 971번지 101호","category":"문화.취미 - 화원"}]},{"lat":"37.291013745","long":"127.06591162","items":[{"name":"남기남 부대찌개","tel":"","addr":"경기도 수원시 영통구 하동 988-1번지 광교스마트법조프라자 1층 104,105호","category":"일반휴게음식 - 일반한식"},{"name":"달그리네","tel":"02-1111-1111","addr":"경기도 수원시 영통구 하동 988-1번지 107호","category":"일반휴게음식 - 서양음식"},{"name":"둥이마카롱","tel":"","addr":"경기도 수원시 영통구 하동 988-1번지 120호","category":"음료식품 - 기타음료식품"},{"name":"모우만","tel":"031-211-1176","addr":"경기도 수원시 영통구 하동 988-1번지 광교스마트법조프라자 1층 108,109호","category":"일반휴게음식 - 중국식"},{"name":"배사장광교점","tel":"031-213-6377","addr":"경기도 수원시 영통구 하동 988-1번지 120호","category":"일반휴게음식 - 일반한식"},{"name":"법률사무소 이김","tel":"031-211-0110","addr":"경기도 수원시 영통구 하동 988-1번지 510호","category":"용역 서비스 - 법률회계서비스(개인)"},{"name":"법무법인 대진","tel":"031-213-0771","addr":"경기도 수원시 영통구 하동 988-1번지 615호 616호","category":"용역 서비스 - 법률회계서비스(법인)"},{"name":"법무법인 해담","tel":"031-216-2400","addr":"경기도 수원시 영통구 하동 988-1번지 광교스마트법조프라자 611호","category":"용역 서비스 - 법률회계서비스(법인)"},{"name":"법무법인 해담","tel":"031-214-3900","addr":"경기도 수원시 영통구 하동 988-1번지 광교스마트법조프라자 611호","category":"용역 서비스 - 법률회계서비스(법인)"},{"name":"변호사유한성법률사무소","tel":"031-548-1475","addr":"경기도 수원시 영통구 하동 988-1번지 스마트법조프라자 613호","category":"용역 서비스 - 법률회계서비스(개인)"},{"name":"본도시락 광교법조타운점","tel":"031-211-4282","addr":"경기도 수원시 영통구 하동 988-1번지 광교스마트법조프라자 1층 119호","category":"일반휴게음식 - 일반한식"},{"name":"본죽 앤 비빔밥 카페 광교법조타운점","tel":"031-211-6288","addr":"경기도 수원시 영통구 하동 988-1번지 1층 101호","category":"일반휴게음식 - 일반한식"},{"name":"세무회계 한울","tel":"031-214-3926","addr":"경기도 수원시 영통구 하동 988-1번지 313호","category":"용역 서비스 - 법률회계서비스(개인)"},{"name":"스마트주차장","tel":"031-111-1111","addr":"경기도 수원시 영통구 하동 988-1번지 스마트법조프라자 비101,비201호","category":"자동차정비 유지 - 주차장"},{"name":"시에나","tel":"","addr":"경기도 수원시 영통구 하동 988-1번지 광교스마트법조프라자 117호","category":"일반휴게음식 - 서양음식"},{"name":"안지선 세무회계","tel":"031-549-1984","addr":"경기도 수원시 영통구 하동 988-1번지 3층 316호","category":"용역 서비스 - 법률회계서비스(개인)"},{"name":"주식회사 데이터큐브","tel":"031-211-2911","addr":"경기도 수원시 영통구 하동 988-1번지 4층 416호","category":"용역 서비스 - 사무서비스"},{"name":"주식회사 해피런","tel":"031-375-7876","addr":"경기도 수원시 영통구 하동 988-1","category":"건축자재 - 부동산 분양"},{"name":"주식회사 해피런","tel":"031-375-7876","addr":"경기도 수원시 영통구 하동 988-1","category":"레져용품 - 스포츠·레져용품"}]},{"lat":"37.29415571","long":"127.07063969","items":[{"name":"낭만고양이 (광교점)","tel":"","addr":"경기도 수원시 영통구 하동 957-12번지 1층","category":"문화.취미 - 애완동물"},{"name":"디자인 아틀리에 어반 플럭스","tel":"031-000-0000","addr":"경기도 수원시 영통구 하동 957-12번지 4층","category":"서적문구 - 출판 및 인쇄물"},{"name":"플라워무드","tel":"031-111-1111","addr":"경기도 수원시 영통구 하동 957-12번지 1층 상가","category":"문화.취미 - 화원"}]},{"lat":"37.292732317","long":"127.07024369","items":[{"name":"네네치킨 광교1호점","tel":"031-214-4479","addr":"경기도 수원시 영통구 하동 972-4번지 1층 102호","category":"일반휴게음식 - 스넥"},{"name":"마블나인","tel":"031-212-7727","addr":"경기도 수원시 영통구 하동 972-4번지 1층","category":"일반휴게음식 - 일반한식"},{"name":"엉클스 보라카이","tel":"070-3416-6909","addr":"경기도 수원시 영통구 하동 972-4번지 102호","category":"일반휴게음식 - 일반한식"}]},{"lat":"37.292931071","long":"127.06930782","items":[{"name":"농협안심축산물전문점수원하동점","tel":"031-213-6684","addr":"경기도 수원시 영통구 하동 970번지 104호","category":"음료식품 - 정육점"},{"name":"삼십칠점오미용실","tel":"031-216-3705","addr":"경기도 수원시 영통구 하동 970번지 102호","category":"보건위생 - 미용원"},{"name":"앤드(And)","tel":"","addr":"경기도 수원시 영통구 하동 970번지 101호","category":"의류 - 정장"},{"name":"추커추커","tel":"070-4025-0661","addr":"경기도 수원시 영통구 하동 970번지 1층 일부","category":"일반휴게음식 - 서양음식"}]},{"lat":"37.281152937","long":"127.07231943","items":[{"name":"누리아이어린이집[아이행복]","tel":"031-217-0042","addr":"경기도 수원시 영통구 하동 1027번지 광교레이크파크한양수자인 2301동 103호","category":"학원 - 유아원"}]},{"lat":"37.294454011","long":"127.06893698","items":[{"name":"다미엘 필라테스","tel":"031-280-9646","addr":"경기도 수원시 영통구 하동 957-1번지 301호","category":"레저업소 - 헬스클럽"},{"name":"로페라","tel":"031-217-6665","addr":"경기도 수원시 영통구 하동 957-1번지 1층","category":"일반휴게음식 - 서양음식"}]},{"lat":"37.293732248","long":"127.07060548","items":[{"name":"달달상자 광교점","tel":"","addr":"경기도 수원시 영통구 하동 959-6번지 1층 101호","category":"음료식품 - 농·축·수산품"},{"name":"쩜백집","tel":"","addr":"경기도 수원시 영통구 하동 959-6번지 102호","category":"일반휴게음식 - 일반한식"}]},{"lat":"37.293705927","long":"127.06935361","items":[{"name":"대동집 광교점","tel":"02-0000-0000","addr":"경기도 수원시 영통구 하동 965번지 1층","category":"일반휴게음식 - 일반한식"}]},{"lat":"37.293903974","long":"127.06966957","items":[{"name":"더더블유왁싱앤뷰티헤어샵","tel":"031-211-9844","addr":"경기도 수원시 영통구 하동 958-7번지 102호","category":"보건위생 - 피부미용실"},{"name":"럭키메이롱","tel":"","addr":"경기도 수원시 영통구 하동 958-7번지 1층 103호","category":"음료식품 - 기타음료식품"},{"name":"아띠랑스(ATTIRANCE)","tel":"","addr":"경기도 수원시 영통구 하동 958-7번지 1층 104호","category":"의류 - 정장"}]},{"lat":"37.293011948","long":"127.06969133","items":[{"name":"더부엌2호점","tel":"031-211-6674","addr":"경기도 수원시 영통구 하동 970-2번지","category":"일반휴게음식 - 일반한식"},{"name":"탐라카츠","tel":"031-212-8485","addr":"경기도 수원시 영통구 하동 970-2번지","category":"일반휴게음식 - 일반한식"}]},{"lat":"37.29303887","long":"127.06988308","items":[{"name":"더브릿지","tel":"031-222-4365","addr":"경기도 수원시 영통구 하동 970-3번지 401호","category":"문화.취미 - 티켓"},{"name":"범","tel":"031-111-1111","addr":"경기도 수원시 영통구 하동 970-3번지 102호","category":"일반휴게음식 - 일반한식"},{"name":"요기닭","tel":"031-375-9235","addr":"경기도 수원시 영통구 하동 970-3번지","category":"일반휴게음식 - 스넥"}]},{"lat":"37.28534936","long":"127.05986264","items":[{"name":"던킨도너츠 수원컨벤션센터점","tel":"031-303-6901","addr":"경기도 수원시 영통구 하동 855-2번지 근생시설동 수원컨벤션센터 104호","category":"음료식품 - 제과점"},{"name":"록시드갸토 수원컨벤션점","tel":"031-303-6948","addr":"경기도 수원시 영통구 하동 855-2번지 수원컨벤션센터 2층 205호","category":"일반휴게음식 - 서양음식"},{"name":"세븐일레븐수원컨벤션센터점","tel":"031-1577-0711","addr":"경기도 수원시 영통구 하동 855-2번지 수원컨벤션센터 광장 내 근생시설 104호 일부","category":"유통업 영리 - 편 의 점"},{"name":"수원도시공사_컨벤션센터","tel":"031-695-0920","addr":"경기도 수원시 영통구 하동 855-2번지 수원컨벤션센터","category":"자동차정비 유지 - 주차장"},{"name":"이마트24 알(R)수원컨벤션센터점","tel":"031-000-0000","addr":"경기도 수원시 영통구 하동 855-2번지 수원컨벤션센터 100호","category":"유통업 영리 - 편 의 점"},{"name":"커피베이 (수원컨벤션센터점)","tel":"031-303-6377","addr":"경기도 수원시 영통구 하동 855-2번지 수원컨벤션센터 101호","category":"일반휴게음식 - 서양음식"},{"name":"풍경있는밥상","tel":"031-303-6910","addr":"경기도 수원시 영통구 하동 855-2번지 판매시설동 2층 202,203호","category":"일반휴게음식 - 일반한식"}]},{"lat":"37.289510673","long":"127.06275275","items":[{"name":"데일리룩","tel":"","addr":"경기도 수원시 영통구 하동 1013번지 광교센트럴타운62단지 6202동 402호 상가","category":"의류 - 정장"},{"name":"수학여우 C2M에듀","tel":"031-225-5978","addr":"경기도 수원시 영통구 하동 1013번지 광교센트럴타운62단지 6202동 702호","category":"학원 - 기타 교육기관"}]},{"lat":"37.291599483","long":"127.06577678","items":[{"name":"도깨비 웍","tel":"031-216-7080","addr":"경기도 수원시 영통구 하동 987-1번지 1층 101,102,104호","category":"일반휴게음식 - 중국식"},{"name":"세종속기사무소","tel":"031-215-1182","addr":"경기도 수원시 영통구 하동 987-1번지 드림타워5 2층 201호","category":"용역 서비스 - 사무서비스"},{"name":"에이도르네일","tel":"","addr":"경기도 수원시 영통구 하동 987-1번지 드림타워5차 202호","category":"보건위생 - 피부미용실"},{"name":"오태영세무사사무소","tel":"031-217-0700","addr":"경기도 수원시 영통구 하동 987-1번지 드림타워5 4층 403호","category":"용역 서비스 - 법률회계서비스(개인)"},{"name":"카페모두 광교점","tel":"031-211-0898","addr":"경기도 수원시 영통구 하동 987-1번지 드림타워5 1층 103호","category":"일반휴게음식 - 서양음식"}]},{"lat":"37.292345222","long":"127.06963436","items":[{"name":"돈가네 옛날김치돼지찌개 광교법조타운점","tel":"031-212-3327","addr":"경기도 수원시 영통구 하동 974-3번지 1층","category":"일반휴게음식 - 일반한식"}]},{"lat":"37.294291294","long":"127.06988419","items":[{"name":"두꺼비집 부대찌개","tel":"031-214-4570","addr":"경기도 수원시 영통구 하동 957-7번지 1층","category":"일반휴게음식 - 일반한식"}]},{"lat":"37.293984786","long":"127.07016586","items":[{"name":"들었다놨다 참숯불","tel":"031-215-7377","addr":"경기도 수원시 영통구 하동 959번지 1층","category":"일반휴게음식 - 일반한식"}]},{"lat":"37.295787301","long":"127.08381404","items":[{"name":"디어미하스","tel":"","addr":"경기도 수원시 영통구 하동 1001번지 광교마을40단지 4014동 2703호","category":"문화.취미 - 문화취미기타"},{"name":"재이짐","tel":"","addr":"경기도 수원시 영통구 하동 1001번지 광교마을40단지 4014동 1902호","category":"레저업소 - 헬스클럽"}]},{"lat":"37.294012395","long":"127.0691396","items":[{"name":"디자인쏘울 광교(DEZAIN SOUL)","tel":"031-212-9915","addr":"경기도 수원시 영통구 하동 958-10번지","category":"건축자재 - 기타건축자재"}]},{"lat":"37.293209206","long":"127.07138317","items":[{"name":"디자인월드","tel":"031-215-9800","addr":"경기도 수원시 영통구 하동 962-5번지 1층 101호","category":"건축자재 - 인테리어전문"},{"name":"삼성경매공인중개사","tel":"031-212-4744","addr":"경기도 수원시 영통구 하동 962-5번지 1층 일부","category":"용역 서비스 - 부동산 중개·임대"}]},{"lat":"37.291850201","long":"127.06866405","items":[{"name":"뚠뚠이김밥 광교법조타운점","tel":"","addr":"경기도 수원시 영통구 하동 985번지 102호","category":"일반휴게음식 - 스넥"}]},{"lat":"37.292795625","long":"127.06982647","items":[{"name":"라비엔로즈","tel":"070-8778-8787","addr":"경기도 수원시 영통구 하동 972-2 4층 건물중1층상가코너","category":"문화.취미 - 화원"},{"name":"오스테리아 헤오","tel":"031-217-0016","addr":"경기도 수원시 영통구 하동 972-2번지 102호","category":"일반휴게음식 - 서양음식"},{"name":"육회천지","tel":"031-213-7982","addr":"경기도 수원시 영통구 하동 972-2번지 104호","category":"일반휴게음식 - 일반한식"},{"name":"치킨89","tel":"031-217-0898","addr":"경기도 수원시 영통구 하동 972-2번지 101호","category":"일반휴게음식 - 스넥"}]},{"lat":"37.29351714","long":"127.06858655","items":[{"name":"레드썬서광교점","tel":"031-217-1170","addr":"경기도 수원시 영통구 하동 968-5번지 1층","category":"일반휴게음식 - 일반한식"},{"name":"피자알볼로 광교신도시점","tel":"031-214-8495","addr":"경기도 수원시 영통구 하동 968-5번지 1층 일부","category":"일반휴게음식 - 서양음식"}]},{"lat":"37.289924759","long":"127.06350865","items":[{"name":"레이 레이","tel":"","addr":"경기도 수원시 영통구 하동 1013번지 판교센트럴타운62단지 6208동 1301호","category":"신변잡화 - 가방"}]},{"lat":"37.280567861","long":"127.07130406","items":[{"name":"레이크파크어린이집[아이행복]","tel":"031-216-7978","addr":"경기도 수원시 영통구 하동 1027번지 광교LAKEPARK한양수자인","category":"학원 - 유아원"},{"name":"벅스음악교습소","tel":"031-217-2625","addr":"경기도 수원시 영통구 하동 1027번지 광교LAKEPARK한양수자인 상가동 지층 204호","category":"학원 - 예·체능계학원"},{"name":"수자인세탁소","tel":"031-235-8557","addr":"경기도 수원시 영통구 하동 1027번지 광교LAKEPARK한양수자인 상가 G동 201호","category":"수리서비스 - 세탁소"},{"name":"이마트24광교수자인","tel":"031-213-0228","addr":"경기도 수원시 영통구 하동 1027번지 광교LAKEPARK한양수자인","category":"유통업 영리 - 슈퍼마켓"},{"name":"이마트24광교수자인","tel":"031-214-2158","addr":"경기도 수원시 영통구 하동 1027번지 광교LAKEPARK한양수자인","category":"유통업 영리 - 편 의 점"}]},{"lat":"37.291850538","long":"127.06805506","items":[{"name":"롤링핀광교법조타운점","tel":"031-211-0044","addr":"경기도 수원시 영통구 하동 986-2번지","category":"음료식품 - 제과점"}]},{"lat":"37.294039521","long":"127.06897046","items":[{"name":"루틸리","tel":"031-214-3799","addr":"경기도 수원시 영통구 하동 958-11번지 1층","category":"자동차정비 유지 - 세차장"}]},{"lat":"37.293156422","long":"127.06913885","items":[{"name":"르꼬팡","tel":"031-797-8689","addr":"경기도 수원시 영통구 하동 967-3번지 101호","category":"음료식품 - 제과점"},{"name":"신마녀닭발","tel":"031-216-8283","addr":"경기도 수원시 영통구 하동 967-3번지 1층","category":"일반휴게음식 - 일반한식"}]},{"lat":"37.294092366","long":"127.0711133","items":[{"name":"리비에라 메종 광교","tel":"031-212-1024","addr":"경기도 수원시 영통구 하동 957-15번지 101호","category":"가구 - 일반가구"}]},{"lat":"37.294183672","long":"127.06899314","items":[{"name":"리스트레또","tel":"031-214-0305","addr":"경기도 수원시 영통구 하동 958번지 1층 전체","category":"일반휴게음식 - 서양음식"}]},{"lat":"37.293345606","long":"127.06919541","items":[{"name":"리알토","tel":"031-232-3736","addr":"경기도 수원시 영통구 하동 967-1번지","category":"의류 - 정장"}]},{"lat":"37.293625093","long":"127.06889115","items":[{"name":"마스터코팅 광교점","tel":"031-216-7129","addr":"경기도 수원시 영통구 하동 966-5번지 1층","category":"자동차정비 유지 - 카인테리어"}]},{"lat":"37.293787435","long":"127.06860934","items":[{"name":"막스시오광교","tel":"031-213-7058","addr":"경기도 수원시 영통구 하동 968-3번지 1층","category":"의류 - 정장"}]},{"lat":"37.277407133","long":"127.06797495","items":[{"name":"명가교동짬뽕(광교점)","tel":"031-8007-3552","addr":"경기도 수원시 영통구 하동 1032번지 광교아이파크 판매케이동 2층 257일부, 258일부호","category":"일반휴게음식 - 중국식"},{"name":"코니영어교습소","tel":"","addr":"경기도 수원시 영통구 하동 1032번지 광교호반마을21단지 상가동 102호","category":"학원 - 외국어학원"},{"name":"한울어린이집[아이행복]","tel":"031-215-3633","addr":"경기도 수원시 영통구 하동 1032번지 관리동광교호반마을21단지","category":"학원 - 유아원"}]},{"lat":"37.293931101","long":"127.06950042","items":[{"name":"명품붉은대게","tel":"031-213-2223","addr":"경기도 수원시 영통구 하동 958-8번지 1층","category":"일반휴게음식 - 일반한식"}]},{"lat":"37.292127306","long":"127.07253251","items":[{"name":"뮤엠참누리레이크네스트","tel":"070-4212-8066","addr":"경기도 수원시 영통구 하동 994번지 광교호수마을참누리레이크 3004동 401호","category":"학원 - 기타 교육기관"},{"name":"햇살나무어린이집[아이행복]","tel":"031-893-6652","addr":"경기도 수원시 영통구 하동 994번지 광교호수마을참누리레이크 3004동 102호","category":"학원 - 유아원"}]},{"lat":"37.293398565","long":"127.07113523","items":[{"name":"바이런","tel":"","addr":"경기도 수원시 영통구 하동 963-1번지","category":"일반휴게음식 - 서양음식"}]},{"lat":"37.294156528","long":"127.06919612","items":[{"name":"반올림피자샵 광교상현점","tel":"031-214-1898","addr":"경기도 수원시 영통구 하동 958-1번지","category":"일반휴게음식 - 서양음식"}]},{"lat":"37.29206598","long":"127.06949878","items":[{"name":"배부장찌개 광교법조단지","tel":"","addr":"경기도 수원시 영통구 하동 973-4번지 1층","category":"일반휴게음식 - 일반한식"},{"name":"오늘의초밥","tel":"031-221-9468","addr":"경기도 수원시 영통구 하동 973-4번지 102호","category":"일반휴게음식 - 일식·회집"}]},{"lat":"37.277686477","long":"127.06793009","items":[{"name":"배용선아카데미","tel":"02-727-5000","addr":"경기도 수원시 영통구 하동 1032번지 광교호반마을21단지 2102동 2302호","category":"레저업소 - 골프연습장"}]},{"lat":"37.293795506","long":"127.07027847","items":[{"name":"백주방","tel":"031-284-0506","addr":"경기도 수원시 영통구 하동 959-8번지 1층","category":"일반휴게음식 - 일반한식"}]},{"lat":"37.292902649","long":"127.07174378","items":[{"name":"백청우칼국수 광교점","tel":"031-214-2324","addr":"경기도 수원시 영통구 하동 961-5번지 1층","category":"일반휴게음식 - 일반한식"}]},{"lat":"37.2916519","long":"127.0687992","items":[{"name":"백현산업개발(주)","tel":"031-214-1008","addr":"경기도 수원시 영통구 하동 985-3번지 백현법조프라자 706호","category":"자동차정비 유지 - 주차장"},{"name":"백현산업개발주식회사","tel":"031-898-4201","addr":"경기도 수원시 영통구 하동 985-3번지 백현법조프라자 706호","category":"건축자재 - 인테리어전문"},{"name":"법률사무소 디원","tel":"","addr":"경기도 수원시 영통구 하동 985-3번지 2층 202호","category":"용역 서비스 - 법률회계서비스(개인)"},{"name":"법률사무소 송헌","tel":"031-8081-1094","addr":"경기도 수원시 영통구 하동 985-3번지 백현법조프라자 302호","category":"용역 서비스 - 법률회계서비스(개인)"}]},{"lat":"37.293489927","long":"127.06891359","items":[{"name":"버거307 광교점","tel":"031-852-9297","addr":"경기도 수원시 영통구 하동 966-4번지 1층","category":"일반휴게음식 - 서양음식"}]},{"lat":"37.29145395","long":"127.06830282","items":[{"name":"법률사무소 선율","tel":"031-309-5959","addr":"경기도 수원시 영통구 하동 986-4번지 304호","category":"용역 서비스 - 법률회계서비스(개인)"},{"name":"법무법인 고원","tel":"031-364-8311","addr":"경기도 수원시 영통구 하동 986-4번지 602호","category":"용역 서비스 - 법률회계서비스(법인)"},{"name":"법무사 김정준사무소","tel":"031-213-6200","addr":"경기도 수원시 영통구 하동 986-4번지 1층 106호","category":"용역 서비스 - 법률회계서비스(개인)"},{"name":"법무사 최병문 사무소","tel":"031-212-9995","addr":"경기도 수원시 영통구 하동 986-4번지 광교법조타운 1층 108호","category":"용역 서비스 - 법률회계서비스(개인)"},{"name":"이기민법률사무소","tel":"031-216-6001","addr":"경기도 수원시 영통구 하동 986-4번지 2층 205호","category":"용역 서비스 - 법률회계서비스(개인)"},{"name":"조복행법률사무소","tel":"031-213-2211","addr":"경기도 수원시 영통구 하동 986-4번지 301호","category":"용역 서비스 - 법률회계서비스(개인)"}]},{"lat":"37.291795863","long":"127.06916021","items":[{"name":"법률사무소 주왕","tel":"031-212-8858","addr":"경기도 수원시 영통구 하동 985-2번지 유성법조프라자 201호","category":"용역 서비스 - 법률회계서비스(개인)"},{"name":"법률사무소 채움","tel":"031-212-0027","addr":"경기도 수원시 영통구 하동 985-2번지 1층 102호","category":"용역 서비스 - 법률회계서비스(개인)"},{"name":"변호사 공도란 법률사무소","tel":"031-217-9080","addr":"경기도 수원시 영통구 하동 985-2번지 유성법조프라자 2층 201호","category":"용역 서비스 - 법률회계서비스(개인)"},{"name":"변호사 이수임 법률사무소","tel":"031-217-3437","addr":"경기도 수원시 영통구 하동 985-2번지 503호","category":"용역 서비스 - 법률회계서비스(개인)"},{"name":"변호사 현진희법률사무소","tel":"031-365-4020","addr":"경기도 수원시 영통구 하동 985-2번지 유성법조프라자 301호","category":"용역 서비스 - 법률회계서비스(개인)"},{"name":"변호사노희정법률사무소","tel":"031-206-1863","addr":"경기도 수원시 영통구 하동 985-2번지 603호","category":"용역 서비스 - 법률회계서비스(개인)"},{"name":"변호사이연랑법률사무소","tel":"031-213-2046","addr":"경기도 수원시 영통구 하동 985-2번지 501호","category":"용역 서비스 - 법률회계서비스(개인)"},{"name":"카페다(광교점)","tel":"031-214-7107","addr":"경기도 수원시 영통구 하동 985-2번지 1층 103호","category":"일반휴게음식 - 서양음식"}]},{"lat":"37.29170656","long":"127.06771661","items":[{"name":"법률사무소 태온","tel":"031-217-2373","addr":"경기도 수원시 영통구 하동 986-7번지 우연법전프라자 2층 201호","category":"용역 서비스 - 법률회계서비스(개인)"},{"name":"법률사무소태온","tel":"031-217-2373","addr":"경기도 수원시 영통구 하동 986-7번지 201호","category":"용역 서비스 - 법률회계서비스(개인)"},{"name":"법률사무소태온","tel":"031-217-2373","addr":"경기도 수원시 영통구 하동 986-7번지 201호","category":"용역 서비스 - 법률회계서비스(개인)"}]},{"lat":"37.292039815","long":"127.06794245","items":[{"name":"법무법인 명","tel":"031-211-0082","addr":"경기도 수원시 영통구 하동 986-1번지 캡틴법조타운 505호","category":"용역 서비스 - 법률회계서비스(법인)"},{"name":"법무법인 법승 수원분사무소","tel":"031-547-9650","addr":"경기도 수원시 영통구 하동 986-1번지 캡틴법조타운 306호","category":"용역 서비스 - 법률회계서비스(법인)"},{"name":"법무법인 중흥","tel":"031-211-6789","addr":"경기도 수원시 영통구 하동 986-1번지 캡틴법조타운 203,204,205호","category":"용역 서비스 - 법률회계서비스(법인)"},{"name":"법무법인 호민","tel":"031-216-6336","addr":"경기도 수원시 영통구 하동 986-1번지 6층","category":"용역 서비스 - 법률회계서비스(법인)"},{"name":"법무법인 호민","tel":"031-216-9988","addr":"경기도 수원시 영통구 하동 986-1번지 6층","category":"용역 서비스 - 법률회계서비스(법인)"},{"name":"법무법인 호민","tel":"031-216-6336","addr":"경기도 수원시 영통구 하동 986-1번지 6층","category":"용역 서비스 - 법률회계서비스(법인)"},{"name":"베키커피(BECKY COFFEE)","tel":"031-211-0119","addr":"경기도 수원시 영통구 하동 986-1번지 캡틴법조타운 1층 102호","category":"일반휴게음식 - 서양음식"},{"name":"이상용법률사무소","tel":"031-213-5800","addr":"경기도 수원시 영통구 하동 986-1번지 캡틴법조타운 502~504호","category":"용역 서비스 - 법률회계서비스(개인)"},{"name":"정병혁법률사무소","tel":"031-213-5800","addr":"경기도 수원시 영통구 하동 986-1번지 캡틴법조타운 502~504호","category":"용역 서비스 - 법률회계서비스(개인)"}]},{"lat":"37.291680443","long":"127.06602495","items":[{"name":"법무사박미병","tel":"031-211-7475","addr":"경기도 수원시 영통구 하동 987-2번지 2층 205호","category":"용역 서비스 - 법률회계서비스(개인)"}]},{"lat":"37.292210189","long":"127.06941996","items":[{"name":"법무사최인수사무소","tel":"031-211-1722","addr":"경기도 수원시 영통구 하동 973-3번지 1층","category":"용역 서비스 - 법률회계서비스(개인)"}]},{"lat":"37.291652238","long":"127.06819022","items":[{"name":"법정속기사무소","tel":"031-217-2133","addr":"경기도 수원시 영통구 하동 986-3번지 AST법조타워 201호","category":"용역 서비스 - 사무서비스"},{"name":"파스쿠치 광교법조타운점","tel":"031-211-3232","addr":"경기도 수원시 영통구 하동 986-3번지 1층 103,104,105호","category":"일반휴게음식 - 서양음식"}]},{"lat":"37.294481117","long":"127.06880167","items":[{"name":"법조로포차","tel":"031-215-0811","addr":"경기도 수원시 영통구 하동 957번지 1층","category":"일반휴게음식 - 일반한식"}]},{"lat":"37.294050222","long":"127.06586904","items":[{"name":"본스치킨","tel":"031-211-9808","addr":"경기도 수원시 영통구 하동 956번지 광교휴먼시아32단지 상가 202호","category":"일반휴게음식 - 스넥"}]},{"lat":"37.289823535","long":"127.06750072","items":[{"name":"본푸드서비스(주)본우리집밥수원고등검찰청","tel":"02-578-6100","addr":"경기도 수원시 영통구 하동 991번지 2층 구내식당 수원검찰청사","category":"일반휴게음식 - 위탁급식업"},{"name":"본푸드서비스(주)본우리집밥수원고등검찰청","tel":"02-3019-2273","addr":"경기도 수원시 영통구 하동 991번지 수원고지검청사 2층","category":"일반휴게음식 - 서양음식"}]},{"lat":"37.293317745","long":"127.07066149","items":[{"name":"봉평메밀촌","tel":"031-217-5969","addr":"경기도 수원시 영통구 하동 964-2번지 유앤아이빌 1층 전체","category":"일반휴게음식 - 일반한식"}]},{"lat":"37.293543894","long":"127.0690828","items":[{"name":"브런치앤와인(마노아)","tel":"031-213-6810","addr":"경기도 수원시 영통구 하동 966-3번지 1층","category":"일반휴게음식 - 서양음식"}]},{"lat":"37.291930782","long":"127.0695776","items":[{"name":"블랙파이브","tel":"","addr":"경기도 수원시 영통구 하동 973-5번지 1층","category":"일반휴게음식 - 서양음식"},{"name":"월잉글리쉬","tel":"031-217-5182","addr":"경기도 수원시 영통구 하동 973-5번지 202호","category":"학원 - 기타 교육기관"}]},{"lat":"37.294426885","long":"127.06910613","items":[{"name":"블룸926(Bloom926)","tel":"","addr":"경기도 수원시 영통구 하동 957-2번지 102호","category":"일반휴게음식 - 서양음식"},{"name":"홍당무","tel":"070-7639-4439","addr":"경기도 수원시 영통구 하동 957-2번지 101호","category":"음료식품 - 기타음료식품"}]},{"lat":"37.293956762","long":"127.07189136","items":[{"name":"비에이치씨(BHC)광교역점","tel":"031-215-8804","addr":"경기도 수원시 영통구 하동 957-20번지 1층","category":"일반휴게음식 - 스넥"}]},{"lat":"37.288951345","long":"127.06410556","items":[{"name":"비엔느디젤","tel":"031-295-2586","addr":"경기도 수원시 영통구 하동 1013번지 광교센트럴타운62단지 6206동 1103호","category":"자동차정비 유지 - 윤활유 전문 판매"},{"name":"셀파우등생교실62단지교실","tel":"041-565-2060","addr":"경기도 수원시 영통구 하동 1013번지 광교센트럴타운62단지 6206동 1701호","category":"회원제형태 - 학원"}]},{"lat":"37.293012397","long":"127.06889061","items":[{"name":"빈스601","tel":"031-216-3601","addr":"경기도 수원시 영통구 하동 969-1번지 일부 1층","category":"일반휴게음식 - 서양음식"},{"name":"빈스601","tel":"031-216-3601","addr":"경기도 수원시 영통구 하동 969-1번지 104호","category":"문화.취미 - 화원"},{"name":"틸만 수원점","tel":"031-213-4629","addr":"경기도 수원시 영통구 하동 969-1번지 103호","category":"주방용구 - 주방용구"},{"name":"흘러샵MA BIKE","tel":"031-898-9814","addr":"경기도 수원시 영통구 하동 969-1번지 1층","category":"레져용품 - 스포츠·레져용품"}]},{"lat":"37.292767508","long":"127.0717211","items":[{"name":"삼백식당 광교점","tel":"031-247-5592","addr":"경기도 수원시 영통구 하동 961-6번지","category":"일반휴게음식 - 일반한식"},{"name":"이마트24 광교이의고사거리점","tel":"","addr":"경기도 수원시 영통구 하동 961-6번지 101호","category":"유통업 영리 - 편 의 점"}]},{"lat":"37.292489601","long":"127.06925104","items":[{"name":"서리담 광교법조타운","tel":"031-873-0369","addr":"경기도 수원시 영통구 하동 973-1번지 1층 101호","category":"일반휴게음식 - 일반한식"},{"name":"아프리카츄장떡볶이","tel":"031-214-1772","addr":"경기도 수원시 영통구 하동 973-1번지 1층 103호","category":"일반휴게음식 - 스넥"},{"name":"카페헬로","tel":"031-212-2678","addr":"경기도 수원시 영통구 하동 973-1번지","category":"일반휴게음식 - 서양음식"}]},{"lat":"37.289176886","long":"127.06355316","items":[{"name":"서윤헤어","tel":"031-214-4247","addr":"경기도 수원시 영통구 하동 1013번지 광교센트럴타운62단지 상가동 102호","category":"보건위생 - 미용원"},{"name":"센트럴할인마트","tel":"031-213-5454","addr":"경기도 수원시 영통구 하동 1013번지 광교센트럴타운62단지 103호","category":"유통업 영리 - 슈퍼마켓"},{"name":"썬(SUN)어린이집[아이행복]","tel":"031-214-6201","addr":"경기도 수원시 영통구 하동 1013번지 광교센트럴타운62단지","category":"학원 - 유아원"},{"name":"올가스킨","tel":"070-7848-9304","addr":"경기도 수원시 영통구 하동 1013번지 광교센트럴타운62단지 상가동 101호","category":"보건위생 - 화장품"},{"name":"크린토피아 코인워시 광교62단지점","tel":"031-211-5226","addr":"경기도 수원시 영통구 하동 1013번지 휴먼시아단지 상가 104호","category":"수리서비스 - 세탁소"}]},{"lat":"37.277597091","long":"127.06661079","items":[{"name":"세븐일레븐광교SK충전소점","tel":"031-1577-0711","addr":"경기도 수원시 영통구 하동 1033번지","category":"유통업 영리 - 편 의 점"}]},{"lat":"37.293787278","long":"127.06889129","items":[{"name":"세이레더","tel":"031-892-4480","addr":"경기도 수원시 영통구 하동 966번지 102호","category":"문화.취미 - 문화취미기타"},{"name":"씨유광교법조타운점","tel":"031-898-6569","addr":"경기도 수원시 영통구 하동 966번지 1층 966","category":"유통업 영리 - 편 의 점"}]},{"lat":"37.295257367","long":"127.0813323","items":[{"name":"셀파우등생광교드림교실","tel":"031-8013-5558","addr":"경기도 수원시 영통구 하동 1001번지 광교마을40단지 4001동 104호","category":"회원제형태 - 학원"}]},{"lat":"37.293010916","long":"127.07149577","items":[{"name":"소담골","tel":"031-214-0052","addr":"경기도 수원시 영통구 하동 962-3번지","category":"일반휴게음식 - 일반한식"}]},{"lat":"37.294065245","long":"127.07127117","items":[{"name":"소잉앤","tel":"031-214-5208","addr":"경기도 수원시 영통구 하동 957-16번지","category":"문화.취미 - 문화취미기타"}]},{"lat":"37.291516088","long":"127.06997195","items":[{"name":"수원법원어린이집 예랑원[아이행복]","tel":"031-261-7930","addr":"경기도 수원시 영통구 하동 980번지","category":"학원 - 유아원"}]},{"lat":"37.286902885","long":"127.06988892","items":[{"name":"슈퍼푸드트럭","tel":"","addr":"경기도 수원시 영통구 하동 999 광교호수공원","category":"일반휴게음식 - 일반한식"}]},{"lat":"37.29362369","long":"127.07136099","items":[{"name":"스마트모터랩","tel":"031-214-8688","addr":"경기도 수원시 영통구 하동 960-7번지","category":"자동차정비 유지 - 카인테리어"}]},{"lat":"37.293210408","long":"127.06927423","items":[{"name":"스시나무","tel":"","addr":"경기도 수원시 영통구 하동 967-2번지","category":"일반휴게음식 - 일식·회집"},{"name":"한잔생각","tel":"031-215-7978","addr":"경기도 수원시 영통구 하동 967-2 101","category":"일반휴게음식 - 주점"}]},{"lat":"37.294209946","long":"127.07033523","items":[{"name":"스킨라운지","tel":"031-000-0000","addr":"경기도 수원시 영통구 하동 957-10번지 103호","category":"보건위생 - 화장품"},{"name":"쿡데잉","tel":"02-0000-0000","addr":"경기도 수원시 영통구 하동 957-10번지 1층 101호","category":"일반휴게음식 - 서양음식"}]},{"lat":"37.294038129","long":"127.07141776","items":[{"name":"스톰워시","tel":"031-212-0874","addr":"경기도 수원시 영통구 하동 957-17번지 1층 101호","category":"자동차정비 유지 - 세차장"}]},{"lat":"37.294264902","long":"127.06874509","items":[{"name":"스프링가든","tel":"070-8777-0677","addr":"경기도 수원시 영통구 하동 968번지","category":"문화.취미 - 화원"}]},{"lat":"37.293317212","long":"127.07158627","items":[{"name":"슬리커","tel":"","addr":"경기도 수원시 영통구 하동 962-1번지 1층","category":"자동차정비 유지 - 세차장"}]},{"lat":"37.293597486","long":"127.06991741","items":[{"name":"신안왕소금구이 수원광교점","tel":"031-217-9592","addr":"경기도 수원시 영통구 하동 965-3번지","category":"일반휴게음식 - 일반한식"},{"name":"엠와이피(MYP)","tel":"031-272-1236","addr":"경기도 수원시 영통구 하동 965-3번지","category":"신변잡화 - 액세서리"}]},{"lat":"37.293957659","long":"127.07033501","items":[{"name":"아라","tel":"031-497-5366","addr":"경기도 수원시 영통구 하동 959-1번지 1층","category":"일반휴게음식 - 서양음식"}]},{"lat":"37.275598756","long":"127.06288831","items":[{"name":"아람꽃배달서비스","tel":"031-213-3210","addr":"경기도 수원시 영통구 하동 645-18,102","category":"문화.취미 - 화원"}]},{"lat":"37.293652294","long":"127.06858667","items":[{"name":"아름드리동물병원","tel":"031-213-7514","addr":"경기도 수원시 영통구 하동 968-4번지","category":"기타의료기관 - 동물병원"}]},{"lat":"37.293569453","long":"127.07166545","items":[{"name":"아리카롱","tel":"","addr":"경기도 수원시 영통구 하동 960-5번지 1층","category":"음료식품 - 기타음료식품"}]},{"lat":"37.29285015","long":"127.06900325","items":[{"name":"아마빌레","tel":"","addr":"경기도 수원시 영통구 하동 969-2번지 202호","category":"신변잡화 - 액세서리"},{"name":"안경장인","tel":"031-213-3929","addr":"경기도 수원시 영통구 하동 969-2번지 1층 104호","category":"보건위생 - 안경"},{"name":"커피에반하다 하동점","tel":"031-212-0414","addr":"경기도 수원시 영통구 하동 969-2번지 101호","category":"일반휴게음식 - 서양음식"}]},{"lat":"37.294345527","long":"127.06957973","items":[{"name":"아쿠아코랄리프","tel":"031-213-2296","addr":"경기도 수원시 영통구 하동 957-5번지 1층","category":"문화.취미 - 수족관"},{"name":"포레스트앤드마린(Forest&Marine)","tel":"031-213-2296","addr":"경기도 수원시 영통구 하동 957-5번지 1층","category":"문화.취미 - 수족관"}]},{"lat":"37.27776238","long":"127.060556","items":[{"name":"어번레비","tel":"031-226-6404","addr":"경기도 수원시 영통구 하동 1023번지","category":"음료식품 - 기타음료식품"},{"name":"이웃사람들","tel":"031-238-9229","addr":"경기도 수원시 영통구 하동 1023번지 외 22필지 광교호수공원시설다목적체험장","category":"음료식품 - 기타음료식품"}]},{"lat":"37.29398527","long":"127.06930875","items":[{"name":"에버윤활유","tel":"070-4845-2826","addr":"경기도 수원시 영통구 하동 958-9번지","category":"자동차정비 유지 - 윤활유 전문 판매"},{"name":"젠 오토리페어","tel":"031-216-9589","addr":"경기도 수원시 영통구 하동 958-9번지","category":"자동차정비 유지 - 자동차정비"}]},{"lat":"37.293903423","long":"127.07063946","items":[{"name":"에스에이치코리아","tel":"031-211-0510","addr":"경기도 수원시 영통구 하동 959-3번지 1층","category":"음료식품 - 기타음료식품"},{"name":"에스에이치코리아","tel":"031-211-0510","addr":"경기도 수원시 영통구 하동 959-3번지 1층","category":"음료식품 - 기타음료식품"}]},{"lat":"37.295803869","long":"127.0859118","items":[{"name":"에코비아이미소어린이집[아이행복]","tel":"031-307-6953","addr":"경기도 수원시 영통구 하동 1001번지 광교마을40단지 4008동 104호","category":"학원 - 유아원"}]},{"lat":"37.292489041","long":"127.07024348","items":[{"name":"영어시간영어교습소","tel":"03-111-1111","addr":"경기도 수원시 영통구 하동 975-2번지 1층 일부","category":"학원 - 외국어학원"},{"name":"커피흐름","tel":"031-215-2443","addr":"경기도 수원시 영통구 하동 975-2번지 101호","category":"일반휴게음식 - 서양음식"}]},{"lat":"37.292543224","long":"127.07002925","items":[{"name":"영파파","tel":"031-0000-0000","addr":"경기도 수원시 영통구 하동 975번지","category":"일반휴게음식 - 서양음식"}]},{"lat":"37.293767841","long":"127.07138368","items":[{"name":"예가인","tel":"","addr":"경기도 수원시 영통구 하동 960-2번지 1층 101호","category":"보건위생 - 피부미용실"}]},{"lat":"37.293101272","long":"127.07105602","items":[{"name":"오늘","tel":"","addr":"경기도 수원시 영통구 하동 963-3번지 1층 102호","category":"일반휴게음식 - 서양음식"}]},{"lat":"37.293651675","long":"127.0696919","items":[{"name":"오로라마카롱","tel":"031-212-5060","addr":"경기도 수원시 영통구 하동 965-2번지 1층","category":"일반휴게음식 - 일반한식"},{"name":"은혜옷수선세탁","tel":"031-225-3334","addr":"경기도 수원시 영통구 하동 965-2번지 102호","category":"수리서비스 - 세탁소"}]},{"lat":"37.293876296","long":"127.07080861","items":[{"name":"오토챠밍","tel":"031-213-0005","addr":"경기도 수원시 영통구 하동 959-4번지 1층","category":"자동차정비 유지 - 카인테리어"}]},{"lat":"37.293677928","long":"127.07105654","items":[{"name":"올마이틴팅(All My Tinting)","tel":"031-216-6924","addr":"경기도 수원시 영통구 하동 960-9번지 1층","category":"자동차정비 유지 - 카인테리어"}]},{"lat":"37.293344872","long":"127.07049235","items":[{"name":"워시테리아 광교점","tel":"031-216-2077","addr":"경기도 수원시 영통구 하동 964-5번지","category":"수리서비스 - 세탁소"}]},{"lat":"37.296066014","long":"127.08469404","items":[{"name":"원스포토","tel":"031-233-0372","addr":"경기도 수원시 영통구 하동 1001번지 광고마을40단지 4012동 1501호","category":"광학제품 - 사진관"},{"name":"토브 코퍼레이션(tov corporation)","tel":"070-7424-0888","addr":"경기도 수원시 영통구 하동 1001번지 광교마을40단지 4012동 801호","category":"신변잡화 - 기타잡화"}]},{"lat":"37.28118434","long":"127.064415","items":[{"name":"원천개발(주)","tel":"031-217-3344","addr":"경기도 수원시 영통구 하동 736-1번지","category":"일반휴게음식 - 일반한식"}]},{"lat":"37.275210888","long":"127.06372236","items":[{"name":"원천그린랜드(주)","tel":"031-216-7211","addr":"경기도 수원시 영통구 하동 645-16","category":"문화.취미 - 문화취미기타"}]},{"lat":"37.294805554","long":"127.08327164","items":[{"name":"이공근","tel":"","addr":"경기도 수원시 영통구 하동 1001번지 광교마을40단지 4005동 1801호","category":"용역 서비스 - 기타용역서비스"}]},{"lat":"37.288365468","long":"127.06451106","items":[{"name":"이글맘 스쿨","tel":"070-7557-6843","addr":"경기도 수원시 영통구 하동 1013번지 광교센트럴타운62단지 6205동 301호","category":"회원제형태 - 학원"}]},{"lat":"37.291985154","long":"127.06902505","items":[{"name":"이디야 수원광교법조타운점","tel":"","addr":"경기도 수원시 영통구 하동 985-1번지 에스케이법조타운 101호","category":"일반휴게음식 - 서양음식"}]},{"lat":"37.292011","long":"127.07111142","items":[{"name":"이의고등학교","tel":"031-280-6523","addr":"경기도 수원시 영통구 하동 977번지","category":"학원 - 초중고교육기관"},{"name":"이의고등학교_수업료","tel":"031-280-6523","addr":"경기도 수원시 영통구 하동 977번지","category":"학원 - 초중고교육기관"}]},{"lat":"37.29101107","long":"127.07074964","items":[{"name":"이의중학교","tel":"031-8006-2905","addr":"경기도 수원시 영통구 하동 981번지 이의중학교 1층","category":"학원 - 초중고교육기관"}]},{"lat":"37.292765216","long":"127.07555552","items":[{"name":"이의초등학교","tel":"031-8006-1874","addr":"경기도 수원시 영통구 하동 993번지 이의초등학교 1층","category":"학원 - 초중고교육기관"}]},{"lat":"37.295292958","long":"127.08200902","items":[{"name":"잉글리쉬아이","tel":"","addr":"경기도 수원시 영통구 하동 1001번지 광교마을40단지 4016동 304호","category":"학원 - 기타 교육기관"}]},{"lat":"37.280433577","long":"127.0697817","items":[{"name":"자동차 뷰티샵","tel":"","addr":"경기도 수원시 영통구 하동 1028번지 광교호반마을22단지 2201동 2101호","category":"자동차정비 유지 - 카인테리어"}]},{"lat":"37.293760159","long":"127.06904916","items":[{"name":"자연주의","tel":"031-214-5335","addr":"경기도 수원시 영통구 하동 966-1번지 1층","category":"일반휴게음식 - 일식·회집"}]},{"lat":"37.293678801","long":"127.06952275","items":[{"name":"정선 곤드레밥집","tel":"031-246-6363","addr":"경기도 수원시 영통구 하동 965-1번지","category":"일반휴게음식 - 일반한식"}]},{"lat":"37.293570359","long":"127.07008655","items":[{"name":"정채담시래기","tel":"031-212-4243","addr":"경기도 수원시 영통구 하동 965-4번지 1층","category":"일반휴게음식 - 일반한식"}]},{"lat":"37.290348374","long":"127.06324961","items":[{"name":"제이에스이","tel":"031-261-7158","addr":"경기도 수원시 영통구 하동 1013번지 광교센트럴타운62단지 6209동 2702호","category":"전기제품 - 가전제품"}]},{"lat":"37.293425693","long":"127.07096609","items":[{"name":"제이엠제이라인","tel":"031-211-0888","addr":"경기도 수원시 영통구 하동 963번지 1층","category":"신변잡화 - 기타잡화"}]},{"lat":"37.292984572","long":"127.07030031","items":[{"name":"제이코칭연구소","tel":"031-892-7599","addr":"경기도 수원시 영통구 하동 970-5번지 401호","category":"용역 서비스 - 사무서비스"},{"name":"포보스광교점","tel":"031-217-3733","addr":"경기도 수원시 영통구 하동 970-5번지 1층","category":"일반휴게음식 - 일반한식"}]},{"lat":"37.293705121","long":"127.07077462","items":[{"name":"조씨네닭한마리","tel":"031-212-0089","addr":"경기도 수원시 영통구 하동 959-5번지 1층","category":"일반휴게음식 - 일반한식"}]},{"lat":"37.293596581","long":"127.0714963","items":[{"name":"주식회사 더더랩","tel":"070-4457-3774","addr":"경기도 수원시 영통구 하동 960-6번지 1층","category":"학원 - 컴퓨터학원"}]},{"lat":"37.293183642","long":"127.06880054","items":[{"name":"주식회사 돈교동","tel":"031-211-9607","addr":"경기도 수원시 영통구 하동 969번지 1층","category":"일반휴게음식 - 일반한식"}]},{"lat":"37.29431842","long":"127.06971504","items":[{"name":"주식회사 아쿠아포레스트","tel":"031-213-2297","addr":"경기도 수원시 영통구 하동 957-6번지 1층","category":"문화.취미 - 수족관"}]},{"lat":"37.294128492","long":"127.07096672","items":[{"name":"지브로","tel":"031-261-9080","addr":"경기도 수원시 영통구 하동 957-14번지 1층","category":"일반휴게음식 - 일반한식"}]},{"lat":"37.292399188","long":"127.06980357","items":[{"name":"찌마기","tel":"031-217-9233","addr":"경기도 수원시 영통구 하동 974-2번지 1층","category":"일반휴게음식 - 일반한식"}]},{"lat":"37.290424137","long":"127.07292565","items":[{"name":"참누리 어린이집[아이행복]","tel":"031-214-7935","addr":"경기도 수원시 영통구 하동 광교 A21블록 울트라참누리 3008-104호","category":"학원 - 유아원"}]},{"lat":"37.2931284","long":"127.07088688","items":[{"name":"청해","tel":"031-1111-1111","addr":"경기도 수원시 영통구 하동 963-4번지 1층","category":"일반휴게음식 - 일반한식"}]},{"lat":"37.294120398","long":"127.06935398","items":[{"name":"카담","tel":"031-211-5686","addr":"경기도 수원시 영통구 하동 958-2번지 1층","category":"자동차정비 유지 - 카인테리어"}]},{"lat":"37.292543396","long":"127.06972475","items":[{"name":"카페잇다","tel":"070-4141-8280","addr":"경기도 수원시 영통구 하동 974-1번지 1층","category":"일반휴게음식 - 서양음식"}]},{"lat":"37.293155047","long":"127.07155229","items":[{"name":"카페힐","tel":"031-217-3693","addr":"경기도 수원시 영통구 하동 962-2번지 1층","category":"일반휴게음식 - 서양음식"}]},{"lat":"37.293372932","long":"127.06866537","items":[{"name":"칼국수애가","tel":"031-215-8488","addr":"경기도 수원시 영통구 하동 968-6번지","category":"일반휴게음식 - 일반한식"},{"name":"호두나무/조선꽈배기","tel":"031-204-5255","addr":"경기도 수원시 영통구 하동 968-6번지","category":"일반휴게음식 - 스넥"}]},{"lat":"37.292597775","long":"127.06916092","items":[{"name":"커피(coffee)","tel":"031-211-5435","addr":"경기도 수원시 영통구 하동 973번지 101호","category":"일반휴게음식 - 서양음식"}]},{"lat":"37.292759457","long":"127.070052","items":[{"name":"커피마마","tel":"031-213-5702","addr":"경기도 수원시 영통구 하동 972-3번지","category":"일반휴게음식 - 서양음식"}]},{"lat":"37.293542258","long":"127.07194737","items":[{"name":"통통조개구이","tel":"031-265-9277","addr":"경기도 수원시 영통구 하동 961-1번지","category":"일반휴게음식 - 일반한식"}]},{"lat":"37.292849005","long":"127.07102196","items":[{"name":"투고","tel":"070-4649-1101","addr":"경기도 수원시 영통구 하동 971-1번지 다솜주택 1층 101호","category":"일반휴게음식 - 중국식"}]},{"lat":"37.291784119","long":"127.07387422","items":[{"name":"파나밴","tel":"031-275-3493","addr":"경기도 수원시 영통구 하동 994번지 광교호수마을참누리레이크 3006동 301호","category":"사무통신 - 통신기기"}]},{"lat":"37.293011712","long":"127.07010861","items":[{"name":"파이톤","tel":"070-7695-0011","addr":"경기도 수원시 영통구 하동 970-4번지 1층","category":"일반휴게음식 - 일반한식"}]},{"lat":"37.289528175","long":"127.06376771","items":[{"name":"팜디자인","tel":"","addr":"경기도 수원시 영통구 하동 1013번지 광교센트럴타운62단지 6207동 102호","category":"건축자재 - 인테리어전문"}]},{"lat":"37.289559972","long":"127.07152647","items":[{"name":"패스트랙키즈 코리아","tel":"","addr":"경기도 수원시 영통구 하동 994번지 광교호수마을참누리레이크 3010동 902호","category":"서적문구 - 기타서적문구"}]},{"lat":"37.290163573","long":"127.07167362","items":[{"name":"푸드스토리","tel":"","addr":"경기도 수원시 영통구 하동 994번지 광교호수마을참누리레이크 3001동 203호","category":"음료식품 - 농·축·수산품"}]},{"lat":"37.29423706","long":"127.07018865","items":[{"name":"피자나라치킨공주광교하동점","tel":"031-216-7532","addr":"경기도 수원시 영통구 하동 957-9번지 1층","category":"일반휴게음식 - 일반한식"}]},{"lat":"37.293958598","long":"127.06866588","items":[{"name":"피자에땅 광교점","tel":"050-4457-5932","addr":"경기도 수원시 영통구 하동 968-2번지 101호","category":"일반휴게음식 - 서양음식"}]},{"lat":"37.293182623","long":"127.07060498","items":[{"name":"하누도야지","tel":"031-214-0076","addr":"경기도 수원시 영통구 하동 964-3번지 1층","category":"일반휴게음식 - 일반한식"}]},{"lat":"37.29248943","long":"127.06955554","items":[{"name":"할매순대","tel":"","addr":"경기도 수원시 영통구 하동 974번지 1층","category":"일반휴게음식 - 일반한식"}]},{"lat":"37.29054505","long":"127.06621572","items":[{"name":"해보듬어린이집[아이행복]","tel":"031-214-9929","addr":"경기도 수원시 영통구 하동 988번지","category":"학원 - 유아원"}]},{"lat":"37.295453114","long":"127.08498661","items":[{"name":"해인 도예","tel":"","addr":"경기도 수원시 영통구 하동 1001번지 광교마을40단지 4007동 204호","category":"문화.취미 - 문화취미기타"}]},{"lat":"37.293235962","long":"127.07185686","items":[{"name":"흑돈명가","tel":"070-7841-7833","addr":"경기도 수원시 영통구 하동 961-3번지","category":"일반휴게음식 - 일반한식"}]},{"lat":"37.293849664","long":"127.07010935","items":[{"name":"힐카","tel":"031-211-3664","addr":"경기도 수원시 영통구 하동 959-9번지","category":"자동차정비 유지 - 자동차정비"}]}]