[{"lat":"37.888053373","long":"127.02534485","items":[{"name":"(주) 우석","tel":"031-838-0001","addr":"경기도 양주시 은현면 하패리 698-7번지","category":"직물 - 기타직물"}]},{"lat":"37.89615976","long":"127.03414702","items":[{"name":"(주)떡메마을","tel":"031-865-0821","addr":"경기도 양주시 은현면 하패리 456번지 마동","category":"음료식품 - 제과점"}]},{"lat":"37.895636827","long":"127.03559067","items":[{"name":"1급무궁화자동차공업사","tel":"031-865-0320","addr":"경기도 양주시 은현면 하패리 454-1번지","category":"자동차정비 유지 - 자동차정비"}]},{"lat":"37.881356789","long":"127.0364596","items":[{"name":"GS25G은현IC점","tel":"","addr":"경기도 양주시 은현면 하패리 250번지","category":"유통업 영리 - 편 의 점"}]},{"lat":"37.880770459","long":"127.03890319","items":[{"name":"SK ITM","tel":"031-1588-6819","addr":"경기도 양주시 은현면 하패리 224 1/3","category":"회원제형태 - 기타1"}]},{"lat":"37.895051088","long":"127.03606791","items":[{"name":"가구싸게파는곳","tel":"031-866-2729","addr":"경기도 양주시 은현면 하패리 452-10번지","category":"가구 - 일반가구"}]},{"lat":"37.880220675","long":"127.03959629","items":[{"name":"거성촌","tel":"031-865-4209","addr":"경기도 양주시 은현면 하패리 224-2","category":"일반휴게음식 - 일반한식"}]},{"lat":"37.885299544","long":"127.0466239","items":[{"name":"경원한신콤푸","tel":"031-866-6297","addr":"경기도 양주시 은현면 하패리 54-1번지 일부","category":"기타 - 기계공구"},{"name":"성대염료","tel":"031-857-3404","addr":"경기도 양주시 은현면 하패리 54-1번지 (2호)","category":"직물 - 옷감·직물"}]},{"lat":"37.887798825","long":"127.03517796","items":[{"name":"광수식당","tel":"031-865-0853","addr":"경기도 양주시 은현면 하패리 358-1번지","category":"일반휴게음식 - 일반한식"}]},{"lat":"37.879973771","long":"127.04987162","items":[{"name":"금나라","tel":"031-865-2428","addr":"경기도 양주시 은현면 하패리 10-1","category":"일반휴게음식 - 일반한식"}]},{"lat":"37.880938135","long":"127.04895152","items":[{"name":"늘푸름축산유통","tel":"031-865-6650","addr":"경기도 양주시 은현면 하패리 28-5번지","category":"음료식품 - 정육점"}]},{"lat":"37.87908153","long":"127.05065534","items":[{"name":"능이닭","tel":"031-866-9959","addr":"경기도 양주시 은현면 하패리 2-5번지 1층","category":"일반휴게음식 - 일반한식"},{"name":"유장춘닭개장","tel":"031-866-9959","addr":"경기도 양주시 은현면 하패리 2-5번지","category":"일반휴게음식 - 일반한식"}]},{"lat":"37.881996733","long":"127.0354596","items":[{"name":"다온기획","tel":"031-858-3938","addr":"경기도 양주시 은현면 하패리 254번지","category":"건축자재 - 인테리어전문"}]},{"lat":"37.890441357","long":"127.02248077","items":[{"name":"대동공업양주대리점","tel":"031-861-8383","addr":"경기도 양주시 은현면 하패리 898-4번지","category":"농업 - 농기계"},{"name":"청운농기계","tel":"031-878-3240","addr":"경기도 양주시 은현면 하패리 898-4번지 B동","category":"농업 - 농기계"}]},{"lat":"37.883359916","long":"127.02309273","items":[{"name":"동양산업","tel":"","addr":"경기도 양주시 은현면 하패리 1000-2번지","category":"용역 서비스 - 기타용역서비스"}]},{"lat":"37.888221979","long":"127.03620126","items":[{"name":"마을상회","tel":"031-111-1111","addr":"경기도 양주시 은현면 하패리 349번지","category":"신변잡화 - 기타잡화"}]},{"lat":"37.894798652","long":"127.03668171","items":[{"name":"만복순대국","tel":"031-866-3987","addr":"경기도 양주시 은현면 하패리 451-6번지","category":"일반휴게음식 - 일반한식"}]},{"lat":"37.886381281","long":"127.04493077","items":[{"name":"명문휠타이어","tel":"031-866-4486","addr":"경기도 양주시 은현면 하패리 117번지","category":"자동차정비 유지 - 자동차부품"}]},{"lat":"37.880271869","long":"127.04784853","items":[{"name":"모벨제이","tel":"","addr":"경기도 양주시 은현면 하패리 28-2번지","category":"문화.취미 - 민예·공예품"}]},{"lat":"37.886296954","long":"127.02312763","items":[{"name":"몽키네","tel":"031-859-7007","addr":"경기도 양주시 은현면 하패리 971-2번지 1층","category":"일반휴게음식 - 중국식"}]},{"lat":"37.88682587","long":"127.03498428","items":[{"name":"물댄동산","tel":"031-865-5420","addr":"경기도 양주시 은현면 하패리 575-12번지","category":"기타의료기관 - 기타의료기관 및 기타"}]},{"lat":"37.893965277","long":"127.01206789","items":[{"name":"미덕 에너지","tel":"031-863-1212","addr":"경기도 양주시 은현면 하패리 1080번지 나동 102호","category":"용역 서비스 - 기타용역서비스"}]},{"lat":"37.895050955","long":"127.03653403","items":[{"name":"민초의 향기","tel":"031-531-8621","addr":"경기도 양주시 은현면 하패리 452-3번지","category":"건축자재 - 인테리어전문"},{"name":"병열산업","tel":"","addr":"경기도 양주시 은현면 하패리 452-3번지","category":"농업 - 농기계"},{"name":"타이어119","tel":"031-000-0000","addr":"경기도 양주시 은현면 하패리 452-3번지","category":"자동차정비 유지 - 자동차시트·타이어"}]},{"lat":"37.894463958","long":"127.04109268","items":[{"name":"봉화건축자재백화점","tel":"031-868-3456","addr":"경기도 양주시 은현면 하패리 434-3번지","category":"건축자재 - 기타건축자재"}]},{"lat":"37.886359839","long":"127.02415073","items":[{"name":"부성배추절임","tel":"031-863-1303","addr":"경기도 양주시 은현면 하패리 710-170번지","category":"음료식품 - 농·축·수산품"}]},{"lat":"37.879161488","long":"127.02351214","items":[{"name":"사계절","tel":"031-868-7454","addr":"경기도 양주시 은현면 하패리 596번지 1층 일부","category":"일반휴게음식 - 일반한식"},{"name":"성은이커피이야기","tel":"031-865-0205","addr":"경기도 양주시 은현면 하패리 596번지 1층","category":"일반휴게음식 - 서양음식"}]},{"lat":"37.8856357","long":"127.03825761","items":[{"name":"서내비치즈","tel":"031-865-5384","addr":"경기도 양주시 은현면 하패리 277-4번지 1층","category":"음료식품 - 기타음료식품"}]},{"lat":"37.890495778","long":"127.0201503","items":[{"name":"손두부마을","tel":"031-865-4896","addr":"경기도 양주시 은현면 하패리 901번지","category":"일반휴게음식 - 일반한식"}]},{"lat":"37.881774208","long":"127.02345603","items":[{"name":"수라간","tel":"031-858-8588","addr":"경기도 양주시 은현면 하패리 616-3","category":"일반휴게음식 - 일반한식"}]},{"lat":"37.885049693","long":"127.03956459","items":[{"name":"스토파","tel":"","addr":"경기도 양주시 은현면 하패리 311-2번지","category":"의류 - 정장"}]},{"lat":"37.88188435","long":"127.04834966","items":[{"name":"시몬산업","tel":"031-864-7516","addr":"경기도 양주시 은현면 하패리 47-5번지","category":"주방용구 - 주방용구"}]},{"lat":"37.895330661","long":"127.03504482","items":[{"name":"신화테크","tel":"031-862-6392","addr":"경기도 양주시 은현면 하패리 455-2번지","category":"기타 - 기계공구"}]},{"lat":"37.881221554","long":"127.03678918","items":[{"name":"실버몰","tel":"031-861-0021","addr":"경기도 양주시 은현면 하패리 247-4번지","category":"의류 - 정장"}]},{"lat":"37.894632065","long":"127.01070371","items":[{"name":"에코매점","tel":"031-868-5275","addr":"경기도 양주시 은현면 하패리 1077-4번지 에코스포츠센터 매점","category":"음료식품 - 기타음료식품"}]},{"lat":"37.884770936","long":"127.03781387","items":[{"name":"엠엔티 메디칼","tel":"031-906-8881","addr":"경기도 양주시 은현면 하패리 277-7번지","category":"보건위생 - 의료용품"},{"name":"엠엔티 메디칼","tel":"031-906-8881","addr":"경기도 양주시 은현면 하패리 277-7번지","category":"보건위생 - 의료용품"}]},{"lat":"37.897324267","long":"127.02373322","items":[{"name":"영지종합유통","tel":"031-851-7728","addr":"경기도 양주시 은현면 하패리 789번지 A동","category":"서적문구 - 문구용품"}]},{"lat":"37.888495117","long":"127.02378757","items":[{"name":"오성뼈다귀해장국","tel":"031-829-3353","addr":"경기도 양주시 은현면 하패리 679-2번지 1층 101호","category":"일반휴게음식 - 일반한식"},{"name":"유림환경","tel":"031-868-7410","addr":"경기도 양주시 은현면 하패리 679-2번지 102호","category":"용역 서비스 - 종합용역"}]},{"lat":"37.883528198","long":"127.0359036","items":[{"name":"용문산업","tel":"031-862-3552","addr":"경기도 양주시 은현면 하패리 272-2","category":"건축자재 - 기타건축자재"}]},{"lat":"37.895663731","long":"127.03603407","items":[{"name":"우리식당","tel":"031-862-7787","addr":"경기도 양주시 은현면 하패리 454-9번지","category":"일반휴게음식 - 일반한식"},{"name":"천지싱크","tel":"031-861-7523","addr":"경기도 양주시 은현면 하패리 454-9번지 1층","category":"주방용구 - 주방용구"}]},{"lat":"37.880748805","long":"127.0492924","items":[{"name":"이글스크린","tel":"031-866-0759","addr":"경기도 양주시 은현면 하패리 28-10번지 1층","category":"레저업소 - 스크린골프"}]},{"lat":"37.887826078","long":"127.03434812","items":[{"name":"조은","tel":"031-865-6814","addr":"경기도 양주시 은현면 하패리 575-1번지","category":"용역 서비스 - 기타용역서비스"}]},{"lat":"37.892415193","long":"127.01693344","items":[{"name":"조은가설상사","tel":"031-868-0800","addr":"경기도 양주시 은현면 하패리 1024-2번지","category":"건축자재 - 기타건축자재"}]},{"lat":"37.891746812","long":"127.02728998","items":[{"name":"조일전기","tel":"031-858-1813","addr":"경기도 양주시 은현면 하패리 724-1번지","category":"전기제품 - 기타전기제품"}]},{"lat":"37.883355567","long":"127.04073456","items":[{"name":"주식회사 평화분체","tel":"031-856-2969","addr":"경기도 양주시 은현면 하패리 148-6번지","category":"기타 - 기계공구"}]},{"lat":"37.895970294","long":"127.03514742","items":[{"name":"주식회사윈풀","tel":"031-859-3200","addr":"경기도 양주시 은현면 하패리 456-3","category":"건축자재 - 기타건축자재"}]},{"lat":"37.89354646","long":"127.03631734","items":[{"name":"주영창호시스템","tel":"031-866-7946","addr":"경기도 양주시 은현면 하패리 390-3번지","category":"건축자재 - 보일러·펌프·샷시"}]},{"lat":"37.888440651","long":"127.02598157","items":[{"name":"지오전자/원격지","tel":"031-821-9939","addr":"경기도 양주시 은현면 하패리 698-1","category":"기타 - 기타 전문점"}]},{"lat":"37.897963932","long":"127.02371066","items":[{"name":"청해원","tel":"031-868-5657","addr":"경기도 양주시 은현면 하패리 790번지 용암리 산56-7번지","category":"일반휴게음식 - 일반한식"}]},{"lat":"37.894022509","long":"127.04106972","items":[{"name":"크린웨이","tel":"031-865-6320","addr":"경기도 양주시 은현면 하패리 433-1번지","category":"수리서비스 - 세탁소"}]},{"lat":"37.886299706","long":"127.04628347","items":[{"name":"태창월드","tel":"031-841-8002","addr":"경기도 양주시 은현면 하패리 55-4번지 1층 외1필지(양주시 은현면 하패리54-5 2층)","category":"신변잡화 - 기타잡화"}]},{"lat":"37.895411531","long":"127.03581795","items":[{"name":"하림자동차공업사","tel":"031-862-1711","addr":"경기도 양주시 은현면 하패리 454-4번지","category":"자동차정비 유지 - 자동차정비"}]},{"lat":"37.892301772","long":"127.04093241","items":[{"name":"한도산업","tel":"031-862-4981","addr":"경기도 양주시 은현면 하패리 404-4","category":"수리서비스 - 기타수리서비스"}]},{"lat":"37.88522092","long":"127.03940553","items":[{"name":"현대공조냉동","tel":"031-865-3085","addr":"경기도 양주시 은현면 하패리 304-1번지","category":"전기제품 - 냉열기기"}]},{"lat":"37.889158308","long":"127.03839571","items":[{"name":"현대유리","tel":"031-866-8686","addr":"경기도 양주시 은현면 하패리 371-1","category":"건축자재 - 유리"}]}]