[{"lat":"37.46249237","long":"127.247448","items":[{"name":"(주)대정티엔에스","tel":"031-792-2588","addr":"경기도 광주시 남한산성면 광지원리 94-1번지 1층","category":"기타 - 기타 전문점"}]},{"lat":"37.46399519","long":"127.2483346","items":[{"name":"광주시육아종합지원센터","tel":"031-765-6010","addr":"경기도 광주시 남한산성면 광지원리 186-1번지","category":"서적문구 - 완구점"},{"name":"광주시육아종합지원센터","tel":"031-765-6010","addr":"경기도 광주시 남한산성면 광지원리 186-1번지","category":"서적문구 - 완구점"}]},{"lat":"37.46305264","long":"127.2466473","items":[{"name":"광지원약국","tel":"031-763-0272","addr":"경기도 광주시 남한산성면 광지원리 161-2번지","category":"약국 - 약국"}]},{"lat":"37.46393656","long":"127.2505272","items":[{"name":"그린푸드","tel":"031-792-5501","addr":"경기도 광주시 남한산성면 광지원리 184-2번지","category":"음료식품 - 기타음료식품"}]},{"lat":"37.46177465","long":"127.2459537","items":[{"name":"남한산성 아웃도어 팩토리","tel":"031-797-8639","addr":"경기도 광주시 남한산성면 광지원리 103-7번지","category":"레져용품 - 스포츠·레져용품"},{"name":"카페남한산성로15","tel":"","addr":"경기도 광주시 남한산성면 광지원리 103-7번지 2층","category":"일반휴게음식 - 서양음식"},{"name":"황제유통","tel":"031-1588-6269","addr":"경기도 광주시 남한산성면 광지원리 103-7 4/","category":"회원제형태 - 기타1"}]},{"lat":"37.46374332","long":"127.2481416","items":[{"name":"농가보쌈훈제오리","tel":"031-767-9292","addr":"경기도 광주시 남한산성면 광지원리 173번지","category":"일반휴게음식 - 일반한식"}]},{"lat":"37.4632445","long":"127.2453594","items":[{"name":"농업회사법인 대산바이오주식회사","tel":"031-8027-0300","addr":"경기도 광주시 남한산성면 광지원리 159-2번지","category":"음료식품 - 기타음료식품"}]},{"lat":"37.46188163","long":"127.2465079","items":[{"name":"다래가든","tel":"031-743-6586","addr":"경기도 광주시 남한산성면 광지원리 103-3번지 1층","category":"일반휴게음식 - 일반한식"}]},{"lat":"37.46377483","long":"127.2459714","items":[{"name":"다린갤러리 공방카페","tel":"031-798-0524","addr":"경기도 광주시 남한산성면 광지원리 156-2번지 2층","category":"일반휴게음식 - 서양음식"},{"name":"봉천막국수","tel":"031-793-7714","addr":"경기도 광주시 남한산성면 광지원리 156-2번지","category":"일반휴게음식 - 일반한식"},{"name":"왕실흙돌침대","tel":"031-763-9178","addr":"경기도 광주시 남한산성면 광지원리 156-2번지","category":"가구 - 일반가구"}]},{"lat":"37.4602205","long":"127.243722","items":[{"name":"대박낙소","tel":"031-444-6781","addr":"경기도 광주시 남한산성면 광지원리 32-3번지 1층","category":"일반휴게음식 - 일반한식"}]},{"lat":"37.45819311","long":"127.2524749","items":[{"name":"들꽃농원","tel":"031-768-0128","addr":"경기도 광주시 남한산성면 광지원리 264번지","category":"문화.취미 - 화원"}]},{"lat":"37.4606894","long":"127.2435313","items":[{"name":"메밀로43","tel":"031-765-3999","addr":"경기도 광주시 남한산성면 광지원리 38-1번지","category":"일반휴게음식 - 일반한식"}]},{"lat":"37.46244134","long":"127.2459784","items":[{"name":"목요공방","tel":"070-4219-0063","addr":"경기도 광주시 남한산성면 광지원리 107번지 1층","category":"가구 - 기타가구"},{"name":"산성철물","tel":"031-764-1118","addr":"경기도 광주시 남한산성면 광지원리 107번지 1층","category":"건축자재 - 목재·석재·철물"}]},{"lat":"37.46305196","long":"127.2469751","items":[{"name":"산성각","tel":"031-761-3080","addr":"경기도 광주시 남한산성면 광지원리 163-7번지 1층","category":"일반휴게음식 - 중국식"}]},{"lat":"37.46074282","long":"127.2525286","items":[{"name":"수정의료기","tel":"031-793-6246","addr":"경기도 광주시 남한산성면 광지원리 248-2번지","category":"가구 - 기타가구"}]},{"lat":"37.46318683","long":"127.2471112","items":[{"name":"엔블리스","tel":"","addr":"경기도 광주시 남한산성면 광지원리 164-4번지","category":"가구 - 일반가구"}]},{"lat":"37.4599168","long":"127.2424212","items":[{"name":"위베이크 남한산성/주식회사 위베이크","tel":"031-1234-5612","addr":"경기도 광주시 남한산성면 광지원리 5-3번지 1층","category":"일반휴게음식 - 서양음식"}]},{"lat":"37.46327393","long":"127.2485583","items":[{"name":"창대함종합상사","tel":"031-762-4416","addr":"경기도 광주시 남한산성면 광지원리 176-1번지","category":"건축자재 - 기타건축자재"}]},{"lat":"37.46313214","long":"127.2474162","items":[{"name":"한가닭","tel":"031-763-2977","addr":"경기도 광주시 남한산성면 광지원리 163-1번지","category":"일반휴게음식 - 일반한식"}]},{"lat":"37.4628057","long":"127.2484211","items":[{"name":"한빛강재","tel":"031-797-5072","addr":"경기도 광주시 남한산성면 광지원리 84번지","category":"건축자재 - 기타건축자재"}]}]