[{"lat":"37.279439582","long":"127.3904728","items":[{"name":"(주) 아리아펫","tel":"031-635-2266","addr":"경기도 이천시 마장면 장암리 525-1번지","category":"문화.취미 - 애완동물"},{"name":"(주)아리아펫","tel":"031-635-2266","addr":"경기도 이천시 마장면 장암리 525-1번지 (주)아리아","category":"문화.취미 - 애완동물"},{"name":"블랙피디","tel":"031-635-2266","addr":"경기도 이천시 마장면 장암리 525-1번지 2층","category":"문화.취미 - 애완동물"}]},{"lat":"37.274491117","long":"127.40188019","items":[{"name":"Bueno MEDITECH 브에노 메디텍","tel":"031-717-1243","addr":"경기도 이천시 마장면 장암리 89번지","category":"보건위생 - 화장품"}]},{"lat":"37.284324897","long":"127.3981094","items":[{"name":"나무대장간","tel":"031-632-5045","addr":"경기도 이천시 마장면 장암리 397-1번지 1동 101호","category":"일반휴게음식 - 서양음식"},{"name":"아이지에이마트 이천장암점","tel":"031-768-0708","addr":"경기도 이천시 마장면 장암리 397-1번지 1동","category":"유통업 영리 - 편 의 점"}]},{"lat":"37.280217292","long":"127.39779476","items":[{"name":"늘행복한식당","tel":"031-631-2564","addr":"경기도 이천시 마장면 장암리 370-1번지 지하1층","category":"일반휴게음식 - 일반한식"}]},{"lat":"37.279245937","long":"127.39996588","items":[{"name":"더이진","tel":"031-631-6464","addr":"경기도 이천시 마장면 장암리 325번지","category":"주방용구 - 주방용식기"},{"name":"메종 드 쁘띠푸르","tel":"070-8888-8882","addr":"경기도 이천시 마장면 장암리 325번지 5동 1호","category":"음료식품 - 제과점"},{"name":"주식회사 이태리면나포리가든","tel":"031-633-0655","addr":"경기도 이천시 마장면 장암리 325번지 4동 1층","category":"일반휴게음식 - 서양음식"}]},{"lat":"37.273913818","long":"127.39669072","items":[{"name":"도야","tel":"031-765-8657","addr":"경기도 이천시 마장면 장암리 206-3","category":"레저업소 - 기타레져업소"}]},{"lat":"37.272158499","long":"127.40157474","items":[{"name":"도예촌짬뽕마을","tel":"031-635-4680","addr":"경기도 이천시 마장면 장암리 148번지","category":"일반휴게음식 - 중국식"}]},{"lat":"37.283802427","long":"127.39807284","items":[{"name":"또또한식부페(서이천)","tel":"031-638-3566","addr":"경기도 이천시 마장면 장암리 397-3번지","category":"일반휴게음식 - 일반한식"}]},{"lat":"37.282825854","long":"127.39641014","items":[{"name":"맑은흙도예","tel":"","addr":"경기도 이천시 마장면 장암리 389-1번지","category":"문화.취미 - 민예·공예품"}]},{"lat":"37.276602166","long":"127.40641269","items":[{"name":"묵전요","tel":"070-8882-7023","addr":"경기도 이천시 마장면 장암리 121-2번지","category":"문화.취미 - 민예·공예품"}]},{"lat":"37.280716277","long":"127.39946619","items":[{"name":"박승광해물손칼국수 (이천점)","tel":"031-637-1123","addr":"경기도 이천시 마장면 장암리 329번지","category":"일반휴게음식 - 일반한식"}]},{"lat":"37.28396318","long":"127.39579587","items":[{"name":"서석주도예학원","tel":"031-635-0029","addr":"경기도 이천시 마장면 장암리 391-5번지 A,B,C동","category":"학원 - 기능학원"}]},{"lat":"37.272606113","long":"127.40243397","items":[{"name":"성불조각원","tel":"031-638-9150","addr":"경기도 이천시 마장면 장암리 144-4번지","category":"신변잡화 - 기념품점"}]},{"lat":"37.284351568","long":"127.40090609","items":[{"name":"솔잎식당 정양산업지점","tel":"031-634-7172","addr":"경기도 이천시 마장면 장암리 405-4번지","category":"일반휴게음식 - 위탁급식업"}]},{"lat":"37.285079333","long":"127.40151885","items":[{"name":"씨에스텍주식회사","tel":"031-479-5025","addr":"경기도 이천시 마장면 장암리 405-3번지","category":"기타 - 기계공구"}]},{"lat":"37.27249282","long":"127.40129464","items":[{"name":"씨유이천장암점","tel":"031-637-2621","addr":"경기도 이천시 마장면 장암리 139번지 B동","category":"유통업 영리 - 편 의 점"},{"name":"커피이야기","tel":"031-635-5922","addr":"경기도 이천시 마장면 장암리 139번지","category":"일반휴게음식 - 서양음식"}]},{"lat":"37.284133199","long":"127.39885264","items":[{"name":"양지숯불갈매기살","tel":"031-638-3292","addr":"경기도 이천시 마장면 장암리 400","category":"일반휴게음식 - 일반한식"}]},{"lat":"37.276913769","long":"127.39952517","items":[{"name":"양평뚝배기해장국","tel":"031-635-6260","addr":"경기도 이천시 마장면 장암리 312번지","category":"일반휴게음식 - 일반한식"}]},{"lat":"37.282328654","long":"127.39418617","items":[{"name":"언제나봄날","tel":"031-111-1111","addr":"경기도 이천시 마장면 장암리 388-102번지 1층 동연재마을(B)","category":"문화.취미 - 화원"}]},{"lat":"37.282211784","long":"127.39410663","items":[{"name":"예림샤시동부영업소","tel":"031-634-1327","addr":"경기도 이천시 마장면 장암리 388-25번지 C동 2호","category":"건축자재 - 기타건축자재"}]},{"lat":"37.28385581","long":"127.3982761","items":[{"name":"우리","tel":"031-635-7897","addr":"경기도 이천시 마장면 장암리 397-2번지","category":"일반휴게음식 - 일반한식"}]},{"lat":"37.273243276","long":"127.40319274","items":[{"name":"장훈성공방","tel":"031-637-7019","addr":"경기도 이천시 마장면 장암리 132-1","category":"문화.취미 - 민예·공예품"}]},{"lat":"37.272824142","long":"127.40190521","items":[{"name":"주식회사이조공예","tel":"031-636-7701","addr":"경기도 이천시 마장면 장암리 140-1번지","category":"가구 - 일반가구"}]},{"lat":"37.277906157","long":"127.40183056","items":[{"name":"진미쌀밥","tel":"031-635-1036","addr":"경기도 이천시 마장면 장암리 16-1번지","category":"일반휴게음식 - 일반한식"}]},{"lat":"37.283301436","long":"127.39699898","items":[{"name":"카페(CAFE)이채","tel":"031-637-0576","addr":"경기도 이천시 마장면 장암리 389-7번지","category":"일반휴게음식 - 서양음식"},{"name":"카페이채","tel":"031-000-0000","addr":"경기도 이천시 마장면 장암리 389-7번지","category":"일반휴게음식 - 서양음식"}]},{"lat":"37.272047376","long":"127.40246484","items":[{"name":"파라다이스무인텔","tel":"031-635-5225","addr":"경기도 이천시 마장면 장암리 145-1번지 외2필지","category":"숙박업 - 여관/기타숙박업"}]},{"lat":"37.283572676","long":"127.39671849","items":[{"name":"히아브종합특장","tel":"031-638-1818","addr":"경기도 이천시 마장면 장암리 396-1","category":"기타 - 기계공구"}]}]