[{"lat":"37.130806892","long":"126.95384992","items":[{"name":"(주)대한전기","tel":"031-8059-0442","addr":"경기도 화성시 향남읍 관리 4-1번지","category":"전기제품 - 기타전기제품"},{"name":"꿈의짬뽕","tel":"031-8059-6969","addr":"경기도 화성시 향남읍 관리 4-1번지","category":"일반휴게음식 - 중국식"}]},{"lat":"37.132585769","long":"126.94257237","items":[{"name":"(주)홈케터링","tel":"031-352-7794","addr":"경기도 화성시 향남읍 관리 295-13번지 1층","category":"음료식품 - 기타음료식품"}]},{"lat":"37.125756782","long":"126.94451328","items":[{"name":"가야산업","tel":"031-366-2736","addr":"경기도 화성시 향남읍 관리 247-14","category":"기타 - 기계공구"},{"name":"원테크","tel":"031-352-7604","addr":"경기도 화성시 향남읍 관리 247-14","category":"기타 - 기계공구"}]},{"lat":"37.127697049","long":"126.95098237","items":[{"name":"나노용접","tel":"070-9001-0452","addr":"경기도 화성시 향남읍 관리 216-1번지 다동","category":"용역 서비스 - 기타용역서비스"}]},{"lat":"37.130644379","long":"126.95307352","items":[{"name":"남양에프알피주식회사","tel":"031-8059-1067","addr":"경기도 화성시 향남읍 관리 11-5","category":"용역 서비스 - 기타용역서비스"},{"name":"누리종합상사","tel":"031-353-8802","addr":"경기도 화성시 향남읍 관리 11-5번지","category":"전기제품 - 기타전기제품"},{"name":"이레종합전기","tel":"031-307-8585","addr":"경기도 화성시 향남읍 관리 11-5","category":"전기제품 - 기타전기제품"}]},{"lat":"37.130779673","long":"126.95339979","items":[{"name":"내비게이션발안점","tel":"031-8059-4292","addr":"경기도 화성시 향남읍 관리 4-2","category":"회원제형태 - 기타3"},{"name":"동오 afc","tel":"031-8059-4292","addr":"경기도 화성시 향남읍 관리 4-2번지","category":"자동차정비 유지 - 자동차부품"}]},{"lat":"37.130779593","long":"126.95320848","items":[{"name":"동오사거리약국","tel":"031-8059-8397","addr":"경기도 화성시 향남읍 관리 5-3번지","category":"약국 - 약국"},{"name":"동오조각","tel":"070-8870-8941","addr":"경기도 화성시 향남읍 관리 5-3번지","category":"건축자재 - 목재·석재·철물"},{"name":"카스인텍","tel":"031-376-6001","addr":"경기도 화성시 향남읍 관리 5-3번지","category":"기타 - 기계공구"}]},{"lat":"37.13069663","long":"126.94893216","items":[{"name":"동오호프","tel":"031-111-1111","addr":"경기도 화성시 향남읍 관리 95-1번지 102호","category":"일반휴게음식 - 스넥"},{"name":"병천순대","tel":"031-354-3989","addr":"경기도 화성시 향남읍 관리 95-1 104호~105호","category":"일반휴게음식 - 일반한식"},{"name":"왕눈이노래연습장","tel":"031-353-1371","addr":"경기도 화성시 향남읍 관리 95-1번지 2층 206호","category":"레저업소 - 노 래 방"}]},{"lat":"37.130777405","long":"126.94823438","items":[{"name":"미니스톱 발안동오점","tel":"031-1577-9621","addr":"경기도 화성시 향남읍 관리 97-5번지 라동 101호","category":"유통업 영리 - 편 의 점"}]},{"lat":"37.130561101","long":"126.948122","items":[{"name":"발안농산","tel":"031-352-5886","addr":"경기도 화성시 향남읍 관리 97-4번지","category":"음료식품 - 기타음료식품"},{"name":"형우테크","tel":"031-353-7939","addr":"경기도 화성시 향남읍 관리 97-4번지 다동 104호","category":"기타 - 기계공구"}]},{"lat":"37.130867639","long":"126.94851565","items":[{"name":"베스트골프(향남점)","tel":"031-353-2766","addr":"경기도 화성시 향남읍 관리 96번지","category":"레져용품 - 골프용품 전문점"},{"name":"복권랜드","tel":"031-354-5569","addr":"경기도 화성시 향남읍 관리 96번지 1층 101호","category":"유통업 영리 - 슈퍼마켓"},{"name":"입질대박(발안향남점)","tel":"031-352-8595","addr":"경기도 화성시 향남읍 관리 96 104호~106호","category":"레져용품 - 스포츠·레져용품"},{"name":"제이피팅골프샵","tel":"031-366-5455","addr":"경기도 화성시 향남읍 관리 96번지","category":"레져용품 - 스포츠·레져용품"}]},{"lat":"37.12561202","long":"126.94332059","items":[{"name":"삼성원통연마","tel":"031-366-4380","addr":"경기도 화성시 향남읍 관리 246-6번지","category":"기타 - 기계공구"}]},{"lat":"37.128949753","long":"126.95154418","items":[{"name":"서정한식부페","tel":"031-354-2721","addr":"경기도 화성시 향남읍 관리 48-6번지 외3필지 1층","category":"일반휴게음식 - 일반한식"},{"name":"이마트24 화성동오점","tel":"031-000-0000","addr":"경기도 화성시 향남읍 관리 48-6번지","category":"유통업 영리 - 편 의 점"},{"name":"해피홈","tel":"031-8059-4178","addr":"경기도 화성시 향남읍 관리 48-6번지","category":"일반휴게음식 - 스넥"}]},{"lat":"37.129894428","long":"126.94834755","items":[{"name":"석보정밀","tel":"031-354-5343","addr":"경기도 화성시 향남읍 관리 93번지","category":"기타 - 기계공구"}]},{"lat":"37.130669346","long":"126.94838075","items":[{"name":"선경산업","tel":"031-8059-1942","addr":"경기도 화성시 향남읍 관리 96-2,96-3","category":"레져용품 - 스포츠·레져용품"}]},{"lat":"37.12764301","long":"126.95103867","items":[{"name":"성진테크","tel":"031-8059-2141","addr":"경기도 화성시 향남읍 관리 217-15번지","category":"자동차정비 유지 - 자동차부품"}]},{"lat":"37.126173847","long":"126.95001565","items":[{"name":"씨유화성관리점","tel":"031-353-3894","addr":"경기도 화성시 향남읍 관리 217-17번지","category":"유통업 영리 - 편 의 점"},{"name":"화성종합공구","tel":"031-8047-0292","addr":"경기도 화성시 향남읍 관리 217-17번지 107호~108호","category":"기타 - 기계공구"}]},{"lat":"37.130780325","long":"126.95498655","items":[{"name":"알파문구정남점","tel":"031-352-8721","addr":"경기도 화성시 향남읍 관리 1-1번지","category":"서적문구 - 문구용품"},{"name":"오피스비전","tel":"031-352-9578","addr":"경기도 화성시 향남읍 관리 1-1번지","category":"서적문구 - 출판 및 인쇄물"}]},{"lat":"37.128896376","long":"126.95315344","items":[{"name":"에스이앤티","tel":"070-8876-7164","addr":"경기도 화성시 향남읍 관리 21번지","category":"전기제품 - 기타전기제품"}]},{"lat":"37.127417515","long":"126.95050993","items":[{"name":"영미식당","tel":"031-354-4116","addr":"경기도 화성시 향남읍 관리 217번지 1동 105호","category":"일반휴게음식 - 일반한식"},{"name":"좋은아침뼈해장국","tel":"031-352-9916","addr":"경기도 화성시 향남읍 관리 217번지","category":"일반휴게음식 - 일반한식"},{"name":"청해한식뷔페","tel":"031-353-5442","addr":"경기도 화성시 향남읍 관리 217번지","category":"일반휴게음식 - 일반한식"}]},{"lat":"37.130085279","long":"126.95201606","items":[{"name":"우밀지게차산업","tel":"031-373-1787","addr":"경기도 화성시 향남읍 관리 10-5번지","category":"기타 - 기계공구"}]},{"lat":"37.129310717","long":"126.95281557","items":[{"name":"유명주식회사","tel":"031-366-4842","addr":"경기도 화성시 향남읍 관리 20번지","category":"건축자재 - 기타건축자재"}]},{"lat":"37.126062821","long":"126.94387163","items":[{"name":"임팩트","tel":"031-352-9162","addr":"경기도 화성시 향남읍 관리 246-30번지","category":"자동차정비 유지 - 자동차부품"}]},{"lat":"37.130561308","long":"126.94857214","items":[{"name":"주안타일","tel":"031-366-0166","addr":"경기도 화성시 향남읍 관리 96-3번지","category":"건축자재 - 건축용 요업제품"}]},{"lat":"37.127111099","long":"126.9503751","items":[{"name":"주원남원추어탕","tel":"031-353-5977","addr":"경기도 화성시 향남읍 관리 217-41번지","category":"일반휴게음식 - 일반한식"}]},{"lat":"37.130058545","long":"126.9527138","items":[{"name":"창우산업","tel":"031-353-9775","addr":"경기도 화성시 향남읍 관리 11-11","category":"의류 - 기타의류"}]},{"lat":"37.130894427","long":"126.94798671","items":[{"name":"타이발렌타인 레스토랑","tel":"070-4238-1519","addr":"경기도 화성시 향남읍 관리 97번지 2층 202호","category":"일반휴게음식 - 서양음식"},{"name":"푸짐한 밥상","tel":"031-8047-6206","addr":"경기도 화성시 향남읍 관리 97번지","category":"일반휴게음식 - 일반한식"}]},{"lat":"37.125919175","long":"126.94492952","items":[{"name":"한국유체기계","tel":"031-378-0911","addr":"경기도 화성시 향남읍 관리 247-4번지 한국유체기계","category":"기타 - 기계공구"}]},{"lat":"37.128029","long":"126.94779748","items":[{"name":"한아름도매물류 주식회사","tel":"","addr":"경기도 화성시 향남읍 관리 197-4번지","category":"음료식품 - 기타음료식품"}]},{"lat":"37.131308679","long":"126.94749125","items":[{"name":"형제냉열","tel":"031-352-4225","addr":"경기도 화성시 향남읍 관리 102번지","category":"전기제품 - 냉열기기"}]}]