[{"lat":"37.265270245","long":"127.3576618","items":[{"name":"(주)보데코","tel":"02-6180-1357","addr":"경기도 이천시 마장면 관리 476-1번지","category":"음료식품 - 주류 판매점"},{"name":"보데코 주식회사","tel":"02-6180-1357","addr":"경기도 이천시 마장면 관리 476-1번지","category":"음료식품 - 주류 판매점"}]},{"lat":"37.280046401","long":"127.36677429","items":[{"name":"(주)이레산업 이천지점","tel":"031-841-7887","addr":"경기도 이천시 마장면 관리 1313번지","category":"신변잡화 - 기념품점"},{"name":"곰신카페","tel":"","addr":"경기도 이천시 마장면 관리 1313번지","category":"일반휴게음식 - 서양음식"},{"name":"김밥킹","tel":"031-635-9997","addr":"경기도 이천시 마장면 관리 1313번지 충성회관 1층","category":"일반휴게음식 - 일반한식"},{"name":"삼파전당구장","tel":"","addr":"경기도 이천시 마장면 관리 1313번지","category":"레저업소 - 당 구 장"},{"name":"충성 치킨 삼파전","tel":"031-638-7732","addr":"경기도 이천시 마장면 관리 1313번지 충성회관","category":"일반휴게음식 - 스넥"}]},{"lat":"37.280158862","long":"127.35033476","items":[{"name":"BN Entertainment","tel":"031-637-2122","addr":"경기도 이천시 마장면 관리 926-1번지","category":"전기제품 - 가전제품"}]},{"lat":"37.27060214","long":"127.3523315","items":[{"name":"GS25이천단결점","tel":"","addr":"경기도 이천시 마장면 관리 647-4번지 1동 지1층 일부","category":"유통업 영리 - 편 의 점"},{"name":"간편한식당","tel":"","addr":"경기도 이천시 마장면 관리 647-4번지","category":"일반휴게음식 - 일반한식"}]},{"lat":"37.264216634","long":"127.35444394","items":[{"name":"갓골 부대찌개","tel":"031-631-5856","addr":"경기도 이천시 마장면 관리 536-14번지 1층","category":"일반휴게음식 - 일반한식"},{"name":"고기꿉는날","tel":"031-633-8495","addr":"경기도 이천시 마장면 관리 536-14번지 A동 1층","category":"일반휴게음식 - 일반한식"},{"name":"고기하면 주선생 정육점","tel":"031-633-8495","addr":"경기도 이천시 마장면 관리 536-14번지","category":"음료식품 - 정육점"},{"name":"세븐일레븐이천관리점","tel":"031-1577-0711","addr":"경기도 이천시 마장면 관리 536-14번지 B동 1층","category":"유통업 영리 - 편 의 점"},{"name":"슈코","tel":"031-637-5856","addr":"경기도 이천시 마장면 관리 536-14,536-15","category":"신변잡화 - 기타잡화"}]},{"lat":"37.27713054","long":"127.35063655","items":[{"name":"관리LPG충전소","tel":"031-638-5137","addr":"경기도 이천시 마장면 관리 942-9번지","category":"연료판매점 - 쌍용S-OIL 가스충전"}]},{"lat":"37.265021267","long":"127.35655583","items":[{"name":"금정위너펌프(KEUMJUNG WINNER PUMPS)","tel":"02-808-0153","addr":"경기도 이천시 마장면 관리 477-10","category":"기타 - 기타 전문점"}]},{"lat":"37.276271296","long":"127.35174884","items":[{"name":"김가네한식부페","tel":"031-637-5505","addr":"경기도 이천시 마장면 관리 679-2번지","category":"일반휴게음식 - 일반한식"}]},{"lat":"37.281939688","long":"127.35446997","items":[{"name":"다물도예","tel":"031-638-5128","addr":"경기도 이천시 마장면 관리 802-6번지","category":"문화.취미 - 민예·공예품"}]},{"lat":"37.269964962","long":"127.33900239","items":[{"name":"다육이 정원","tel":"031-637-8451","addr":"경기도 이천시 마장면 관리 1168번지 1층","category":"문화.취미 - 화원"}]},{"lat":"37.278461153","long":"127.35466803","items":[{"name":"대가막국수","tel":"031-638-8119","addr":"경기도 이천시 마장면 관리 781번지","category":"일반휴게음식 - 일반한식"}]},{"lat":"37.272574389","long":"127.35266758","items":[{"name":"대길토종옻닭","tel":"031-637-0627","addr":"경기도 이천시 마장면 관리 655-23번지","category":"일반휴게음식 - 일반한식"}]},{"lat":"37.264603902","long":"127.35450211","items":[{"name":"로드","tel":"031-634-0301","addr":"경기도 이천시 마장면 관리 536-6번지 1동 1층","category":"일반휴게음식 - 서양음식"},{"name":"최가네감자탕(마장점)","tel":"031-636-3277","addr":"경기도 이천시 마장면 관리 536-6번지 1층","category":"일반휴게음식 - 일반한식"}]},{"lat":"37.271047214","long":"127.35719283","items":[{"name":"믿음시스템","tel":"031-638-8308","addr":"경기도 이천시 마장면 관리 379번지","category":"수리서비스 - 기타수리서비스"}]},{"lat":"37.278405953","long":"127.35505114","items":[{"name":"발트하임","tel":"","addr":"경기도 이천시 마장면 관리 783-2번지","category":"숙박업 - 여관/기타숙박업"}]},{"lat":"37.278188887","long":"127.34922071","items":[{"name":"삼성컨테이너","tel":"031-637-8966","addr":"경기도 이천시 마장면 관리 939-1번지","category":"건축자재 - 기타건축자재"}]},{"lat":"37.273600976","long":"127.352864","items":[{"name":"세븐일레븐이천마도로점","tel":"031-1577-0711","addr":"경기도 이천시 마장면 관리 655-16번지","category":"유통업 영리 - 편 의 점"}]},{"lat":"37.273770533","long":"127.35341725","items":[{"name":"오!백년짬뽕","tel":"031-637-7111","addr":"경기도 이천시 마장면 관리 652-18번지","category":"일반휴게음식 - 중국식"},{"name":"카페더파머스","tel":"","addr":"경기도 이천시 마장면 관리 652-18번지 2동 1층","category":"일반휴게음식 - 서양음식"}]},{"lat":"37.267492217","long":"127.35280191","items":[{"name":"용인대정의태권도","tel":"070-8848-4520","addr":"경기도 이천시 마장면 관리 555-7번지 아름수리 2층 201호","category":"학원 - 예·체능계학원"}]},{"lat":"37.276684634","long":"127.35818892","items":[{"name":"주식회사 발해고속관광","tel":"031-291-2202","addr":"경기도 이천시 마장면 관리 267번지","category":"여행 - 관광여행"}]},{"lat":"37.268824481","long":"127.35322521","items":[{"name":"찬이네분식","tel":"031-638-6101","addr":"경기도 이천시 마장면 관리 558-2번지 B동","category":"일반휴게음식 - 스넥"}]},{"lat":"37.275627539","long":"127.35005461","items":[{"name":"화목토","tel":"031-638-8076","addr":"경기도 이천시 마장면 관리 944-3번지","category":"일반휴게음식 - 서양음식"}]}]