[{"lat":"37.106677056","long":"127.08414117","items":[{"name":"(주)수명가","tel":"031-212-3175","addr":"경기도 평택시 진위면 견산리 3번지 2층","category":"건강식품 - 기타건강식품"}]},{"lat":"37.1075045","long":"127.07236312","items":[{"name":"1016퓨전포차","tel":"031-665-1016","addr":"경기도 평택시 진위면 견산리 441-2번지 서울아트빌라 13동","category":"일반휴게음식 - 일반한식"}]},{"lat":"37.104867662","long":"127.08158554","items":[{"name":"25시 당구클럽","tel":"031-663-0447","addr":"경기도 평택시 진위면 견산리 40-1번지","category":"레저업소 - 당 구 장"},{"name":"이노볼트","tel":"031-611-1797","addr":"경기도 평택시 진위면 견산리 40-1번지 1층 2호","category":"기타 - 기계공구"},{"name":"효성소방","tel":"031-664-1196","addr":"경기도 평택시 진위면 견산리 40-1번지 1층","category":"용역 서비스 - 기타용역서비스"}]},{"lat":"37.10734182","long":"127.07319548","items":[{"name":"GS25 진위서로점","tel":"031-665-6231","addr":"경기도 평택시 진위면 견산리 440-2번지","category":"소매업 - 편의점"},{"name":"GS25진위서로점","tel":"","addr":"경기도 평택시 진위면 견산리 440-2번지","category":"유통업 영리 - 편 의 점"}]},{"lat":"37.108092013","long":"127.06916858","items":[{"name":"GS25평택견산리점","tel":"","addr":"경기도 평택시 진위면 견산리 507-19번지","category":"유통업 영리 - 편 의 점"},{"name":"성진종합상사","tel":"031-662-6597","addr":"경기도 평택시 진위면 견산리 507-19번지","category":"유통업 영리 - 기타유통업"}]},{"lat":"37.108788684","long":"127.06383651","items":[{"name":"GS25평택진위점","tel":"","addr":"경기도 평택시 진위면 견산리 520-2번지","category":"유통업 영리 - 편 의 점"},{"name":"필화장품","tel":"031-611-3971","addr":"경기도 평택시 진위면 견산리 520-2번지","category":"보건위생 - 화장품"}]},{"lat":"37.105896725","long":"127.07872912","items":[{"name":"㈜상명하모니마트","tel":"031-611-9960","addr":"경기도 평택시 진위면 견산리 319-1번지","category":"소매업 - 슈퍼"}]},{"lat":"37.107423339","long":"127.07247555","items":[{"name":"가자먹자","tel":"031-663-5545","addr":"경기도 평택시 진위면 견산리 441-23번지 서울아트빌라 101호","category":"일반휴게음식 - 일반한식"},{"name":"돈마을","tel":"031-663-0447","addr":"경기도 평택시 진위면 견산리 441-23번지 서울아트빌라 101호","category":"일반휴게음식 - 일반한식"}]},{"lat":"37.107621146","long":"127.07319574","items":[{"name":"간지난다","tel":"031-611-7001","addr":"경기도 평택시 진위면 견산리 402-3번지 101호","category":"보건위생 - 미용원"},{"name":"해바라기실내포차","tel":"031-821-1410","addr":"경기도 평택시 진위면 견산리 402-3번지","category":"일반휴게음식 - 일반한식"}]},{"lat":"37.107983622","long":"127.069641","items":[{"name":"감초한의원","tel":"031-668-2855","addr":"경기도 평택시 진위면 견산리 507-6번지","category":"서비스업 - 병원"}]},{"lat":"37.107423451","long":"127.07228429","items":[{"name":"감초한의원","tel":"031-668-7589","addr":"경기도 평택시 진위면 견산리 441-2번지 서울아트빌라","category":"의원 - 한의원"}]},{"lat":"37.10581382","long":"127.08150777","items":[{"name":"강씨가문의족발","tel":"031-611-9293","addr":"경기도 평택시 진위면 견산리 13-10번지 1층","category":"일반휴게음식 - 일반한식"}]},{"lat":"37.10770365","long":"127.07077702","items":[{"name":"견산돼지마을","tel":"031-668-0485","addr":"경기도 평택시 진위면 견산리 387-4번지","category":"일반휴게음식 - 주점"},{"name":"마마트 평택 진위점","tel":"031-8029-7495","addr":"경기도 평택시 진위면 견산리 387-4번지 1층","category":"유통업 영리 - 슈퍼마켓"},{"name":"제이원텍","tel":"031-668-7895","addr":"경기도 평택시 진위면 견산리 387-4번지","category":"기타 - 기계공구"}]},{"lat":"37.107007432","long":"127.07486019","items":[{"name":"경진에어컨","tel":"070-8966-6992","addr":"경기도 평택시 진위면 견산리 345-1번지","category":"용역 서비스 - 기타용역서비스"}]},{"lat":"37.107206145","long":"127.07406162","items":[{"name":"광진철물","tel":"031-662-5367","addr":"경기도 평택시 진위면 견산리 425-3번지","category":"건축자재 - 목재·석재·철물"},{"name":"진위천생칡즙전문점","tel":"","addr":"경기도 평택시 진위면 견산리 425-3번지","category":"건강식품 - 기타건강식품"}]},{"lat":"37.106040307","long":"127.07964051","items":[{"name":"그곳에가면","tel":"031-667-5920","addr":"경기도 평택시 진위면 견산리 27-2번지","category":"일반휴게음식 - 일반한식"}]},{"lat":"37.103760576","long":"127.06428247","items":[{"name":"금영오토오아시스","tel":"031-667-8111","addr":"경기도 평택시 진위면 견산리 558-1번지","category":"자동차정비 유지 - 자동차정비"}]},{"lat":"37.107621279","long":"127.07297074","items":[{"name":"나누리식당","tel":"031-665-0247","addr":"경기도 평택시 진위면 견산리 402-1번지","category":"일반휴게음식 - 일반한식"},{"name":"똘똘이문구","tel":"031-6644-4012","addr":"경기도 평택시 진위면 견산리 402-1","category":"서적문구 - 문구용품"},{"name":"아임스윗","tel":"031-664-8004","addr":"경기도 평택시 진위면 견산리 402-1번지","category":"음료식품 - 기타음료식품"},{"name":"용진정육점","tel":"031-666-5292","addr":"경기도 평택시 진위면 견산리 402-1번지","category":"소매업 - 정육"},{"name":"용진정육점","tel":"031-665-7771","addr":"경기도 평택시 진위면 견산리 402-1번지","category":"음료식품 - 정육점"},{"name":"진위중앙학원","tel":"031-000-0000","addr":"경기도 평택시 진위면 견산리 402-1번지 2층","category":"학원 - 보습학원"}]},{"lat":"37.108815589","long":"127.06408404","items":[{"name":"논가마","tel":"031-611-9942","addr":"경기도 평택시 진위면 견산리 480-11번지","category":"음식점 - 한식"},{"name":"논가마","tel":"031-666-7779","addr":"경기도 평택시 진위면 견산리 480-11번지","category":"일반휴게음식 - 일반한식"}]},{"lat":"37.108643779","long":"127.06525394","items":[{"name":"농민마트","tel":"031-611-9940","addr":"경기도 평택시 진위면 견산리 517-4번지","category":"소매업 - 슈퍼"},{"name":"농민마트 정육","tel":"031-662-1822","addr":"경기도 평택시 진위면 견산리 517-4번지","category":"소매업 - 정육"}]},{"lat":"37.107142957","long":"127.07425281","items":[{"name":"다일종합타이어","tel":"031-663-6630","addr":"경기도 평택시 진위면 견산리 425-2번지","category":"자동차정비 유지 - 자동차시트·타이어"}]},{"lat":"37.108617124","long":"127.06453389","items":[{"name":"당구박사","tel":"031-611-7077","addr":"경기도 평택시 진위면 견산리 479-1번지","category":"레저업소 - 당 구 장"},{"name":"정네집부대찌개","tel":"031-662-8342","addr":"경기도 평택시 진위면 견산리 479-1번지 102호","category":"일반휴게음식 - 일반한식"},{"name":"태양한의원","tel":"031-665-1570","addr":"경기도 평택시 진위면 견산리 479-1번지","category":"의원 - 한의원"},{"name":"태양한의원","tel":"031-611-7933","addr":"경기도 평택시 진위면 견산리 479-1번지","category":"서비스업 - 병원"},{"name":"하북치과의원","tel":"031-665-1570","addr":"경기도 평택시 진위면 견산리 479-1번지 대광빌딩 3층","category":"서비스업 - 병원"},{"name":"하북치과의원","tel":"031-668-2855","addr":"경기도 평택시 진위면 견산리 479-1번지","category":"의원 - 치과의원"}]},{"lat":"37.108344938","long":"127.06803252","items":[{"name":"대양장수촌","tel":"031-666-5292","addr":"경기도 평택시 진위면 견산리 510-2번지 1,2층","category":"일반휴게음식 - 일반한식"},{"name":"대양장수촌","tel":"031-665-5449","addr":"경기도 평택시 진위면 견산리 510-2번지 1-2층","category":"음식점 - 한식"},{"name":"에그로커피","tel":"031-665-2959","addr":"경기도 평택시 진위면 견산리 510-2번지 1층","category":"일반휴게음식 - 서양음식"},{"name":"엠제이피싱(가까운낚시)","tel":"031-666-2733","addr":"경기도 평택시 진위면 견산리 510-2번지 외3필지,2층","category":"레져용품 - 스포츠·레져용품"},{"name":"진위행복뷔페","tel":"031-664-2023","addr":"경기도 평택시 진위면 견산리 510-2번지","category":"일반휴게음식 - 일반한식"}]},{"lat":"37.102282907","long":"127.06416878","items":[{"name":"대한가설산업","tel":"031-611-6004","addr":"경기도 평택시 진위면 견산리 573번지","category":"건축자재 - 기타건축자재"}]},{"lat":"37.107316576","long":"127.07011292","items":[{"name":"대한불교조계종만기사부설연꽃어린이집[아","tel":"031-663-5716","addr":"경기도 평택시 진위면 견산리 388-1번지","category":"학원 - 유아원"}]},{"lat":"37.109031626","long":"127.06450048","items":[{"name":"동부자동차공업사","tel":"031-668-5531","addr":"경기도 평택시 진위면 견산리 518-1번지","category":"자동차정비 유지 - 자동차정비"}]},{"lat":"37.107866813","long":"127.06905588","items":[{"name":"라이빅","tel":"031-662-5954","addr":"경기도 평택시 진위면 견산리 506-2번지","category":"농업 - 비료,사료,종자"},{"name":"진위유리","tel":"031-668-7631","addr":"경기도 평택시 진위면 견산리 506-2번지 상가 1층 10/1호","category":"건축자재 - 유리"}]},{"lat":"37.104175235","long":"127.06394531","items":[{"name":"럭셔리전자담배","tel":"031-611-6160","addr":"경기도 평택시 진위면 견산리 554-6번지 1층","category":"기타 - 기타 전문점"},{"name":"인성농자재","tel":"031-668-1231","addr":"경기도 평택시 진위면 견산리 554-6번지 남경빌딩 105호","category":"농업 - 비료,사료,종자"}]},{"lat":"37.105452791","long":"127.08241863","items":[{"name":"로또명당","tel":"031-111-1111","addr":"경기도 평택시 진위면 견산리 75-9번지","category":"유통업 영리 - 슈퍼마켓"},{"name":"솔룸바이오텍","tel":"031-667-3535","addr":"경기도 평택시 진위면 견산리 75-9번지","category":"음료식품 - 농·축·수산품"}]},{"lat":"37.107448418","long":"127.07572687","items":[{"name":"사랑스런어린이집[아이행복]","tel":"031-665-7269","addr":"경기도 평택시 진위면 견산리 349-2번지","category":"학원 - 유아원"}]},{"lat":"37.104587984","long":"127.08211399","items":[{"name":"산바위해물칼국수","tel":"031-611-4568","addr":"경기도 평택시 진위면 견산리 39-15번지 1층","category":"일반휴게음식 - 일반한식"},{"name":"해피홈","tel":"031-666-9296","addr":"경기도 평택시 진위면 견산리 39-15번지","category":"일반휴게음식 - 서양음식"}]},{"lat":"37.103616507","long":"127.06409111","items":[{"name":"새한에너지","tel":"031-667-5185","addr":"경기도 평택시 진위면 견산리 558-7번지 금영주유소 2층","category":"자동차정비 유지 - 자동차부품"}]},{"lat":"37.105535286","long":"127.08030374","items":[{"name":"샘물유통","tel":"031-304-6644","addr":"경기도 평택시 진위면 견산리 33-1","category":"유통업 영리 - 기타유통업"}]},{"lat":"37.108534344","long":"127.06769517","items":[{"name":"서울상회","tel":"031-664-3334","addr":"경기도 평택시 진위면 견산리 511-2번지","category":"소매업 - 과일"},{"name":"유림델코","tel":"031-668-8985","addr":"경기도 평택시 진위면 견산리 511-2번지","category":"자동차정비 유지 - 자동차부품"},{"name":"유림델코","tel":"031-668-8985","addr":"경기도 평택시 진위면 견산리 511-2번지","category":"자동차정비 유지 - 자동차부품"},{"name":"인성카센타","tel":"031-611-1907","addr":"경기도 평택시 진위면 견산리 511-2번지","category":"자동차정비 유지 - 자동차정비"}]},{"lat":"37.106564648","long":"127.07691853","items":[{"name":"성안카쿨러","tel":"031-64-9634","addr":"경기도 평택시 진위면 견산리 332-2번지","category":"자동차정비 유지 - 카인테리어"}]},{"lat":"37.104398537","long":"127.08245128","items":[{"name":"성운자동차부분정비공업사","tel":"031-655-1072","addr":"경기도 평택시 진위면 견산리 67-3","category":"자동차정비 유지 - 자동차정비"},{"name":"성운자동차정비","tel":"031-611-5280","addr":"경기도 평택시 진위면 견산리 67-3번지","category":"서비스업 - 자동차정비"},{"name":"행복공인중개사사무소","tel":"031-667-7577","addr":"경기도 평택시 진위면 견산리 67-3번지","category":"서비스업 - 부동산"}]},{"lat":"37.107314621","long":"127.07347671","items":[{"name":"수신닭발","tel":"031-611-5033","addr":"경기도 평택시 진위면 견산리 426-2번지","category":"음식점 - 한식"},{"name":"수신닭발진위점","tel":"031-611-2955","addr":"경기도 평택시 진위면 견산리 426-2번지","category":"일반휴게음식 - 일반한식"},{"name":"지우","tel":"031-662-9772","addr":"경기도 평택시 진위면 견산리 426-2번지 101호","category":"전기제품 - 기타전기제품"},{"name":"피자원 진위점","tel":"031-666-7174","addr":"경기도 평택시 진위면 견산리 426-2번지","category":"일반휴게음식 - 서양음식"}]},{"lat":"37.106066264","long":"127.08128303","items":[{"name":"수촌정육식당","tel":"031-664-7779","addr":"경기도 평택시 진위면 견산리 13-1번지 104,105호","category":"일반휴게음식 - 일반한식"},{"name":"수촌정육점","tel":"031-664-4992","addr":"경기도 평택시 진위면 견산리 13-1번지","category":"음료식품 - 정육점"}]},{"lat":"37.107734322","long":"127.07958597","items":[{"name":"스모프양념통닭","tel":"","addr":"경기도 평택시 진위면 견산리 27-15번지 한승아파트","category":"음식점 - 치킨"}]},{"lat":"37.107566654","long":"127.0739157","items":[{"name":"신통치킨","tel":"031-667-9291","addr":"경기도 평택시 진위면 견산리 348-1번지","category":"음식점 - 치킨"},{"name":"신통치킨견산점","tel":"031-611-5033","addr":"경기도 평택시 진위면 견산리 348-1번지","category":"일반휴게음식 - 스넥"},{"name":"짜장면의가","tel":"031-611-6268","addr":"경기도 평택시 진위면 견산리 348-1번지 1층","category":"일반휴게음식 - 중국식"}]},{"lat":"37.106032255","long":"127.07814425","items":[{"name":"싱싱해물대가앤수라면가","tel":"031-000-0000","addr":"경기도 평택시 진위면 견산리 325-1번지","category":"일반휴게음식 - 일반한식"}]},{"lat":"37.103670996","long":"127.06325868","items":[{"name":"싸운드월드","tel":"031-668-2226","addr":"경기도 평택시 진위면 견산리 548-4번지 1층","category":"자동차정비 유지 - 자동차부품"},{"name":"오토존","tel":"031-667-7504","addr":"경기도 평택시 진위면 견산리 548-4번지","category":"자동차정비 유지 - 자동차부품"},{"name":"프리모","tel":"031-668-0992","addr":"경기도 평택시 진위면 견산리 548-4번지","category":"일반휴게음식 - 일반한식"}]},{"lat":"37.107702686","long":"127.07244205","items":[{"name":"씨유진위견산리점","tel":"031-375-5268","addr":"경기도 평택시 진위면 견산리 400번지","category":"유통업 영리 - 편 의 점"}]},{"lat":"37.107340154","long":"127.07595177","items":[{"name":"아이다움유치원[아이행복]","tel":"031-611-7269","addr":"경기도 평택시 진위면 견산리 349-1번지 아이다움유치원","category":"학원 - 유치원"}]},{"lat":"37.106675154","long":"127.07300361","items":[{"name":"아이림어린이집[아이행복]","tel":"031-611-0850","addr":"경기도 평택시 진위면 견산리 438-3번지","category":"학원 - 유아원"}]},{"lat":"37.104263175","long":"127.08275488","items":[{"name":"안동전골 칼국수 진위점","tel":"031-667-3280","addr":"경기도 평택시 진위면 견산리 66-18번지","category":"일반휴게음식 - 일반한식"}]},{"lat":"37.104759424","long":"127.08175417","items":[{"name":"예준어린이집[아이행복]","tel":"031-239-0987","addr":"경기도 평택시 진위면 견산리 40-10번지","category":"학원 - 유아원"}]},{"lat":"37.108480684","long":"127.0669526","items":[{"name":"오케이카써모","tel":"031-611-6310","addr":"경기도 평택시 진위면 견산리 489-1번지","category":"수리서비스 - 기타수리서비스"}]},{"lat":"37.105344423","long":"127.08277852","items":[{"name":"오피스디포 송탄점","tel":"031-647-3459","addr":"경기도 평택시 진위면 견산리 75-1번지 1-5호","category":"사무통신 - 기타 사무용품"}]},{"lat":"37.109004436","long":"127.06480422","items":[{"name":"이끌림헤어","tel":"031-666-8339","addr":"경기도 평택시 진위면 견산리 517-8번지 1층 외1필지","category":"보건위생 - 미용원"},{"name":"코미니 진위점/주식회사 코미니 진위점","tel":"031-668-8033","addr":"경기도 평택시 진위면 견산리 517-8번지 1층","category":"일반휴게음식 - 일반한식"}]},{"lat":"37.107729585","long":"127.07266708","items":[{"name":"이오스꿀맛닭강정치킨톡톡","tel":"031-663-7087","addr":"경기도 평택시 진위면 견산리 400-1번지","category":"일반휴게음식 - 일반한식"}]},{"lat":"37.108760684","long":"127.0656928","items":[{"name":"일조컨테이너","tel":"031-666-4546","addr":"경기도 평택시 진위면 견산리 517-6번지 외3필지","category":"용역 서비스 - 보관및 창고업"}]},{"lat":"37.107956698","long":"127.06944972","items":[{"name":"자동차닥터25시","tel":"031-668-6346","addr":"경기도 평택시 진위면 견산리 506-1번지","category":"자동차정비 유지 - 자동차정비"}]},{"lat":"37.104172956","long":"127.08292353","items":[{"name":"전라도행복한밥상","tel":"031-662-9687","addr":"경기도 평택시 진위면 견산리 66-2번지 2층","category":"일반휴게음식 - 일반한식"}]},{"lat":"37.106819805","long":"127.07218249","items":[{"name":"제이에스공조","tel":"","addr":"경기도 평택시 진위면 견산리 441-38번지 서울아트빌라 7동 101호","category":"용역 서비스 - 기타용역서비스"}]},{"lat":"37.106789736","long":"127.0772","items":[{"name":"진다인","tel":"031-611-7227","addr":"경기도 평택시 진위면 견산리 333-5번지","category":"일반휴게음식 - 일반한식"}]},{"lat":"37.102481196","long":"127.06405645","items":[{"name":"진영대형차정비","tel":"031-667-3430","addr":"경기도 평택시 진위면 견산리 573-3번지","category":"자동차정비 유지 - 자동차정비"}]},{"lat":"37.107838374","long":"127.07153091","items":[{"name":"진위공업사","tel":"031-611-2118","addr":"경기도 평택시 진위면 견산리 381-3번지","category":"건축자재 - 보일러·펌프·샷시"},{"name":"퍼플하우스 주식회사","tel":"031-111-1111","addr":"경기도 평택시 진위면 견산리 381-3번지","category":"용역 서비스 - 종합용역"}]},{"lat":"37.106979357","long":"127.07655893","items":[{"name":"청기와병천순대사골곰탕","tel":"031-662-7767","addr":"경기도 평택시 진위면 견산리 334-1번지","category":"일반휴게음식 - 일반한식"}]},{"lat":"37.106565283","long":"127.07589477","items":[{"name":"청마루","tel":"031-378-0447","addr":"경기도 평택시 진위면 견산리 336-3번지","category":"일반휴게음식 - 일반한식"}]},{"lat":"37.107810501","long":"127.07297091","items":[{"name":"청솔당구아카데미","tel":"031-668-8967","addr":"경기도 평택시 진위면 견산리 406번지","category":"레저업소 - 당 구 장"}]},{"lat":"37.104004317","long":"127.06339394","items":[{"name":"콜핑오산접","tel":"031-611-6999","addr":"경기도 평택시 진위면 견산리 547-4번지 1층","category":"레져용품 - 스포츠·레져용품"}]},{"lat":"37.105733684","long":"127.06466656","items":[{"name":"파미유퍼니처","tel":"031-666-4626","addr":"경기도 평택시 진위면 견산리 527-2번지 1층","category":"가구 - 일반가구"}]},{"lat":"37.108814478","long":"127.06619911","items":[{"name":"하북철물건재","tel":"031-668-5514","addr":"경기도 평택시 진위면 견산리 515-2번지","category":"건축자재 - 기타건축자재"}]},{"lat":"37.107147787","long":"127.08089039","items":[{"name":"한승반점","tel":"031-663-7055","addr":"경기도 평택시 진위면 견산리 20-2번지 외1필지","category":"일반휴게음식 - 중국식"},{"name":"한승반점","tel":"031-376-7275","addr":"경기도 평택시 진위면 견산리 20-2번지","category":"음식점 - 중식"},{"name":"한승카마스타","tel":"031-611-2203","addr":"경기도 평택시 진위면 견산리 20-2","category":"자동차정비 유지 - 자동차부품"}]},{"lat":"37.107087245","long":"127.07694154","items":[{"name":"황토화원","tel":"031-662-7767","addr":"경기도 평택시 진위면 견산리 352","category":"문화.취미 - 화원"}]}]