[{"lat":"38.049476871","long":"127.26979224","items":[{"name":"GS25포천영북점","tel":"","addr":"경기도 포천시 영북면 야미리 313-1번지 1층","category":"유통업 영리 - 편 의 점"},{"name":"포천설렁탕갈비탕","tel":"031-533-9754","addr":"경기도 포천시 영북면 야미리 313-1번지","category":"일반휴게음식 - 일반한식"}]},{"lat":"38.056563854","long":"127.27117385","items":[{"name":"S.K조립식판넬","tel":"031-532-2214","addr":"경기도 포천시 영북면 야미리 263-9","category":"건축자재 - 기타건축자재"}]},{"lat":"38.048036054","long":"127.26951359","items":[{"name":"cu야미리점","tel":"533-2395","addr":"경기도 포천시 영북면 야미리 360-1번지","category":"소매업 - 편의점"},{"name":"맛짜장","tel":"031-534-6571","addr":"경기도 포천시 영북면 야미리 360-1","category":"일반휴게음식 - 중국식"},{"name":"목포가든","tel":"031-536-1121","addr":"경기도 포천시 영북면 야미리 360-1번지","category":"일반휴게음식 - 일반한식"},{"name":"시골식당","tel":"031-531-7768","addr":"경기도 포천시 영북면 야미리 360-1번지","category":"일반휴게음식 - 일반한식"},{"name":"시골식당","tel":"531-7768","addr":"경기도 포천시 영북면 야미리 360-1번지","category":"음식 - 한식"},{"name":"씨유포천야미리점","tel":"031-533-2395","addr":"경기도 포천시 영북면 야미리 360-1번지","category":"유통업 영리 - 편 의 점"}]},{"lat":"38.058672344","long":"127.27101063","items":[{"name":"기사뷔페함바","tel":"031-533-2071","addr":"경기도 포천시 영북면 야미리 256번지","category":"일반휴게음식 - 일반한식"}]},{"lat":"38.051314342","long":"127.26995841","items":[{"name":"남일카센타","tel":"031-532-6726","addr":"경기도 포천시 영북면 야미리 323-4번지","category":"자동차정비 유지 - 자동차정비"}]},{"lat":"38.051315609","long":"127.26940016","items":[{"name":"대원주유소","tel":"031-532-1971","addr":"경기도 포천시 영북면 야미리 318-2번지","category":"연료판매점 - 현대정유(오일뱅크)"}]},{"lat":"38.059752978","long":"127.27120828","items":[{"name":"대한민국자동차공업사","tel":"031-534-8407","addr":"경기도 포천시 영북면 야미리 260번지","category":"자동차정비 유지 - 자동차정비"},{"name":"중고나라","tel":"031-534-7718","addr":"경기도 포천시 영북면 야미리 260번지","category":"전기제품 - 가전제품"}]},{"lat":"38.055951347","long":"127.27112603","items":[{"name":"더마니축산","tel":"031-532-8982","addr":"경기도 포천시 영북면 야미리 270-14번지","category":"음료식품 - 정육점"}]},{"lat":"38.057455612","long":"127.27123407","items":[{"name":"동부식당","tel":"-","addr":"경기도 포천시 영북면 야미리 263-2번지","category":"음식 - 한식"},{"name":"동부식당, 그램치킨","tel":"031-535-5977","addr":"경기도 포천시 영북면 야미리 263-2번지","category":"일반휴게음식 - 일반한식"}]},{"lat":"38.065812961","long":"127.27256366","items":[{"name":"뜨라레해물모듬짬뽕","tel":"531-8736","addr":"경기도 포천시 영북면 야미리 168번지","category":"음식 - 중식"},{"name":"뜨라레해물모듬짬뽕전문점","tel":"031-531-8736","addr":"경기도 포천시 영북면 야미리 168번지 1층","category":"일반휴게음식 - 중국식"}]},{"lat":"38.058840205","long":"127.27245831","items":[{"name":"메카닉제이","tel":"031-532-0406","addr":"경기도 포천시 영북면 야미리 262-2번지","category":"전기제품 - 가전제품"},{"name":"중앙에너지","tel":"031-985-4801","addr":"경기도 포천시 영북면 야미리 262-2번지 1층","category":"연료판매점 - LPG 취급점"}]},{"lat":"38.04494883","long":"127.26823787","items":[{"name":"명성판넬","tel":"031-536-3620","addr":"경기도 포천시 영북면 야미리 471-14번지","category":"건축자재 - 기타건축자재"}]},{"lat":"38.056230574","long":"127.27114984","items":[{"name":"명태야","tel":"","addr":"경기도 포천시 영북면 야미리 263-10번지 1층","category":"일반휴게음식 - 일반한식"}]},{"lat":"38.047091941","long":"127.2687013","items":[{"name":"베리베리 (very Berry) 블루베리","tel":"070-7531-7777","addr":"경기도 포천시 영북면 야미리 350-15번지","category":"음료식품 - 농·축·수산품"}]},{"lat":"38.046755009","long":"127.25812798","items":[{"name":"불무캠핑장","tel":"031-536-7244","addr":"경기도 포천시 영북면 야미리 740번지","category":"숙박업 - 여관/기타숙박업"}]},{"lat":"38.053703959","long":"127.26089793","items":[{"name":"산마루농원","tel":"","addr":"경기도 포천시 영북면 야미리 672번지","category":"음료식품 - 농·축·수산품"}]},{"lat":"38.062616659","long":"127.2717315","items":[{"name":"산호모텔","tel":"031-533-7466","addr":"경기도 포천시 영북면 야미리 186-2번지","category":"숙박업 - 여관/기타숙박업"}]},{"lat":"38.04265115","long":"127.26840046","items":[{"name":"삼양케이지","tel":"031-536-7007","addr":"경기도 포천시 영북면 야미리 466번지","category":"기타 - 기타 전문점"}]},{"lat":"38.040118558","long":"127.26484861","items":[{"name":"쉼터 편의점","tel":"","addr":"경기도 포천시 영북면 야미리 440-22번지","category":"음료식품 - 기타음료식품"},{"name":"통일가든","tel":"031-533-2367","addr":"경기도 포천시 영북면 야미리 440-22번지","category":"일반휴게음식 - 일반한식"}]},{"lat":"38.050536664","long":"127.2712316","items":[{"name":"아미랜드","tel":"031-531-0828","addr":"경기도 포천시 영북면 야미리 328번지","category":"의류 - 기타의류"}]},{"lat":"38.059032261","long":"127.27120565","items":[{"name":"아현공조","tel":"031-531-6629","addr":"경기도 포천시 영북면 야미리 255-1 ,2,3","category":"전기제품 - 냉열기기"}]},{"lat":"38.051150224","long":"127.2627916","items":[{"name":"에스제이스포츠","tel":"031-111-1111","addr":"경기도 포천시 영북면 야미리 556-2번지","category":"레져용품 - 스포츠·레져용품"}]},{"lat":"38.05564512","long":"127.27109074","items":[{"name":"영동자동차공업사","tel":"031-533-8495","addr":"경기도 포천시 영북면 야미리 270-6번지","category":"자동차정비 유지 - 자동차정비"}]},{"lat":"38.042734619","long":"127.26734133","items":[{"name":"장군제2주유소","tel":"536-0065","addr":"경기도 포천시 영북면 야미리 467-2번지","category":"도소매 - 주유소"}]},{"lat":"38.053202528","long":"127.26761824","items":[{"name":"정은칡즙","tel":"031-531-6484","addr":"경기도 포천시 영북면 야미리 625-3번지 B동","category":"건강식품 - 기타건강식품"}]},{"lat":"38.051589022","long":"127.26801119","items":[{"name":"좋은날 잔치방","tel":"031-534-9678","addr":"경기도 포천시 영북면 야미리 602-7번지","category":"일반휴게음식 - 일반한식"}]},{"lat":"38.045175005","long":"127.26781718","items":[{"name":"주식회사로가닉","tel":"02-792-7812","addr":"경기도 포천시 영북면 야미리 471-3번지","category":"음료식품 - 농·축·수산품"}]},{"lat":"38.043396005","long":"127.2656805","items":[{"name":"태산낚시터","tel":"031-534-8307","addr":"경기도 포천시 영북면 야미리 480번지","category":"레저업소 - 기타레져업소"},{"name":"태산식당","tel":"031-535-0825","addr":"경기도 포천시 영북면 야미리 480번지","category":"일반휴게음식 - 일반한식"}]},{"lat":"38.039956827","long":"127.26465438","items":[{"name":"통일가든","tel":"533-2367","addr":"경기도 포천시 영북면 야미리 440-33번지","category":"음식 - 한식"}]},{"lat":"38.058177344","long":"127.27079234","items":[{"name":"포천L.P.G충전소","tel":"031-536-7471","addr":"경기도 포천시 영북면 야미리 254-1번지","category":"연료판매점 - SK가스충전소"}]},{"lat":"38.042345538","long":"127.26809178","items":[{"name":"한창팩토리","tel":"031-536-7050","addr":"경기도 포천시 영북면 야미리 466-3번지","category":"농업 - 농기계"}]},{"lat":"38.039732033","long":"127.26445993","items":[{"name":"황토가든","tel":"031-533-7340","addr":"경기도 포천시 영북면 야미리 440-30번지","category":"일반휴게음식 - 일반한식"}]}]