[{"lat":"37.630159195","long":"126.82534188","items":[{"name":"YBM잉글루고양별빛학원","tel":"031-970-0706","addr":"경기도 고양시 덕양구 화신로","category":"학원 - 보습학원"},{"name":"별빛해법영어교습소","tel":"031-972-5599","addr":"경기도 고양시 덕양구 화신로","category":"회원제형태 - 학원"},{"name":"은혜미용실","tel":"031-972-0557","addr":"경기도 고양시 덕양구 화신로","category":"보건위생 - 미용원"}]},{"lat":"37.630527623","long":"126.83076737","items":[{"name":"개념원리국제수학화정제1학원","tel":"031-970-2007","addr":"경기도 고양시 덕양구 화신로","category":"회원제형태 - 학원"},{"name":"폰스영어학원","tel":"031-974-0550","addr":"경기도 고양시 덕양구 화신로","category":"학원 - 보습학원"},{"name":"플러스오투독서실","tel":"031-978-9209","addr":"경기도 고양시 덕양구 화신로","category":"학원 - 독서실"},{"name":"화정포티언어학원","tel":"031-970-4191","addr":"경기도 고양시 덕양구 화신로","category":"학원 - 외국어학원"}]},{"lat":"37.630331745","long":"126.83237647","items":[{"name":"김치찌개찌개","tel":"031-938-0636","addr":"경기도 고양시 덕양구 화신로","category":"일반휴게음식 - 일반한식"},{"name":"사바나","tel":"031-970-1409","addr":"경기도 고양시 덕양구 화신로","category":"일반휴게음식 - 일반한식"},{"name":"성공축산","tel":"031-938-9100","addr":"경기도 고양시 덕양구 화신로","category":"음료식품 - 정육점"}]},{"lat":"37.63047111","long":"126.83532157","items":[{"name":"라온","tel":"031-978-1233","addr":"경기도 고양시 덕양구 화신로","category":"직물 - 침구·수예점"},{"name":"현천수학학원","tel":"031-970-3951","addr":"경기도 고양시 덕양구 화신로","category":"학원 - 보습학원"}]},{"lat":"37.627651012","long":"126.84175093","items":[{"name":"리틀키즈월드어린이집[아이행복]","tel":"031-979-7927","addr":"경기도 고양시 덕양구 화신로","category":"학원 - 유아원"}]},{"lat":"37.618972832","long":"126.8404331","items":[{"name":"미라클헤어","tel":"070-8161-5414","addr":"경기도 고양시 덕양구 화신로","category":"보건위생 - 미용원"}]},{"lat":"37.622800048","long":"126.83904283","items":[{"name":"방스골프아카데미","tel":"031-974-0720","addr":"경기도 고양시 덕양구 화신로","category":"회원제형태 - 레져업소"}]},{"lat":"37.63107685","long":"126.83051687","items":[{"name":"숨영어교습소","tel":"070-7787-7763","addr":"경기도 고양시 덕양구 화신로","category":"회원제형태 - 학원"}]},{"lat":"37.630746747","long":"126.83276069","items":[{"name":"육대장","tel":"031-978-1330","addr":"경기도 고양시 덕양구 화신로","category":"일반휴게음식 - 일반한식"}]},{"lat":"37.627273145","long":"126.84214823","items":[{"name":"자연인테리어","tel":"031-973-5904","addr":"경기도 고양시 덕양구 화신로","category":"건축자재 - 인테리어전문"}]},{"lat":"37.632521127","long":"126.82626522","items":[{"name":"지식의창학원","tel":"031-973-3580","addr":"경기도 고양시 덕양구 화신로","category":"회원제형태 - 학원"}]},{"lat":"37.616023167","long":"126.83792507","items":[{"name":"최은정음악학원","tel":"031-971-8879","addr":"경기도 고양시 덕양구 화신로","category":"학원 - 예·체능계학원"}]},{"lat":"37.621639254","long":"126.84009881","items":[{"name":"햇빛반찬","tel":"031-979-5289","addr":"경기도 고양시 덕양구 화신로","category":"음료식품 - 기타음료식품"}]}]