[{"lat":"37.433606937","long":"126.99822685","items":[{"name":"(주)글로링크에듀케이션","tel":"02-502-8898","addr":"경기도 과천시 부림동 47-1번지 3층","category":"서적문구 - 출판 및 인쇄물"},{"name":"(주)글로링크에듀케이션","tel":"061-726-0554","addr":"경기도 과천시 부림동 47-1번지 농협빌딩 3층","category":"서적문구 - 출판 및 인쇄물"},{"name":"과천농업협동조합","tel":"02-500-3329","addr":"경기도 과천시 부림동 47-1번지","category":"유통업 영리 - 상품권"},{"name":"과천농업협동조합","tel":"02-500-3329","addr":"경기도 과천시 부림동 47-1번지","category":"유통업 비영리 - 농,축협 직영매장"},{"name":"과천농업협동조합","tel":"02-502-4496","addr":"경기도 과천시 부림동 47-1번지","category":"유통업 비영리 - 농,축협 직영매장"},{"name":"과천한맥보습학원","tel":"02-507-1728","addr":"경기도 과천시 부림동 47-1번지 3층","category":"학원 - 기타 교육기관"},{"name":"한치과의원","tel":"02-504-2835","addr":"경기도 과천시 부림동 47-1번지 과천농협청사 3층","category":"의원 - 의원"}]},{"lat":"37.439247055","long":"126.99516429","items":[{"name":"(주)해달별","tel":"02-507-2277","addr":"경기도 과천시 부림동 11-2번지","category":"사무통신 - 통신기기"},{"name":"bellis","tel":"","addr":"경기도 과천시 부림동 11-2번지","category":"직물 - 침구·수예점"}]},{"lat":"37.435463037","long":"126.99916456","items":[{"name":"22번가 미용실","tel":"02-502-7775","addr":"경기도 과천시 부림동 41 복합상가 마-122","category":"보건위생 - 미용원"},{"name":"그린세탁소","tel":"02-504-1606","addr":"경기도 과천시 부림동 41번지 복합상가 마동 109호","category":"수리서비스 - 세탁소"},{"name":"김지연헤어라인","tel":"02-503-0898","addr":"경기도 과천시 부림동 41번지 남서울상가 201호","category":"보건위생 - 미용원"},{"name":"동은디자인아트","tel":"","addr":"경기도 과천시 부림동 41번지 남서울상가 지층 22호","category":"문화.취미 - 문화취미기타"},{"name":"미미네뮤직음악교습소","tel":"02-504-2018","addr":"경기도 과천시 부림동 41번지 복합상가 마동 복합상가 라동 208호","category":"학원 - 예·체능계학원"},{"name":"상명부동산","tel":"02-502-0038","addr":"경기도 과천시 부림동 41번지 마상가 107호","category":"용역 서비스 - 부동산 중개·임대"},{"name":"스시리","tel":"02-503-9912","addr":"경기도 과천시 부림동 41번지","category":"일반휴게음식 - 일식·회집"},{"name":"쎄분미용실","tel":"02-502-5908","addr":"경기도 과천시 부림동 41 남서울상가 라동 220","category":"보건위생 - 미용원"},{"name":"이내과의원","tel":"02-502-7178","addr":"경기도 과천시 부림동 46번지 시대빌딩 203호","category":"보건업 - 내과, 소아과"},{"name":"이지영어교습소","tel":"02-503-5505","addr":"경기도 과천시 부림동 41복합상가라동206호","category":"회원제형태 - 학원"},{"name":"홈마트","tel":"02-502-7864","addr":"경기도 과천시 부림동 41번지 복합상가 마동 105,106,113호","category":"유통업 영리 - 슈퍼마켓"}]},{"lat":"37.427686932","long":"126.99200206","items":[{"name":"22번가 미용실","tel":"","addr":"경기도 과천시 부림동 41번지 복합상가 마동 복합상가 마동 122호","category":"서비스 - 미용실"},{"name":"관악종합보수","tel":"02-507-0331","addr":"경기도 과천시 부림동 41, 9단지마상가 115","category":"서비스 - 수리보수"}]},{"lat":"37.429299707","long":"126.99175327","items":[{"name":"BBQ(과천부림점)","tel":"02-502-3346","addr":"경기도 과천시 부림동 20-1번지 일반상가 6호","category":"소매업 - 치킨"}]},{"lat":"37.4392470550","long":"126.9951642924","items":[{"name":"bellis","tel":"","addr":"경기도 과천시 부림동 11-2번지","category":"소매업 - 전자상거래"}]},{"lat":"37.434021393","long":"126.99807994","items":[{"name":"가족노래방","tel":"02-502-9925","addr":"경기도 과천시 부림동 46번지 시대빌딩 지하층","category":"레저업소 - 노 래 방"},{"name":"건우공인중개사사무소","tel":"02-502-4882","addr":"경기도 과천시 부림동 46번지 시대빌딩 104호","category":"용역 서비스 - 부동산 중개·임대"},{"name":"경희대체육관","tel":"02-503-3953","addr":"경기도 과천시 부림동 46번지","category":"학원 - 예·체능계학원"},{"name":"과찬낙지마당","tel":"02-507-1996","addr":"경기도 과천시 부림동 46번지 시대빌딩 지하1층","category":"일반휴게음식 - 일반한식"},{"name":"과천경희한의원","tel":"02-3679-2500","addr":"경기도 과천시 부림동 46번지 시대빌딩 301호","category":"의원 - 한의원"},{"name":"과천해물마당","tel":"02-507-1996","addr":"경기도 과천시 부림동 46번지 시대빌딩 지하 3호","category":"일반휴게음식 - 일반한식"},{"name":"나무미술교습소","tel":"","addr":"경기도 과천시 부림동 46번지 과천시대빌딩 305호","category":"학원 - 예·체능계학원"},{"name":"바니양념치킨","tel":"02-507-2244","addr":"경기도 과천시 부림동 46번지 과천시대빌딩 1층 108호","category":"일반휴게음식 - 스넥"},{"name":"비타민천국","tel":"02-502-9445","addr":"경기도 과천시 부림동 46번지 시대빌딩 103호 109호","category":"음료식품 - 농·축·수산품"},{"name":"수다","tel":"","addr":"경기도 과천시 부림동 46번지 과천시대빌딩 3층 304호","category":"일반휴게음식 - 서양음식"},{"name":"아.지트(A.ZIT)","tel":"02-507-2300","addr":"경기도 과천시 부림동 46 시대빌딩지하1층 101","category":"일반휴게음식 - 일반한식"},{"name":"오가헤어","tel":"02-503-5971","addr":"경기도 과천시 부림동 46번지 시대빌딩 B02호","category":"보건위생 - 미용원"},{"name":"이내과의원","tel":"02-502-7178","addr":"경기도 과천시 부림동 46번지 시대빌딩 203호","category":"의원 - 의원"},{"name":"주식회사 에이피부동산중개법인","tel":"02-504-3500","addr":"경기도 과천시 부림동 46번지 과천시대빌딩 105호","category":"용역 서비스 - 부동산 중개·임대"},{"name":"참조은고깃간","tel":"02-502-9966","addr":"경기도 과천시 부림동 46번지 과천시대빌딩 107호","category":"음료식품 - 정육점"},{"name":"천사약국","tel":"02-3679-1179","addr":"경기도 과천시 부림동 46번지 시대빌딩 206호","category":"약국 - 약국"},{"name":"티투","tel":"02-504-0111","addr":"경기도 과천시 부림동 46번지 시대빌딩 205호","category":"일반휴게음식 - 스넥"},{"name":"푸릇푸릇과천점","tel":"02-507-4700","addr":"경기도 과천시 부림동 46번지 과천시대빌딩 1층 106호","category":"일반휴게음식 - 스넥"},{"name":"한음음악학원","tel":"02-504-5135","addr":"경기도 과천시 부림동 46번지 시대빌딩 3층 303호","category":"학원 - 예·체능계학원"}]},{"lat":"37.4292732","long":"127.00350335","items":[{"name":"가족노래방","tel":"02-502-9925","addr":"경기도 과천시 부림동 46번지 시대빌딩 지하층","category":"서비스 - 노래방"}]},{"lat":"37.428218636","long":"126.99327866","items":[{"name":"건우공인중개사사무소","tel":"02-504-7700","addr":"경기도 과천시 부림동 46번지 시대빌딩 104호","category":"서비스 - 부동산"}]},{"lat":"37.463633229","long":"127.03427127","items":[{"name":"경희대체육관","tel":"02-503-3953","addr":"경기도 과천시 부림동 46번지","category":"서비스 - 태권도장"}]},{"lat":"37.420578027","long":"126.99225162","items":[{"name":"과천경희한의원","tel":"02-3679-2500","addr":"경기도 과천시 부림동 46번지 시대빌딩 301호","category":"보건업 - 한의원"},{"name":"링코 과천점","tel":"02-502-7771","addr":"경기도 과천시 부림동 42번지 2층","category":"도소매 - 문구사무용"},{"name":"수다","tel":"070-8833-3676","addr":"경기도 과천시 부림동 46번지 과천시대빌딩 3층 304호","category":"음식점업 - 디저트"},{"name":"중앙부동산","tel":"02-503-8924","addr":"경기도 과천시 부림동 42번지 1층","category":"부동산업 - 부동산중개업"},{"name":"천사약국","tel":"02-3679-1179","addr":"경기도 과천시 부림동 46번지 시대빌딩 206호","category":"소매업 - 의약품"}]},{"lat":"37.45530127","long":"127.02397161","items":[{"name":"과천농업협동조합(하나로마트포함)","tel":"02-500-3300","addr":"경기도 과천시 부림동 47-1번지","category":"도소매 -"}]},{"lat":"37.43391326","long":"126.99777488","items":[{"name":"과천시여성비전센터","tel":"02-3679-2079","addr":"경기도 과천시 부림동 44번지 가족여성프라자","category":"학원 - 기타 교육기관"}]},{"lat":"37.438796589","long":"126.99571802","items":[{"name":"과천조은어린이집[아이행복]","tel":"","addr":"경기도 과천시 부림동 13-11번지","category":"학원 - 유아원"}]},{"lat":"37.438102953","long":"126.99849776","items":[{"name":"과천종합상사","tel":"02-502-4442","addr":"경기도 과천시 부림동 36-1번지","category":"신변잡화 - 기타잡화"},{"name":"마리앤샐리","tel":"","addr":"경기도 과천시 부림동 36-1번지 1층","category":"주방용구 - 주방용식기"},{"name":"바로광고","tel":"","addr":"경기도 과천시 부림동 36-1번지 지층 3호","category":"서적문구 - 출판 및 인쇄물"},{"name":"젬마스토리 Gemma story","tel":"","addr":"경기도 과천시 부림동 36-1번지 81호","category":"의류 - 정장"}]},{"lat":"37.428804061","long":"126.99080431","items":[{"name":"과천한맥보습학원","tel":"02-507-1728","addr":"경기도 과천시 부림동 47-1번지 3층","category":"교육서비스업 - 보습학원"}]},{"lat":"37.460074934","long":"127.03171536","items":[{"name":"과천해물마당","tel":"02-507-1996","addr":"경기도 과천시 부림동 46번지 시대빌딩 지하 3호","category":"음식점업 - 한식"}]},{"lat":"37.433796229","long":"127.00131142","items":[{"name":"관문초등학교","tel":"031-9811-5213","addr":"경기도 과천시 부림동 48번지 관문초등학교","category":"학원 - 초중고교육기관"},{"name":"시립 부림어린이집[아이행복]","tel":"02-507-6110","addr":"경기도 과천시 부림동 48번지","category":"학원 - 유아원"}]},{"lat":"37.422577628","long":"126.98669314","items":[{"name":"김가네갈비","tel":"02-502-2555","addr":"경기도 과천시 부림동 41번지 마상가 201호","category":"음식점업 - 한식"},{"name":"레드헤어","tel":"02-502-1787","addr":"경기도 과천시 부림동 36-5번지 101호","category":"서비스 - 미용실"}]},{"lat":"37.428326791","long":"126.99371927","items":[{"name":"김지연헤어라인","tel":"02-503-0898","addr":"경기도 과천시 부림동 41번지 남서울상가 201호","category":"서비스 - 미용업"}]},{"lat":"37.427939294","long":"126.99291716","items":[{"name":"나무미술교습소","tel":"","addr":"경기도 과천시 부림동 46번지 과천시대빌딩 305호","category":"교육서비스업 - 미술"},{"name":"한음음악학원","tel":"02-504-5135","addr":"경기도 과천시 부림동 46번지 시대빌딩 3층","category":"교육서비스업 - 음악"}]},{"lat":"37.438859731","long":"126.99702877","items":[{"name":"대신종합공사","tel":"02-504-7997","addr":"경기도 과천시 부림동 20-1번지","category":"용역 서비스 - 기타용역서비스"},{"name":"맛있는집","tel":"02-503-0555","addr":"경기도 과천시 부림동 20-1번지 1층 7호","category":"일반휴게음식 - 스넥"},{"name":"비비큐","tel":"02-502-3347","addr":"경기도 과천시 부림동 20-1번지 일반상가 6호","category":"일반휴게음식 - 스넥"}]},{"lat":"37.437823613","long":"126.99777461","items":[{"name":"도도헤어","tel":"02-502-1787","addr":"경기도 과천시 부림동 36-5번지 101호","category":"보건위생 - 미용원"},{"name":"뚜레쥬르 과천부림","tel":"02-503-1097","addr":"경기도 과천시 부림동 36-5번지 103호","category":"음료식품 - 제과점"}]},{"lat":"37.434165539","long":"126.99775226","items":[{"name":"도서출판더블유엘아이코리아","tel":"02-504-0993","addr":"경기도 과천시 부림동 43번지","category":"서적문구 - 출판 및 인쇄물"},{"name":"카페원띵","tel":"02-503-4519","addr":"경기도 과천시 부림동 43번지","category":"일반휴게음식 - 서양음식"}]},{"lat":"37.460246123","long":"127.03171542","items":[{"name":"동은디자인아트","tel":"","addr":"경기도 과천시 부림동 41번지 남서울상가 지층 22호","category":"도소매 - 가죽"}]},{"lat":"37.427245524","long":"126.99295115","items":[{"name":"뚜레쥬르(과천부림점)","tel":"02-503-1097","addr":"경기도 과천시 부림동 36-5번지","category":"음식점업 - 제과점"},{"name":"한치과의원","tel":"02-504-2835","addr":"경기도 과천시 부림동 47-1번지 과천농협청사 2층","category":"보건업 - 치과"}]},{"lat":"37.437769622","long":"126.99977461","items":[{"name":"루디아","tel":"070-2699-0807","addr":"경기도 과천시 부림동 40-6번지 B101호","category":"의류 - 내의판매"}]},{"lat":"37.439129931","long":"126.9952547","items":[{"name":"리플동화구연교실","tel":"02-3679-1163","addr":"경기도 과천시 부림동 11-3번지 102호","category":"보건위생 - 기타대인서비스"}]},{"lat":"37.434273668","long":"126.99794433","items":[{"name":"링코 과천점","tel":"02-502-7771","addr":"경기도 과천시 부림동 42번지 8단지유치원상가 103호","category":"서적문구 - 문구용품"},{"name":"소문난감자탕","tel":"02-3678-9990","addr":"경기도 과천시 부림동 42번지 8단지유치원 1층 상가","category":"일반휴게음식 - 일반한식"},{"name":"씨유과천주공8단지점","tel":"070-7759-3330","addr":"경기도 과천시 부림동 42번지 8단지유치원상가","category":"유통업 영리 - 편 의 점"},{"name":"운주검도관","tel":"02-502-0599","addr":"경기도 과천시 부림동 42번지 지층","category":"학원 - 예·체능계학원"},{"name":"파리바게뜨과천부림점","tel":"02-503-0057","addr":"경기도 과천시 부림동 42번지 8단지유치원상가 103호","category":"음료식품 - 제과점"}]},{"lat":"37.438823597","long":"126.99536773","items":[{"name":"마르페","tel":"070-4079-2668","addr":"경기도 과천시 부림동 13-2번지 201호","category":"회원제형태 - 기타4"}]},{"lat":"37.435886029","long":"127.0141698","items":[{"name":"맛있는집","tel":"02-503-0555","addr":"경기도 과천시 부림동 20-1번지 부림슈퍼 등 1층 7호","category":"음식점업 - 분식"}]},{"lat":"37.43846329","long":"126.9970288","items":[{"name":"맨발어린이집[아이행복]","tel":"02-507-5862","addr":"경기도 과천시 부림동 21-1번지","category":"학원 - 유아원"},{"name":"우리튼튼어린이집[아이행복]","tel":"02-507-5862","addr":"경기도 과천시 부림동 21-1번지","category":"학원 - 유아원"}]},{"lat":"37.447797006","long":"127.0167256","items":[{"name":"몽블랑공인중개사사무소","tel":"02-502-3488","addr":"경기도 과천시 부림동 41번지 복합상가제마동 1층 101호 101호","category":"부동산업 - 부동산중개업"}]},{"lat":"37.426578609","long":"126.99108711","items":[{"name":"바니양념치킨","tel":"","addr":"경기도 과천시 부림동 46번지 과천시대빌딩 1층 8호","category":"음식점업 - 치킨"}]},{"lat":"37.420794452","long":"126.99454486","items":[{"name":"부림식당","tel":"02-504-7691","addr":"경기도 과천시 부림동 41번지 9단지 상가 124호","category":"음식점업 - 기타음식점업"}]},{"lat":"37.424218245","long":"126.99417167","items":[{"name":"비타민천국","tel":"02-502-9445","addr":"경기도 과천시 부림동 46번지 시대빌딩103호,109호","category":"소매업 - 과일"}]},{"lat":"37.438328172","long":"126.99771808","items":[{"name":"삼성유리","tel":"02-504-5552","addr":"경기도 과천시 부림동 31-7번지","category":"건축자재 - 유리"}]},{"lat":"37.426749933","long":"126.9924993","items":[{"name":"서울온누리약국","tel":"02-502-9799","addr":"경기도 과천시 부림동 46번지 시대빌딩 102호","category":"소매업 - 의약품"},{"name":"에이피부동산","tel":"02-504-3500","addr":"경기도 과천시 부림동 46번지 과천시대빌딩 105호","category":"부동산업 - 부동산중개업"}]},{"lat":"37.4354630370","long":"126.9991645570","items":[{"name":"세븐미용실","tel":"02-502-5908","addr":"경기도 과천시 부림동 41번지 남서울상가 라동 220호","category":"서비스 - 미용업"},{"name":"충남 방아간","tel":"02-503-8164","addr":"경기도 과천시 부림동 41 9 단지복합상가마동 117","category":"음료식품 - 기타음료식품"},{"name":"현대식당","tel":"02-502-2297","addr":"경기도 과천시 부림동 4(8단지 7호","category":"일반휴게음식 - 일반한식"}]},{"lat":"37.428606056","long":"126.99314303","items":[{"name":"스시리","tel":"02-503-9912","addr":"경기도 과천시 부림동 41번지 9단지 마상가 110호","category":"음식점업 - 일식"}]},{"lat":"37.437886751","long":"126.99971811","items":[{"name":"썸니즈(Sumneeds)","tel":"","addr":"경기도 과천시 부림동 40-5번지","category":"신변잡화 - 기타잡화"}]},{"lat":"37.437967788","long":"126.99813618","items":[{"name":"씨유과천부림점","tel":"031-707-1401","addr":"경기도 과천시 부림동 36-3번지","category":"유통업 영리 - 편 의 점"},{"name":"프랜스어학원","tel":"02-507-7667","addr":"경기도 과천시 부림동 36-3 선진빌딩 2.3층","category":"회원제형태 - 학원"}]},{"lat":"37.426885033","long":"126.99194569","items":[{"name":"아.지트(A.ZIT)","tel":"02-507-2300","addr":"경기도 과천시 부림동 46번지 시대빌딩지하1층 101호","category":"음식점업 - 한식"}]},{"lat":"37.437634433","long":"126.99855428","items":[{"name":"아이작","tel":"02-504-0670","addr":"경기도 과천시 부림동 37-3번지 지층방1 지하1층","category":"건축자재 - 인테리어전문"}]},{"lat":"37.43832821","long":"126.99868984","items":[{"name":"아트인헤븐(Art In Heaven)","tel":"070-4038-1961","addr":"경기도 과천시 부림동 35-1번지 202호","category":"서적문구 - 문구용품"}]},{"lat":"37.453465105","long":"127.00180828","items":[{"name":"안성마춤한우정육점","tel":"02-502-4170","addr":"경기도 과천시 부림동 41번지 8단지남서울상가 지층 12호","category":"소매업 - 식육"}]},{"lat":"37.437634461","long":"126.99939044","items":[{"name":"야호어린이집[아이행복]","tel":"02-503-0493","addr":"경기도 과천시 부림동 39-10번지","category":"학원 - 유아원"}]},{"lat":"37.4340213927","long":"126.9980799372","items":[{"name":"오가헤어","tel":"02-503-5971","addr":"경기도 과천시 부림동 46번지 시대빌딩 B02호","category":"서비스 - 미용실"}]},{"lat":"37.442328641","long":"127.0076054","items":[{"name":"운주검도관","tel":"02-502-0599","addr":"경기도 과천시 부림동 42번지 지층","category":"서비스 - 검도"}]},{"lat":"37.438553478","long":"126.9991983","items":[{"name":"원정보통신","tel":"","addr":"경기도 과천시 부림동 35-4번지 202호","category":"사무통신 - 통신기기"}]},{"lat":"37.4381029526","long":"126.9984977568","items":[{"name":"젬마스토리(Gemma Story)","tel":"070-4076-0611","addr":"경기도 과천시 부림동 36-1번지 B1호","category":"소매업 - 의류"}]},{"lat":"37.456516379","long":"127.03005256","items":[{"name":"종로공인중개사사무소","tel":"02-502-2800","addr":"경기도 과천시 부림동 41번지 복합상가 마동 복합상가 마동 108호","category":"서비스 - 공인중개사"}]},{"lat":"37.42891224","long":"126.99139179","items":[{"name":"참조은고깃간","tel":"02-502-9966","addr":"경기도 과천시 부림동 46번지","category":"도소매 - 정육"}]},{"lat":"37.437823532","long":"126.99617009","items":[{"name":"천일기계","tel":"02-502-1524","addr":"경기도 과천시 부림동 24-5번지","category":"기타 - 기계공구"}]},{"lat":"37.429876627","long":"126.99525564","items":[{"name":"청계공인중개사사무소","tel":"02-504-2131","addr":"경기도 과천시 부림동 41번지 복합상가 라동 2층 211호","category":"부동산업 - 부동산중개업"}]},{"lat":"37.42919211","long":"127.00327739","items":[{"name":"충남 방아간","tel":"02-503-8164","addr":"경기도 과천시 부림동 41번지 9단지복합상가 마동 117호","category":"도소매 - 방앗간"}]},{"lat":"37.437219882","long":"126.99655432","items":[{"name":"캡틴","tel":"02-503-0580","addr":"경기도 과천시 부림동 27-6번지","category":"보건위생 - 화장품"}]},{"lat":"37.438192999","long":"126.99722091","items":[{"name":"텐클라우드","tel":"02-837-1626","addr":"경기도 과천시 부림동 30-1번지","category":"기타 - 기타 전문점"}]},{"lat":"37.437246897","long":"126.99628313","items":[{"name":"튼튼어린이집[아이행복]","tel":"02-503-3535","addr":"경기도 과천시 부림동 26-4번지","category":"학원 - 유아원"}]},{"lat":"37.428083503","long":"126.99350464","items":[{"name":"티투","tel":"02-504-0111","addr":"경기도 과천시 부림동 46번지 시대빌딩 205호","category":"음식점업 - 카페"}]},{"lat":"37.43774258","long":"126.99933394","items":[{"name":"파란나무교육","tel":"031-445-7769","addr":"경기도 과천시 부림동 39-11번지 201호","category":"서적문구 - 기타서적문구"}]},{"lat":"37.430444378","long":"126.99739097","items":[{"name":"파리바게뜨(과천부림점)","tel":"02-503-5600","addr":"경기도 과천시 부림동 42번지 8단지유치원상가 103호","category":"음식점업 - 제과점"}]},{"lat":"37.462354134","long":"127.0330274","items":[{"name":"푸릇푸릇(과천점)","tel":"02-507-4700","addr":"경기도 과천시 부림동 46번지 과천시대빌딩 1층 106호","category":"음식점업 - 분식"}]},{"lat":"37.42424543","long":"127.00916331","items":[{"name":"프랜스어학원","tel":"02-507-7667","addr":"경기도 과천시 부림동 36-3 선진빌딩 2.3층","category":"교육서비스업 - 외국어학원"}]},{"lat":"37.457327493","long":"127.02910346","items":[{"name":"현대식당","tel":"02-502-2297","addr":"경기도 과천시 부림동 41번지 8단지 7","category":"음식점업 - 일반한식"}]},{"lat":"37.41652016","long":"126.97283397","items":[{"name":"홈마트","tel":"02-502-7864","addr":"경기도 과천시 부림동 41번지 복합상가 마동 105,106,113호","category":"소매업 - 슈퍼마켓"}]}]