[{"lat":"36.99213221","long":"126.95035571","items":[{"name":"A one (에이원)","tel":"031-1111-1111","addr":"경기도 평택시 안중읍 대반리 30-1번지","category":"음료식품 - 농·축·수산품"}]},{"lat":"36.980190646","long":"126.94526486","items":[{"name":"경기엘림어린이집","tel":"031-683-7115","addr":"경기도 평택시 안중읍 대반리 371-3","category":"학원 - 유아원"},{"name":"경기엘림어린이집","tel":"031-684-6336","addr":"경기도 평택시 안중읍 대반리 371-3번지","category":"서비스업 - 교육"},{"name":"경기엘림어린이집[아이행복]","tel":"031-683-7115","addr":"경기도 평택시 안중읍 대반리 371-3","category":"학원 - 유아원"}]},{"lat":"36.991771081","long":"126.94879456","items":[{"name":"꾸지뽕능이백숙","tel":"031-683-4998","addr":"경기도 평택시 안중읍 대반리 22번지","category":"음식점 - 한식"},{"name":"꾸찌뽕능이백숙","tel":"031-681-3627","addr":"경기도 평택시 안중읍 대반리 22번지","category":"일반휴게음식 - 일반한식"}]},{"lat":"36.980104361","long":"126.95376709","items":[{"name":"대반4리마을회","tel":"031-682-5509","addr":"경기도 평택시 안중읍 대반리 468-1번지","category":"음료식품 - 농·축·수산품"}]},{"lat":"36.97999406","long":"126.9487692","items":[{"name":"대원 공인중개사사무소","tel":"031-682-6676","addr":"경기도 평택시 안중읍 대반리 358-2번지","category":"용역 서비스 - 부동산 중개·임대"}]},{"lat":"36.991877993","long":"126.94618839","items":[{"name":"덴마크우유 평택안성대리점","tel":"031-686-8984","addr":"경기도 평택시 안중읍 대반리 251-5번지","category":"음료식품 - 기타음료식품"},{"name":"연세우유 안중대리점","tel":"031-682-5365","addr":"경기도 평택시 안중읍 대반리 251-5번지","category":"음료식품 - 기타음료식품"}]},{"lat":"36.979857757","long":"126.94632086","items":[{"name":"뜰안에농원","tel":"","addr":"경기도 평택시 안중읍 대반리 371-2번지(348-4)","category":"음료식품 - 농·축·수산품"}]},{"lat":"36.979659312","long":"126.94588298","items":[{"name":"뜰안에농원","tel":"","addr":"경기도 평택시 안중읍 대반리 371-11번지","category":"소매업 - 농산물"}]},{"lat":"36.983770447","long":"126.95076581","items":[{"name":"무도파트너","tel":"","addr":"경기도 평택시 안중읍 대반리 497-6번지","category":"레져용품 - 스포츠·레져용품"}]},{"lat":"36.985743794","long":"126.95076446","items":[{"name":"무인텔핫","tel":"031-691-4000","addr":"경기도 평택시 안중읍 대반리 222-11번지","category":"숙박업 - 여관/기타숙박업"}]},{"lat":"36.992274464","long":"126.9461881","items":[{"name":"밀알어린이집[아이행복]","tel":"031-681-2339","addr":"경기도 평택시 안중읍 대반리 251-3","category":"학원 - 유아원"}]},{"lat":"36.991877347","long":"126.94485165","items":[{"name":"버불손세차장","tel":"031-684-7040","addr":"경기도 평택시 안중읍 대반리 251-4번지 101호 상가","category":"자동차정비 유지 - 세차장"},{"name":"볼프렌즈","tel":"031-6484-9494","addr":"경기도 평택시 안중읍 대반리 251-4번지 102호","category":"레져용품 - 스포츠·레져용품"},{"name":"세연카모터스","tel":"031-686-9280","addr":"경기도 평택시 안중읍 대반리 251-4번지","category":"자동차정비 유지 - 자동차부품"},{"name":"자동차를꾸미는사람들","tel":"031-682-1185","addr":"경기도 평택시 안중읍 대반리 251-4","category":"자동차정비 유지 - 카인테리어"}]},{"lat":"36.980962301","long":"126.93888477","items":[{"name":"북경오리","tel":"031-683-5788","addr":"경기도 평택시 안중읍 대반리 405-91번지","category":"음식점 - 한식"},{"name":"북경오리참숯구이","tel":"031-681-7707","addr":"경기도 평택시 안중읍 대반리 405-91번지","category":"일반휴게음식 - 일반한식"}]},{"lat":"36.979962153","long":"126.93896423","items":[{"name":"산마루","tel":"031-682-0003","addr":"경기도 평택시 안중읍 대반리 405-56번지 외2필지","category":"일반휴게음식 - 일반한식"},{"name":"산마루","tel":"031-683-1145","addr":"경기도 평택시 안중읍 대반리 405-56번지","category":"음식점 - 한식"},{"name":"오시요노래연습장","tel":"","addr":"경기도 평택시 안중읍 대반리 405-56번지 2층","category":"레저업소 - 노 래 방"}]},{"lat":"36.980383195","long":"126.95257638","items":[{"name":"삼화페인트","tel":"031-681-3326","addr":"경기도 평택시 안중읍 대반리 472-10번지","category":"도소매업 - 페인트"}]},{"lat":"36.980132092","long":"126.95548548","items":[{"name":"셀프세차","tel":"031-000-0000","addr":"경기도 평택시 안중읍 대반리 590번지","category":"자동차정비 유지 - 세차장"}]},{"lat":"36.984437106","long":"126.95046209","items":[{"name":"소호어린이집","tel":"031-681-7770","addr":"경기도 평택시 안중읍 대반리 497-1번지","category":"서비스업 - 교육"}]},{"lat":"36.985267252","long":"126.95315724","items":[{"name":"송담다육농장","tel":"070-4126-0248","addr":"경기도 평택시 안중읍 대반리 507-5번지","category":"문화.취미 - 화원"}]},{"lat":"36.980076944","long":"126.95284614","items":[{"name":"송담분식","tel":"","addr":"경기도 평택시 안중읍 대반리 465-2번지 101호","category":"일반휴게음식 - 일반한식"},{"name":"안중 마대","tel":"031-686-9913","addr":"경기도 평택시 안중읍 대반리 465-2번지 105호","category":"유통업 영리 - 기타유통업"}]},{"lat":"36.980492819","long":"126.95623776","items":[{"name":"신한유통","tel":"031-686-5968","addr":"경기도 평택시 안중읍 대반리 537-4번지 101,102호","category":"주방용구 - 주방용구"},{"name":"씨유안중강변로점","tel":"080-080-3663","addr":"경기도 평택시 안중읍 대반리 537-4번지 105,106,107,108호","category":"유통업 영리 - 편 의 점"},{"name":"해피빈 (행복한카페)","tel":"","addr":"경기도 평택시 안중읍 대반리 537-4번지","category":"일반휴게음식 - 서양음식"}]},{"lat":"36.990939392","long":"126.94315618","items":[{"name":"안중 락 실내바다낚시터","tel":"","addr":"경기도 평택시 안중읍 대반리 261-5번지 다동","category":"레저업소 - 기타레져업소"}]},{"lat":"36.981217666","long":"126.94484852","items":[{"name":"안중알미늄","tel":"031-681-0404","addr":"경기도 평택시 안중읍 대반리 338-8","category":"건축자재 - 목재·석재·철물"}]},{"lat":"36.980769383","long":"126.94965594","items":[{"name":"영글어린이집[아이행복]","tel":"031-683-6684","addr":"경기도 평택시 안중읍 대반리 353-5번지","category":"학원 - 유아원"},{"name":"이든어린이집","tel":"031-684-7266","addr":"경기도 평택시 안중읍 대반리 353-5","category":"학원 - 유아원"},{"name":"현대어린이집[아이행복]","tel":"031-683-6684","addr":"경기도 평택시 안중읍 대반리 353-5","category":"학원 - 유아원"}]},{"lat":"36.981550408","long":"126.94352293","items":[{"name":"용두정정통한정식","tel":"031-681-0040","addr":"경기도 평택시 안중읍 대반리 369-18번지","category":"일반휴게음식 - 일반한식"}]},{"lat":"36.979913857","long":"126.95076844","items":[{"name":"우미촌","tel":"031-682-5572","addr":"경기도 평택시 안중읍 대반리 462-3번지","category":"일반휴게음식 - 일반한식"},{"name":"주식회사 에이치에스인베스트","tel":"031-1668-4647","addr":"경기도 평택시 안중읍 대반리 462-3번지","category":"용역 서비스 - 종합용역"}]},{"lat":"36.992328474","long":"126.94607573","items":[{"name":"우영어린이집","tel":"031-681-2339","addr":"경기도 평택시 안중읍 대반리 251-1번지","category":"기타 - 비영리/비대상"}]},{"lat":"36.977327764","long":"126.95073651","items":[{"name":"우일코리아","tel":"031-651-8207","addr":"경기도 평택시 안중읍 대반리 444-16번지","category":"기타 - 기계공구"}]},{"lat":"36.980601508","long":"126.95768656","items":[{"name":"인까사 갤러리","tel":"","addr":"경기도 평택시 안중읍 대반리 574-4번지","category":"가구 - 일반가구"}]},{"lat":"36.980547686","long":"126.93866049","items":[{"name":"태성식당","tel":"031-682-1667","addr":"경기도 평택시 안중읍 대반리 405-88번지 1층","category":"일반휴게음식 - 일반한식"},{"name":"태성식당","tel":"","addr":"경기도 평택시 안중읍 대반리 405-88번지","category":"음식점 - 한식"}]},{"lat":"36.97899625","long":"126.95427321","items":[{"name":"한국미래교육평가연구회 창의인재교육원","tel":"031-683-0472","addr":"경기도 평택시 안중읍 대반리 604-2번지","category":"회원제형태 - 서적"}]},{"lat":"36.979547811","long":"126.93924536","items":[{"name":"해물포차푸른밤","tel":"031-682-9040","addr":"경기도 평택시 안중읍 대반리 405-52번지","category":"일반휴게음식 - 일식·회집"}]}]