[{"lat":"37.639781582","long":"126.78747699","items":[{"name":"(주)토니여행사","tel":"031-907-9350","addr":"경기도 고양시 일산동구 경의로","category":"여행 - 관광여행"}]},{"lat":"37.650744467","long":"126.79648795","items":[{"name":"KT구내식당","tel":"031-908-8155","addr":"경기도 고양시 일산동구 경의로","category":"일반휴게음식 - 위탁급식업"}]},{"lat":"37.63927826","long":"126.78814691","items":[{"name":"PK헤어","tel":"070-7786-6382","addr":"경기도 고양시 일산동구 경의로","category":"보건위생 - 미용원"}]},{"lat":"37.674542773","long":"126.78360192","items":[{"name":"노바랍스타","tel":"031-918-5959","addr":"경기도 고양시 일산동구 경의로","category":"일반휴게음식 - 일반한식"}]},{"lat":"37.657991287","long":"126.79310208","items":[{"name":"이레화장품","tel":"031-932-7723","addr":"경기도 고양시 일산동구 경의로","category":"보건위생 - 화장품"}]},{"lat":"37.639048254","long":"126.79049284","items":[{"name":"좋은날문화","tel":"070-4065-4338","addr":"경기도 고양시 일산동구 경의로","category":"회원제형태 - 기타4"}]},{"lat":"37.665181969","long":"126.78862766","items":[{"name":"파스퇴르일산제일대리점","tel":"031-922-4946","addr":"경기도 고양시 일산동구 경의로","category":"음료식품 - 기타음료식품"}]},{"lat":"37.659526001","long":"126.78978854","items":[{"name":"프리마리아(PRIMARIA)","tel":"031-971-1180","addr":"경기도 고양시 일산동구 경의로","category":"회원제형태 - 기타4"}]}]