[{"lat":"37.717820341","long":"126.93536404","items":[{"name":"(주)미니펫가든","tel":"02-000-0000","addr":"경기도 양주시 장흥면 일영리 380-4번지","category":"학원 - 기타 교육기관"}]},{"lat":"37.725233381","long":"126.9492978","items":[{"name":"(주)아트파크","tel":"031-837-0026","addr":"경기도 양주시 장흥면 일영리 8","category":"문화.취미 - 화랑"}]},{"lat":"37.726287829","long":"126.950023","items":[{"name":"(주)아트파크","tel":"031-877-0500","addr":"경기도 양주시 장흥면 일영리 6-7번지","category":"문화.취미 - 화랑"},{"name":"(주)아트파크","tel":"031-877-0500","addr":"경기도 양주시 장흥면 일영리 6-7번지","category":"문화.취미 - 화랑"},{"name":"(주)엠에이피크루","tel":"031-855-8858","addr":"경기도 양주시 장흥면 일영리 6-7번지","category":"문화.취미 - 화랑"},{"name":"빌라빌라콜라","tel":"","addr":"경기도 양주시 장흥면 일영리 6-7번지 1층","category":"일반휴게음식 - 서양음식"}]},{"lat":"37.707872884","long":"126.93388748","items":[{"name":"(주)한주관광","tel":"031-837-6311","addr":"경기도 양주시 장흥면 일영리 198-1번지","category":"여행 - 관광여행"}]},{"lat":"37.715155585","long":"126.93910912","items":[{"name":"BBQ(비비큐 장흥일영점)","tel":"031-855-9285","addr":"경기도 양주시 장흥면 일영리 156-5번지 나동 2층 104호,105호","category":"일반휴게음식 - 스넥"}]},{"lat":"37.719158","long":"126.94322285","items":[{"name":"GS25양주장흥본점","tel":"","addr":"경기도 양주시 장흥면 일영리 122-8번지 외 1필지 1층","category":"유통업 영리 - 편 의 점"},{"name":"장어속으로","tel":"031-878-1788","addr":"경기도 양주시 장흥면 일영리 122-8번지","category":"일반휴게음식 - 일반한식"}]},{"lat":"37.720988155","long":"126.94565998","items":[{"name":"OB캠프","tel":"031-43-1910","addr":"경기도 양주시 장흥면 일영리 24번지","category":"일반휴게음식 - 서양음식"},{"name":"라이팅 스페이스","tel":"031-829-8828","addr":"경기도 양주시 장흥면 일영리 24번지 1층","category":"가구 - 기타가구"}]},{"lat":"37.721736274","long":"126.9463286","items":[{"name":"TOPDOG","tel":"031-829-1573","addr":"경기도 양주시 장흥면 일영리 34-4번지","category":"문화.취미 - 애완동물"}]},{"lat":"37.720294406","long":"126.94563782","items":[{"name":"VaxDoroci","tel":"031-855-5989","addr":"경기도 양주시 장흥면 일영리 20-6번지","category":"숙박업 - 여관/기타숙박업"}]},{"lat":"37.72270997","long":"126.947723","items":[{"name":"고봉막국수","tel":"031-829-2988","addr":"경기도 양주시 장흥면 일영리 41-4번지 105동 107호","category":"일반휴게음식 - 일반한식"},{"name":"보스코커피(BOSCO COFFEE)","tel":"031-111-1111","addr":"경기도 양주시 장흥면 일영리 41-4번지 105동 106호","category":"일반휴게음식 - 서양음식"},{"name":"씨유장흥유원지제일점","tel":"02-1577-8007","addr":"경기도 양주시 장흥면 일영리 41-4번지 105동 101호","category":"유통업 영리 - 편 의 점"}]},{"lat":"37.725098549","long":"126.93272587","items":[{"name":"국일전자","tel":"031-879-9191","addr":"경기도 양주시 장흥면 일영리 384-1번지","category":"기타 - 기타 전문점"}]},{"lat":"37.714930149","long":"126.93874639","items":[{"name":"그린코리아 주식회사","tel":"070-8132-5001","addr":"경기도 양주시 장흥면 일영리 161-2번지 1층 102호","category":"농업 - 농기계"},{"name":"누마스타세척기경기지사","tel":"031-829-1187","addr":"경기도 양주시 장흥면 일영리 161-2번지","category":"주방용구 - 주방용구"}]},{"lat":"37.719987247","long":"126.94394808","items":[{"name":"그린파크여관","tel":"031-855-6596","addr":"경기도 양주시 장흥면 일영리 122-14번지","category":"숙박업 - 여관/기타숙박업"}]},{"lat":"37.710874676","long":"126.93666319","items":[{"name":"그림 숲 체험장","tel":"02-381-6300","addr":"경기도 양주시 장흥면 일영리 257-1번지 외2필지","category":"학원 - 기타 교육기관"}]},{"lat":"37.716769079","long":"126.94055947","items":[{"name":"김주영 미용실","tel":"031-855-8540","addr":"경기도 양주시 장흥면 일영리 145번지","category":"보건위생 - 미용원"},{"name":"송산칼국수","tel":"031-855-3176","addr":"경기도 양주시 장흥면 일영리 145","category":"일반휴게음식 - 일반한식"},{"name":"장흥부대찌개","tel":"031-855-8201","addr":"경기도 양주시 장흥면 일영리 145","category":"일반휴게음식 - 일반한식"}]},{"lat":"37.721430186","long":"126.9468279","items":[{"name":"까만굴뚝","tel":"031-855-5401","addr":"경기도 양주시 장흥면 일영리 32-1번지","category":"일반휴게음식 - 일반한식"},{"name":"까만굴뚝","tel":"031-855-5401","addr":"경기도 양주시 장흥면 일영리 32-1번지 3층","category":"일반휴게음식 - 일반한식"}]},{"lat":"37.723403798","long":"126.94791531","items":[{"name":"꼬꼬시티","tel":"031-855-9222","addr":"경기도 양주시 장흥면 일영리 53-3번지","category":"일반휴게음식 - 일반한식"},{"name":"두리노래연습장","tel":"031-855-7780","addr":"경기도 양주시 장흥면 일영리 53-3번지","category":"레저업소 - 노 래 방"},{"name":"세븐일레븐장흥유원지점","tel":"031-1577-0711","addr":"경기도 양주시 장흥면 일영리 53-3번지 1층","category":"유통업 영리 - 편 의 점"}]},{"lat":"37.726620985","long":"126.93241817","items":[{"name":"꽃사랑","tel":"070-8899-3888","addr":"경기도 양주시 장흥면 일영리 393-1번지","category":"문화.취미 - 화원"}]},{"lat":"37.720483241","long":"126.94488909","items":[{"name":"단화헤어","tel":"031-826-0280","addr":"경기도 양주시 장흥면 일영리 25-3번지","category":"보건위생 - 미용원"},{"name":"밀밭 국수집","tel":"031-871-1993","addr":"경기도 양주시 장흥면 일영리 25-3번지 1층","category":"일반휴게음식 - 일반한식"},{"name":"이츠마인영어교습소","tel":"031-855-9994","addr":"경기도 양주시 장흥면 일영리 25-3번지","category":"학원 - 외국어학원"}]},{"lat":"37.723485372","long":"126.94897012","items":[{"name":"대게잔치","tel":"031-855-5716","addr":"경기도 양주시 장흥면 일영리 44-22번지","category":"일반휴게음식 - 일반한식"}]},{"lat":"37.716098542","long":"126.93369839","items":[{"name":"더클래식요양원","tel":"031-878-8005","addr":"경기도 양주시 장흥면 일영리 345-13번지","category":"기타의료기관 - 기타의료기관 및 기타"}]},{"lat":"37.724954125","long":"126.93227229","items":[{"name":"더플라워","tel":"031-855-8031","addr":"경기도 양주시 장흥면 일영리 413번지","category":"일반휴게음식 - 서양음식"},{"name":"텐포티커피컴퍼니(TENPORTY COFFEE COMPANY","tel":"031-855-1040","addr":"경기도 양주시 장흥면 일영리 413번지 주2 1층","category":"음료식품 - 기타음료식품"}]},{"lat":"37.704158691","long":"126.93017149","items":[{"name":"덕수레져타운","tel":"031-855-6458","addr":"경기도 양주시 장흥면 일영리 571-14","category":"레저업소 - 수 영 장"}]},{"lat":"37.72365557","long":"126.94686025","items":[{"name":"돈되면또오리","tel":"031-855-7769","addr":"경기도 양주시 장흥면 일영리 57번지 1층 지상 1층","category":"일반휴게음식 - 일반한식"}]},{"lat":"37.724486085","long":"126.95040993","items":[{"name":"두리랜드","tel":"031-855-8515","addr":"경기도 양주시 장흥면 일영리 44-18번지 1층","category":"일반휴게음식 - 일반한식"}]},{"lat":"37.728045492","long":"126.95182535","items":[{"name":"라니아","tel":"031-111-1111","addr":"경기도 양주시 장흥면 일영리 2-9","category":"회원제형태 - 기타4"}]},{"lat":"37.726845416","long":"126.93107946","items":[{"name":"라이프유통","tel":"070-8958-1164","addr":"경기도 양주시 장흥면 일영리 401번지","category":"신변잡화 - 기타잡화"}]},{"lat":"37.72654026","long":"126.9503858","items":[{"name":"레인보우","tel":"031-829-2337","addr":"경기도 양주시 장흥면 일영리 산23-1번지","category":"숙박업 - 여관/기타숙박업"},{"name":"장흥원님골","tel":"031-840-1772","addr":"경기도 양주시 장흥면 일영리 산23-1 외 2필지","category":"일반휴게음식 - 일반한식"},{"name":"초원상회","tel":"031-855-5716","addr":"경기도 양주시 장흥면 일영리 산 23-1번지","category":"음료식품 - 기타음료식품"}]},{"lat":"37.716462458","long":"126.94000399","items":[{"name":"멕시칸치킨","tel":"031-855-5444","addr":"경기도 양주시 장흥면 일영리 151-8번지 152호","category":"일반휴게음식 - 일반한식"},{"name":"엄마닭곰탕","tel":"031-829-8482","addr":"경기도 양주시 장흥면 일영리 151-8번지","category":"일반휴게음식 - 일반한식"}]},{"lat":"37.721545592","long":"126.94332301","items":[{"name":"명품Knife Sharpener(칼갈이)","tel":"","addr":"경기도 양주시 장흥면 일영리 114-9번지 건영리젠시 나동 101호","category":"용역 서비스 - 기타용역서비스"}]},{"lat":"37.72229516","long":"126.94694067","items":[{"name":"뮤지엄커피하우스","tel":"","addr":"경기도 양주시 장흥면 일영리 34-1","category":"일반휴게음식 - 일반한식"},{"name":"에이유(AU)비젼센터산수인","tel":"031-855-3335","addr":"경기도 양주시 장흥면 일영리 34-1","category":"일반휴게음식 - 서양음식"}]},{"lat":"37.717400333","long":"126.94167044","items":[{"name":"미다운","tel":"031-877-5747","addr":"경기도 양주시 장흥면 일영리 135-6번지","category":"서적문구 - 출판 및 인쇄물"},{"name":"장흥당구클럽","tel":"","addr":"경기도 양주시 장흥면 일영리 135-6번지 2층","category":"레저업소 - 당 구 장"},{"name":"장흥약국","tel":"031-356-5132","addr":"경기도 양주시 장흥면 일영리 135-6번지","category":"약국 - 약국"},{"name":"참","tel":"031-855-9985","addr":"경기도 양주시 장흥면 일영리 135-6","category":"일반휴게음식 - 일반한식"}]},{"lat":"37.715931067","long":"126.94033334","items":[{"name":"박고집병천즉석순대국","tel":"031-855-8553","addr":"경기도 양주시 장흥면 일영리 156-29번지","category":"일반휴게음식 - 일반한식"},{"name":"신흥건축","tel":"031-837-8282","addr":"경기도 양주시 장흥면 일영리 156-29번지 1층","category":"용역 서비스 - 기타용역서비스"}]},{"lat":"37.723295529","long":"126.94758645","items":[{"name":"별뜨락","tel":"","addr":"경기도 양주시 장흥면 일영리 55-3번지","category":"숙박업 - 여관/기타숙박업"}]},{"lat":"37.715873249","long":"126.93360787","items":[{"name":"보아스의 집","tel":"031-829-9957","addr":"경기도 양주시 장흥면 일영리 345-19번지","category":"기타의료기관 - 기타의료기관 및 기타"}]},{"lat":"37.707710665","long":"126.93380825","items":[{"name":"복담gallery","tel":"031-555-2007","addr":"경기도 양주시 장흥면 일영리 198-3번지 외 5필지","category":"가구 - 기타가구"}]},{"lat":"37.71813028","long":"126.94199875","items":[{"name":"부흥식당","tel":"031-855-6838","addr":"경기도 양주시 장흥면 일영리 92-13","category":"일반휴게음식 - 일반한식"}]},{"lat":"37.713044169","long":"126.93349709","items":[{"name":"블루밍로즈","tel":"031-848-1056","addr":"경기도 양주시 장흥면 일영리 286-4번지","category":"문화.취미 - 민예·공예품"}]},{"lat":"37.715264811","long":"126.94119585","items":[{"name":"사단법인 한국문화체험협회","tel":"050-2277-5999","addr":"경기도 양주시 장흥면 일영리 133-3번지 사단법인 한국문화체험협회","category":"기타 - 기타 전문점"},{"name":"오림피아 매점","tel":"","addr":"경기도 양주시 장흥면 일영리 133-3번지 1층","category":"일반휴게음식 - 일반한식"},{"name":"오림피아수영장","tel":"031-855-5237","addr":"경기도 양주시 장흥면 일영리 133-3번지","category":"레저업소 - 수 영 장"},{"name":"지원오림피아수영장","tel":"031-855-5237","addr":"경기도 양주시 장흥면 일영리 133-3번지","category":"레저업소 - 수 영 장"}]},{"lat":"37.716345182","long":"126.93972055","items":[{"name":"세븐일레븐양주장흥점","tel":"031-1577-0711","addr":"경기도 양주시 장흥면 일영리 151-9번지 102호","category":"유통업 영리 - 편 의 점"},{"name":"장흥기사한식뷔페","tel":"031-837-8119","addr":"경기도 양주시 장흥면 일영리 151-9","category":"일반휴게음식 - 일반한식"}]},{"lat":"37.710684316","long":"126.93463336","items":[{"name":"솔가헌","tel":"031-855-3363","addr":"경기도 양주시 장흥면 일영리 226-2번지","category":"음료식품 - 기타음료식품"},{"name":"솔가헌","tel":"031-855-3363","addr":"경기도 양주시 장흥면 일영리 226-2번지","category":"음료식품 - 기타음료식품"},{"name":"진산한 약국","tel":"031-855-3363","addr":"경기도 양주시 장흥면 일영리 226-2번지","category":"약국 - 약국"}]},{"lat":"37.709180318","long":"126.93568941","items":[{"name":"송림식당","tel":"031-840-5328","addr":"경기도 양주시 장흥면 일영리 233번지","category":"일반휴게음식 - 일반한식"}]},{"lat":"37.727629118","long":"126.93086318","items":[{"name":"수향","tel":"031-855-1729","addr":"경기도 양주시 장흥면 일영리 402번지","category":"일반휴게음식 - 일반한식"},{"name":"일영한국전통불한증막","tel":"031-855-1727","addr":"경기도 양주시 장흥면 일영리 402번지","category":"회원제형태 - 기타4"},{"name":"일영한국첨성대불한증막(자화상)","tel":"031-855-1727","addr":"경기도 양주시 장흥면 일영리 402","category":"일반휴게음식 - 일반한식"},{"name":"행복매점","tel":"070-7858-9019","addr":"경기도 양주시 장흥면 일영리 402번지 첨성대불한증막내","category":"음료식품 - 기타음료식품"}]},{"lat":"37.71643201","long":"126.93389089","items":[{"name":"스마일요양원","tel":"031-836-1900","addr":"경기도 양주시 장흥면 일영리 345-10번지","category":"기타의료기관 - 기타의료기관 및 기타"}]},{"lat":"37.719295422","long":"126.93114345","items":[{"name":"신광산업","tel":"031-855-7234","addr":"경기도 양주시 장흥면 일영리 461번지","category":"의류 - 정장"}]},{"lat":"37.716962069","long":"126.94819227","items":[{"name":"신흥농원","tel":"032-519-1282","addr":"경기도 양주시 장흥면 일영리 15-6번지 외3필지","category":"음료식품 - 농·축·수산품"}]},{"lat":"37.721989134","long":"126.94757608","items":[{"name":"싸릿골초가","tel":"031-826-1524","addr":"경기도 양주시 장흥면 일영리 33-2번지","category":"일반휴게음식 - 일반한식"}]},{"lat":"37.728018221","long":"126.95126954","items":[{"name":"쑥사랑","tel":"031-829-6889","addr":"경기도 양주시 장흥면 일영리 2-6번지","category":"보건위생 - 화장품"},{"name":"장흥돼지갈비촌","tel":"031-856-8592","addr":"경기도 양주시 장흥면 일영리 2-6번지","category":"일반휴게음식 - 일반한식"},{"name":"황토","tel":"","addr":"경기도 양주시 장흥면 일영리 2-6번지","category":"일반휴게음식 - 일반한식"},{"name":"황토참숯가마","tel":"031-878-1020","addr":"경기도 양주시 장흥면 일영리 2-6번지","category":"보건위생 - 사우나"}]},{"lat":"37.724260206","long":"126.94899224","items":[{"name":"씨유장흥예술거리점","tel":"031-855-1455","addr":"경기도 양주시 장흥면 일영리 46-2번지 가동 1층","category":"유통업 영리 - 편 의 점"},{"name":"주식회사 올어바웃그뤠사어패럴","tel":"070-1111-1111","addr":"경기도 양주시 장흥면 일영리 46-2번지 2층","category":"의류 - 정장"}]},{"lat":"37.717760498","long":"126.94125049","items":[{"name":"양주시보건소","tel":"031-8082-7116","addr":"경기도 양주시 장흥면 일영리 137-2번지","category":"기타의료기관 - 기타의료기관 및 기타"},{"name":"장흥면주민자치위원회","tel":"031-111-1111","addr":"경기도 양주시 장흥면 일영리 137-2번지","category":"문화.취미 - 문화취미기타"}]},{"lat":"37.716598491","long":"126.94169378","items":[{"name":"에스에스모터스","tel":"031-826-7053","addr":"경기도 양주시 장흥면 일영리 154-10","category":"자동차정비 유지 - 자동차정비"},{"name":"엠에이치 싸인(MH sign)","tel":"031-855-3836","addr":"경기도 양주시 장흥면 일영리 154-10번지 2층","category":"건축자재 - 인테리어전문"}]},{"lat":"37.715316888","long":"126.93752118","items":[{"name":"에코맥스","tel":"070-4187-5187","addr":"경기도 양주시 장흥면 일영리 372-12번지","category":"신변잡화 - 기타잡화"}]},{"lat":"37.715100784","long":"126.9377482","items":[{"name":"오성","tel":"031-829-2066","addr":"경기도 양주시 장흥면 일영리 372-8번지","category":"신변잡화 - 신발"}]},{"lat":"37.709180858","long":"126.93664201","items":[{"name":"옹달샘","tel":"031-855-5320","addr":"경기도 양주시 장흥면 일영리 236-1번지","category":"일반휴게음식 - 일반한식"}]},{"lat":"37.715963524","long":"126.933914","items":[{"name":"워너스요양원","tel":"031-855-1112","addr":"경기도 양주시 장흥면 일영리 345-15번지","category":"기타의료기관 - 기타의료기관 및 기타"}]},{"lat":"37.716822884","long":"126.94008308","items":[{"name":"월드카프라자","tel":"031-855-8844","addr":"경기도 양주시 장흥면 일영리 146-1","category":"자동차정비 유지 - 자동차정비"},{"name":"현대전기공구철물","tel":"031-855-8925","addr":"경기도 양주시 장흥면 일영리 146-1번지","category":"건축자재 - 조명기구"}]},{"lat":"37.723151033","long":"126.94686063","items":[{"name":"웰빙모텔","tel":"031-855-7545","addr":"경기도 양주시 장흥면 일영리 38-7","category":"숙박업 - 여관/기타숙박업"}]},{"lat":"37.725737321","long":"126.93121664","items":[{"name":"웰빙쑥체험방","tel":"031-829-3776","addr":"경기도 양주시 장흥면 일영리 406번지","category":"회원제형태 - 기타4"}]},{"lat":"37.723818737","long":"126.94899256","items":[{"name":"이시돌선생의약선도가","tel":"031-855-8275","addr":"경기도 양주시 장흥면 일영리 43-7번지","category":"일반휴게음식 - 일반한식"}]},{"lat":"37.721817861","long":"126.94738339","items":[{"name":"이집이좋겠네2호점","tel":"031-836-8913","addr":"경기도 양주시 장흥면 일영리 32-3번지 1층","category":"일반휴게음식 - 일반한식"}]},{"lat":"37.716567668","long":"126.93477541","items":[{"name":"인창주물","tel":"031-855-0078","addr":"경기도 양주시 장흥면 일영리 353-1번지","category":"기타 - 기계공구"}]},{"lat":"37.715514183","long":"126.93588784","items":[{"name":"일영송어장","tel":"031-855-5713","addr":"경기도 양주시 장흥면 일영리 368번지","category":"일반휴게음식 - 일반한식"}]},{"lat":"37.707962687","long":"126.93338842","items":[{"name":"일영옛날양평해장국","tel":"031-879-8313","addr":"경기도 양주시 장흥면 일영리 196-1번지","category":"일반휴게음식 - 일반한식"}]},{"lat":"37.715155812","long":"126.93952875","items":[{"name":"임가네부대찌개고기","tel":"031-855-1233","addr":"경기도 양주시 장흥면 일영리 156-11번지 나동 2층","category":"일반휴게음식 - 일반한식"}]},{"lat":"37.717156707","long":"126.94096745","items":[{"name":"자연과 사람","tel":"070-7469-1413","addr":"경기도 양주시 장흥면 일영리 140-1번지","category":"음료식품 - 기타음료식품"}]},{"lat":"37.723927258","long":"126.94988856","items":[{"name":"장흥 자동차 극장","tel":"031-855-6050","addr":"경기도 양주시 장흥면 일영리 44-6번지","category":"문화.취미 - 영화관"}]},{"lat":"37.723096418","long":"126.92943839","items":[{"name":"장흥감나무집","tel":"031-855-4622","addr":"경기도 양주시 장흥면 일영리 429-2번지","category":"일반휴게음식 - 일반한식"}]},{"lat":"37.721709575","long":"126.94702051","items":[{"name":"장흥골전골찜마당","tel":"031-829-8918","addr":"경기도 양주시 장흥면 일영리 32번지 1층","category":"일반휴게음식 - 일반한식"}]},{"lat":"37.716129583","long":"126.9409116","items":[{"name":"장흥농업협동조합","tel":"031-855-6139","addr":"경기도 양주시 장흥면 일영리 155번지","category":"유통업 영리 - 상품권"},{"name":"장흥농업협동조합","tel":"031-855-6140","addr":"경기도 양주시 장흥면 일영리 155번지","category":"유통업 비영리 - 농,축협 직영매장"},{"name":"장흥농업협동조합-직거래","tel":"031-855-5584","addr":"경기도 양주시 장흥면 일영리 155번지","category":"유통업 비영리 - 농,축협 직영매장"},{"name":"장흥미용실","tel":"031-826-8153","addr":"경기도 양주시 장흥면 일영리 155","category":"보건위생 - 미용원"},{"name":"카페176 (CAFFE176)","tel":"031-111-1111","addr":"경기도 양주시 장흥면 일영리 155번지","category":"일반휴게음식 - 서양음식"}]},{"lat":"37.724097626","long":"126.94810762","items":[{"name":"장흥대박협동조합","tel":"031-877-2224","addr":"경기도 양주시 장흥면 일영리 50번지","category":"학원 - 기타 교육기관"}]},{"lat":"37.715876816","long":"126.93997046","items":[{"name":"장흥우체국","tel":"031-855-5004","addr":"경기도 양주시 장흥면 일영리 156-9","category":"용역 서비스 - 공공요금대행서비스/소"}]},{"lat":"37.724737422","long":"126.9483567","items":[{"name":"장흥자동차극장","tel":"031-855-6050","addr":"경기도 양주시 장흥면 일영리 48번지 (49,50-1,50-4)","category":"문화.취미 - 티켓"}]},{"lat":"37.714487295","long":"126.93625168","items":[{"name":"장흥현대공업사","tel":"031-836-6988","addr":"경기도 양주시 장흥면 일영리 324-1번지","category":"자동차정비 유지 - 자동차정비"}]},{"lat":"37.724016744","long":"126.94855005","items":[{"name":"제일케어요양원","tel":"031-879-6768","addr":"경기도 양주시 장흥면 일영리 51번지","category":"기타의료기관 - 기타의료기관 및 기타"}]},{"lat":"37.718319511","long":"126.9420553","items":[{"name":"조치원파닭두마리치킨","tel":"031-873-9982","addr":"경기도 양주시 장흥면 일영리 92-11번지","category":"일반휴게음식 - 스넥"}]},{"lat":"37.722434852","long":"126.93821816","items":[{"name":"주식회사 에스지코리아","tel":"000-1588-3657","addr":"경기도 양주시 장흥면 일영리 64-17번지","category":"자동차정비 유지 - 윤활유 전문 판매"}]},{"lat":"37.714820159","long":"126.93538944","items":[{"name":"주식회사일광자동차서비스","tel":"031-855-0803","addr":"경기도 양주시 장흥면 일영리 331-3번지","category":"자동차정비 유지 - 자동차정비"}]},{"lat":"37.707845935","long":"126.93402359","items":[{"name":"지리산산장","tel":"031-855-2320","addr":"경기도 양주시 장흥면 일영리 198-2번지 지리산산장","category":"일반휴게음식 - 일반한식"}]},{"lat":"37.722321951","long":"126.94644158","items":[{"name":"청암박물관","tel":"02-900-1544","addr":"경기도 양주시 장흥면 일영리 36-7번지","category":"문화.취미 - 티켓"}]},{"lat":"37.706817888","long":"126.93241424","items":[{"name":"청해진","tel":"031-855-5063","addr":"경기도 양주시 장흥면 일영리 564-1번지","category":"일반휴게음식 - 일반한식"}]},{"lat":"37.719987411","long":"126.944277","items":[{"name":"토속촌","tel":"031-855-8153","addr":"경기도 양주시 장흥면 일영리 122-20번지","category":"일반휴게음식 - 일반한식"}]},{"lat":"37.716851314","long":"126.94277103","items":[{"name":"포도원아크릴","tel":"031-855-0560","addr":"경기도 양주시 장흥면 일영리 131-7번지","category":"건축자재 - 인테리어전문"}]},{"lat":"37.718211495","long":"126.9422482","items":[{"name":"함지박","tel":"031-855-7057","addr":"경기도 양주시 장흥면 일영리 92-12번지","category":"일반휴게음식 - 일반한식"}]},{"lat":"37.718013412","long":"126.94249789","items":[{"name":"해동건강원","tel":"031-878-8185","addr":"경기도 양주시 장흥면 일영리 135-1","category":"건강식품 - 기타건강식품"}]},{"lat":"37.706014991","long":"126.93069132","items":[{"name":"해마루농원","tel":"031-855-6610","addr":"경기도 양주시 장흥면 일영리 573-5","category":"농업 - 비료,사료,종자"}]},{"lat":"37.723872908","long":"126.94924206","items":[{"name":"해피타임","tel":"031-829-3888","addr":"경기도 양주시 장흥면 일영리 44-9번지","category":"일반휴게음식 - 일반한식"}]},{"lat":"37.722907758","long":"126.94682679","items":[{"name":"해호텔","tel":"031-855-9999","addr":"경기도 양주시 장흥면 일영리 38-2번지","category":"숙박업 - 여관/기타숙박업"},{"name":"해호텔","tel":"031-855-9999","addr":"경기도 양주시 장흥면 일영리 38-2번지","category":"숙박업 - 여관/기타숙박업"}]},{"lat":"37.719013703","long":"126.94293941","items":[{"name":"허브","tel":"031-855-4632","addr":"경기도 양주시 장흥면 일영리 95-1번지 95통2반","category":"숙박업 - 여관/기타숙박업"}]},{"lat":"37.707934835","long":"126.93200493","items":[{"name":"황계순만두","tel":"031-855-5370","addr":"경기도 양주시 장흥면 일영리 540-5번지 1층","category":"일반휴게음식 - 일반한식"}]}]