[{"lat":"37.922818843","long":"126.85439297","items":[{"name":"825루즈","tel":"031-958-3117","addr":"경기도 파주시 파평면 금파리 4-3번지","category":"숙박업 - 여관/기타숙박업"}]},{"lat":"37.931429154","long":"126.83255926","items":[{"name":"금마루한식부페","tel":"070-7872-8733","addr":"경기도 파주시 파평면 금파리 405-1번지","category":"일반휴게음식 - 일반한식"},{"name":"금마루한식부페","tel":"","addr":"경기도 파주시 파평면 금파리 405-1번지","category":"일반휴게음식 - 일반한식"}]},{"lat":"37.927797279","long":"126.83808403","items":[{"name":"금파농장","tel":"031-867-8938","addr":"경기도 파주시 파평면 금파리 233-6","category":"음료식품 - 농·축·수산품"}]},{"lat":"37.937788163","long":"126.83781146","items":[{"name":"농업회사법인 황금이삭 주식회사","tel":"031-953-2547","addr":"경기도 파주시 파평면 금파리 454-4번지","category":"음료식품 - 미곡상"}]},{"lat":"37.932431505","long":"126.83417216","items":[{"name":"대박에너지","tel":"02-2605-2939","addr":"경기도 파주시 파평면 금파리 414-18","category":"연료판매점 - 유류판매"}]},{"lat":"37.925373715","long":"126.83803257","items":[{"name":"대학.공구.건재.철물.전기","tel":"031-959-9666","addr":"경기도 파주시 파평면 금파리 267-12번지","category":"기타 - 기계공구"}]},{"lat":"37.929933458","long":"126.83244897","items":[{"name":"동방엔터프라이즈","tel":"031-959-8864","addr":"경기도 파주시 파평면 금파리 387-4","category":"음료식품 - 기타음료식품"}]},{"lat":"37.922961094","long":"126.83936862","items":[{"name":"박동화해장국","tel":"031-953-9339","addr":"경기도 파주시 파평면 금파리 305 281-1","category":"일반휴게음식 - 중국식"}]},{"lat":"37.922735927","long":"126.83941462","items":[{"name":"병천순대국","tel":"031-958-6647","addr":"경기도 파주시 파평면 금파리 281-10번지","category":"일반휴게음식 - 일반한식"},{"name":"씨유파주파평점","tel":"031-946-2007","addr":"경기도 파주시 파평면 금파리 281-10번지","category":"유통업 영리 - 편 의 점"},{"name":"씨유파주파평점","tel":"031-878-8205","addr":"경기도 파주시 파평면 금파리 281-10번지","category":"유통업 영리 - 편 의 점"}]},{"lat":"37.920429022","long":"126.83903305","items":[{"name":"우리카쎈타","tel":"031-958-7755","addr":"경기도 파주시 파평면 금파리 322-2번지","category":"자동차정비 유지 - 자동차정비"}]},{"lat":"37.923150825","long":"126.8397549","items":[{"name":"유영산업","tel":"031-852-0330","addr":"경기도 파주시 파평면 금파리 256-5","category":"연료판매점 - 유류판매"}]},{"lat":"37.929263093","long":"126.83616989","items":[{"name":"장단매운탕","tel":"031-958-3348","addr":"경기도 파주시 파평면 금파리 397-1번지","category":"일반휴게음식 - 일반한식"}]},{"lat":"37.926122657","long":"126.84546932","items":[{"name":"장마루농원","tel":"031-958-5695","addr":"경기도 파주시 파평면 금파리 137-2번지","category":"음료식품 - 농·축·수산품"}]},{"lat":"37.919351322","long":"126.84150331","items":[{"name":"친환경두부마을","tel":"031-959-7047","addr":"경기도 파주시 파평면 금파리 37번지","category":"음료식품 - 기타음료식품"}]},{"lat":"37.933324168","long":"126.83469336","items":[{"name":"파평농원","tel":"","addr":"경기도 파주시 파평면 금파리 423-1번지","category":"음료식품 - 농·축·수산품"}]},{"lat":"37.922270053","long":"126.84130359","items":[{"name":"향존","tel":"031-958-8810","addr":"경기도 파주시 파평면 금파리 45-1번지","category":"신변잡화 - 기타잡화"}]},{"lat":"37.921682271","long":"126.83972402","items":[{"name":"현대슈퍼","tel":"031-959-2969","addr":"경기도 파주시 파평면 금파리 300-5번지","category":"유통업 영리 - 슈퍼마켓"}]}]