[{"lat":"37.253999196","long":"127.35133051","items":[{"name":"(주)계양종합철물","tel":"031-631-8932","addr":"경기도 이천시 마장면 오천리 278-4번지 1층","category":"기타 - 기계공구"},{"name":"김가네(이천마장점)","tel":"031-634-2118","addr":"경기도 이천시 마장면 오천리 278-4번지","category":"일반휴게음식 - 스넥"},{"name":"선경인테리어장식","tel":"031-633-5570","addr":"경기도 이천시 마장면 오천리 278-4번지","category":"건축자재 - 기타건축자재"},{"name":"수정세탁","tel":"031-632-2142","addr":"경기도 이천시 마장면 오천리 278-4번지 수정세탁소","category":"수리서비스 - 세탁소"},{"name":"스타노래연습장","tel":"031-634-4992","addr":"경기도 이천시 마장면 오천리 278-4번지 2층","category":"레저업소 - 노 래 방"},{"name":"크라운텔레콤","tel":"031-631-5509","addr":"경기도 이천시 마장면 오천리 278-4번지 1동","category":"사무통신 - 통신기기"}]},{"lat":"37.254360828","long":"127.35091512","items":[{"name":"GS25마장제일점","tel":"","addr":"경기도 이천시 마장면 오천리 277번지","category":"유통업 영리 - 편 의 점"}]},{"lat":"37.254469182","long":"127.35083671","items":[{"name":"가남통닭","tel":"031-632-2964","addr":"경기도 이천시 마장면 오천리 276-3번지 2층","category":"일반휴게음식 - 일반한식"},{"name":"신전떡볶이 이천마장점","tel":"031-633-7877","addr":"경기도 이천시 마장면 오천리 276-3번지 1층","category":"일반휴게음식 - 일반한식"},{"name":"오가네토종순대국","tel":"031-635-0209","addr":"경기도 이천시 마장면 오천리 276-3번지 1층","category":"일반휴게음식 - 일반한식"},{"name":"오천노래연습장","tel":"031-631-7910","addr":"경기도 이천시 마장면 오천리 276-3번지 지하","category":"레저업소 - 노 래 방"},{"name":"요거프레소 이천오천점","tel":"031-633-0739","addr":"경기도 이천시 마장면 오천리 276-3번지 1층(102호)","category":"일반휴게음식 - 서양음식"},{"name":"요기요!","tel":"031-633-1176","addr":"경기도 이천시 마장면 오천리 276-3번지","category":"일반휴게음식 - 일반한식"},{"name":"이지네닭갈비&다모아맥주","tel":"031-633-1135","addr":"경기도 이천시 마장면 오천리 276-3번지 2층","category":"일반휴게음식 - 일반한식"}]},{"lat":"37.250300326","long":"127.35594599","items":[{"name":"경인샷시유리","tel":"031-632-8883","addr":"경기도 이천시 마장면 오천리 58-8","category":"건축자재 - 보일러·펌프·샷시"}]},{"lat":"37.251857204","long":"127.35355242","items":[{"name":"고기광장","tel":"031-631-3314","addr":"경기도 이천시 마장면 오천리 249-10번지 2층","category":"일반휴게음식 - 일반한식"},{"name":"다이소 이천마장지구점","tel":"031-637-7748","addr":"경기도 이천시 마장면 오천리 249-10번지","category":"신변잡화 - 기타잡화"},{"name":"아이세상","tel":"031-631-3314","addr":"경기도 이천시 마장면 오천리 249-10번지","category":"레저업소 - 기타레져업소"}]},{"lat":"37.244996209","long":"127.36097045","items":[{"name":"골프존파크 오천스크린","tel":"031-632-5007","addr":"경기도 이천시 마장면 오천리 115-1번지","category":"레저업소 - 스크린골프"},{"name":"마장스팀세차","tel":"031-111-1111","addr":"경기도 이천시 마장면 오천리 115-1번지","category":"자동차정비 유지 - 세차장"}]},{"lat":"37.253492802","long":"127.35194813","items":[{"name":"공간","tel":"031-636-4566","addr":"경기도 이천시 마장면 오천리 280-3번지 1동 301호","category":"보건위생 - 화장품"},{"name":"럭키노래연습장","tel":"031-631-0810","addr":"경기도 이천시 마장면 오천리 280-3번지 지하1층","category":"레저업소 - 노 래 방"},{"name":"마장태권도체육관","tel":"031-634-1950","addr":"경기도 이천시 마장면 오천리 280-3번지","category":"학원 - 예·체능계학원"},{"name":"벧엘분식","tel":"031-633-3786","addr":"경기도 이천시 마장면 오천리 280-3","category":"일반휴게음식 - 스넥"},{"name":"알콜","tel":"031-637-8270","addr":"경기도 이천시 마장면 오천리 280-3","category":"일반휴게음식 - 주점"},{"name":"크리닝프라자","tel":"031-634-5843","addr":"경기도 이천시 마장면 오천리 280-3","category":"수리서비스 - 세탁소"},{"name":"희망미용실","tel":"031-632-2847","addr":"경기도 이천시 마장면 오천리 280-3번지 1층","category":"보건위생 - 미용원"}]},{"lat":"37.253800973","long":"127.3513296","items":[{"name":"김가네식당","tel":"031-634-6232","addr":"경기도 이천시 마장면 오천리 279-6","category":"일반휴게음식 - 일반한식"}]},{"lat":"37.254967122","long":"127.35002742","items":[{"name":"김길수한의원","tel":"031-636-8288","addr":"경기도 이천시 마장면 오천리 298-7번지","category":"의원 - 한의원"},{"name":"초밥&","tel":"031-634-9004","addr":"경기도 이천시 마장면 오천리 298-7번지","category":"일반휴게음식 - 일반한식"}]},{"lat":"37.25091503","long":"127.35527258","items":[{"name":"김대학치과의원","tel":"031-632-7227","addr":"경기도 이천시 마장면 오천리 56-52번지 302호","category":"의원 - 치과의원"},{"name":"롯데리아/디앤디플레이스 (주)","tel":"031-662-1228","addr":"경기도 이천시 마장면 오천리 56-52번지","category":"일반휴게음식 - 서양음식"}]},{"lat":"37.253799645","long":"127.35178047","items":[{"name":"꽃보다쌀","tel":"031-638-0166","addr":"경기도 이천시 마장면 오천리 373","category":"음료식품 - 미곡상"}]},{"lat":"37.254686352","long":"127.35052209","items":[{"name":"낙원떡방앗간","tel":"031-633-3357","addr":"경기도 이천시 마장면 오천리 275-2번지","category":"음료식품 - 제과점"},{"name":"앵콜노래연습장","tel":"031-631-6488","addr":"경기도 이천시 마장면 오천리 275-2번지","category":"레저업소 - 노 래 방"},{"name":"영심이치킨&호프","tel":"031-633-3997","addr":"경기도 이천시 마장면 오천리 275-2번지","category":"일반휴게음식 - 주점"}]},{"lat":"37.253523845","long":"127.35058438","items":[{"name":"네일카페","tel":"070-4686-9412","addr":"경기도 이천시 마장면 오천리 273-16번지 1층","category":"보건위생 - 피부미용실"}]},{"lat":"37.253854536","long":"127.35149892","items":[{"name":"늘봄매운닭발","tel":"02-1111-1111","addr":"경기도 이천시 마장면 오천리 278-5번지 2층","category":"일반휴게음식 - 일반한식"},{"name":"분식의신","tel":"031-637-7017","addr":"경기도 이천시 마장면 오천리 278-5번지 1층","category":"일반휴게음식 - 스넥"},{"name":"예쁜집 인테리어","tel":"031-633-7988","addr":"경기도 이천시 마장면 오천리 278-5번지","category":"건축자재 - 인테리어전문"}]},{"lat":"37.248105774","long":"127.35763767","items":[{"name":"다오래","tel":"031-636-7231","addr":"경기도 이천시 마장면 오천리 68-1번지 104호","category":"일반휴게음식 - 서양음식"},{"name":"별난버섯육계장","tel":"031-632-8660","addr":"경기도 이천시 마장면 오천리 68-1번지","category":"일반휴게음식 - 일반한식"}]},{"lat":"37.252659607","long":"127.35338706","items":[{"name":"다온 텔레콤","tel":"031-8003-9949","addr":"경기도 이천시 마장면 오천리 56-75번지 마장더퍼스트 105호","category":"사무통신 - 통신기기"},{"name":"서울삼성건강기능식품","tel":"031-8011-3875","addr":"경기도 이천시 마장면 오천리 56-75번지 4층 마징더퍼스트","category":"건강식품 - 기타건강식품"},{"name":"안단테 피아노 교습소","tel":"031-631-3403","addr":"경기도 이천시 마장면 오천리 56-75번지 마장퍼스트 5층 503호","category":"학원 - 예·체능계학원"},{"name":"온텔레콤","tel":"031-636-5557","addr":"경기도 이천시 마장면 오천리 56-75번지 105호","category":"사무통신 - 통신기기"},{"name":"탑스카이학원","tel":"070-7198-1905","addr":"경기도 이천시 마장면 오천리 56-75번지 마장더퍼스트 5층","category":"학원 - 보습학원"},{"name":"파리바게뜨 이천마장점","tel":"031-631-7001","addr":"경기도 이천시 마장면 오천리 56-75번지 1층 107호 108호","category":"음료식품 - 제과점"}]},{"lat":"37.246334166","long":"127.35950031","items":[{"name":"당거리보신탕","tel":"031-638-2319","addr":"경기도 이천시 마장면 오천리 87번지","category":"일반휴게음식 - 일반한식"},{"name":"만물상회","tel":"031-632-2338","addr":"경기도 이천시 마장면 오천리 87번지","category":"음료식품 - 기타음료식품"}]},{"lat":"37.254966064","long":"127.35038812","items":[{"name":"더타이마사지샵","tel":"031-631-0067","addr":"경기도 이천시 마장면 오천리 297-5번지 2층","category":"보건위생 - 화장품"}]},{"lat":"37.253386639","long":"127.3512826","items":[{"name":"덕평뜰쌀아저씨","tel":"","addr":"경기도 이천시 마장면 오천리 270-14번지","category":"음료식품 - 미곡상"}]},{"lat":"37.254161611","long":"127.35125236","items":[{"name":"도깨비왕만두","tel":"031-631-4395","addr":"경기도 이천시 마장면 오천리 278-3번지","category":"일반휴게음식 - 일반한식"}]},{"lat":"37.248611681","long":"127.35416856","items":[{"name":"도원 알토란","tel":"031-636-8597","addr":"경기도 이천시 마장면 오천리 243","category":"일반휴게음식 - 일반한식"}]},{"lat":"37.254243299","long":"127.35104984","items":[{"name":"돼지주막","tel":"031-631-9836","addr":"경기도 이천시 마장면 오천리 277-3번지","category":"일반휴게음식 - 주점"}]},{"lat":"37.252661184","long":"127.35588938","items":[{"name":"두배로행복마트","tel":"031-694-6482","addr":"경기도 이천시 마장면 오천리 27-2번지 106,107호 (호반베르디움1차 단지내상가)","category":"유통업 영리 - 슈퍼마켓"}]},{"lat":"37.252833099","long":"127.35261012","items":[{"name":"러브레터,멕시칸","tel":"031-634-5882","addr":"경기도 이천시 마장면 오천리 281-10번지","category":"일반휴게음식 - 스넥"},{"name":"심여사네","tel":"031-635-2000","addr":"경기도 이천시 마장면 오천리 281-10번지","category":"일반휴게음식 - 스넥"}]},{"lat":"37.253637396","long":"127.35180226","items":[{"name":"로얄통신","tel":"031-632-3010","addr":"경기도 이천시 마장면 오천리 280-1번지","category":"사무통신 - 통신기기"}]},{"lat":"37.254604599","long":"127.35074716","items":[{"name":"롯데미용실","tel":"031-632-2872","addr":"경기도 이천시 마장면 오천리 275-5번지","category":"보건위생 - 미용원"}]},{"lat":"37.240695135","long":"127.35602516","items":[{"name":"리더에듀","tel":"031-634-6277","addr":"경기도 이천시 마장면 오천리 161번지","category":"서적문구 - 기타서적문구"}]},{"lat":"37.243139763","long":"127.35808775","items":[{"name":"마술램프","tel":"070-8813-0065","addr":"경기도 이천시 마장면 오천리 148-1번지","category":"용역 서비스 - 종합용역"},{"name":"민들레 평생교육원","tel":"031-631-8004","addr":"경기도 이천시 마장면 오천리 148-1","category":"학원 - 기타 교육기관"}]},{"lat":"37.253721737","long":"127.35069801","items":[{"name":"마장 프리미엄 세차","tel":"","addr":"경기도 이천시 마장면 오천리 274-23번지","category":"자동차정비 유지 - 세차장"}]},{"lat":"37.248277372","long":"127.35750323","items":[{"name":"마장엔젤음악학원","tel":"031-633-1283","addr":"경기도 이천시 마장면 오천리 68번지 1층","category":"학원 - 예·체능계학원"},{"name":"신일모타","tel":"031-634-7794","addr":"경기도 이천시 마장면 오천리 68번지","category":"수리서비스 - 가정용품수리"},{"name":"지앤비(GnB)영어전문학원","tel":"031-632-0510","addr":"경기도 이천시 마장면 오천리 68번지","category":"회원제형태 - 학원"}]},{"lat":"37.249937782","long":"127.35966382","items":[{"name":"마장온누리약국","tel":"031-633-1551","addr":"경기도 이천시 마장면 오천리 51-1번지 마장더 퍼스트 103,104호","category":"약국 - 약국"}]},{"lat":"37.246607385","long":"127.35853231","items":[{"name":"마장초등학교","tel":"031-632-2003","addr":"경기도 이천시 마장면 오천리 71번지 마장초등학교","category":"학원 - 초중고교육기관"}]},{"lat":"37.245464448","long":"127.34894693","items":[{"name":"마장한솔노인복지센터","tel":"031-634-0151","addr":"경기도 이천시 마장면 오천리 333-2번지","category":"기타의료기관 - 기타의료기관 및 기타"}]},{"lat":"37.238750861","long":"127.35233093","items":[{"name":"뮤즈이샵","tel":"02-716-1005","addr":"경기도 이천시 마장면 오천리 192-8번지","category":"레져용품 - 악기점"}]},{"lat":"37.249660673","long":"127.35592047","items":[{"name":"미장떡방앗간","tel":"031-634-7979","addr":"경기도 이천시 마장면 오천리 64-2번지 나동 1층","category":"음료식품 - 제과점"},{"name":"부뚜막","tel":"031-631-7762","addr":"경기도 이천시 마장면 오천리 64-2번지","category":"일반휴게음식 - 일반한식"},{"name":"어촌","tel":"031-635-6720","addr":"경기도 이천시 마장면 오천리 64-2번지 1층","category":"일반휴게음식 - 일반한식"}]},{"lat":"37.25324873","long":"127.35221753","items":[{"name":"밥먹을래 술먹을래","tel":"031-338-1101","addr":"경기도 이천시 마장면 오천리 281-9번지 1층","category":"일반휴게음식 - 일반한식"},{"name":"서울삼성내과의원","tel":"031-8011-3875","addr":"경기도 이천시 마장면 오천리 281-9번지 마장 더 퍼스트 4층 1~5호","category":"의원 - 의원"},{"name":"황성화헤어연출","tel":"031-631-0768","addr":"경기도 이천시 마장면 오천리 281-9","category":"보건위생 - 미용원"}]},{"lat":"37.253382219","long":"127.35278173","items":[{"name":"보떼마장점","tel":"031-634-2210","addr":"경기도 이천시 마장면 오천리 282번지 마장농협 하나로마트점","category":"보건위생 - 화장품"},{"name":"커피아뜰리에 마장농협점","tel":"031-631-6310","addr":"경기도 이천시 마장면 오천리 282번지 1층","category":"일반휴게음식 - 서양음식"},{"name":"하나로안경원","tel":"031-634-0988","addr":"경기도 이천시 마장면 오천리 282번지 마장농협","category":"보건위생 - 안경"}]},{"lat":"37.252941554","long":"127.3524979","items":[{"name":"보리수","tel":"031-632-2076","addr":"경기도 이천시 마장면 오천리 281-14","category":"일반휴게음식 - 일반한식"},{"name":"세움텍","tel":"070-8918-8900","addr":"경기도 이천시 마장면 오천리 281-14번지","category":"용역 서비스 - 기타용역서비스"}]},{"lat":"37.25102553","long":"127.35447282","items":[{"name":"복꾸미","tel":"031-631-6566","addr":"경기도 이천시 마장면 오천리 251-4번지 2동 1층","category":"일반휴게음식 - 일반한식"},{"name":"오피스웨이이천점","tel":"031-631-1655","addr":"경기도 이천시 마장면 오천리 251-4번지 2층","category":"사무통신 - 기타 사무용품"}]},{"lat":"37.252083425","long":"127.35322659","items":[{"name":"봉일천 돼지부속구이","tel":"031-633-5788","addr":"경기도 이천시 마장면 오천리 269-9번지","category":"일반휴게음식 - 일반한식"}]},{"lat":"37.25513046","long":"127.34963364","items":[{"name":"불닭발","tel":"031-631-5916","addr":"경기도 이천시 마장면 오천리 298-5번지","category":"일반휴게음식 - 일반한식"},{"name":"세창조경공구","tel":"031-633-9785","addr":"경기도 이천시 마장면 오천리 298-5 봉바위길 5","category":"기타 - 기계공구"}]},{"lat":"37.255074681","long":"127.35021953","items":[{"name":"비비큐펀앤정한마리반치킨","tel":"031-631-9958","addr":"경기도 이천시 마장면 오천리 298-4번지","category":"일반휴게음식 - 스넥"},{"name":"하오란양꼬치","tel":"031-637-6889","addr":"경기도 이천시 마장면 오천리 298-4번지","category":"일반휴게음식 - 일반한식"}]},{"lat":"37.253663031","long":"127.3522758","items":[{"name":"살롱드하루","tel":"031-634-7622","addr":"경기도 이천시 마장면 오천리 283-15번지 2층 206호","category":"보건위생 - 미용원"}]},{"lat":"37.245556677","long":"127.36036448","items":[{"name":"삼순이 족발 보쌈 도시락","tel":"031-634-5325","addr":"경기도 이천시 마장면 오천리 82-3번지","category":"일반휴게음식 - 일반한식"}]},{"lat":"37.253745916","long":"127.3516675","items":[{"name":"소나기카페","tel":"031-634-5458","addr":"경기도 이천시 마장면 오천리 280-2번지 2층","category":"일반휴게음식 - 서양음식"},{"name":"해야","tel":"031-633-5082","addr":"경기도 이천시 마장면 오천리 280-2번지","category":"일반휴게음식 - 일반한식"}]},{"lat":"37.244605975","long":"127.36189278","items":[{"name":"씨유이천마장점","tel":"080-080-3663","addr":"경기도 이천시 마장면 오천리 114-9번지","category":"유통업 영리 - 편 의 점"},{"name":"커피베이 덕평점","tel":"031-638-6004","addr":"경기도 이천시 마장면 오천리 114-9번지 1층","category":"일반휴게음식 - 서양음식"}]},{"lat":"37.253357251","long":"127.35208277","items":[{"name":"아만다플라워","tel":"031-632-2238","addr":"경기도 이천시 마장면 오천리 281-3번지","category":"문화.취미 - 화원"}]},{"lat":"37.253630244","long":"127.35117101","items":[{"name":"아몬드빵집","tel":"031-633-9032","addr":"경기도 이천시 마장면 오천리 270-7번지","category":"음료식품 - 제과점"}]},{"lat":"37.248413469","long":"127.35718828","items":[{"name":"아우성","tel":"031-634-9420","addr":"경기도 이천시 마장면 오천리 67-1번지","category":"일반휴게음식 - 일반한식"},{"name":"영길이네 돈가스 포차","tel":"031-636-1199","addr":"경기도 이천시 마장면 오천리 67-1번지 1동 103호","category":"일반휴게음식 - 일반한식"}]},{"lat":"37.254136469","long":"127.35060974","items":[{"name":"연다방","tel":"031-632-8238","addr":"경기도 이천시 마장면 오천리 274-6번지","category":"일반휴게음식 - 서양음식"}]},{"lat":"37.253692685","long":"127.35138546","items":[{"name":"오천 진 소머리국밥","tel":"031-631-5359","addr":"경기도 이천시 마장면 오천리 270-6번지 1층 3호","category":"일반휴게음식 - 일반한식"}]},{"lat":"37.252853315","long":"127.35186628","items":[{"name":"올미용실","tel":"","addr":"경기도 이천시 마장면 오천리 270-46번지 동일하우스 1동 1층 101호","category":"보건위생 - 미용원"}]},{"lat":"37.244997708","long":"127.36047455","items":[{"name":"으뜸순대국","tel":"031-638-7400","addr":"경기도 이천시 마장면 오천리 116번지 1층","category":"일반휴게음식 - 일반한식"}]},{"lat":"37.252995781","long":"127.35244179","items":[{"name":"이천자전거","tel":"031-631-8989","addr":"경기도 이천시 마장면 오천리 281-13번지","category":"레져용품 - 스포츠·레져용품"}]},{"lat":"37.250275146","long":"127.3492169","items":[{"name":"인덕기계","tel":"031-634-7328","addr":"경기도 이천시 마장면 오천리 327-3번지","category":"주방용구 - 주방용구"}]},{"lat":"37.245692169","long":"127.36025242","items":[{"name":"자동차 출장 서비스","tel":"","addr":"경기도 이천시 마장면 오천리 82-4번지 2층 206호","category":"자동차정비 유지 - 자동차정비"},{"name":"중앙바이오가축약품","tel":"031-631-9973","addr":"경기도 이천시 마장면 오천리 82-4번지 1층 102호","category":"기타의료기관 - 동물병원"}]},{"lat":"37.254107881","long":"127.35113939","items":[{"name":"장터 포장마차","tel":"031-636-5457","addr":"경기도 이천시 마장면 오천리 278-8번지","category":"일반휴게음식 - 일반한식"},{"name":"장터포장마차","tel":"031-636-5457","addr":"경기도 이천시 마장면 오천리 278-8번지 1층","category":"일반휴게음식 - 일반한식"},{"name":"호식이두마리치킨오천점","tel":"031-635-9922","addr":"경기도 이천시 마장면 오천리 278-8번지","category":"일반휴게음식 - 스넥"}]},{"lat":"37.253882396","long":"127.35121726","items":[{"name":"장터미용실","tel":"031-633-7622","addr":"경기도 이천시 마장면 오천리 279-4","category":"보건위생 - 미용원"}]},{"lat":"37.246329292","long":"127.34899597","items":[{"name":"주식회사 대성에프앤","tel":"031-633-5505","addr":"경기도 이천시 마장면 오천리 332-29번지","category":"신변잡화 - 기타잡화"}]},{"lat":"37.25432545","long":"127.35068952","items":[{"name":"주식회사 태종건설","tel":"031-634-8005","addr":"경기도 이천시 마장면 오천리 274-56번지","category":"용역 서비스 - 기타용역서비스"}]},{"lat":"37.238862502","long":"127.35113687","items":[{"name":"쪽빛나라","tel":"031-631-0118","addr":"경기도 이천시 마장면 오천리 193-1번지","category":"학원 - 기타 교육기관"},{"name":"한국천연쪽협동조합","tel":"031-631-0118","addr":"경기도 이천시 마장면 오천리 193-1번지","category":"직물 - 옷감·직물"}]},{"lat":"37.25240839","long":"127.3530252","items":[{"name":"청송부대찌개","tel":"031-634-3476","addr":"경기도 이천시 마장면 오천리 281-17번지 외2필지 1층","category":"일반휴게음식 - 일반한식"}]},{"lat":"37.254803947","long":"127.35036483","items":[{"name":"큰맘할매순대국.뼈감자탕(마장점)","tel":"031-633-2144","addr":"경기도 이천시 마장면 오천리 275-1번지","category":"일반휴게음식 - 일반한식"}]},{"lat":"37.249298855","long":"127.35639217","items":[{"name":"큰별어린이집[아이행복]","tel":"031-632-0056","addr":"경기도 이천시 마장면 오천리 63번지","category":"학원 - 유아원"}]},{"lat":"37.249164375","long":"127.35616612","items":[{"name":"큰별유치원[아이행복]","tel":"031-632-0056","addr":"경기도 이천시 마장면 오천리 65","category":"학원 - 유치원"}]},{"lat":"37.25463196","long":"127.35063456","items":[{"name":"패션의류","tel":"031-632-9960","addr":"경기도 이천시 마장면 오천리 275-3","category":"의류 - 정장"},{"name":"환상노래방","tel":"031-631-2588","addr":"경기도 이천시 마장면 오천리 275-3번지","category":"레저업소 - 노 래 방"}]},{"lat":"37.254297492","long":"127.351005","items":[{"name":"피자스쿨(이천마장점)","tel":"031-633-7774","addr":"경기도 이천시 마장면 오천리 277-5번지 1층","category":"일반휴게음식 - 서양음식"}]},{"lat":"37.249188173","long":"127.35724826","items":[{"name":"한국타이어마장(대)","tel":"031-632-0366","addr":"경기도 이천시 마장면 오천리 59-11번지","category":"자동차정비 유지 - 자동차시트·타이어"}]},{"lat":"37.247662729","long":"127.34902461","items":[{"name":"향기나리","tel":"","addr":"경기도 이천시 마장면 오천리 330-5번지","category":"신변잡화 - 기타잡화"}]},{"lat":"37.24983247","long":"127.35571838","items":[{"name":"현대오천카서비스","tel":"031-631-3195","addr":"경기도 이천시 마장면 오천리 64-1","category":"자동차정비 유지 - 자동차정비"}]},{"lat":"37.244887167","long":"127.36127423","items":[{"name":"형제공업사","tel":"031-632-2226","addr":"경기도 이천시 마장면 오천리 114-1","category":"건축자재 - 기타건축자재"}]}]