[{"lat":"37.380138711","long":"126.78013763","items":[{"name":"21세기헤어클럽","tel":"031-317-5560","addr":"경기도 시흥시 장곡동 803-3번지","category":"개인서비스업 - 미용실"},{"name":"더스킨화장품","tel":"031-318-8085","addr":"경기도 시흥시 장곡동 803-3번지 노마진프라자 101호","category":"소매업 - 화장품"},{"name":"엘 피아노 음악학원","tel":"031-318-0248","addr":"경기도 시흥시 장곡동 803-3번지 노마진프라자 201호","category":"교육서비스업 - 음악학원"},{"name":"참나무 숯불 사우나","tel":"031-314-1919","addr":"경기도 시흥시 장곡동 803-3번지 지하1층","category":"개인서비스업 - 목욕장업"},{"name":"호식이두마리치킨 장곡점","tel":"031-435-6060","addr":"경기도 시흥시 장곡동 803-3번지","category":"음식점업 - 치킨"}]},{"lat":"37.378996502","long":"126.78610244","items":[{"name":"BBQ치킨 연성점","tel":"031-317-9282","addr":"경기도 시흥시 장곡동 823-3번지 106호","category":"음식점업 - 치킨"},{"name":"경희대석사월드태권도장","tel":"031-318-1484","addr":"경기도 시흥시 장곡동 823-3번지 타미나프라자 3층","category":"교육서비스업 - 태권도장"},{"name":"샐리","tel":"031-435-0603","addr":"경기도 시흥시 장곡동 823-3번지","category":"소매업 - 의류"},{"name":"생선지존","tel":"031-317-4548","addr":"경기도 시흥시 장곡동 823-3번지 타미나프라자 109~111호","category":"음식점업 - 한식"},{"name":"에이스 미용재료","tel":"031-318-3223","addr":"경기도 시흥시 장곡동 823-3번지","category":"소매업 - 미용재료"},{"name":"이불잡화할인매장 다온누림","tel":"","addr":"경기도 시흥시 장곡동 823-3번지 타미나프라자 106호","category":"소매업 - 이불,잡화"},{"name":"장곡식자재마트","tel":"","addr":"경기도 시흥시 장곡동 823-3번지 B01, B02호","category":"소매업 - 슈퍼마켓"},{"name":"중앙바둑보습학원","tel":"031-317-3147","addr":"경기도 시흥시 장곡동 823-3번지 티마나프라자 307호","category":"교육서비스업 - 바둑학원"},{"name":"타미나골프클럽","tel":"031-404-6767","addr":"경기도 시흥시 장곡동 823-3번지 402, 403, 405일부호, 406, 407호","category":"스포츠및여가관련서비스업 - 실내스크린"}]},{"lat":"37.377495458","long":"126.78319384","items":[{"name":"BHC","tel":"031-318-5955","addr":"경기도 시흥시 장곡동 811-3번지 연성쉐르빌아파트 101호","category":"음식점업 - 치킨"},{"name":"나들이찬방","tel":"031-315-1287","addr":"경기도 시흥시 장곡동 811-3번지 연성쉐르빌 116호","category":"소매업 - 반찬"},{"name":"닭발타임","tel":"031-311-2192","addr":"경기도 시흥시 장곡동 811-3번지 연성쉐르빌아파트","category":"음식점업 - 한식"},{"name":"쁘띠 플레르","tel":"031-314-0829","addr":"경기도 시흥시 장곡동 811-3번지 연성쉐르빌아파트 1층 122호","category":"소매업 - 식물, 생화, 조화"},{"name":"산삼과산야초건강원","tel":"031-404-4887","addr":"경기도 시흥시 장곡동 811-3번지 연성쉐르빌아파트","category":"소매업 - 즉석가공식품"},{"name":"얌얌불닭발","tel":"031-435-0708","addr":"경기도 시흥시 장곡동 811-3번지 연성쉐르빌아파트 상가동 112호","category":"음식점업 - 기타음식"},{"name":"장곡선지해장국","tel":"031-318-3315","addr":"경기도 시흥시 장곡동 811-3번지 연성쉐르빌아파트 109호","category":"음식점업 - 한식"},{"name":"주거래처","tel":"031-311-1808","addr":"경기도 시흥시 장곡동 811-3번지 연성쉐르빌 110호","category":"음식점업 - 한식"},{"name":"쭈꾸미랑바다친구들","tel":"031-317-8096","addr":"경기도 시흥시 장곡동 811-3번지 연성쉐르빌아파트 106호","category":"음식점업 - 음식업"},{"name":"카페보르나","tel":"031-317-0372","addr":"경기도 시흥시 장곡동 811-3번지 연성쉐르빌아파트 114호","category":"음식점업 - 카페"},{"name":"헤어폴리스","tel":"031-404-2600","addr":"경기도 시흥시 장곡동 811-3번지 연성쉐르빌 117호","category":"개인서비스업 - 미용실"}]},{"lat":"37.378970856","long":"126.78685898","items":[{"name":"IGSE아카데미장곡학원","tel":"031-318-0220","addr":"경기도 시흥시 장곡동 823-7번지 501,503호","category":"교육서비스업 - 어학원, 화상영어"},{"name":"K스크린골프","tel":"031-317-0773","addr":"경기도 시흥시 장곡동 823-7번지 에이스프라자 지하1층","category":"개인서비스업 - 골프연습장"},{"name":"경희대장하태권도","tel":"031-318-0088","addr":"경기도 시흥시 장곡동 823-7번지 에이스프라자 301호","category":"교육서비스업 - 태권도"},{"name":"골든벨독서실","tel":"031-435-9012","addr":"경기도 시흥시 장곡동 823-7번지 403,404호","category":"개인서비스업 - 독서실"},{"name":"뉴스터디수학학원 ","tel":"031-404-7555","addr":"경기도 시흥시 장곡동 823-7번지 3층 303호 (에이스프라자제)","category":"교육서비스업 - 보습학원"},{"name":"돈스김밥","tel":"031-317-2234","addr":"경기도 시흥시 장곡동 823-7번지 에이스프라자 101호","category":"음식점업 - 분식"},{"name":"비상잉글리시아이장곡학원","tel":"031-317-9619","addr":"경기도 시흥시 장곡동 823-7번지 에이스프라자 201호","category":"교육서비스업 - 어학학원"},{"name":"예원사진관","tel":"031-404-4250","addr":"경기도 시흥시 장곡동 823-7번지 에이스프라자 107호","category":"개인서비스업 - 사진촬영"},{"name":"장곡검도관","tel":"031-318-8106","addr":"경기도 시흥시 장곡동 823-7번지 에이스프라자 203호","category":"교육서비스업 - 검도관"},{"name":"전설의핫도그","tel":"031-317-4689","addr":"경기도 시흥시 장곡동 823-7번지 에이스프라자 105호","category":"음식점업 - 핫도그"},{"name":"진마루","tel":"031-317-0154","addr":"경기도 시흥시 장곡동 823-7번지 에이스프라자 109호","category":"음식점업 - 한식"},{"name":"치킨텐연성점","tel":"031-404-1053","addr":"경기도 시흥시 장곡동 823-7번지 에이스프라자 103호","category":"음식점업 - 기타음식"},{"name":"퀸스토리","tel":"031-705-3744","addr":"경기도 시흥시 장곡동 823-7번지 에이스프라자 104호","category":"개인서비스업 - 수선"},{"name":"포시즌어학원","tel":"031-481-9960","addr":"경기도 시흥시 장곡동 823-7번지 에이스프라자 401호","category":"교육서비스업 - 영어교습소"}]},{"lat":"37.380445095","long":"126.7801593","items":[{"name":"MK세탁전문점","tel":"031-503-8484","addr":"경기도 시흥시 장곡동 803-1번지","category":"개인서비스업 - 세탁업"}]},{"lat":"37.379914819","long":"126.7808609","items":[{"name":"㈜윈 win","tel":"","addr":"경기도 시흥시 장곡동 801-5번지 프로타워 2층","category":"교육서비스업 - 스포츠,축구교실"},{"name":"삼성영어장곡학원","tel":"","addr":"경기도 시흥시 장곡동 801-5번지 1층","category":"교육서비스업 - 영어학원"}]},{"lat":"37.378438102","long":"126.78136203","items":[{"name":"감탄떡볶이 장곡점","tel":"031-317-9743","addr":"경기도 시흥시 장곡동 807번지 숲속마을아파트 상가동 102호","category":"음식점업 - 분식"},{"name":"라푼젤 ","tel":"031-437-6387","addr":"경기도 시흥시 장곡동 807번지 숲속마을벽산임광아파트","category":"소매업 - 소품"},{"name":"맛나김밥","tel":"031-317-5233","addr":"경기도 시흥시 장곡동 807번지 숲속마을아파트 상가 105호","category":"음식점업 - 분식"},{"name":"부동산랜드 공인중개사무소","tel":"031-317-4001","addr":"경기도 시흥시 장곡동 807번지 숲속마을아파트 분산상가 101호","category":"개인서비스업 - 부동산중개업"},{"name":"뷰티클럽","tel":"031-312-3337","addr":"경기도 시흥시 장곡동 807번지 숲속마을@제주상가동 207호동","category":"개인서비스업 - 피부관리,화장품"},{"name":"서울떡집","tel":"031-317-0377","addr":"경기도 시흥시 장곡동 807번지 숲속마을벽산임광아파트 108호","category":"제조업 - 떡"},{"name":"아이스크림 할인점 (장곡점)","tel":"","addr":"경기도 시흥시 장곡동 807번지 제1동 107호","category":"소매업 - 기타 음.식료품 위주 종합"},{"name":"연성정육점","tel":"031-318-0092","addr":"경기도 시흥시 장곡동 807번지","category":"소매업 - 식육"},{"name":"장곡 숲속 홈스쿨","tel":"","addr":"경기도 시흥시 장곡동 807번지 숲속마을벽산임광아파트","category":"교육서비스업 - 개인과외"},{"name":"장곡공인중개사무소","tel":"031-317-9977","addr":"경기도 시흥시 장곡동 807번지 숲속마을아파트 106호","category":"개인서비스업 - 부동산중개"}]},{"lat":"37.378499165","long":"126.78513288","items":[{"name":"건강당약국","tel":"031-503-0771","addr":"경기도 시흥시 장곡동 820-3번지","category":"보건업 - 약국"},{"name":"경기 나다움 심리상담센터","tel":"031-317-2756","addr":"경기도 시흥시 장곡동 820-3번지 부석프라자 308호","category":"개인서비스업 - 심리상담"},{"name":"경기두레생협 연성점","tel":"031-435-0071","addr":"경기도 시흥시 장곡동 820-3번지 112~113호","category":"소매업 - 슈퍼마켓"},{"name":"경인보안설비","tel":"031-506-1377","addr":"경기도 시흥시 장곡동 820-3번지 부석프라자 120호","category":"개인서비스업 - 인터폰,CCTV설치,"},{"name":"김밥나라","tel":"031-404-2325","addr":"경기도 시흥시 장곡동 820-3번지 부석프라자 101호","category":"음식점업 - 간이음식"},{"name":"메디팜선약국","tel":"031-317-2426","addr":"경기도 시흥시 장곡동 820-3번지","category":"보건업 - 의약품,동물약"},{"name":"바트커피","tel":"031-312-6351","addr":"경기도 시흥시 장곡동 820-3번지 부석프라자 204호","category":"음식점업 - 휴게음식"},{"name":"사랑한의원","tel":"031-317-5477","addr":"경기도 시흥시 장곡동 820-3번지 부석프라자 307호","category":"보건업 - 한의원"},{"name":"송도 불향 쭈꾸미","tel":"031-318-8811","addr":"경기도 시흥시 장곡동 820-3번지","category":"음식점업 - 한식"},{"name":"스마일약국","tel":"031-317-9191","addr":"경기도 시흥시 장곡동 820-3번지 부석프라자 302호","category":"보건업 - 보건의료"},{"name":"알파오메가","tel":"031-435-0000","addr":"경기도 시흥시 장곡동 820-3번지 1층","category":"소매업 - 문구, 생활용품"},{"name":"연성떡집","tel":"031-318-6837","addr":"경기도 시흥시 장곡동 820-3번지","category":"제조업 - 떡류"},{"name":"연성문고","tel":"031-318-6912","addr":"경기도 시흥시 장곡동 820-3번지 부석프라자 1층 115호","category":"소매업 - 서적,문구"},{"name":"와라카이","tel":"031-435-7722","addr":"경기도 시흥시 장곡동 820-3번지 부석프라자 601호","category":"개인서비스업 - 대중탕,전대업"},{"name":"와라카이 휘트니스","tel":"031-435-7222","addr":"경기도 시흥시 장곡동 820-3번지 5층","category":"개인서비스업 - 헬스클럽"},{"name":"이은아헤어아트","tel":"031-404-2766","addr":"경기도 시흥시 장곡동 820-3번지","category":"개인서비스업 - 미용업"},{"name":"일류참치","tel":"031-314-3379","addr":"경기도 시흥시 장곡동 820-3번지 부석프라자 1층 117호","category":"음식점업 - 일식"},{"name":"장충동참족발보쌈","tel":"031-435-5888","addr":"경기도 시흥시 장곡동 820-3번지 부석프라자 118호","category":"음식점업 - 한식"},{"name":"지원보석","tel":"031-313-1814","addr":"경기도 시흥시 장곡동 820-3번지","category":"소매업 - 귀금속"},{"name":"코끼리약국","tel":"031-318-3355","addr":"경기도 시흥시 장곡동 820-3번지 부석프라자 402호","category":"보건업 - 의약품소매"},{"name":"태극김밥","tel":"031-318-8331","addr":"경기도 시흥시 장곡동 820-3번지 105~106호","category":"음식점업 - 분식"},{"name":"해법장곡이지학원","tel":"070-8747-8797","addr":"경기도 시흥시 장곡동 820-3번지 부석프라자 406호","category":"교육서비스업 - 영어학원"},{"name":"홈스마일 장곡동점","tel":"031-318-0808","addr":"경기도 시흥시 장곡동 820-3번지 부석프라자 116호","category":"소매업 - 침구류"},{"name":"힐스템생활건강 장곡지점","tel":"031-313-1462","addr":"경기도 시흥시 장곡동 820-3번지 부석프라자 2층 206호","category":"소매업 - 온열매트,생필품"}]},{"lat":"37.37968908","long":"126.78060188","items":[{"name":"건강한녹용원","tel":"031-492-6861","addr":"경기도 시흥시 장곡동 802-2번지 금강프라자 109호","category":"제조업 - 건강원"},{"name":"굿샘학원","tel":"031-404-3579","addr":"경기도 시흥시 장곡동 802-2번지 금강프라자 307호","category":"교육서비스업 - 보습학원"},{"name":"담은손만두찐빵","tel":"031-317-7550","addr":"경기도 시흥시 장곡동 802-2번지 금강프라자 1층 114호","category":"음식점업 - 만두"},{"name":"롤앤파스타","tel":"031-503-1282","addr":"경기도 시흥시 장곡동 802-2번지 금강프라자 113호","category":"음식점업 - 음식점"},{"name":"림헤어","tel":"031-314-1518","addr":"경기도 시흥시 장곡동 802-2번지 금강프라자 115호","category":"개인서비스업 - 미용"},{"name":"비상잉글리시아이최강학원","tel":"","addr":"경기도 시흥시 장곡동 802-2번지 금강프라자 3층 304호","category":"교육서비스업 - 보습학원"},{"name":"어깨동무수학","tel":"","addr":"경기도 시흥시 장곡동 802-2번지 금강프라자 402호","category":"교육서비스업 - 수학교습소"},{"name":"여우샘논술교실교습소","tel":"","addr":"경기도 시흥시 장곡동 802-2번지 금강프라자 303호","category":"교육서비스업 - 교습소"},{"name":"용인대장곡태권도","tel":"","addr":"경기도 시흥시 장곡동 802-2번지 금강프라자 206호","category":"교육서비스업 - 태권도"},{"name":"유타스학원","tel":"031-317-3405","addr":"경기도 시흥시 장곡동 802-2번지 금강프라자 202호","category":"교육서비스업 - 학원"},{"name":"정관장홍삼장곡점","tel":"031-504-2304","addr":"경기도 시흥시 장곡동 802-2번지 금강프라자 104호","category":"소매업 - 홍삼"},{"name":"쥴리어드음악학원","tel":"031-317-0937","addr":"경기도 시흥시 장곡동 802-2번지 금강프라자 302호","category":"교육서비스업 - 음악학원"},{"name":"킴스스튜디오","tel":"031-503-4747","addr":"경기도 시흥시 장곡동 802-2번지 금강프라자","category":"개인서비스업 - 사진관"},{"name":"한빛철물마트","tel":"031-435-0483","addr":"경기도 시흥시 장곡동 802-2번지","category":"소매업 - 철물,전기,조명,도어락,공"},{"name":"해법명품엠수학전문학원","tel":"031-317-9997","addr":"경기도 시흥시 장곡동 802-2번지 금강프라자 407호","category":"교육서비스업 - 보습학원"}]},{"lat":"37.376581121","long":"126.78088201","items":[{"name":"건반세상음악교습소","tel":"","addr":"경기도 시흥시 장곡동 806번지 숲속마을아파트 상가동 205호","category":"교육서비스업 - 음악교습소"},{"name":"서울공인중개사사무소","tel":"","addr":"경기도 시흥시 장곡동 806번지 상가동 101, 106호","category":"개인서비스업 - 부동산중개업"},{"name":"숲속Mart","tel":"031-317-5505","addr":"경기도 시흥시 장곡동 806번지 숲속마을아파트 103동 104호","category":"소매업 - 슈퍼, 담배"},{"name":"오페라헤어","tel":"031-317-3864","addr":"경기도 시흥시 장곡동 806번지 숲속마을아파트 상가동 105호","category":"개인서비스업 - 미용"}]},{"lat":"37.378134542","long":"126.78285327","items":[{"name":"고기나라","tel":"031-317-2232","addr":"경기도 시흥시 장곡동 810-1번지","category":"소매업 - 식육판매업"},{"name":"참아름농원","tel":"031-318-5538","addr":"경기도 시흥시 장곡동 810-1번지 101호","category":"소매업 - 청과,야채"},{"name":"케이투헤어","tel":"031-317-2520","addr":"경기도 시흥시 장곡동 810-1번지 103호","category":"개인서비스업 - 미용, 네일"}]},{"lat":"37.377390762","long":"126.78504577","items":[{"name":"고기나라","tel":"031-317-6555","addr":"경기도 시흥시 장곡동 818-3번지","category":"음식점업 - 일반음식점"}]},{"lat":"37.378028433","long":"126.78393746","items":[{"name":"고기마루","tel":"031-435-8211","addr":"경기도 시흥시 장곡동 817-1번지 센타빌딩 104호","category":"소매업 - 식육"},{"name":"리안(장곡)","tel":"031-317-7020","addr":"경기도 시흥시 장곡동 817-1번지 센타빌딩 2층 203~4호","category":"개인서비스업 - 미용업"},{"name":"인베이커리","tel":"031-313-5259","addr":"경기도 시흥시 장곡동 817-1번지","category":"음식점업 - 제과"}]},{"lat":"37.378640301","long":"126.78349535","items":[{"name":"공원식당","tel":"031-317-0464","addr":"경기도 시흥시 장곡동 813-4번지","category":"음식점업 - 한식"}]},{"lat":"37.377967468","long":"126.78507797","items":[{"name":"공터우리학원","tel":"031-365-5509","addr":"경기도 시흥시 장곡동 819-2번지 중앙프라자 203~4호, 208호","category":"교육서비스업 - 보습학원"},{"name":"놀작마이아트미술학원","tel":"031-509-5259","addr":"경기도 시흥시 장곡동 819-2번지 401,402호","category":"교육서비스업 - 예술학원"},{"name":"드림골","tel":"031-404-7117","addr":"경기도 시흥시 장곡동 819-2번지","category":"음식점업 - 한식"},{"name":"마녀뷰티","tel":"031-318-0508","addr":"경기도 시흥시 장곡동 819-2번지 한샘학원 201호","category":"개인서비스업 - 미용업"},{"name":"봉평푸드","tel":"031-404-3626","addr":"경기도 시흥시 장곡동 819-2번지 중앙프라자 108호","category":"음식점업 - 메밀막국수, 해물탕"},{"name":"생각나무해법논술","tel":"031-431-9999","addr":"경기도 시흥시 장곡동 819-2번지 한샘학원 2층 202호","category":"교육서비스업 - 논술"},{"name":"연정보통신","tel":"031-317-2330","addr":"경기도 시흥시 장곡동 819-2번지 중앙프라자 1층 104호","category":"소매업 - 이동통신"},{"name":"예지원음악학원","tel":"031-318-0209","addr":"경기도 시흥시 장곡동 819-2번지 중앙프라자 2층","category":"교육서비스업 - 음악학원"},{"name":"장곡스터디학원","tel":"031-404-8910","addr":"경기도 시흥시 장곡동 819-2번지 한샘학원 207호","category":"교육서비스업 - 보습학원"}]},{"lat":"37.378585465","long":"126.78307776","items":[{"name":"과일촌","tel":"031-311-0013","addr":"경기도 시흥시 장곡동 809-7번지 1층","category":"소매업 - 과일"}]},{"lat":"37.378724583","long":"126.78522256","items":[{"name":"국민생고기","tel":"031-503-3529","addr":"경기도 시흥시 장곡동 821-7번지 1층","category":"음식점업 - 음식"}]},{"lat":"37.378002176","long":"126.78435528","items":[{"name":"국수나무 장곡점","tel":"031-503-2345","addr":"경기도 시흥시 장곡동 817-3번지 형제빌딩 102호","category":"음식점업 - 음식"},{"name":"하나약국","tel":"031-318-4613","addr":"경기도 시흥시 장곡동 817-3번지","category":"보건업 - 약국"}]},{"lat":"37.377391137","long":"126.78524899","items":[{"name":"김은선 아트플라워","tel":"031-318-6447","addr":"경기도 시흥시 장곡동 818-4번지","category":"소매업 - 화훼"},{"name":"최구현의 돼창마을","tel":"031-318-0036","addr":"경기도 시흥시 장곡동 818-4번지 106호","category":"음식점업 - 음식점"}]},{"lat":"37.377749852","long":"126.78433343","items":[{"name":"까사홈푸드","tel":"031-314-9288","addr":"경기도 시흥시 장곡동 817-4번지 영흥 II 101호","category":"음식점업 - 음식"},{"name":"노랑통닭","tel":"031-317-9229","addr":"경기도 시흥시 장곡동 817-4번지 영흥 II 103호","category":"음식점업 - 기타음식"},{"name":"백대산웰빙주점","tel":"031-318-2546","addr":"경기도 시흥시 장곡동 817-4번지 영흥 II 1층 101호","category":"음식점업 - 음식업"},{"name":"폰세상","tel":"","addr":"경기도 시흥시 장곡동 817-4번지 영흥II 102호","category":"소매업 - 통신기기"}]},{"lat":"37.378802482","long":"126.78349488","items":[{"name":"다미케이크","tel":"","addr":"경기도 시흥시 장곡동 813-3번지 102호","category":"음식점업 - 디저트케이크"}]},{"lat":"37.379688145","long":"126.78010509","items":[{"name":"대원조명","tel":"031-404-3165","addr":"경기도 시흥시 장곡동 803-6번지 연성프라자 101호","category":"제조업 - 전기전자자동제어장치"},{"name":"마임 시흥연성","tel":"031-317-1719","addr":"경기도 시흥시 장곡동 803-6번지 연성프라자 403호","category":"소매업 - 식품,화장품"},{"name":"시흥연성어학원","tel":"031-317-0669","addr":"경기도 시흥시 장곡동 803-6번지 연성프라자 3층","category":"교육서비스업 - 교육서비스"},{"name":"아라네일","tel":"","addr":"경기도 시흥시 장곡동 803-6번지 연성프라자 103호","category":"개인서비스업 - 네일아트"},{"name":"연이종합상사","tel":"031-505-8891","addr":"경기도 시흥시 장곡동 803-6번지 105,106호","category":"소매업 - 스포츠용품"},{"name":"인우시스템","tel":"031-317-6181","addr":"경기도 시흥시 장곡동 803-6번지 연성프라자 104호","category":"소매업 - 컴퓨터, cctv"},{"name":"정화의오후","tel":"","addr":"경기도 시흥시 장곡동 803-6번지 연성프라자 108호","category":"소매업 - 공방"},{"name":"페리카나 연성점","tel":"031-317-6977","addr":"경기도 시흥시 장곡동 803-6번지","category":"음식점업 - 기타음식점"},{"name":"홀인원조경","tel":"031-505-8891","addr":"경기도 시흥시 장곡동 803-6번지 연성프라자 106호","category":"기타 - 인테리어,조경공사"},{"name":"황은주 수학학원","tel":"","addr":"경기도 시흥시 장곡동 803-6번지 연성프라자 305호","category":"교육서비스업 - 수학학원"}]},{"lat":"37.378715822","long":"126.78535807","items":[{"name":"대패가","tel":"031-317-5359","addr":"경기도 시흥시 장곡동 821-6번지 1층","category":"음식점업 - 음식점"},{"name":"무혼도장","tel":"031-404-6421","addr":"경기도 시흥시 장곡동 821-6번지 2층","category":"교육서비스업 - 특공무술"}]},{"lat":"37.379162988","long":"126.78355028","items":[{"name":"더샾(The shop)","tel":"031-404-5740","addr":"경기도 시흥시 장곡동 814-2번지","category":"소매업 - 의류"}]},{"lat":"37.378639986","long":"126.78332599","items":[{"name":"더예쁜날","tel":"","addr":"경기도 시흥시 장곡동 813-9, 1층","category":"개인서비스업 - 피부,네일"},{"name":"왁스헤어","tel":"070-4065-7773","addr":"경기도 시흥시 장곡동 813-9번지 101호","category":"개인서비스업 - 미용업"}]},{"lat":"37.377802575","long":"126.78361069","items":[{"name":"더족발 장곡점","tel":"031-317-9277","addr":"경기도 시흥시 장곡동 812-2번지","category":"음식점업 - 한식"},{"name":"드림디포시흥시청점","tel":"031-318-1199","addr":"경기도 시흥시 장곡동 812-2번지","category":"소매업 - 문구,사무용품"},{"name":"소소한우곱창구이","tel":"","addr":"경기도 시흥시 장곡동 812-2번지","category":"음식점업 - 한식"},{"name":"시스템학원","tel":"031-404-0910","addr":"경기도 시흥시 장곡동 812-2번지 한림빌딩 501호","category":"교육서비스업 - 입시학원"},{"name":"하이덴치과","tel":"031-435-2875","addr":"경기도 시흥시 장곡동 812-2번지 한림빌딩 3층","category":"보건업 - 치과"},{"name":"해주","tel":"031-317-9410","addr":"경기도 시흥시 장곡동 812-2번지 한림빌딩 105-1호","category":"음식점업 - 한식"}]},{"lat":"37.378946391","long":"126.78335897","items":[{"name":"도로시 카페","tel":"031-317-9042","addr":"경기도 시흥시 장곡동 813-1번지 101호","category":"음식점업 - 카페"}]},{"lat":"37.378750989","long":"126.78488376","items":[{"name":"돈통마늘보쌈","tel":"031-313-5382","addr":"경기도 시흥시 장곡동 821-9번지 101호","category":"음식점업 - 한식"}]},{"lat":"37.380276653","long":"126.78649393","items":[{"name":"동네꽃집","tel":"","addr":"경기도 시흥시 장곡동 828번지 진말대우우성아파트 상가동 107호","category":"소매업 - 꽃"},{"name":"탑공인중개사사무소","tel":"031-317-0770","addr":"경기도 시흥시 장곡동 828번지 대우우성 상가동 103호","category":"개인서비스업 - 공인중개사"},{"name":"헤어갤러리","tel":"031-318-2800","addr":"경기도 시흥시 장곡동 828번지 대우우성 상가 106호","category":"개인서비스업 - 미용업"}]},{"lat":"37.380190661","long":"126.77901969","items":[{"name":"동양그린마트","tel":"031-318-7999","addr":"경기도 시흥시 장곡동 804번지","category":"소매업 - 슈퍼"}]},{"lat":"37.3779968","long":"126.78633112","items":[{"name":"디자인헤어코디","tel":"031-404-4845","addr":"경기도 시흥시 장곡동 824번지 연성3차대우아파트 상가동 101호","category":"개인서비스업 - 미용"},{"name":"크린라이프 대우세탁","tel":"031-318-5443","addr":"경기도 시흥시 장곡동 824번지 대우3차아파트 상가 103호","category":"개인서비스업 - 세탁소"}]},{"lat":"37.378970134","long":"126.78646381","items":[{"name":"런던베이직학생복","tel":"031-404-8090","addr":"경기도 시흥시 장곡동 823-5번지 1층","category":"소매업 - 학생복"},{"name":"수발레무용학원","tel":"","addr":"경기도 시흥시 장곡동 823-5번지 동서빌딩 4층","category":"교육서비스업 - 무용학원"},{"name":"이루다영어수학학원","tel":"031-318-8117","addr":"경기도 시흥시 장곡동 823-5번지","category":"교육서비스업 - 영어,수학학원"},{"name":"지앤비이루다학원","tel":"031-315-8117","addr":"경기도 시흥시 장곡동 823-5번지 2층","category":"교육서비스업 - 보습학원"}]},{"lat":"37.37880223","long":"126.78335939","items":[{"name":"루비 쥬얼리","tel":"","addr":"경기도 시흥시 장곡동 813-10번지 102호","category":"소매업 - 쥬얼리"},{"name":"올리브","tel":"","addr":"경기도 시흥시 장곡동 813-10번지 101호","category":"소매업 - 의류"}]},{"lat":"37.378946705","long":"126.78352833","items":[{"name":"마벨헤어","tel":"031-319-8125","addr":"경기도 시흥시 장곡동 813-2번지 101호","category":"개인서비스업 - 미용실"}]},{"lat":"37.377891229","long":"126.7828314","items":[{"name":"만나꼬마김밥장곡점","tel":"031-318-0555","addr":"경기도 시흥시 장곡동 810-7번지 1층 일부호","category":"음식점업 - 분식"},{"name":"황금춘천닭갈비","tel":"031-435-5371","addr":"경기도 시흥시 장곡동 810-7번지","category":"음식점업 - 한식"}]},{"lat":"37.379085027","long":"126.7852441","items":[{"name":"맘스터치 연성점","tel":"031-404-9291","addr":"경기도 시흥시 장곡동 822-4번지","category":"음식점업 - 기타음식"}]},{"lat":"37.378885828","long":"126.78471401","items":[{"name":"명가해물탕","tel":"031-317-6123","addr":"경기도 시흥시 장곡동 821-1번지 10","category":"음식점업 - 한식"},{"name":"흥부네 쌈밥","tel":"031-317-3509","addr":"경기도 시흥시 장곡동 821-1번지","category":"음식점업 - 한식"}]},{"lat":"37.378467977","long":"126.78288616","items":[{"name":"모짜르트 음악교습소","tel":"031-318-5374","addr":"경기도 시흥시 장곡동 809-11번지 1층","category":"교육서비스업 - 음악학원"},{"name":"예일영수학원","tel":"031-318-3002","addr":"경기도 시흥시 장곡동 809-11번지 2층","category":"교육서비스업 - 영수학원"}]},{"lat":"37.378750177","long":"126.78444343","items":[{"name":"몽땅생고기장곡점","tel":"031-500-8835","addr":"경기도 시흥시 장곡동 816-3번지 1층","category":"음식점업 - 일반음식점(고기)"}]},{"lat":"37.379111142","long":"126.78474723","items":[{"name":"미소찬","tel":"","addr":"경기도 시흥시 장곡동 822-1번지 예손교회 1층 103호","category":"소매업 - 반찬가게"},{"name":"엘리의작은공방","tel":"","addr":"경기도 시흥시 장곡동 822-1번지 예손교회 101호","category":"개인서비스업 - 공방(손뜨개)"},{"name":"웰빙건강센터","tel":"031-404-1243","addr":"경기도 시흥시 장곡동 822-1번지 예손교회 102호","category":"소매업 - 건강식품"},{"name":"헤어브러시","tel":"031-314-5530","addr":"경기도 시흥시 장곡동 822-1번지","category":"개인서비스업 - 미용실"}]},{"lat":"37.378971248","long":"126.7870735","items":[{"name":"미예뜰키즈빌학원","tel":"031-318-3566","addr":"경기도 시흥시 장곡동 823-8번지 (402~403호)","category":"교육서비스업 - 미술"},{"name":"스낵그루","tel":"070-7576-0417","addr":"경기도 시흥시 장곡동 823-8번지 아카데미빌딩 1층 일부(102)호","category":"소매업 - 과자"},{"name":"예당음악학원","tel":"031-317-3938","addr":"경기도 시흥시 장곡동 823-8번지 아카데미빌딩 3층 303호","category":"교육서비스업 - 음악학원"},{"name":"원네일","tel":"031-503-4002","addr":"경기도 시흥시 장곡동 823-8번지 아카데미빌딩 103호","category":"개인서비스업 - 손톱관리"},{"name":"절대강자학원","tel":"031-318-1242","addr":"경기도 시흥시 장곡동 823-8번지 아카데미빌딩 201~203호","category":"교육서비스업 - 보습학원"},{"name":"초등영어전문YBM잉글루학원","tel":"031-317-8296","addr":"경기도 시흥시 장곡동 823-8번지 401~402호","category":"교육서비스업 - 일반교과학원"}]},{"lat":"37.378912358","long":"126.78444296","items":[{"name":"바다해물탕","tel":"031-318-2231","addr":"경기도 시흥시 장곡동 816-2번지 1층","category":"음식점업 - 일반음식점"}]},{"lat":"37.377774098","long":"126.78283174","items":[{"name":"백미옛날갈비","tel":"031-311-9901","addr":"경기도 시흥시 장곡동 810-6번지 1층","category":"음식점업 - 한식"},{"name":"참살이건강원","tel":"","addr":"경기도 시흥시 장곡동 810-6번지 102호","category":"소매업 - 건강원"}]},{"lat":"37.378720259","long":"126.78288543","items":[{"name":"병천옛날아우내순대","tel":"031-317-7076","addr":"경기도 시흥시 장곡동 809-13번지 1층","category":"음식점업 - 한식"}]},{"lat":"37.378750677","long":"126.78471441","items":[{"name":"불에꾼닭","tel":"031-318-9981","addr":"경기도 시흥시 장곡동 821-10번지 1층","category":"음식점업 - 음식"}]},{"lat":"37.381944544","long":"126.78705369","items":[{"name":"뷰티헤어샵","tel":"031-504-5220","addr":"경기도 시흥시 장곡동 829번지","category":"개인서비스업 - 미용업"},{"name":"스위트시스터즈","tel":"031-318-3156","addr":"경기도 시흥시 장곡동 829번지 진말삼환한진아파트 상가 106호","category":"음식점업 - 제과, 디저트"}]},{"lat":"37.378749864","long":"126.78427408","items":[{"name":"블루 글로벌 정보통신","tel":"031-317-4544","addr":"경기도 시흥시 장곡동 816-10번지","category":"소매업 - 통신기기판매"},{"name":"연성직거래 수산","tel":"031-435-3715","addr":"경기도 시흥시 장곡동 816-10번지","category":"음식점업 - 횟집"}]},{"lat":"37.379111454","long":"126.78491659","items":[{"name":"블루클럽 시흥연성점","tel":"031-318-7656","addr":"경기도 시흥시 장곡동 822-2번지 1층","category":"개인서비스업 - 미용"},{"name":"빼루와","tel":"","addr":"경기도 시흥시 장곡동 822-2번지 202호","category":"소매업 - 건강기능식품"}]},{"lat":"37.377390367","long":"126.78483125","items":[{"name":"블루핸즈현대자동차 장곡점","tel":"031-404-3153","addr":"경기도 시흥시 장곡동 818-2번지","category":"개인서비스업 - 자동차수리,자동차용품"},{"name":"카페키오라","tel":"031-318-9100","addr":"경기도 시흥시 장곡동 818-2번지 102호","category":"음식점업 - 카페"}]},{"lat":"37.378972582","long":"126.78290727","items":[{"name":"산책","tel":"031-404-4087","addr":"경기도 시흥시 장곡동 809-15번지","category":"소매업 - 건강기능식품"}]},{"lat":"37.379137338","long":"126.78429553","items":[{"name":"삼겹식당","tel":"","addr":"경기도 시흥시 장곡동 814-7번지 1층","category":"음식점업 - 기타음식"}]},{"lat":"37.379080703","long":"126.78290695","items":[{"name":"삼천리자전거 따르릉","tel":"031-404-6484","addr":"경기도 시흥시 장곡동 809-16번지","category":"스포츠및여가관련서비스업 - 자전거"}]},{"lat":"37.377724197","long":"126.78507867","items":[{"name":"서울깍두기 장곡점","tel":"031-312-2775","addr":"경기도 시흥시 장곡동 819-5번지 1층","category":"음식점업 - 한식"},{"name":"웅이네반찬","tel":"031-435-9947","addr":"경기도 시흥시 장곡동 819-5번지","category":"소매업 - 반찬가게"}]},{"lat":"37.37744278","long":"126.78393916","items":[{"name":"석기정돌솥부대찌개","tel":"031-311-1100","addr":"경기도 시흥시 장곡동 811-7번지 103호","category":"음식점업 - 한식"},{"name":"쉐프국밥","tel":"031-311-0903","addr":"경기도 시흥시 장곡동 811-7번지 101, 104호","category":"음식점업 - 한식"},{"name":"한솔식당","tel":"031-317-2299","addr":"경기도 시흥시 장곡동 811-7번지 102호","category":"음식점업 - 음식업"}]},{"lat":"37.379215917","long":"126.78294043","items":[{"name":"석사부동산","tel":"031-318-6000","addr":"경기도 시흥시 장곡동 809-1번지","category":"개인서비스업 - 부동산"},{"name":"시소","tel":"031-317-5806","addr":"경기도 시흥시 장곡동 809-1번지","category":"음식점업 - 기타음식점"},{"name":"티파니","tel":"","addr":"경기도 시흥시 장곡동 809-1번지","category":"소매업 - 의류"},{"name":"헤어J","tel":"031-506-4103","addr":"경기도 시흥시 장곡동 809-1번지","category":"개인서비스업 - 미용실"}]},{"lat":"37.381604361","long":"126.77855256","items":[{"name":"소담","tel":"031-495-9411","addr":"경기도 시흥시 장곡동 658-2번지","category":"음식점업 - 한식"}]},{"lat":"37.37546895","long":"126.7836062","items":[{"name":"수미가든","tel":"031-311-8253","addr":"경기도 시흥시 장곡동 553-1번지 , 1,2층","category":"음식점업 - 한식"}]},{"lat":"37.37916324","long":"126.78368577","items":[{"name":"수헤어","tel":"031-318-0829","addr":"경기도 시흥시 장곡동 814-3번지 1층","category":"개인서비스업 - 미용"},{"name":"창성상사","tel":"031-435-0917","addr":"경기도 시흥시 장곡동 814-3번지","category":"소매업 - 철물"}]},{"lat":"37.37772455","long":"126.78527061","items":[{"name":"시흥감자탕 장곡","tel":"","addr":"경기도 시흥시 장곡동 819-4번지 1층","category":"음식점업 - 한식"},{"name":"시흥감자탕 장곡","tel":"","addr":"경기도 시흥시 장곡동 819-4번지","category":"음식점업 - 한식"},{"name":"참숯 화로구이","tel":"","addr":"경기도 시흥시 장곡동 819-4번지","category":"음식점업 - 한식"}]},{"lat":"37.390915972","long":"126.780772","items":[{"name":"시흥시청(갯골생태공원)","tel":"","addr":"경기도 시흥시 장곡동 724-32번지 갯골생태공원","category":"기타 - 기타"}]},{"lat":"37.379136774","long":"126.78399069","items":[{"name":"시흥장곡 크리아트 미술학원","tel":"031-318-8253","addr":"경기도 시흥시 장곡동 814-5번지 2층","category":"교육서비스업 - 미술학원"},{"name":"웅이네국수","tel":"","addr":"경기도 시흥시 장곡동 814-5번지 1층","category":"음식점업 - 분식"},{"name":"이브자리 장곡점","tel":"031-317-4977","addr":"경기도 시흥시 장곡동 814-5번지","category":"소매업 - 이불"}]},{"lat":"37.378605953","long":"126.78440998","items":[{"name":"식육","tel":"031-317-9009","addr":"경기도 시흥시 장곡동 816-4번지 1층","category":"음식점업 - 고깃집"}]},{"lat":"37.379111745","long":"126.78507466","items":[{"name":"신가네숯불꼼장어","tel":"031-315-7892","addr":"경기도 시흥시 장곡동 822-3번지","category":"음식점업 - 한식"}]},{"lat":"37.378498396","long":"126.78471514","items":[{"name":"아맛나슈퍼 장곡점","tel":"031-311-7977","addr":"경기도 시흥시 장곡동 820-1번지 1층","category":"음식점업 - 식품접객업"},{"name":"청나라","tel":"031-311-9907","addr":"경기도 시흥시 장곡동 820-1번지 1층","category":"음식점업 - 중식"},{"name":"테마노래연습장","tel":"","addr":"경기도 시흥시 장곡동 820-1번지 흥광빌딩 5층","category":"스포츠및여가관련서비스업 - 노래연습장"},{"name":"헤나킹","tel":"031-404-3006","addr":"경기도 시흥시 장곡동 820-1번지 4층","category":"개인서비스업 - 미용업"}]},{"lat":"37.379137087","long":"126.78416005","items":[{"name":"안경마을","tel":"031-317-3883","addr":"경기도 시흥시 장곡동 814-6번지","category":"소매업 - 안경"},{"name":"행복공인중개사사무소","tel":"","addr":"경기도 시흥시 장곡동 814-6번지 1층","category":"개인서비스업 - 공인중개사"}]},{"lat":"37.381747686","long":"126.77811178","items":[{"name":"언덕위의 꽃집","tel":"031-311-7049","addr":"경기도 시흥시 장곡동 659-13번지","category":"소매업 - 조경,화분,생화"}]},{"lat":"37.378300528","long":"126.78490765","items":[{"name":"엄마손반찬","tel":"","addr":"경기도 시흥시 장곡동 820-7번지","category":"소매업 - 반찬류"},{"name":"에이스 식자재마트","tel":"031-404-4904","addr":"경기도 시흥시 장곡동 820-7번지","category":"소매업 - 마트"}]},{"lat":"37.37897296","long":"126.7831105","items":[{"name":"여우야","tel":"031-313-1809","addr":"경기도 시흥시 장곡동 809-4번지","category":"소매업 - 여성복, 액세서리"}]},{"lat":"37.377417043","long":"126.78463924","items":[{"name":"연성골","tel":"031-317-0270","addr":"경기도 시흥시 장곡동 818-1번지 연성중앙약국 104호","category":"음식점업 - 한식"},{"name":"조이당구클럽","tel":"031-314-5050","addr":"경기도 시흥시 장곡동 818-1번지 연성중앙약국 201호","category":"스포츠및여가관련서비스업 - 당구장"},{"name":"컴바이컴 장곡점","tel":"031-435-6777","addr":"경기도 시흥시 장곡동 818-1번지 연성빌딩 1층","category":"소매업 - 컴퓨터및주변기기"},{"name":"한도온누리약국","tel":"031-317-2033","addr":"경기도 시흥시 장곡동 818-1번지","category":"보건업 - 약국"}]},{"lat":"37.378134857","long":"126.78302262","items":[{"name":"연성애견백화점","tel":"031-317-6885","addr":"경기도 시흥시 장곡동 810-2번지 102호","category":"소매업 - 애견용품"},{"name":"피카소 안경","tel":"031-404-3773","addr":"경기도 시흥시 장곡동 810-2번지","category":"소매업 - 안경"}]},{"lat":"37.379022869","long":"126.78574106","items":[{"name":"연성하나치과","tel":"031-317-4020","addr":"경기도 시흥시 장곡동 823-1번지 2층","category":"보건업 - 치과의원"},{"name":"장곡애니동물병원","tel":"031-438-7552","addr":"경기도 시흥시 장곡동 823-1번지 101호","category":"보건업 - 수의업"}]},{"lat":"37.379189704","long":"126.78338084","items":[{"name":"옛날통닭","tel":"031-498-6071","addr":"경기도 시흥시 장곡동 814-1번지 101호","category":"음식점업 - 치킨"},{"name":"파이 모바일","tel":"031-504-8457","addr":"경기도 시흥시 장곡동 814-1번지 102호","category":"소매업 - 통신판매"}]},{"lat":"37.378828736","long":"126.78307705","items":[{"name":"오늘도 이쁘다","tel":"","addr":"경기도 시흥시 장곡동 809-5번지 1층 102호","category":"개인서비스업 - 피부미용"}]},{"lat":"37.378359857","long":"126.78288648","items":[{"name":"우리공인중개사사무소","tel":"031-317-4545","addr":"경기도 시흥시 장곡동 809-10번지 1층","category":"개인서비스업 - 공인중개사"},{"name":"윤텔레콤","tel":"031-313-9010","addr":"경기도 시흥시 장곡동 809-10번지","category":"소매업 - 통신판매"},{"name":"장곡 경희대태권도","tel":"031-317-9669","addr":"경기도 시흥시 장곡동 809-10번지","category":"교육서비스업 - 태권도"}]},{"lat":"37.379941573","long":"126.78071404","items":[{"name":"이레음악학원","tel":"","addr":"경기도 시흥시 장곡동 801-6번지 1층","category":"교육서비스업 - 음악학원"}]},{"lat":"37.379081081","long":"126.78311018","items":[{"name":"장미선명태요리","tel":"","addr":"경기도 시흥시 장곡동 809-3번지 1층","category":"음식점업 - 한식"}]},{"lat":"37.377999706","long":"126.78302302","items":[{"name":"조가네감자탕","tel":"031-317-0192","addr":"경기도 시흥시 장곡동 810-3번지","category":"음식점업 - 한식"}]},{"lat":"37.377974509","long":"126.77919563","items":[{"name":"차밍헤어샵","tel":"031-317-4343","addr":"경기도 시흥시 장곡동 805번지 삼성상가 108호","category":"개인서비스업 - 미용실"}]},{"lat":"37.377747383","long":"126.78300117","items":[{"name":"차이나","tel":"031-317-4141","addr":"경기도 시흥시 장곡동 810-5번지","category":"음식점업 - 중식"}]},{"lat":"37.378912087","long":"126.78429619","items":[{"name":"카페테라스","tel":"","addr":"경기도 시흥시 장곡동 816-1번지 1층","category":"음식점업 - 커피"}]},{"lat":"37.378333603","long":"126.7833043","items":[{"name":"케익이벤트","tel":"031-317-5062","addr":"경기도 시흥시 장곡동 813-7번지","category":"음식점업 - 제과점"},{"name":"한솥도시락시흥장곡점","tel":"031-316-0828","addr":"경기도 시흥시 장곡동 813-7번지 102호","category":"음식점업 - 한식"}]},{"lat":"37.378860025","long":"126.78538023","items":[{"name":"코치클래스영어교습소","tel":"031-503-4047","addr":"경기도 시흥시 장곡동 821-5번지 202호","category":"교육서비스업 - 영어교습소"}]},{"lat":"37.378333896","long":"126.78346237","items":[{"name":"태승모바일(본점)","tel":"031-435-3010","addr":"경기도 시흥시 장곡동 813-6번지","category":"소매업 - 휴대폰"}]},{"lat":"37.377882576","long":"126.78302336","items":[{"name":"통큰코다리조림","tel":"031-318-8022","addr":"경기도 시흥시 장곡동 810-4번지 102호","category":"음식점업 - 한식"}]},{"lat":"37.378612138","long":"126.78288574","items":[{"name":"투엠돈까스","tel":"031-404-5050","addr":"경기도 시흥시 장곡동 809-12번지","category":"음식점업 - 기타음식"}]},{"lat":"37.378751301","long":"126.78505312","items":[{"name":"파막동","tel":"031-317-1825","addr":"경기도 시흥시 장곡동 821-8번지","category":"음식점업 - 음식"}]},{"lat":"37.378495826","long":"126.78332641","items":[{"name":"팔일삼-팔카페(813-8cafe)","tel":"070-8286-0161","addr":"경기도 시흥시 장곡동 813-8번지 1층 102호","category":"음식점업 - 커피"}]},{"lat":"37.380410477","long":"126.78091589","items":[{"name":"학교앞문구","tel":"","addr":"경기도 시흥시 장곡동 800-4번지","category":"소매업 - 문구"}]},{"lat":"37.382277755","long":"126.78208466","items":[{"name":"한국야구르트 연성점","tel":"031-404-1646","addr":"경기도 시흥시 장곡동 794-3번지 1층","category":"소매업 - 야구르트등판매대리"}]},{"lat":"37.378026422","long":"126.78285358","items":[{"name":"혜화동돈까스극장","tel":"031-404-2279","addr":"경기도 시흥시 장곡동 810-8번지 102호","category":"음식점업 - 돈까스"}]}]