[{"lat":"37.624859484","long":"126.78637597","items":[{"name":"YOU하우징","tel":"031-972-2378","addr":"경기도 고양시 덕양구 신평동 3-251번지","category":""},{"name":"YOU하우징","tel":"031-972-2378","addr":"경기도 고양시 덕양구 신평동 3-251번지","category":"건축자재 - 인테리어전문"},{"name":"모아시스템","tel":"","addr":"경기도 고양시 덕양구 신평동 3-251번지","category":""},{"name":"모아시스템","tel":"","addr":"경기도 고양시 덕양구 신평동","category":"수리서비스 - 기타수리서비스"}]},{"lat":"37.624022587","long":"126.79190623","items":[{"name":"개과천선","tel":"031-971-1434","addr":"경기도 고양시 덕양구 신평동 25-131번지","category":""},{"name":"개과천선","tel":"031-971-1434","addr":"경기도 고양시 덕양구 신평동 25-131번지","category":"용역 서비스 - 기타용역서비스"}]},{"lat":"37.621665638","long":"126.79392913","items":[{"name":"나레설비","tel":"031-938-1976","addr":"경기도 고양시 덕양구 신평동 25-101번지","category":"용역 서비스 - 기타용역서비스"},{"name":"나레설비","tel":"031-938-1976","addr":"경기도 고양시 덕양구 신평동 25-101번지","category":""}]},{"lat":"37.621330268","long":"126.79279736","items":[{"name":"농업회사법인주식회사 지오에프에스","tel":"","addr":"경기도 고양시 덕양구 신평동 2-65번지","category":""},{"name":"마법사","tel":"031-970-4555","addr":"경기도 고양시 덕양구 신평동 2-65번지","category":""},{"name":"마법사","tel":"031-970-4555","addr":"경기도 고양시 덕양구 신평동 2-65번지","category":"음료식품 - 농·축·수산품"}]},{"lat":"37.623386813","long":"126.78907617","items":[{"name":"대한국제포장","tel":"031-979-4950","addr":"경기도 고양시 덕양구 신평동 3-40번지","category":""}]},{"lat":"37.621770106","long":"126.79187862","items":[{"name":"디토","tel":"070-8887-7784","addr":"경기도 고양시 덕양구 신평동 3-157번지","category":""},{"name":"디토비치","tel":"070-8887-7784","addr":"경기도 고양시 덕양구 신평동 3-157번지","category":""}]},{"lat":"37.625913616","long":"126.78637291","items":[{"name":"로드코리아(Road-Korea)","tel":"031-924-5591","addr":"경기도 고양시 덕양구 신평동 25-124번지","category":""}]},{"lat":"37.624769699","long":"126.78654614","items":[{"name":"맨틀스포츠","tel":"","addr":"경기도 고양시 덕양구 신평동 3-337번지","category":""},{"name":"맨틀스포츠","tel":"","addr":"경기도 고양시 덕양구 신평동 3-337번지","category":"레져용품 - 스포츠·레져용품"}]},{"lat":"37.623880473","long":"126.78804395","items":[{"name":"삼한공조","tel":"031-919-2501","addr":"경기도 고양시 덕양구 신평동 3-142번지","category":""},{"name":"삼한공조","tel":"031-919-2501","addr":"경기도 고양시 덕양구 신평동 3-142번지","category":"전기제품 - 냉열기기"}]},{"lat":"37.622831808","long":"126.79107137","items":[{"name":"서울포장","tel":"02-2651-2833","addr":"경기도 고양시 덕양구 신평동 3-127번지","category":"유통업 영리 - 기타유통업"},{"name":"서울포장","tel":"02-2651-2833","addr":"경기도 고양시 덕양구 신평동 3-127번지","category":""}]},{"lat":"37.628137613","long":"126.78077034","items":[{"name":"신평 쉼터","tel":"070-4624-4448","addr":"경기도 고양시 덕양구 신평동 26-176번지","category":""},{"name":"신평 쉼터","tel":"070-4624-4448","addr":"경기도 고양시 덕양구 신평동 26-176번지","category":"음료식품 - 기타음료식품"}]},{"lat":"37.625577861","long":"126.78507119","items":[{"name":"윈에어컨","tel":"031-938-1542","addr":"경기도 고양시 덕양구 신평동 26-20번지","category":""},{"name":"윈에어컨","tel":"031-938-1542","addr":"경기도 고양시 덕양구 신평동 26-20번지","category":"전기제품 - 냉열기기"}]},{"lat":"37.622466033","long":"126.7931","items":[{"name":"이레용수","tel":"031-906-0096","addr":"경기도 고양시 덕양구 신평동 25-81번지","category":""}]},{"lat":"37.62852409","long":"126.78027075","items":[{"name":"자유로농장","tel":"031-979-5719","addr":"경기도 고양시 덕양구 신평동 26-187번지","category":""},{"name":"자유로농장","tel":"031-979-5719","addr":"경기도 고양시 덕양구 신평동","category":"음료식품 - 농·축·수산품"}]},{"lat":"37.624608582","long":"126.78712432","items":[{"name":"주식회사 가온오토","tel":"031-978-9941","addr":"경기도 고양시 덕양구 신평동 3-80번지","category":"자동차정비 유지 - 자동차정비"},{"name":"주식회사 가온오토","tel":"031-978-9941","addr":"경기도 고양시 덕양구 신평동 3-80번지","category":""}]},{"lat":"37.6264368","long":"126.78671123","items":[{"name":"주식회사위스코디엔씨","tel":"031-902-7449","addr":"경기도 고양시 덕양구 신평동 25-122번지","category":"건축자재 - 조명기구"},{"name":"주식회사위스코디엔씨","tel":"031-902-7449","addr":"경기도 고양시 덕양구 신평동 25-122번지","category":""}]},{"lat":"37.622857186","long":"126.79015378","items":[{"name":"타이어톡","tel":"070-8801-8785","addr":"경기도 고양시 덕양구 신평동 3-30번지","category":""}]},{"lat":"37.624106971","long":"126.78873428","items":[{"name":"핑크사운드","tel":"031-907-5976","addr":"경기도 고양시 덕양구 신평동 3-49번지","category":"자동차정비 유지 - 카인테리어"}]},{"lat":"37.623991752","long":"126.78978807","items":[{"name":"현 데코","tel":"031-973-3974","addr":"경기도 고양시 덕양구 신평동 3-312번지","category":"건축자재 - 건축용 요업제품"}]}]