[{"lat":"37.282595533","long":"127.02100281","items":[{"name":"60계치킨","tel":"031-244-5296","addr":"경기도 수원시 팔달구 남수동 16-19번지 1층","category":"일반휴게음식 - 일반한식"},{"name":"매향슈퍼","tel":"031-258-3338","addr":"경기도 수원시 팔달구 남수동 16-19번지","category":"유통업 영리 - 슈퍼마켓"},{"name":"샤샤 헤어넷","tel":"031-253-4333","addr":"경기도 수원시 팔달구 남수동 16-19번지","category":"보건위생 - 미용원"}]},{"lat":"37.281181356","long":"127.0178903","items":[{"name":"DH마트","tel":"031-242-2773","addr":"경기도 수원시 팔달구 남수동 130-5번지 1층","category":"유통업 영리 - 편 의 점"},{"name":"단술","tel":"070-8260-3322","addr":"경기도 수원시 팔달구 남수동 130-5번지","category":"일반휴게음식 - 일반한식"},{"name":"사계절건강원","tel":"031-255-4326","addr":"경기도 수원시 팔달구 남수동 130-5번지","category":"건강식품 - 기타건강식품"}]},{"lat":"37.281568689","long":"127.01872481","items":[{"name":"가위클럽","tel":"031-257-0126","addr":"경기도 수원시 팔달구 남수동 66-3 101","category":"보건위생 - 미용원"},{"name":"극단메카네","tel":"031-243-5147","addr":"경기도 수원시 팔달구 남수동 66-3번지 3층 1호","category":"문화.취미 - 티켓"},{"name":"사단법인 온환경교육센터","tel":"","addr":"경기도 수원시 팔달구 남수동 66-3번지 2층 204-5호","category":"학원 - 기타 교육기관"},{"name":"실내포장마차","tel":"","addr":"경기도 수원시 팔달구 남수동 66-3번지 1층 102호","category":"일반휴게음식 - 일반한식"}]},{"lat":"37.281622766","long":"127.01861206","items":[{"name":"감초 한의원","tel":"031-242-7975","addr":"경기도 수원시 팔달구 남수동 67-2번지","category":"의원 - 한의원"},{"name":"수원성화성빵","tel":"","addr":"경기도 수원시 팔달구 남수동 67-2번지 원제빌딩 1층","category":"음료식품 - 기타음료식품"},{"name":"한길미용타운","tel":"031-255-8614","addr":"경기도 수원시 팔달구 남수동 67-2번지","category":"보건위생 - 미용원"},{"name":"한누리마트","tel":"031-256-3625","addr":"경기도 수원시 팔달구 남수동 67-2번지","category":"유통업 영리 - 슈퍼마켓"}]},{"lat":"37.281379504","long":"127.01849925","items":[{"name":"강릉장칼국수","tel":"031-241-7959","addr":"경기도 수원시 팔달구 남수동 72-1번지 1층","category":"일반휴게음식 - 일반한식"},{"name":"소머리국밥","tel":"031-253-6363","addr":"경기도 수원시 팔달구 남수동 72-1번지","category":"일반휴게음식 - 일반한식"},{"name":"황금식당","tel":"031-254-5601","addr":"경기도 수원시 팔달구 남수동 72-1번지","category":"일반휴게음식 - 일반한식"}]},{"lat":"37.282820764","long":"127.02117201","items":[{"name":"갤러리","tel":"070-4685-5507","addr":"경기도 수원시 팔달구 남수동 16-17번지 102호","category":"일반휴게음식 - 일반한식"}]},{"lat":"37.280379436","long":"127.01794652","items":[{"name":"경기미장공구","tel":"031-245-1185","addr":"경기도 수원시 팔달구 남수동 131-7번지","category":"기타 - 기계공구"},{"name":"혜미통닭","tel":"031-111-1111","addr":"경기도 수원시 팔달구 남수동 131-7번지 1층 101호","category":"일반휴게음식 - 스넥"}]},{"lat":"37.281928857","long":"127.02045012","items":[{"name":"경기설비","tel":"","addr":"경기도 수원시 팔달구 남수동 11-12번지 101호","category":"용역 서비스 - 기타용역서비스"},{"name":"창금종합인테리어","tel":"031-242-0456","addr":"경기도 수원시 팔달구 남수동 11-12번지 ,1,2층","category":"가구 - 일반가구"}]},{"lat":"37.279460264","long":"127.0188935","items":[{"name":"경동약초","tel":"031-246-0009","addr":"경기도 수원시 팔달구 남수동 95-5번지","category":"회원제형태 - 건강식품"},{"name":"오거리옛날통닭","tel":"031-241-1188","addr":"경기도 수원시 팔달구 남수동 95-5번지 1-6,7,8호,2-7호","category":"일반휴게음식 - 일반한식"},{"name":"요거프레소","tel":"031-244-3423","addr":"경기도 수원시 팔달구 남수동 95-5번지","category":"일반휴게음식 - 서양음식"}]},{"lat":"37.278847542","long":"127.01906251","items":[{"name":"경북떡집","tel":"031-243-0424","addr":"경기도 수원시 팔달구 남수동 100-4번지","category":"음료식품 - 제과점"},{"name":"남문건강원","tel":"031-253-5050","addr":"경기도 수원시 팔달구 남수동 100-4번지","category":"건강식품 - 기타건강식품"},{"name":"민간한약건재","tel":"031-254-1415","addr":"경기도 수원시 팔달구 남수동 100-4번지","category":"약국 - 한약방"},{"name":"솜씨방","tel":"031-247-0360","addr":"경기도 수원시 팔달구 남수동 100-4번지","category":"직물 - 침구·수예점"},{"name":"유림철학관","tel":"031-242-7066","addr":"경기도 수원시 팔달구 남수동 100-4번지 2층 1호","category":"보건위생 - 기타대인서비스"}]},{"lat":"37.28359556","long":"127.02172474","items":[{"name":"경수사무기","tel":"031-254-1448","addr":"경기도 수원시 팔달구 남수동 11-214번지","category":"사무통신 - 컴퓨터"},{"name":"성화기업","tel":"031-235-7149","addr":"경기도 수원시 팔달구 남수동 11-214번지","category":"용역 서비스 - 기타용역서비스"}]},{"lat":"37.278622397","long":"127.01822806","items":[{"name":"국민갈비","tel":"031-252-3214","addr":"경기도 수원시 팔달구 남수동 105-9번지","category":"일반휴게음식 - 일반한식"},{"name":"삼성가구","tel":"031-258-7954","addr":"경기도 수원시 팔달구 남수동 105-9번지","category":"가구 - 일반가구"},{"name":"용일체형관리","tel":"031-256-3317","addr":"경기도 수원시 팔달구 남수동 105-9번지 2층","category":"보건위생 - 피부미용실"}]},{"lat":"37.281316376","long":"127.01891645","items":[{"name":"궁전","tel":"031-257-0556","addr":"경기도 수원시 팔달구 남수동 81-1번지","category":"일반휴게음식 - 일반한식"}]},{"lat":"37.285982959","long":"127.02364237","items":[{"name":"금례갤러리미술관카페","tel":"031-243-6638","addr":"경기도 수원시 팔달구 남수동 11-99번지 지하1층","category":"일반휴게음식 - 서양음식"}]},{"lat":"37.281514548","long":"127.01931115","items":[{"name":"깨끗한나라","tel":"031-252-7230","addr":"경기도 수원시 팔달구 남수동 56번지 외3필지 1층","category":"용역 서비스 - 종합용역"},{"name":"동광미용실","tel":"031-245-4043","addr":"경기도 수원시 팔달구 남수동 56번지","category":"보건위생 - 미용원"},{"name":"루(RU)","tel":"031-258-4600","addr":"경기도 수원시 팔달구 남수동 56번지 1층","category":"보건위생 - 미용원"},{"name":"승리상사","tel":"031-246-4550","addr":"경기도 수원시 팔달구 남수동 56번지","category":"보건위생 - 기타대인서비스"},{"name":"카페엘","tel":"031-253-3900","addr":"경기도 수원시 팔달구 남수동 56번지","category":"일반휴게음식 - 서양음식"}]},{"lat":"37.279928939","long":"127.01781112","items":[{"name":"낙원순대국","tel":"031-245-4959","addr":"경기도 수원시 팔달구 남수동 123-2번지","category":"일반휴게음식 - 일반한식"}]},{"lat":"37.280073108","long":"127.01777732","items":[{"name":"남문닭곰탕","tel":"031-548-2214","addr":"경기도 수원시 팔달구 남수동 132-6번지 1층","category":"일반휴게음식 - 일반한식"}]},{"lat":"37.28023526","long":"127.0180367","items":[{"name":"남문알뜰가구","tel":"031-256-9746","addr":"경기도 수원시 팔달구 남수동 132-1번지","category":"가구 - 일반가구"}]},{"lat":"37.281595867","long":"127.01758593","items":[{"name":"남수골순대국","tel":"031-241-3580","addr":"경기도 수원시 팔달구 남수동 130-14번지 1층","category":"일반휴게음식 - 일반한식"},{"name":"뜰2 Take-out","tel":"070-4649-1101","addr":"경기도 수원시 팔달구 남수동 130-14번지 1층","category":"일반휴게음식 - 일반한식"},{"name":"수원삼계탕","tel":"031-242-4449","addr":"경기도 수원시 팔달구 남수동 130-14번지","category":"일반휴게음식 - 일반한식"},{"name":"유성","tel":"031-253-7843","addr":"경기도 수원시 팔달구 남수동 130-14번지 지하1층","category":"레저업소 - 노 래 방"},{"name":"한중식품마트","tel":"031-258-6027","addr":"경기도 수원시 팔달구 남수동 130-14번지 1층","category":"음료식품 - 기타음료식품"},{"name":"행궁폰마트","tel":"031-258-3331","addr":"경기도 수원시 팔달구 남수동 130-14번지 1층","category":"사무통신 - 통신기기"}]},{"lat":"37.282379307","long":"127.02086745","items":[{"name":"남수동","tel":"031-253-7892","addr":"경기도 수원시 팔달구 남수동 16-21번지","category":"서적문구 - 문구용품"}]},{"lat":"37.281460436","long":"127.01967197","items":[{"name":"남수동452","tel":"","addr":"경기도 수원시 팔달구 남수동 45-2번지 별을 품은 집 1층 102호","category":"일반휴게음식 - 일반한식"}]},{"lat":"37.281541602","long":"127.01914201","items":[{"name":"뉴신라장여관","tel":"031-244-0330","addr":"경기도 수원시 팔달구 남수동 57번지","category":"숙박업 - 여관/기타숙박업"}]},{"lat":"37.279406309","long":"127.01808164","items":[{"name":"다림","tel":"031-255-2847","addr":"경기도 수원시 팔달구 남수동 112-3번지","category":"일반휴게음식 - 일반한식"},{"name":"속초시장닭집","tel":"031-251-1005","addr":"경기도 수원시 팔달구 남수동 112-3번지 1층","category":"일반휴게음식 - 일반한식"}]},{"lat":"37.279595556","long":"127.01783361","items":[{"name":"대봉통닭","tel":"031-252-9292","addr":"경기도 수원시 팔달구 남수동 115-1번지 1층","category":"일반휴게음식 - 스넥"}]},{"lat":"37.281460685","long":"127.01781143","items":[{"name":"대운철물","tel":"031-243-9554","addr":"경기도 수원시 팔달구 남수동 130-2번지","category":"건축자재 - 목재·석재·철물"},{"name":"만두가게","tel":"031-251-3900","addr":"경기도 수원시 팔달구 남수동 130-2번지 1층","category":"일반휴게음식 - 일반한식"}]},{"lat":"37.280379308","long":"127.01891625","items":[{"name":"대한불교조계종수원사","tel":"031-245-9670","addr":"경기도 수원시 팔달구 남수동 92-1번지","category":"학원 - 기타 교육기관"}]},{"lat":"37.281712691","long":"127.01989755","items":[{"name":"대한신불교 천우종 홍연암","tel":"031-1111-1111","addr":"경기도 수원시 팔달구 남수동 47-4번지 2층","category":"보건위생 - 기타대인서비스"},{"name":"본가갈비","tel":"031-243-8851","addr":"경기도 수원시 팔달구 남수동 47-4번지 1층 102호","category":"일반휴게음식 - 일반한식"},{"name":"사단법인 대한불교 법성종","tel":"052-245-6140","addr":"경기도 수원시 팔달구 남수동 47-4번지 2층","category":"기타 - 비영리/대상"}]},{"lat":"37.281649744","long":"127.01900672","items":[{"name":"도담호프","tel":"031-295-4090","addr":"경기도 수원시 팔달구 남수동 60-4번지 1층","category":"일반휴게음식 - 주점"},{"name":"돼지집 김치찌개","tel":"031-243-4949","addr":"경기도 수원시 팔달구 남수동 60-4번지 1층","category":"일반휴게음식 - 일반한식"},{"name":"허그인터내셔널","tel":"031-226-6337","addr":"경기도 수원시 팔달구 남수동 60-4번지 3층","category":"신변잡화 - 기타잡화"}]},{"lat":"37.286010023","long":"127.02345067","items":[{"name":"동문모터스","tel":"031-245-7793","addr":"경기도 수원시 팔달구 남수동 11-668번지 1층","category":"자동차판매 - 이륜차판매"},{"name":"팔달불교사","tel":"031-252-4008","addr":"경기도 수원시 팔달구 남수동 11-668번지","category":"신변잡화 - 기념품점"}]},{"lat":"37.280127136","long":"127.01803668","items":[{"name":"동양종합씽크","tel":"031-245-1416","addr":"경기도 수원시 팔달구 남수동 132-2번지","category":"주방용구 - 주방용구"}]},{"lat":"37.279072968","long":"127.01777713","items":[{"name":"락규","tel":"031-242-2837","addr":"경기도 수원시 팔달구 남수동 107-1번지 1층","category":"일반휴게음식 - 일반한식"}]},{"lat":"37.279154027","long":"127.01803648","items":[{"name":"매일김치담그는집","tel":"031-248-6525","addr":"경기도 수원시 팔달구 남수동 105-6번지","category":"일반휴게음식 - 일반한식"}]},{"lat":"37.28128948","long":"127.01789032","items":[{"name":"매향상사","tel":"031-255-4313","addr":"경기도 수원시 팔달구 남수동 130-4번지","category":"건축자재 - 목재·석재·철물"},{"name":"명신원","tel":"031-252-3474","addr":"경기도 수원시 팔달구 남수동 130-4번지","category":"기타 - 비영리/대상"},{"name":"서울미싱","tel":"031-254-4560","addr":"경기도 수원시 팔달구 남수동 130-4번지","category":"기타 - 기계공구"}]},{"lat":"37.281595843","long":"127.01777762","items":[{"name":"매향치킨","tel":"031-255-3584","addr":"경기도 수원시 팔달구 남수동 130-16번지","category":"일반휴게음식 - 스넥"}]},{"lat":"37.281595832","long":"127.01786783","items":[{"name":"매향통닭","tel":"031-255-3584","addr":"경기도 수원시 팔달구 남수동 130-1번지","category":"일반휴게음식 - 서양음식"}]},{"lat":"37.283460418","long":"127.02164577","items":[{"name":"모닝상사","tel":"031-42-5969","addr":"경기도 수원시 팔달구 남수동 11-215번지","category":"서적문구 - 문구용품"},{"name":"주식회사 우신씨엔디건설","tel":"031-248-6281","addr":"경기도 수원시 팔달구 남수동 11-215번지 1층","category":"건축자재 - 페인트"}]},{"lat":"37.278847675","long":"127.01805897","items":[{"name":"백조식당","tel":"","addr":"경기도 수원시 팔달구 남수동 105-8번지","category":"일반휴게음식 - 일반한식"},{"name":"삼성공예","tel":"031-258-2583","addr":"경기도 수원시 팔달구 남수동 105-8번지","category":"문화.취미 - 민예·공예품"},{"name":"삼익가구","tel":"031-252-4823","addr":"경기도 수원시 팔달구 남수동 105-8번지","category":"가구 - 일반가구"},{"name":"선우드가구","tel":"031-244-4030","addr":"경기도 수원시 팔달구 남수동 105-8번지","category":"가구 - 일반가구"},{"name":"청사","tel":"031-255-6888","addr":"경기도 수원시 팔달구 남수동 105-8외106-1","category":"일반휴게음식 - 일반한식"},{"name":"편한가구","tel":"031-246-0836","addr":"경기도 수원시 팔달구 남수동 105-8번지","category":"가구 - 일반가구"},{"name":"화인하우스","tel":"031-255-4446","addr":"경기도 수원시 팔달구 남수동 105-8번지","category":"가구 - 일반가구"}]},{"lat":"37.279928805","long":"127.01883722","items":[{"name":"보리쌀아저씨","tel":"031-252-1853","addr":"경기도 수원시 팔달구 남수동 94번지","category":"음료식품 - 농·축·수산품"},{"name":"행운식당","tel":"031-257-2024","addr":"경기도 수원시 팔달구 남수동 94번지","category":"일반휴게음식 - 일반한식"}]},{"lat":"37.27918095","long":"127.01885961","items":[{"name":"부자포차","tel":"031-256-2216","addr":"경기도 수원시 팔달구 남수동 95-11번지","category":"일반휴게음식 - 일반한식"},{"name":"수원약초","tel":"031-258-7809","addr":"경기도 수원시 팔달구 남수동 95-11번지","category":"건강식품 - 기타건강식품"},{"name":"쌍방울양품","tel":"031-256-0713","addr":"경기도 수원시 팔달구 남수동 95-11번지","category":"의류 - 양품점"},{"name":"지호 옷 수선","tel":"070-5118-2236","addr":"경기도 수원시 팔달구 남수동 95-11번지","category":"수리서비스 - 세탁소"}]},{"lat":"37.286181198","long":"127.02356349","items":[{"name":"비제이스타","tel":"031-214-0890","addr":"경기도 수원시 팔달구 남수동 11-669번지","category":"레져용품 - 스포츠·레져용품"}]},{"lat":"37.282208031","long":"127.02139738","items":[{"name":"사단법인 한국전통민족종교총연합회 한솔암","tel":"031-111-1111","addr":"경기도 수원시 팔달구 남수동 11-299번지","category":"보건위생 - 기타대인서비스"},{"name":"한솔암","tel":"","addr":"경기도 수원시 팔달구 남수동 11-299번지","category":"보건위생 - 기타대인서비스"}]},{"lat":"37.279099956","long":"127.0181154","items":[{"name":"삼화가구","tel":"031-245-8999","addr":"경기도 수원시 팔달구 남수동 105-7번지","category":"가구 - 일반가구"}]},{"lat":"37.28159576","long":"127.01842036","items":[{"name":"상훈지업사","tel":"031-246-0940","addr":"경기도 수원시 팔달구 남수동 70-2번지","category":"건축자재 - 인테리어전문"}]},{"lat":"37.279099838","long":"127.01900618","items":[{"name":"생선싸게파는곳","tel":"031-243-3427","addr":"경기도 수원시 팔달구 남수동 100-75번지","category":"음료식품 - 농·축·수산품"}]},{"lat":"37.281154357","long":"127.01764223","items":[{"name":"샬롬인쇄","tel":"031-257-6928","addr":"경기도 수원시 팔달구 남수동 130-7번지","category":"서적문구 - 출판 및 인쇄물"}]},{"lat":"37.278712404","long":"127.01894972","items":[{"name":"서문기름집","tel":"031-255-6047","addr":"경기도 수원시 팔달구 남수동 102-2번지","category":"음료식품 - 기타음료식품"}]},{"lat":"37.279235153","long":"127.01777716","items":[{"name":"설레다밀크아이스크림","tel":"031-254-3311","addr":"경기도 수원시 팔달구 남수동 113-2번지","category":"일반휴게음식 - 스넥"},{"name":"설레다스페이스","tel":"031-254-3311","addr":"경기도 수원시 팔달구 남수동 113-2번지","category":"일반휴게음식 - 일반한식"}]},{"lat":"37.279649407","long":"127.0194235","items":[{"name":"소망세광교회","tel":"031-257-5225","addr":"경기도 수원시 팔달구 남수동 100-5번지","category":"보건위생 - 기타대인서비스"}]},{"lat":"37.279316058","long":"127.01919791","items":[{"name":"소백산 농특산물 도소매","tel":"031-243-0185","addr":"경기도 수원시 팔달구 남수동 100-24번지","category":"음료식품 - 농·축·수산품"}]},{"lat":"37.280127176","long":"127.01772096","items":[{"name":"수원녹두전","tel":"031-243-3710","addr":"경기도 수원시 팔달구 남수동 132-8번지","category":"일반휴게음식 - 일반한식"}]},{"lat":"37.279955939","long":"127.0180592","items":[{"name":"수원통닭","tel":"031-241-3109","addr":"경기도 수원시 팔달구 남수동 124번지","category":"일반휴게음식 - 스넥"},{"name":"시즌통닭","tel":"031-242-0774","addr":"경기도 수원시 팔달구 남수동 124번지","category":"일반휴게음식 - 스넥"}]},{"lat":"37.279793751","long":"127.01808172","items":[{"name":"숯불에뒷고기","tel":"031-247-9292","addr":"경기도 수원시 팔달구 남수동 120번지 1층","category":"일반휴게음식 - 일반한식"},{"name":"오징어마을","tel":"031-245-3028","addr":"경기도 수원시 팔달구 남수동 120번지 상가-101 (1층)","category":"일반휴게음식 - 일반한식"}]},{"lat":"37.278649321","long":"127.01902864","items":[{"name":"시냇가","tel":"031-255-4292","addr":"경기도 수원시 팔달구 남수동 102-1번지","category":"신변잡화 - 신발"},{"name":"잡곡","tel":"031-241-6166","addr":"경기도 수원시 팔달구 남수동 102-1번지","category":"음료식품 - 미곡상"},{"name":"천수건강원","tel":"","addr":"경기도 수원시 팔달구 남수동 102-1번지 1층","category":"음료식품 - 기타음료식품"}]},{"lat":"37.285262253","long":"127.02297685","items":[{"name":"시립행궁동보듬이나눔이어린이집[아이행복]","tel":"031-255-1080","addr":"경기도 수원시 팔달구 남수동 11-688번지","category":"학원 - 유아원"}]},{"lat":"37.285820827","long":"127.02333786","items":[{"name":"아띠모 (수원점)","tel":"031-8002-0282","addr":"경기도 수원시 팔달구 남수동 11-709번지 1층","category":"자동차판매 - 이륜차판매"}]},{"lat":"37.279262038","long":"127.01889346","items":[{"name":"안동청과","tel":"031-256-4317","addr":"경기도 수원시 팔달구 남수동 95-10번지","category":"음료식품 - 농·축·수산품"},{"name":"인삼건강원","tel":"031-244-4753","addr":"경기도 수원시 팔달구 남수동 95-10번지 (남수동(1층상가5호))","category":"건강식품 - 기타건강식품"},{"name":"인삼약초","tel":"031-244-4753","addr":"경기도 수원시 팔달구 남수동 95-10번지","category":"건강식품 - 기타건강식품"}]},{"lat":"37.284901757","long":"127.02347293","items":[{"name":"에스이테크","tel":"031-247-4430","addr":"경기도 수원시 팔달구 남수동 11-59번지","category":"용역 서비스 - 종합용역"}]},{"lat":"37.281649651","long":"127.01967201","items":[{"name":"엔지헤어","tel":"","addr":"경기도 수원시 팔달구 남수동 50-3번지 1층","category":"보건위생 - 미용원"},{"name":"올래할인마트","tel":"031-258-3331","addr":"경기도 수원시 팔달구 남수동 50-3번지","category":"유통업 영리 - 슈퍼마켓"},{"name":"천둥맛집","tel":"031-242-2227","addr":"경기도 수원시 팔달구 남수동 50-3번지 102호","category":"일반휴게음식 - 일반한식"}]},{"lat":"37.286595603","long":"127.02394701","items":[{"name":"여기있소 먹고가소","tel":"031-241-1940","addr":"경기도 수원시 팔달구 남수동 11-692번지","category":"일반휴게음식 - 일반한식"}]},{"lat":"37.280676688","long":"127.01861186","items":[{"name":"영선약초건강원","tel":"031-258-3111","addr":"경기도 수원시 팔달구 남수동 91-7번지","category":"건강식품 - 기타건강식품"}]},{"lat":"37.28051459","long":"127.01794655","items":[{"name":"영양건강원","tel":"031-256-6688","addr":"경기도 수원시 팔달구 남수동 131-5번지","category":"건강식품 - 기타건강식품"},{"name":"종로알뜰매장","tel":"031-243-2382","addr":"경기도 수원시 팔달구 남수동 131-5번지","category":"전기제품 - 가전제품"}]},{"lat":"37.283766737","long":"127.02183754","items":[{"name":"예성종합설비","tel":"031-241-3777","addr":"경기도 수원시 팔달구 남수동 11-205번지","category":"용역 서비스 - 기타용역서비스"}]},{"lat":"37.281514658","long":"127.01849927","items":[{"name":"옛날돈까스집","tel":"031-223-5214","addr":"경기도 수원시 팔달구 남수동 71-1번지","category":"일반휴게음식 - 일반한식"},{"name":"이치하치","tel":"","addr":"경기도 수원시 팔달구 남수동 71-1번지","category":"일반휴게음식 - 일식·회집"}]},{"lat":"37.279955826","long":"127.01891616","items":[{"name":"우리열쇠","tel":"031-253-5213","addr":"경기도 수원시 팔달구 남수동 95-1번지 101호","category":"건축자재 - 목재·석재·철물"},{"name":"지동식당","tel":"031-241-2203","addr":"경기도 수원시 팔달구 남수동 95-1번지 1층","category":"일반휴게음식 - 일반한식"},{"name":"칠우청과","tel":"031-247-6764","addr":"경기도 수원시 팔달구 남수동 95-1번지","category":"음료식품 - 농·축·수산품"}]},{"lat":"37.279343272","long":"127.01781101","items":[{"name":"월식당","tel":"031-245-9345","addr":"경기도 수원시 팔달구 남수동 114-3번지","category":"일반휴게음식 - 일반한식"},{"name":"장안통닭","tel":"031-252-5190","addr":"경기도 수원시 팔달구 남수동 114-3번지 1층","category":"일반휴게음식 - 일반한식"}]},{"lat":"37.279514292","long":"127.01914158","items":[{"name":"유명청과","tel":"031-246-2494","addr":"경기도 수원시 팔달구 남수동 100-82","category":"음료식품 - 농·축·수산품"}]},{"lat":"37.279181041","long":"127.0181718","items":[{"name":"일광유리","tel":"031-242-5743","addr":"경기도 수원시 팔달구 남수동 105-5번지","category":"건축자재 - 유리"}]},{"lat":"37.281262336","long":"127.01875857","items":[{"name":"정지영커피로스터즈남수문점","tel":"02-1577-0000","addr":"경기도 수원시 팔달구 남수동 80-2번지","category":"일반휴게음식 - 서양음식"}]},{"lat":"37.281235435","long":"127.017755","items":[{"name":"젠모텔","tel":"031-255-9293","addr":"경기도 수원시 팔달구 남수동 130-18번지","category":"숙박업 - 여관/기타숙박업"}]},{"lat":"37.283316259","long":"127.0216119","items":[{"name":"조가네돼지국밥","tel":"031-254-5889","addr":"경기도 수원시 팔달구 남수동 11-610번지","category":"일반휴게음식 - 일반한식"}]},{"lat":"37.285370362","long":"127.02305582","items":[{"name":"중앙 사료","tel":"031-241-8908","addr":"경기도 수원시 팔달구 남수동 11-690번지 1층","category":"농업 - 비료,사료,종자"}]},{"lat":"37.280929097","long":"127.01766473","items":[{"name":"진주사우나","tel":"031-254-4848","addr":"경기도 수원시 팔달구 남수동 131-15번지","category":"보건위생 - 사우나"}]},{"lat":"37.280208269","long":"127.01772097","items":[{"name":"추억만들기(포차)","tel":"031-242-5955","addr":"경기도 수원시 팔달구 남수동 132-4번지","category":"일반휴게음식 - 주점"},{"name":"행궁포차","tel":"031-254-4478","addr":"경기도 수원시 팔달구 남수동 132-4번지","category":"일반휴게음식 - 일반한식"}]},{"lat":"37.279406348","long":"127.01777719","items":[{"name":"편의점사랑남수점","tel":"031-244-1844","addr":"경기도 수원시 팔달구 남수동 114-7번지","category":"유통업 영리 - 편 의 점"}]},{"lat":"37.28134358","long":"127.01758588","items":[{"name":"포아이(4i)","tel":"","addr":"경기도 수원시 팔달구 남수동 130-21번지","category":"보건위생 - 기타대인서비스"}]},{"lat":"37.280181217","long":"127.0178901","items":[{"name":"하이모텔","tel":"031-245-8560","addr":"경기도 수원시 팔달구 남수동 132-3번지","category":"숙박업 - 여관/기타숙박업"}]},{"lat":"37.286541507","long":"127.0241387","items":[{"name":"한국안데스문화원","tel":"031-304-0587","addr":"경기도 수원시 팔달구 남수동 11-139번지 1동","category":"일반휴게음식 - 서양음식"}]},{"lat":"37.280983134","long":"127.01786771","items":[{"name":"한중한의원","tel":"031-255-2550","addr":"경기도 수원시 팔달구 남수동 131-1번지","category":"의원 - 한의원"}]},{"lat":"37.280875003","long":"127.01792407","items":[{"name":"한진천막사","tel":"031-256-7574","addr":"경기도 수원시 팔달구 남수동 131-2번지","category":"직물 - 카페트,커튼,천막,지물"}]},{"lat":"37.281100174","long":"127.0185894","items":[{"name":"행궁면옥","tel":"031-251-0202","addr":"경기도 수원시 팔달구 남수동 75-3번지","category":"일반휴게음식 - 일반한식"}]},{"lat":"37.279379267","long":"127.01817184","items":[{"name":"행궁통닭","tel":"031-245-0111","addr":"경기도 수원시 팔달구 남수동 111-1번지 1층","category":"일반휴게음식 - 일반한식"}]},{"lat":"37.285154148","long":"127.02286406","items":[{"name":"화성어울림사업단","tel":"031-257-2522","addr":"경기도 수원시 팔달구 남수동 11-75번지","category":"학원 - 기타 교육기관"}]},{"lat":"37.28159575","long":"127.01849929","items":[{"name":"힐링","tel":"031-252-5454","addr":"경기도 수원시 팔달구 남수동 69-2번지","category":"일반휴게음식 - 주점"}]}]