[{"lat":"36.974270853","long":"126.85283077","items":[{"name":"(주)위드엘케이","tel":"031-238-4776","addr":"경기도 평택시 포승읍 내기리 680-9번지","category":"사무통신 - 컴퓨터"}]},{"lat":"36.980600438","long":"126.8798637","items":[{"name":"365할인마트","tel":"031-686-6877","addr":"경기도 평택시 포승읍 내기리 1-7번지","category":"소매업 - 슈퍼"},{"name":"바다호프","tel":"031-681-1154","addr":"경기도 평택시 포승읍 내기리 1-7","category":"일반휴게음식 - 주점"},{"name":"우일노래연습장","tel":"031-684-7091","addr":"경기도 평택시 포승읍 내기리 1-7번지","category":"레저업소 - 노 래 방"},{"name":"포승21세기의원","tel":"031-682-7552","addr":"경기도 평택시 포승읍 내기리 1-7번지","category":"의원 - 의원"},{"name":"하나약국","tel":"031-681-0641","addr":"경기도 평택시 포승읍 내기리 1-7번지 우일빌딩","category":"약국 - 약국"}]},{"lat":"36.980107277","long":"126.85805313","items":[{"name":"GS25포승대우점","tel":"080-555-2525","addr":"경기도 평택시 포승읍 내기리 679-1번지 대우공업주식회사포승공장 내기리679-1","category":"유통업 영리 - 편 의 점"},{"name":"대우매점","tel":"031-683-2685","addr":"경기도 평택시 포승읍 내기리 679-1","category":"음료식품 - 기타음료식품"},{"name":"홍진기업","tel":"031-224-9212","addr":"경기도 평택시 포승읍 내기리 679-1","category":"자동차정비 유지 - 자동차부품"}]},{"lat":"36.982186949","long":"126.88046766","items":[{"name":"간판쟁이","tel":"031-684-5106","addr":"경기도 평택시 포승읍 내기리 2-1번지 만성빌딩 1층 107호","category":"건축자재 - 인테리어전문"},{"name":"명문F&D보습학원","tel":"031-682-7457","addr":"경기도 평택시 포승읍 내기리 2-1","category":"학원 - 기타 교육기관"},{"name":"아랑스포츠","tel":"031-683-3306","addr":"경기도 평택시 포승읍 내기리 2-1번지 만성빌딩 1층 101호","category":"레져용품 - 스포츠·레져용품"}]},{"lat":"36.977551864","long":"126.87704963","items":[{"name":"고흐미술교습소","tel":"031-683-4407","addr":"경기도 평택시 포승읍 내기리 19-9번지 1층 일부 좌측","category":"학원 - 예·체능계학원"},{"name":"다와식당.분식","tel":"031-681-7355","addr":"경기도 평택시 포승읍 내기리 19-9번지 103호","category":"일반휴게음식 - 일반한식"},{"name":"명지야식","tel":"031-883-3999","addr":"경기도 평택시 포승읍 내기리 19-9번지 1층 104호","category":"일반휴게음식 - 일반한식"},{"name":"신바흐음악교습소","tel":"031-681-4405","addr":"경기도 평택시 포승읍 내기리 19-9번지","category":"학원 - 예·체능계학원"}]},{"lat":"36.980823262","long":"126.87752719","items":[{"name":"금산집","tel":"031-681-2108","addr":"경기도 평택시 포승읍 내기리 34-1번지","category":"음식점 - 한식"},{"name":"금산집","tel":"031-683-8696","addr":"경기도 평택시 포승읍 내기리 34-1번지","category":"일반휴게음식 - 일반한식"}]},{"lat":"36.981158519","long":"126.87930123","items":[{"name":"김씨네포승점","tel":"031-681-5007","addr":"경기도 평택시 포승읍 내기리 3-1번지","category":"일반휴게음식 - 일반한식"}]},{"lat":"36.978299467","long":"126.87677885","items":[{"name":"나누리정맛집","tel":"031-682-7087","addr":"경기도 평택시 포승읍 내기리 24번지","category":"일반휴게음식 - 일반한식"},{"name":"인생역전","tel":"031-683-0645","addr":"경기도 평택시 포승읍 내기리 24번지","category":"일반휴게음식 - 일반한식"}]},{"lat":"36.978774226","long":"126.8741612","items":[{"name":"내기어린이집","tel":"031-684-9966","addr":"경기도 평택시 포승읍 내기리 67-6","category":"학원 - 유아원"},{"name":"내기어린이집[아이행복]","tel":"031-684-9966","addr":"경기도 평택시 포승읍 내기리 67-6번지","category":"학원 - 유아원"}]},{"lat":"36.979268186","long":"126.87266661","items":[{"name":"내기초등학교","tel":"031-682-0337","addr":"경기도 평택시 포승읍 내기리 90번지 내기초등학교","category":"학원 - 초중고교육기관"},{"name":"내기초등학교_수업료","tel":"031-682-0337","addr":"경기도 평택시 포승읍 내기리 90번지 내기초등학교","category":"학원 - 초중고교육기관"},{"name":"내기초등학교병설유치원[아이행복]","tel":"031-682-4487","addr":"경기도 평택시 포승읍 내기리 90번지 내기초등학교","category":"학원 - 유치원"}]},{"lat":"36.981411134","long":"126.87960407","items":[{"name":"뉴마트","tel":"031-684-3455","addr":"경기도 평택시 포승읍 내기리 1-1번지","category":"소매업 - 슈퍼"},{"name":"뉴마트","tel":"031-682-1005","addr":"경기도 평택시 포승읍 내기리 1-1 무지개마트","category":"유통업 영리 - 슈퍼마켓"},{"name":"미가반점","tel":"031-683-4953","addr":"경기도 평택시 포승읍 내기리 1-1번지","category":"일반휴게음식 - 중국식"}]},{"lat":"36.980273455","long":"126.87738209","items":[{"name":"도담다담어린이집[아이행복]","tel":"031-684-8092","addr":"경기도 평택시 포승읍 내기리 31-1번지","category":"학원 - 유아원"}]},{"lat":"36.980599105","long":"126.87858332","items":[{"name":"동성24시셀프세차","tel":"031-683-4110","addr":"경기도 평택시 포승읍 내기리 4-2번지 1층","category":"자동차정비 유지 - 세차장"},{"name":"전곡양평해장국백깍","tel":"031-682-4691","addr":"경기도 평택시 포승읍 내기리 4-2번지 1층","category":"일반휴게음식 - 일반한식"},{"name":"제이알모터스","tel":"031-683-9554","addr":"경기도 평택시 포승읍 내기리 4-2번지 B","category":"자동차정비 유지 - 자동차시트·타이어"}]},{"lat":"36.976822412","long":"126.87744391","items":[{"name":"명지할인마트","tel":"031-683-0159","addr":"경기도 평택시 포승읍 내기리 135-1번지 1층","category":"유통업 영리 - 슈퍼마켓"}]},{"lat":"36.978766862","long":"126.87568865","items":[{"name":"삼성영어(내기)&마스터학원","tel":"031-683-8755","addr":"경기도 평택시 포승읍 내기리 60-22번지 1층","category":"학원 - 보습학원"}]},{"lat":"36.978406313","long":"126.87557694","items":[{"name":"서래추어탕","tel":"031-682-8230","addr":"경기도 평택시 포승읍 내기리 60-26번지","category":"음식점 - 한식"},{"name":"주사랑음악학원","tel":"031-682-0035","addr":"경기도 평택시 포승읍 내기리 60-26","category":"회원제형태 - 학원"}]},{"lat":"36.978577817","long":"126.87585743","items":[{"name":"안중우리소","tel":"031-684-8985","addr":"경기도 평택시 포승읍 내기리 60-28번지 안중우리소","category":"음료식품 - 정육점"}]},{"lat":"36.977884676","long":"126.87649876","items":[{"name":"안중우리소","tel":"031-681-5225","addr":"경기도 평택시 포승읍 내기리 22-9번지","category":"음식점 - 한식"}]},{"lat":"36.980934113","long":"126.88013272","items":[{"name":"에스테라피(S The apy)","tel":"070-4655-6861","addr":"경기도 평택시 포승읍 내기리 1-6번지 2층","category":"회원제형태 - 기타4"},{"name":"포승우순이돈순이","tel":"031-682-9887","addr":"경기도 평택시 포승읍 내기리 1-6번지","category":"음료식품 - 정육점"}]},{"lat":"36.979080298","long":"126.87389113","items":[{"name":"엘리음악학원","tel":"031-682-0994","addr":"경기도 평택시 포승읍 내기리 68-2번지","category":"학원 - 예·체능계학원"}]},{"lat":"36.981240686","long":"126.8803344","items":[{"name":"연청갈비살","tel":"031-681-5080","addr":"경기도 평택시 포승읍 내기리 1-4번지 1층","category":"일반휴게음식 - 일반한식"}]},{"lat":"36.978579061","long":"126.87702547","items":[{"name":"장원테크","tel":"031-684-6834","addr":"경기도 평택시 포승읍 내기리 25-4번지","category":"용역 서비스 - 기타용역서비스"}]},{"lat":"36.978712352","long":"126.87527319","items":[{"name":"주식회사 선우건설","tel":"031-686-7230","addr":"경기도 평택시 포승읍 내기리 55번지 B동 2호","category":"용역 서비스 - 기타용역서비스"}]},{"lat":"36.98193663","long":"126.87383015","items":[{"name":"톰소여의모험","tel":"031-681-2123","addr":"경기도 평택시 포승읍 내기리 산 9번지","category":"레저업소 - 기타레져업소"}]},{"lat":"36.979189229","long":"126.87463221","items":[{"name":"통로","tel":"070-7728-2291","addr":"경기도 평택시 포승읍 내기리 53-9번지","category":"일반휴게음식 - 스넥"},{"name":"통로","tel":"031-683-8933","addr":"경기도 평택시 포승읍 내기리 53-9번지","category":"음식점 - 분식"}]},{"lat":"36.980383633","long":"126.87933618","items":[{"name":"포승우체국","tel":"031-682-2800","addr":"경기도 평택시 포승읍 내기리 1-13번지","category":"용역 서비스 - 공공요금대행서비스/소"}]},{"lat":"36.980184023","long":"126.87802242","items":[{"name":"한국 오에이","tel":"031-686-7977","addr":"경기도 평택시 포승읍 내기리 4-7번지","category":"사무통신 - 사무용 OA기기"}]}]