[{"lat":"37.13580819","long":"126.69954328","items":[{"name":"(주)에너지인스","tel":"031-000-0000","addr":"경기도 화성시 서신면 궁평리 260번지","category":"연료판매점 - 유류판매"}]},{"lat":"37.116307523","long":"126.68167505","items":[{"name":"79호","tel":"031-325-7529","addr":"경기도 화성시 서신면 궁평리 689 8-79","category":"음료식품 - 농·축·수산품"},{"name":"갈매기호","tel":"031-357-6790","addr":"경기도 화성시 서신면 궁평리 689번지 궁평항수산물판매장 B동 71호","category":"음료식품 - 농·축·수산품"},{"name":"강경젓갈","tel":"00-000-0000","addr":"경기도 화성시 서신면 궁평리 689번지 궁평항수산물판매장 A동 109호","category":"음료식품 - 농·축·수산품"},{"name":"강수호수산","tel":"031-352-1673","addr":"경기도 화성시 서신면 궁평리 689번지 궁평항수산물판매장 A동 94호","category":"음료식품 - 농·축·수산품"},{"name":"경민호","tel":"031-000-0000","addr":"경기도 화성시 서신면 궁평리 689번지 궁평항수산물판매장 B동 98호","category":"음료식품 - 농·축·수산품"},{"name":"광복호","tel":"031-6495-9752","addr":"경기도 화성시 서신면 궁평리 689번지 궁평항수산물판매장 A동 70호","category":"음료식품 - 농·축·수산품"},{"name":"광천젓갈","tel":"031-246-3929","addr":"경기도 화성시 서신면 궁평리 689번지 B-74호","category":"음료식품 - 농·축·수산품"},{"name":"광천토굴젓갈","tel":"031-357-5629","addr":"경기도 화성시 서신면 궁평리 689번지 A-74호","category":"음료식품 - 농·축·수산품"},{"name":"군산수산","tel":"031-471-2759","addr":"경기도 화성시 서신면 궁평리 689번지 궁평항수산물판매장 B동 101호","category":"음료식품 - 농·축·수산품"},{"name":"궁평리어촌계매점","tel":"031-356-9337","addr":"경기도 화성시 서신면 궁평리 689번지","category":"음료식품 - 기타음료식품"},{"name":"궁평항","tel":"031-356-5567","addr":"경기도 화성시 서신면 궁평리 689번지 (궁평항수산물판매장A동98호)","category":"음료식품 - 농·축·수산품"},{"name":"궁평항","tel":"031-366-9474","addr":"경기도 화성시 서신면 궁평리 689번지 궁평항수산물판매장 A동 126호","category":"음료식품 - 농·축·수산품"},{"name":"궁평항","tel":"031-357-9178","addr":"경기도 화성시 서신면 궁평리 689번지 A-94호","category":"음료식품 - 농·축·수산품"},{"name":"궁평항","tel":"","addr":"경기도 화성시 서신면 궁평리 689번지 B동 1층 6동","category":"일반휴게음식 - 스넥"},{"name":"궁평항 수산물 직판장 4호점","tel":"031-2742-7305","addr":"경기도 화성시 서신면 궁평리 689번지 궁평항수산물판매장 1층 4호","category":"일반휴게음식 - 일반한식"},{"name":"궁평항 수산물 직판장9호","tel":"031-2208-0612","addr":"경기도 화성시 서신면 궁평리 689번지 궁평항수산물판매장 1층 9호","category":"일반휴게음식 - 일반한식"},{"name":"궁평항 수산물직판장 2호점","tel":"031-345-5700","addr":"경기도 화성시 서신면 궁평리 689번지 궁평항수산물판매장 1층 2호","category":"일반휴게음식 - 일반한식"},{"name":"궁평항 수산물직판장 3호점","tel":"031-1111-1111","addr":"경기도 화성시 서신면 궁평리 689번지 궁평항수산물판매장 1층 3호","category":"일반휴게음식 - 일반한식"},{"name":"궁평항(진주)","tel":"","addr":"경기도 화성시 서신면 궁평리 689번지 궁평항수산물판매장 B동 095호","category":"음료식품 - 농·축·수산품"},{"name":"그린수산","tel":"","addr":"경기도 화성시 서신면 궁평리 689번지 궁평항수산물판매장 B동 107호","category":"음료식품 - 농·축·수산품"},{"name":"금정수산","tel":"031-357-0156","addr":"경기도 화성시 서신면 궁평리 689번지 궁평항수산물판매장 A동 123호","category":"음료식품 - 농·축·수산품"},{"name":"금천수산","tel":"031-366-7018","addr":"경기도 화성시 서신면 궁평리 689번지 궁평항수산물판매장 B동 123호","category":"음료식품 - 농·축·수산품"},{"name":"꽃미남수산","tel":"","addr":"경기도 화성시 서신면 궁평리 689번지 궁평항수산물판매장 B동 109호","category":"음료식품 - 농·축·수산품"},{"name":"낙조수산","tel":"031-357-3497","addr":"경기도 화성시 서신면 궁평리 689번지 궁평항수산물판매장 A동 1층 27호","category":"음료식품 - 농·축·수산품"},{"name":"남양호","tel":"031-357-8843","addr":"경기도 화성시 서신면 궁평리 689번지 궁평항수산물판매장 B동 111호","category":"음료식품 - 농·축·수산품"},{"name":"대명","tel":"031-357-3563","addr":"경기도 화성시 서신면 궁평리 689번지","category":"음료식품 - 농·축·수산품"},{"name":"대발이네젓갈","tel":"031-355-5509","addr":"경기도 화성시 서신면 궁평리 689번지 궁평항수산물판매장 B동 101호","category":"음료식품 - 농·축·수산품"},{"name":"대승호","tel":"031-0000-0000","addr":"경기도 화성시 서신면 궁평리 689번지 궁평항수산물판매장 A동 118호","category":"음료식품 - 농·축·수산품"},{"name":"대운젓갈","tel":"031-357-5229","addr":"경기도 화성시 서신면 궁평리 689번지 B-80호","category":"음료식품 - 기타음료식품"},{"name":"덕성1호","tel":"031-000-0000","addr":"경기도 화성시 서신면 궁평리 689번지 궁평항수산물판매장 B동 36호","category":"음료식품 - 농·축·수산품"},{"name":"도시어부","tel":"","addr":"경기도 화성시 서신면 궁평리 689번지 궁평수산물직판장 B동 099호","category":"음료식품 - 농·축·수산품"},{"name":"동네호","tel":"031-358-8980","addr":"경기도 화성시 서신면 궁평리 689번지 궁평항수산물판매장 B동 32호","category":"음료식품 - 농·축·수산품"},{"name":"동백7호","tel":"031-352-1673","addr":"경기도 화성시 서신면 궁평리 689번지 궁평항수산물판매장 B동 70호","category":"음료식품 - 농·축·수산품"},{"name":"동해수산","tel":"001-0000-0000","addr":"경기도 화성시 서신면 궁평리 689번지 궁평항수산물판매장 A동 95호","category":"음료식품 - 농·축·수산품"},{"name":"딸부자집","tel":"031-357-3657","addr":"경기도 화성시 서신면 궁평리 689번지 궁평항수산물판매장 A동 130호","category":"음료식품 - 농·축·수산품"},{"name":"명성3호","tel":"031-352-1673","addr":"경기도 화성시 서신면 궁평리 689번지 궁평항수산물판매장 B동 120호","category":"음료식품 - 농·축·수산품"},{"name":"명진1호","tel":"031-000-0000","addr":"경기도 화성시 서신면 궁평리 689번지 궁평항수산물판매장 A동 8호","category":"음료식품 - 농·축·수산품"},{"name":"민성호","tel":"","addr":"경기도 화성시 서신면 궁평리 689번지 궁평항수산물판매장 B동 68호","category":"음료식품 - 농·축·수산품"},{"name":"민지호","tel":"031-6806-5989","addr":"경기도 화성시 서신면 궁평리 689번지 궁평항수산물판매장 A동 58호","category":"음료식품 - 농·축·수산품"},{"name":"바다수산","tel":"031-5228-9728","addr":"경기도 화성시 서신면 궁평리 689번지 궁평항수산물판매장 B동 60호","category":"음료식품 - 농·축·수산품"},{"name":"바다수산","tel":"031-357-2177","addr":"경기도 화성시 서신면 궁평리 689번지 궁평항수산물직판장 B동 118호","category":"음료식품 - 농·축·수산품"},{"name":"바다식탁","tel":"031-3436-9040","addr":"경기도 화성시 서신면 궁평리 689번지 B동 1층 6호","category":"음료식품 - 농·축·수산품"},{"name":"바다호","tel":"031-246-4664","addr":"경기도 화성시 서신면 궁평리 689번지 69","category":"음료식품 - 농·축·수산품"},{"name":"바다호B동69호","tel":"031-111-1111","addr":"경기도 화성시 서신면 궁평리 689번지 궁평항수산물판매장 B동 69호","category":"음료식품 - 농·축·수산품"},{"name":"삼화호","tel":"031-000-0000","addr":"경기도 화성시 서신면 궁평리 689번지 궁평항수산물판매장 A동 23호","category":"음료식품 - 농·축·수산품"},{"name":"상록수호","tel":"031-355-9140","addr":"경기도 화성시 서신면 궁평리 689번지 궁평항수산물판매장 B동 33호","category":"음료식품 - 농·축·수산품"},{"name":"서해관광해운","tel":"031-356-3607","addr":"경기도 화성시 서신면 궁평리 689번지 1층","category":"여행 - 여객선"},{"name":"서해수산 (대흥호)","tel":"031-351-8858","addr":"경기도 화성시 서신면 궁평리 689번지 궁평항수산물판매장 B동 40호","category":"음료식품 - 농·축·수산품"},{"name":"성덕호","tel":"031-356-0674","addr":"경기도 화성시 서신면 궁평리 689번지 궁평항수산물판매장 B동 42호","category":"음료식품 - 농·축·수산품"},{"name":"성룡2호","tel":"031-356-3493","addr":"경기도 화성시 서신면 궁평리 689번지 궁평항수산물판매장 A동 7호","category":"음료식품 - 농·축·수산품"},{"name":"성심호","tel":"031-355-9468","addr":"경기도 화성시 서신면 궁평리 689번지 B층91호","category":"음료식품 - 농·축·수산품"},{"name":"소래네강경젓갈","tel":"031-1111-1111","addr":"경기도 화성시 서신면 궁평리 689번지 궁평항수산물판매장 B동 126호","category":"음료식품 - 농·축·수산품"},{"name":"소문난","tel":"031-357-5912","addr":"경기도 화성시 서신면 궁평리 689번지 궁평항수산물판매장 B동 63호","category":"음료식품 - 농·축·수산품"},{"name":"수산호","tel":"031-355-4089","addr":"경기도 화성시 서신면 궁평리 689번지 궁평항수산물판매장 B동 34호","category":"음료식품 - 농·축·수산품"},{"name":"수성호","tel":"031-000-0000","addr":"경기도 화성시 서신면 궁평리 689번지 궁평항수산물판매장 B동 47호","category":"음료식품 - 농·축·수산품"},{"name":"수성호","tel":"031-356-0544","addr":"경기도 화성시 서신면 궁평리 689번지 궁평항수산물판매장 B동 47호","category":"음료식품 - 농·축·수산품"},{"name":"순길호","tel":"031-000-0000","addr":"경기도 화성시 서신면 궁평리 689번지 궁평항수산물판매장 A동 119호","category":"음료식품 - 농·축·수산품"},{"name":"신성수산","tel":"031-6203-6006","addr":"경기도 화성시 서신면 궁평리 689번지 궁평항수산물판매장 B동 19호","category":"음료식품 - 농·축·수산품"},{"name":"안산수산","tel":"031-000-0000","addr":"경기도 화성시 서신면 궁평리 689번지 궁평항수산물판매장 A동 85호","category":"음료식품 - 농·축·수산품"},{"name":"양념코너 3호점","tel":"","addr":"경기도 화성시 서신면 궁평리 689번지 궁평항수산물판매장 1층 3호","category":"일반휴게음식 - 일식·회집"},{"name":"어수산","tel":"031-3309-3601","addr":"경기도 화성시 서신면 궁평리 689번지 궁평항수산물판매장 A동 78호","category":"음료식품 - 농·축·수산품"},{"name":"에이(A/B)동양념코너1층1호","tel":"031-5811-8253","addr":"경기도 화성시 서신면 궁평리 689번지 1층1호,궁평항수산물판매장","category":"일반휴게음식 - 일반한식"},{"name":"영광수산","tel":"031-355-9676","addr":"경기도 화성시 서신면 궁평리 689번지 궁평항수산물판매장 B동 104호","category":"음료식품 - 농·축·수산품"},{"name":"영광젓갈","tel":"","addr":"경기도 화성시 서신면 궁평리 689번지 궁평항수산물판매장 B동 30호","category":"음료식품 - 농·축·수산품"},{"name":"영양호","tel":"031-2482-5952","addr":"경기도 화성시 서신면 궁평리 689번지 궁평항수산물판매장 B동 82호","category":"음료식품 - 농·축·수산품"},{"name":"오성호","tel":"031-4275-4310","addr":"경기도 화성시 서신면 궁평리 689번지 궁평항수산물판매장 B동 51호","category":"음료식품 - 농·축·수산품"},{"name":"용승3호","tel":"031-358-5056","addr":"경기도 화성시 서신면 궁평리 689번지 궁평항수산물판매장 B동 114호","category":"음료식품 - 농·축·수산품"},{"name":"원앙호","tel":"031-000-0000","addr":"경기도 화성시 서신면 궁평리 689번지 궁평항수산물판매장 B동 54호","category":"음료식품 - 농·축·수산품"},{"name":"원평수산","tel":"031-2662-2486","addr":"경기도 화성시 서신면 궁평리 689번지 궁평항수산물판매장 B동 135호","category":"음료식품 - 농·축·수산품"},{"name":"유능호","tel":"031-366-7654","addr":"경기도 화성시 서신면 궁평리 689번지 궁평항수산물판매장 A동 48호","category":"음료식품 - 농·축·수산품"},{"name":"유람선이 있는 회집","tel":"031-9452-6281","addr":"경기도 화성시 서신면 궁평리 689번지 궁평항수산물판매장 B동 101호","category":"음료식품 - 농·축·수산품"},{"name":"일광호","tel":"031-3857-3664","addr":"경기도 화성시 서신면 궁평리 689번지 궁평항수산물판매장 A동 2호","category":"음료식품 - 농·축·수산품"},{"name":"정우수산 A동 43호","tel":"031-000-0000","addr":"경기도 화성시 서신면 궁평리 689번지 궁평항수산물판매장 A동 43호","category":"음료식품 - 농·축·수산품"},{"name":"제3 영광수산","tel":"","addr":"경기도 화성시 서신면 궁평리 689번지 B동 96호 궁평항수산물판매장","category":"음료식품 - 농·축·수산품"},{"name":"지우호수산","tel":"","addr":"경기도 화성시 서신면 궁평리 689번지 궁평항수산물판매장 A동 60호","category":"음료식품 - 농·축·수산품"},{"name":"진양수산","tel":"031-356-5576","addr":"경기도 화성시 서신면 궁평리 689번지 궁평항수산물판매장 B동 87호","category":"음료식품 - 농·축·수산품"},{"name":"진주","tel":"","addr":"경기도 화성시 서신면 궁평리 689번지 궁평항수산물판매장 B동 72호","category":"음료식품 - 농·축·수산품"},{"name":"진희네","tel":"","addr":"경기도 화성시 서신면 궁평리 689번지 궁평항수산물판매장 B동 44호","category":"음료식품 - 농·축·수산품"},{"name":"창진1호","tel":"031-9113-6955","addr":"경기도 화성시 서신면 궁평리 689번지 궁평항수산물판매장 A동 34호","category":"음료식품 - 농·축·수산품"},{"name":"창진호","tel":"031-6217-3157","addr":"경기도 화성시 서신면 궁평리 689번지 궁평항수산물판매장 A동 22호","category":"음료식품 - 농·축·수산품"},{"name":"청룡호","tel":"031-356-4386","addr":"경기도 화성시 서신면 궁평리 689번지 궁평항수산물판매장 A동 38호","category":"음료식품 - 농·축·수산품"},{"name":"청해수산(곰소청해젓갈)","tel":"031-1111-1111","addr":"경기도 화성시 서신면 궁평리 689번지 궁평항수산물판매장 A동 72호","category":"음료식품 - 농·축·수산품"},{"name":"태진수산호","tel":"031-7490-0045","addr":"경기도 화성시 서신면 궁평리 689번지 궁평항수산물판매장 A동 106호","category":"음료식품 - 농·축·수산품"},{"name":"풍미","tel":"031-0000-0000","addr":"경기도 화성시 서신면 궁평리 689번지","category":"음료식품 - 농·축·수산품"},{"name":"풍안수산","tel":"032-446-2096","addr":"경기도 화성시 서신면 궁평리 689번지 궁평항수산물판매장 A동 103호","category":"음료식품 - 농·축·수산품"},{"name":"풍어호","tel":"031-357-5967","addr":"경기도 화성시 서신면 궁평리 689번지 궁평항수산물판매장 B동 106호","category":"음료식품 - 농·축·수산품"},{"name":"해광수산","tel":"031-358-5383","addr":"경기도 화성시 서신면 궁평리 689번지 궁평항수산물판매장 B동 78호","category":"음료식품 - 농·축·수산품"},{"name":"해성수산","tel":"031-8585-3416","addr":"경기도 화성시 서신면 궁평리 689번지 궁평항수산물직판장 B동 03호","category":"음료식품 - 농·축·수산품"},{"name":"해왕호","tel":"031-366-8599","addr":"경기도 화성시 서신면 궁평리 689번지 궁평항수산물판매장 A동 31호","category":"음료식품 - 농·축·수산품"},{"name":"현대호","tel":"031-000-0000","addr":"경기도 화성시 서신면 궁평리 689번지 궁평항수산물판매장 B동 90호","category":"음료식품 - 농·축·수산품"},{"name":"호남거시기","tel":"031-357-7328","addr":"경기도 화성시 서신면 궁평리 689번지 궁평항수산물판매장 B동 122호","category":"음료식품 - 농·축·수산품"},{"name":"황해도완도청산","tel":"031-356-4300","addr":"경기도 화성시 서신면 궁평리 689번지 B-20호","category":"음료식품 - 농·축·수산품"},{"name":"효선네","tel":"031-9433-3644","addr":"경기도 화성시 서신면 궁평리 689번지 궁평항수산물판매장 B동 15호","category":"음료식품 - 농·축·수산품"},{"name":"효선례","tel":"031-356-3614","addr":"경기도 화성시 서신면 궁평리 689번지","category":"일반휴게음식 - 일반한식"},{"name":"흑산도","tel":"031-366-8753","addr":"경기도 화성시 서신면 궁평리 689번지 궁평항수산물판매장 A동 135호","category":"음료식품 - 농·축·수산품"}]},{"lat":"37.120528348","long":"126.68648435","items":[{"name":"H하우스펜션","tel":"031-355-8585","addr":"경기도 화성시 서신면 궁평리 660-31번지","category":"숙박업 - 여관/기타숙박업"}]},{"lat":"37.129494952","long":"126.68356616","items":[{"name":"경기이벤트","tel":"","addr":"경기도 화성시 서신면 궁평리 507번지","category":"레져용품 - 악기점"},{"name":"서해식당","tel":"031-357-3232","addr":"경기도 화성시 서신면 궁평리 507번지","category":"일반휴게음식 - 일반한식"}]},{"lat":"37.121384908","long":"126.69009274","items":[{"name":"군산공업사","tel":"031-9100-3588","addr":"경기도 화성시 서신면 궁평리 649-20번지","category":"수리서비스 - 기타수리서비스"}]},{"lat":"37.123447679","long":"126.68646095","items":[{"name":"궁평 특산물명품관","tel":"031-357-7306","addr":"경기도 화성시 서신면 궁평리 530번지","category":"음료식품 - 기타음료식품"}]},{"lat":"37.116031973","long":"126.68307138","items":[{"name":"궁평리어촌계부녀회영어조합법인","tel":"031-357-9285","addr":"경기도 화성시 서신면 궁평리 688번지","category":"일반휴게음식 - 일반한식"},{"name":"서해매점","tel":"031-355-9567","addr":"경기도 화성시 서신면 궁평리 688번지","category":"유통업 영리 - 슈퍼마켓"},{"name":"카페시모궁평1점","tel":"","addr":"경기도 화성시 서신면 궁평리 688번지","category":"일반휴게음식 - 일반한식"}]},{"lat":"37.12116601","long":"126.6857053","items":[{"name":"궁평솔밭펜션","tel":"031-357-9456","addr":"경기도 화성시 서신면 궁평리 661-1번지","category":"숙박업 - 여관/기타숙박업"}]},{"lat":"37.122884942","long":"126.68493296","items":[{"name":"궁평아일랜드펜션","tel":"031-366-7517","addr":"경기도 화성시 서신면 궁평리 534-7번지","category":"숙박업 - 여관/기타숙박업"}]},{"lat":"37.125356405","long":"126.68590162","items":[{"name":"궁평애풍펜션","tel":"031-291-5761","addr":"경기도 화성시 서신면 궁평리 480-15번지 3층","category":"숙박업 - 여관/기타숙박업"}]},{"lat":"37.121669326","long":"126.6852306","items":[{"name":"궁평펜션(민박)","tel":"031-366-7120","addr":"경기도 화성시 서신면 궁평리 661-5번지","category":"숙박업 - 여관/기타숙박업"}]},{"lat":"37.129251611","long":"126.68354467","items":[{"name":"궁평편의점","tel":"031-355-6244","addr":"경기도 화성시 서신면 궁평리 507-1번지","category":"유통업 영리 - 편 의 점"}]},{"lat":"37.116332828","long":"126.68437529","items":[{"name":"궁평항 가는날","tel":"031-357-7772","addr":"경기도 화성시 서신면 궁평리 699-2번지","category":"유통업 영리 - 편 의 점"}]},{"lat":"37.116863534","long":"126.68403552","items":[{"name":"궁평항 카페","tel":"031-8702-3070","addr":"경기도 화성시 서신면 궁평리 666-20번지 3층","category":"일반휴게음식 - 서양음식"},{"name":"궁평항노래연습장","tel":"031-8720-3070","addr":"경기도 화성시 서신면 궁평리 666-20번지 3층","category":"레저업소 - 노 래 방"},{"name":"룰루랄라궁평항카페","tel":"031-8702-3070","addr":"경기도 화성시 서신면 궁평리 666-20번지 1동 3층","category":"일반휴게음식 - 일반한식"},{"name":"바다 수산물 직판장","tel":"031-8702-3070","addr":"경기도 화성시 서신면 궁평리 666-20번지 1층 102호","category":"음료식품 - 농·축·수산품"}]},{"lat":"37.116945232","long":"126.6842602","items":[{"name":"궁평항 하나로마트24","tel":"","addr":"경기도 화성시 서신면 궁평리 666-37번지","category":"유통업 영리 - 슈퍼마켓"},{"name":"멜팅","tel":"031-000-0000","addr":"경기도 화성시 서신면 궁평리 666-37번지 2층","category":"일반휴게음식 - 서양음식"},{"name":"스마일노래연습장","tel":"031-000-0000","addr":"경기도 화성시 서신면 궁평리 666-37번지","category":"레저업소 - 노 래 방"},{"name":"하나로펜션","tel":"031-357-1124","addr":"경기도 화성시 서신면 궁평리 666-37번지","category":"숙박업 - 여관/기타숙박업"}]},{"lat":"37.138029505","long":"126.70140269","items":[{"name":"궁평항가는길","tel":"031-355-7874","addr":"경기도 화성시 서신면 궁평리 173-1번지","category":"일반휴게음식 - 일반한식"}]},{"lat":"37.121638088","long":"126.69042926","items":[{"name":"궁평항낚시슈퍼할인마트","tel":"031-355-0514","addr":"경기도 화성시 서신면 궁평리 653-7번지","category":"유통업 영리 - 슈퍼마켓"},{"name":"청솔민박","tel":"031-355-0201","addr":"경기도 화성시 서신면 궁평리 653-7번지 2층","category":"숙박업 - 여관/기타숙박업"}]},{"lat":"37.120967782","long":"126.68570612","items":[{"name":"궁평항올레","tel":"031-111-1111","addr":"경기도 화성시 서신면 궁평리 661-3번지 1층","category":"일반휴게음식 - 스넥"}]},{"lat":"37.120752706","long":"126.68614585","items":[{"name":"궁평항올레","tel":"031-355-5233","addr":"경기도 화성시 서신면 궁평리 660-38번지","category":"숙박업 - 여관/기타숙박업"}]},{"lat":"37.120999448","long":"126.69084822","items":[{"name":"궁평항주유소","tel":"031-366-9987","addr":"경기도 화성시 서신면 궁평리 649-37번지","category":"연료판매점 - 쌍용S-OIL"},{"name":"궁평항주유소","tel":"031-366-9987","addr":"경기도 화성시 서신면 궁평리 649-37번지","category":"연료판매점 - 쌍용S-OIL"},{"name":"궁평항주유소","tel":"031-366-9987","addr":"경기도 화성시 서신면 궁평리 649-37번지","category":"연료판매점 - 쌍용S-OIL"},{"name":"궁평항주유소","tel":"02-111-1111","addr":"경기도 화성시 서신면 궁평리 649-37번지","category":"연료판매점 - 쌍용S-OIL"},{"name":"씨유화성궁평항주유소점","tel":"031-366-9727","addr":"경기도 화성시 서신면 궁평리 649-37번지","category":"유통업 영리 - 편 의 점"}]},{"lat":"37.122194757","long":"126.68628613","items":[{"name":"그 사람의 별장","tel":"","addr":"경기도 화성시 서신면 궁평리 543-9번지","category":"숙박업 - 여관/기타숙박업"}]},{"lat":"37.120336665","long":"126.68556248","items":[{"name":"그래거기","tel":"031-355-7486","addr":"경기도 화성시 서신면 궁평리 660-3번지 2층","category":"일반휴게음식 - 일반한식"}]},{"lat":"37.129610051","long":"126.69298478","items":[{"name":"꽃담","tel":"070-2321-5204","addr":"경기도 화성시 서신면 궁평리 353번지","category":"음료식품 - 농·축·수산품"},{"name":"오가네 본초당 한약","tel":"031-357-0783","addr":"경기도 화성시 서신면 궁평리 353번지","category":"음료식품 - 농·축·수산품"}]},{"lat":"37.120662031","long":"126.68593244","items":[{"name":"대성노래연습장","tel":"031-355-8857","addr":"경기도 화성시 서신면 궁평리 660-37번지 지하1층","category":"레저업소 - 노 래 방"},{"name":"대성슈퍼","tel":"031-355-8857","addr":"경기도 화성시 서신면 궁평리 660-37번지","category":"유통업 영리 - 슈퍼마켓"}]},{"lat":"37.13419005","long":"126.70456907","items":[{"name":"대수풀농원","tel":"031-357-7492","addr":"경기도 화성시 서신면 궁평리 60-2번지","category":"음료식품 - 농·축·수산품"}]},{"lat":"37.135581835","long":"126.69911652","items":[{"name":"대웅","tel":"031-366-7245","addr":"경기도 화성시 서신면 궁평리 261번지","category":"건축자재 - 기타건축자재"}]},{"lat":"37.122218597","long":"126.68509328","items":[{"name":"도리도회집","tel":"031-357-7339","addr":"경기도 화성시 서신면 궁평리 538번지","category":"일반휴게음식 - 일식·회집"}]},{"lat":"37.13138923","long":"126.69456429","items":[{"name":"마지막슈퍼낚시","tel":"031-356-3607","addr":"경기도 화성시 서신면 궁평리 322-1번지","category":"레져용품 - 스포츠·레져용품"}]},{"lat":"37.12247635","long":"126.69053834","items":[{"name":"미래마린","tel":"031-246-4664","addr":"경기도 화성시 서신면 궁평리 654-1번지","category":"수리서비스 - 기타수리서비스"}]},{"lat":"37.1233621","long":"126.68478468","items":[{"name":"바다펜션","tel":"031-356-9656","addr":"경기도 화성시 서신면 궁평리 535번지","category":"숙박업 - 여관/기타숙박업"}]},{"lat":"37.129277429","long":"126.68309443","items":[{"name":"바다회집","tel":"031-357-0502","addr":"경기도 화성시 서신면 궁평리 509-1번지","category":"일반휴게음식 - 일반한식"}]},{"lat":"37.133193204","long":"126.69528848","items":[{"name":"뿐이네농원","tel":"031-357-3080","addr":"경기도 화성시 서신면 궁평리 306-4번지","category":"음료식품 - 농·축·수산품"}]},{"lat":"37.12136007","long":"126.6909255","items":[{"name":"서해마린","tel":"031-355-8441","addr":"경기도 화성시 서신면 궁평리 649-34번지","category":"기타 - 기계공구"}]},{"lat":"37.121696809","long":"126.68539927","items":[{"name":"서해말뚝","tel":"031-355-7944","addr":"경기도 화성시 서신면 궁평리 661-12번지 1층 일부","category":"음료식품 - 기타음료식품"},{"name":"서해말뚝","tel":"031-355-7944","addr":"경기도 화성시 서신면 궁평리 661-12번지 1층 일부","category":"일반휴게음식 - 서양음식"}]},{"lat":"37.116918956","long":"126.6845416","items":[{"name":"서해편의점","tel":"031-111-1111","addr":"경기도 화성시 서신면 궁평리 666-38번지 1층 1호","category":"유통업 영리 - 편 의 점"},{"name":"한끼분식","tel":"031-357-6620","addr":"경기도 화성시 서신면 궁평리 666-38번지 1층","category":"일반휴게음식 - 스넥"}]},{"lat":"37.125085943","long":"126.68584648","items":[{"name":"솔향기펜션","tel":"031-409-3045","addr":"경기도 화성시 서신면 궁평리 480-12번지","category":"숙박업 - 여관/기타숙박업"}]},{"lat":"37.126661805","long":"126.69228786","items":[{"name":"오아시스 cafe&pub","tel":"032-831-3711","addr":"경기도 화성시 서신면 궁평리 376-35번지 1층","category":"일반휴게음식 - 서양음식"}]},{"lat":"37.129248818","long":"126.68250938","items":[{"name":"완도집","tel":"031-357-9098","addr":"경기도 화성시 서신면 궁평리 512-1번지","category":"일반휴게음식 - 일반한식"}]},{"lat":"37.122529402","long":"126.68675733","items":[{"name":"유명수산","tel":"031-355-9676","addr":"경기도 화성시 서신면 궁평리 548-13번지","category":"음료식품 - 농·축·수산품"}]},{"lat":"37.131888043","long":"126.69581143","items":[{"name":"전주초가집","tel":"031-355-6954","addr":"경기도 화성시 서신면 궁평리 312-1번지","category":"일반휴게음식 - 일반한식"}]},{"lat":"37.132973766","long":"126.69406269","items":[{"name":"정다운농원","tel":"031-355-1780","addr":"경기도 화성시 서신면 궁평리 327-1번지","category":"일반휴게음식 - 일반한식"}]},{"lat":"37.129554744","long":"126.68235054","items":[{"name":"종가집","tel":"031-357-7575","addr":"경기도 화성시 서신면 궁평리 512","category":"음료식품 - 기타음료식품"}]},{"lat":"37.133300856","long":"126.69859671","items":[{"name":"주식회사에코에프엠","tel":"032-837-5560","addr":"경기도 화성시 서신면 궁평리 296-15번지","category":"건축자재 - 목재·석재·철물"}]},{"lat":"37.13689021","long":"126.69984283","items":[{"name":"초원노래연습장","tel":"031-355-9298","addr":"경기도 화성시 서신면 궁평리 248","category":"레저업소 - 노 래 방"}]},{"lat":"37.121998592","long":"126.69046154","items":[{"name":"피싱캠프","tel":"031-356-8668","addr":"경기도 화성시 서신면 궁평리 654-6번지","category":"레져용품 - 스포츠·레져용품"}]},{"lat":"37.126078347","long":"126.68631496","items":[{"name":"한솔펜션","tel":"031-244-6541","addr":"경기도 화성시 서신면 궁평리 480-3번지 1층","category":"숙박업 - 여관/기타숙박업"}]},{"lat":"37.121581991","long":"126.68626617","items":[{"name":"해마루펜션","tel":"031-357-3250","addr":"경기도 화성시 서신면 궁평리 546-6번지 1층","category":"숙박업 - 여관/기타숙박업"}]},{"lat":"37.139332416","long":"126.70353594","items":[{"name":"해운초등학교[아이행복]","tel":"031-356-7479","addr":"경기도 화성시 서신면 궁평리 162-4번지 1층","category":"학원 - 유치원"}]},{"lat":"37.122169938","long":"126.6905171","items":[{"name":"현대전기정보통신","tel":"031-356-3976","addr":"경기도 화성시 서신면 궁평리 654-5번지","category":"기타 - 기계공구"}]}]