[{"lat":"37.214145252","long":"127.46498928","items":[{"name":"GYM ANABOLIC","tel":"031-633-5967","addr":"경기도 이천시 대포동 223번지","category":"회원제형태 - 기타4"}]},{"lat":"37.213556476","long":"127.45173709","items":[{"name":"늘푸릉원예,조경","tel":"031-634-1002","addr":"경기도 이천시 대포동 760-1번지","category":"문화.취미 - 화원"},{"name":"이천쌀찐빵연구소","tel":"031-638-8384","addr":"경기도 이천시 대포동 760-1번지 A동 1층","category":"일반휴게음식 - 스넥"}]},{"lat":"37.215862862","long":"127.46121433","items":[{"name":"능현정사법화원","tel":"031-631-1325","addr":"경기도 이천시 대포동 368-1번지","category":"기타 - 비영리/대상"}]},{"lat":"37.215726226","long":"127.45926446","items":[{"name":"다사랑","tel":"031-631-2715","addr":"경기도 이천시 대포동 292번지","category":"일반휴게음식 - 일반한식"}]},{"lat":"37.214585879","long":"127.45352321","items":[{"name":"대월종합가스","tel":"031-636-8888","addr":"경기도 이천시 대포동 766-12번지","category":"연료판매점 - LPG 취급점"}]},{"lat":"37.213255256","long":"127.45512631","items":[{"name":"대포식당","tel":"031-631-7887","addr":"경기도 이천시 대포동 730-1번지","category":"일반휴게음식 - 일반한식"}]},{"lat":"37.216000557","long":"127.45113193","items":[{"name":"도드람만두식사","tel":"031-632-3950","addr":"경기도 이천시 대포동 840-1번지","category":"일반휴게음식 - 일반한식"}]},{"lat":"37.214169077","long":"127.45176325","items":[{"name":"동백가든","tel":"031-634-1814","addr":"경기도 이천시 대포동 767-1번지","category":"일반휴게음식 - 일반한식"}]},{"lat":"37.205422943","long":"127.45574418","items":[{"name":"동인종합상사","tel":"031-632-4455","addr":"경기도 이천시 대포동 604-4번지","category":"레져용품 - 스포츠·레져용품"}]},{"lat":"37.213889124","long":"127.45193058","items":[{"name":"명성자동차공업사","tel":"031-632-8788","addr":"경기도 이천시 대포동 761-1번지","category":"자동차정비 유지 - 자동차정비"}]},{"lat":"37.208558211","long":"127.45346484","items":[{"name":"버드나무도토리묵밥집","tel":"031-633-0433","addr":"경기도 이천시 대포동 587-5번지","category":"일반휴게음식 - 일반한식"}]},{"lat":"37.201922554","long":"127.46156933","items":[{"name":"비승어린이집[아이행복]","tel":"031-9990-9076","addr":"경기도 이천시 대포동 3-16번지 비승아파트","category":"학원 - 유아원"}]},{"lat":"37.214728001","long":"127.4516877","items":[{"name":"서울축산산업","tel":"031-633-1125","addr":"경기도 이천시 대포동 769-1","category":"용역 서비스 - 기타용역서비스"}]},{"lat":"37.214556084","long":"127.45187821","items":[{"name":"우리집","tel":"031-634-2234","addr":"경기도 이천시 대포동 770번지","category":"용역 서비스 - 기타용역서비스"}]},{"lat":"37.208500926","long":"127.46135004","items":[{"name":"윈터블라썸","tel":"031-1111-1111","addr":"경기도 이천시 대포동 472-2번지","category":"문화.취미 - 애완동물"}]},{"lat":"37.212614034","long":"127.45551678","items":[{"name":"좋은사람 좋은소금","tel":"031-637-5351","addr":"경기도 이천시 대포동 734-6번지","category":"음료식품 - 기타음료식품"}]},{"lat":"37.211445636","long":"127.45237799","items":[{"name":"주식회사한사랑농업회사법인","tel":"031-631-6446","addr":"경기도 이천시 대포동 661-3번지","category":"음료식품 - 농·축·수산품"}]},{"lat":"37.215748408","long":"127.45818304","items":[{"name":"지유엔 모터스","tel":"031-638-8892","addr":"경기도 이천시 대포동 295-1번지 자유엔모터스","category":"자동차정비 유지 - 자동차정비"}]},{"lat":"37.211500936","long":"127.45205162","items":[{"name":"풍년골","tel":"031-632-2755","addr":"경기도 이천시 대포동 661-2번지","category":"일반휴게음식 - 일반한식"}]},{"lat":"37.215332872","long":"127.45137584","items":[{"name":"한그네","tel":"","addr":"경기도 이천시 대포동 841-1번지 한그네","category":"일반휴게음식 - 일반한식"}]}]