[{"lat":"37.175746819","long":"127.10199507","items":[{"name":"MK음악학원","tel":"031-373-4785","addr":"경기도 화성시 송동 687-1번지 4층 407호","category":"학원 - 예·체능계학원"},{"name":"SKY창의사고력학원","tel":"","addr":"경기도 화성시 송동 687-1번지 JJ프라자 511호","category":"학원 - 기타 교육기관"},{"name":"강남고등영어교습소","tel":"031-831-8948","addr":"경기도 화성시 송동 687-1번지 405호","category":"학원 - 외국어학원"},{"name":"그루밍펫(Grooming pet)","tel":"031-372-5404","addr":"경기도 화성시 송동 687-1번지 JJ프라자 212호","category":"문화.취미 - 애완동물"},{"name":"꼬마마녀매직슬라임카페","tel":"","addr":"경기도 화성시 송동 687-1번지 3층 311호","category":"일반휴게음식 - 서양음식"},{"name":"다온김치순대국","tel":"","addr":"경기도 화성시 송동 687-1번지 2층 213 ,214호","category":"일반휴게음식 - 일반한식"},{"name":"동탄2 아트비미술학원","tel":"031-8058-3179","addr":"경기도 화성시 송동 687-1번지 제이제이프라자 307호","category":"학원 - 예·체능계학원"},{"name":"드림스포츠","tel":"031-375-0029","addr":"경기도 화성시 송동 687-1번지 2층 205호","category":"레져용품 - 스포츠·레져용품"},{"name":"루아헤어","tel":"031-377-5252","addr":"경기도 화성시 송동 687-1번지 204호","category":"보건위생 - 미용원"},{"name":"리드앤톡 영어독서어학원","tel":"031-377-8205","addr":"경기도 화성시 송동 687-1번지 JJ프라자 408,409호","category":"학원 - 외국어학원"},{"name":"멕시카나","tel":"031-372-9994","addr":"경기도 화성시 송동 687-1번지 JJ프라자 1층 118호","category":"일반휴게음식 - 스넥"},{"name":"미향식당","tel":"031-377-7188","addr":"경기도 화성시 송동 687-1번지 JJ프라자 2층 210호","category":"일반휴게음식 - 일반한식"},{"name":"보물섬","tel":"","addr":"경기도 화성시 송동 687-1번지 JJ프라자 1층 121호","category":"음료식품 - 기타음료식품"},{"name":"아뜰리에나나미술교습소","tel":"","addr":"경기도 화성시 송동 687-1번지 412호","category":"학원 - 예·체능계학원"},{"name":"아이스크림할인점","tel":"031-820-6262","addr":"경기도 화성시 송동 687-1번지 JJ프라자 1동 105층","category":"음료식품 - 기타음료식품"},{"name":"아트앤하트화성동탄2송동산척방교미술교습","tel":"","addr":"경기도 화성시 송동 687-1번지 JJ프라자 504호","category":"학원 - 예·체능계학원"},{"name":"오남매분식","tel":"","addr":"경기도 화성시 송동 687-1번지 JJ프라자 1층 120호","category":"일반휴게음식 - 스넥"},{"name":"온(on)영어교습소","tel":"","addr":"경기도 화성시 송동 687-1번지 JJ프라자 312호","category":"학원 - 외국어학원"},{"name":"용인대방교태권도장","tel":"031-377-3125","addr":"경기도 화성시 송동 687-1번지 jj프라자 5층 512,513,514호","category":"학원 - 예·체능계학원"},{"name":"제이엠수학학원","tel":"031-377-3492","addr":"경기도 화성시 송동 687-1번지 JJ프라자 411호","category":"학원 - 보습학원"},{"name":"제이제이로열티하우스1","tel":"02-1577-0000","addr":"경기도 화성시 송동 687-1번지 1층 102호","category":"일반휴게음식 - 서양음식"},{"name":"파고다교육그룹차이랑중국어교습소","tel":"031-372-1988","addr":"경기도 화성시 송동 687-1번지 3층 306호","category":"학원 - 외국어학원"}]},{"lat":"37.166670354","long":"127.0944735","items":[{"name":"가리찜","tel":"01-4433-9564","addr":"경기도 화성시 송동 704-14번지 1층","category":"일반휴게음식 - 일반한식"},{"name":"한빛 카 정비","tel":"031-377-5677","addr":"경기도 화성시 송동 704-3번지","category":"자동차정비 유지 - 자동차정비"}]},{"lat":"37.16614389","long":"127.0993367","items":[{"name":"고씨네GO김밥","tel":"031-7524-4343","addr":"경기도 화성시 송동 720-5번지 101호","category":"일반휴게음식 - 스넥"},{"name":"스시연","tel":"031-375-1173","addr":"경기도 화성시 송동 719-6번지 1층 전체","category":"일반휴게음식 - 일반한식"},{"name":"카페드단아한(동탄호수공원점)","tel":"031-377-6607","addr":"경기도 화성시 송동 720-2번지 1층 전체호","category":"일반휴게음식 - 서양음식"},{"name":"투썸플레이스 동탄호수공원점","tel":"031-375-7229","addr":"경기도 화성시 송동 720-1번지 1층","category":"일반휴게음식 - 서양음식"},{"name":"하슬라","tel":"031-377-1270","addr":"경기도 화성시 송동 719-6번지 1층 일부호","category":"일반휴게음식 - 서양음식"},{"name":"할리스커피 동탄호수공원점","tel":"031-373-5223","addr":"경기도 화성시 송동 720-4번지","category":"일반휴게음식 - 서양음식"}]},{"lat":"37.165525443","long":"127.09522646","items":[{"name":"나무190 (NAMU190)","tel":"","addr":"경기도 화성시 송동 711-3번지 1층","category":"의류 - 정장"},{"name":"다원잔기지떡 동탄점","tel":"031-000-0000","addr":"경기도 화성시 송동 712-4번지 1층 전부호","category":"음료식품 - 제과점"},{"name":"동탄상회","tel":"031-374-4157","addr":"경기도 화성시 송동 712-5번지 1층 101호","category":"일반휴게음식 - 스넥"},{"name":"전주한식찌개뷔페","tel":"031-8050-8940","addr":"경기도 화성시 송동 714-7번지 1층 전체호","category":"일반휴게음식 - 일반한식"},{"name":"제이새나작업공간","tel":"","addr":"경기도 화성시 송동 713-1번지 1층 104호","category":"문화.취미 - 문화취미기타"}]},{"lat":"37.174997616","long":"127.10358178","items":[{"name":"노리숲어린이집[아이행복]","tel":"070-7543-2356","addr":"경기도 화성시 송동 693번지 동탄2신도시하우스디더레이크 2630동 103호","category":"학원 - 유아원"},{"name":"다누리","tel":"02-2658-6927","addr":"경기도 화성시 송동 693번지 동탄2신도시하우스디더레이크 2627동 1103호","category":"사무통신 - 통신기기"},{"name":"디씨 인터내셔날","tel":"070-8659-2821","addr":"경기도 화성시 송동 693번지 동탄2신도시 하우스디 더 레이크 상가 1동 103호","category":"보건위생 - 화장품"},{"name":"러블리솜사탕","tel":"","addr":"경기도 화성시 송동 693번지 동탄2신도시하우스디더레이크 2622동 8층 B02호","category":"음료식품 - 기타음료식품"},{"name":"브라이트 잉글리쉬 하우스","tel":"","addr":"경기도 화성시 송동 693번지 동탄2신도시하우스디더레이크 2622동 103호","category":"학원 - 기타 교육기관"},{"name":"비티에스공부방","tel":"","addr":"경기도 화성시 송동 693번지 동탄2신도시하우스디더레이크 2621동 104호","category":"학원 - 기타 교육기관"},{"name":"상담실장사관학교","tel":"","addr":"경기도 화성시 송동 693번지 동탄2신도시하우스디더레이크 2630동 1802호","category":"용역 서비스 - 사무서비스"},{"name":"세븐일레븐동탄레이크점","tel":"031-1577-0711","addr":"경기도 화성시 송동 693번지 동탄2신도시 하우스디 더 레이크 상가 2동 104호","category":"유통업 영리 - 편 의 점"},{"name":"아트샘동탄","tel":"031-8050-3775","addr":"경기도 화성시 송동 693번지 동탄2신도시하우스디더레이크 2621동 103호","category":"학원 - 기타 교육기관"},{"name":"연솔어린이집[아이행복]","tel":"031-8043-4788","addr":"경기도 화성시 송동 693번지 동탄2신도시하우스디더레이크 2624동 103호","category":"학원 - 유아원"},{"name":"차유진","tel":"031-376-3244","addr":"경기도 화성시 송동 693번지 동탄2신도시 하우스디 더 레이크 2622동 106호","category":"학원 - 기타 교육기관"},{"name":"책놀이터","tel":"031-000-0000","addr":"경기도 화성시 송동 693번지 동탄2신도시하우스디더레이크 2629동 1503호","category":"학원 - 기타 교육기관"},{"name":"최상위영어수학","tel":"031-377-1080","addr":"경기도 화성시 송동 693번지 동탄2신도시하우스디더레이크 2621동 405호","category":"학원 - 보습학원"},{"name":"피아노숲","tel":"070-4001-7827","addr":"경기도 화성시 송동 693번지 동탄2신도시하우스디더레이크 2622동 105호","category":"학원 - 기타 교육기관"},{"name":"피아노트리","tel":"031-691-8223","addr":"경기도 화성시 송동 693번지 동탄2신도시하우스디더레이크 하우스더레이크 2623동 106호","category":"학원 - 기타 교육기관"},{"name":"하늘안에바다","tel":"","addr":"경기도 화성시 송동 693번지 동탄2신도시하우스디더레이크 2625동 17층 1호","category":"신변잡화 - 기타잡화"},{"name":"하루만찬","tel":"031-223-5214","addr":"경기도 화성시 송동 693번지 동탄2신도시하우스디더레이크 1","category":"음료식품 - 기타음료식품"}]},{"lat":"37.166858388","long":"127.09599369","items":[{"name":"달보드레 호수공원점","tel":"031-374-6321","addr":"경기도 화성시 송동 703-15번지 1층","category":"일반휴게음식 - 서양음식"}]},{"lat":"37.166804449","long":"127.095836","items":[{"name":"린13","tel":"031-373-5775","addr":"경기도 화성시 송동 704-16번지 1층","category":"일반휴게음식 - 중국식"}]},{"lat":"37.166363053","long":"127.09568909","items":[{"name":"메이비동탄호수공원점","tel":"031-376-2557","addr":"경기도 화성시 송동 712-2번지 101호","category":"의류 - 정장"},{"name":"호수마트","tel":"","addr":"경기도 화성시 송동 712-2번지 102호","category":"유통업 영리 - 슈퍼마켓"}]},{"lat":"37.166471548","long":"127.09521635","items":[{"name":"바이루나","tel":"031-8055-3791","addr":"경기도 화성시 송동 711-1번지 104호","category":"신변잡화 - 귀금속"},{"name":"홍루이젠 동탄호수공원점","tel":"","addr":"경기도 화성시 송동 711-1번지 1층 103호","category":"일반휴게음식 - 서양음식"}]},{"lat":"37.165449683","long":"127.0998312","items":[{"name":"바이브","tel":"","addr":"경기도 화성시 송동 720-8번지 1층 일부호","category":"일반휴게음식 - 서양음식"},{"name":"쁘띠에든","tel":"","addr":"경기도 화성시 송동 720-7번지","category":"일반휴게음식 - 서양음식"},{"name":"셀렉토커피 동탄호수공원점","tel":"031-373-4931","addr":"경기도 화성시 송동 720-8번지 1층 일부호","category":"일반휴게음식 - 서양음식"},{"name":"작은프랑스","tel":"","addr":"경기도 화성시 송동 720-7번지 제이아크 1동 지하1층","category":"일반휴게음식 - 서양음식"}]},{"lat":"37.166526638","long":"127.09388787","items":[{"name":"봉할매김치찌개","tel":"031-373-4836","addr":"경기도 화성시 송동 706-1번지","category":"일반휴게음식 - 일반한식"}]},{"lat":"37.165386996","long":"127.09935825","items":[{"name":"브런치카페37.5","tel":"","addr":"경기도 화성시 송동 719-10번지 1층","category":"일반휴게음식 - 일반한식"},{"name":"하리온 KUSTOM COFFEE","tel":"031-372-1770","addr":"경기도 화성시 송동 720-11번지","category":"일반휴게음식 - 서양음식"}]},{"lat":"37.169975642","long":"127.09644789","items":[{"name":"시립산척어린이집[아이행복]","tel":"031-372-3324","addr":"경기도 화성시 송동 696번지 동탄레이크자이더테라스","category":"학원 - 유아원"},{"name":"씨유동탄레이크자이점","tel":"080-080-3663","addr":"경기도 화성시 송동 696번지 근린생활시설동 1603호","category":"유통업 영리 - 편 의 점"}]},{"lat":"37.167029887","long":"127.0956111","items":[{"name":"안성깍뚜기 동탄호수공원점","tel":"031-374-4455","addr":"경기도 화성시 송동 703-11번지","category":"일반휴게음식 - 일반한식"}]},{"lat":"37.165886897","long":"127.0938871","items":[{"name":"오뚜기 식당","tel":"031-376-0208","addr":"경기도 화성시 송동 709-1번지 1층","category":"일반휴게음식 - 일반한식"}]},{"lat":"37.166553971","long":"127.09349384","items":[{"name":"오페라빈","tel":"031-373-9813","addr":"경기도 화성시 송동 705-1번지 1층","category":"일반휴게음식 - 서양음식"}]},{"lat":"37.166948599","long":"127.0958587","items":[{"name":"제이루스","tel":"","addr":"경기도 화성시 송동 703-12번지 1층 전체호","category":"일반휴게음식 - 일반한식"},{"name":"튼튼영어 화성 남동탄 교육본부","tel":"","addr":"경기도 화성시 송동 703-13번지 201호","category":"학원 - 학습지 교육"}]},{"lat":"37.16647109","long":"127.09580182","items":[{"name":"카페르쌩크","tel":"031-376-5517","addr":"경기도 화성시 송동 712-1번지 1층 101호","category":"일반휴게음식 - 서양음식"}]},{"lat":"37.167249461","long":"127.10261448","items":[{"name":"칸싸카에이젼시","tel":"031-372-9047","addr":"경기도 화성시 송동 79","category":"기타 - 기타 전문점"}]},{"lat":"37.166057583","long":"127.09455158","items":[{"name":"커피에반하다 동탄2호수마을점","tel":"","addr":"경기도 화성시 송동 708-4번지","category":"일반휴게음식 - 서양음식"}]},{"lat":"37.167084511","long":"127.09489059","items":[{"name":"포레스트 PHOREST","tel":"031-374-6636","addr":"경기도 화성시 송동 703-10번지 1층 101호","category":"일반휴게음식 - 서양음식"}]}]