[{"lat":"37.776755868","long":"126.68799911","items":[{"name":"(주)비젼","tel":"031-942-0222","addr":"경기도 파주시 탄현면 성동리 679-6번지","category":"숙박업 - 여관/기타숙박업"},{"name":"골든힐 레스토랑","tel":"031-942-0222","addr":"경기도 파주시 탄현면 성동리 679-6번지","category":"일반휴게음식 - 서양음식"}]},{"lat":"37.790333902","long":"126.684933","items":[{"name":"(주)실리만홈앤쿡 프로방스지점","tel":"031-919-3358","addr":"경기도 파주시 탄현면 성동리 84번지","category":"신변잡화 - 기타잡화"},{"name":"다올","tel":"031-948-8616","addr":"경기도 파주시 탄현면 성동리 84번지","category":"가구 - 기타가구"},{"name":"더갤러리아(the galleria)","tel":"031-957-8895","addr":"경기도 파주시 탄현면 성동리 84번지","category":"의류 - 정장"},{"name":"러브레터","tel":"070-4101-1100","addr":"경기도 파주시 탄현면 성동리 84번지","category":"의류 - 정장"},{"name":"레몬하우스","tel":"070-1111-1111","addr":"경기도 파주시 탄현면 성동리 84번지","category":"주방용구 - 주방용구"},{"name":"로제","tel":"031-941-6251","addr":"경기도 파주시 탄현면 성동리 84번지","category":"의류 - 기타의류"},{"name":"린샘하우스","tel":"031-947-2860","addr":"경기도 파주시 탄현면 성동리 84번지","category":"보건위생 - 기타대인서비스"},{"name":"메종","tel":"070-7858-9019","addr":"경기도 파주시 탄현면 성동리 84번지","category":"직물 - 침구·수예점"},{"name":"모퉁이","tel":"031-8447-0214","addr":"경기도 파주시 탄현면 성동리 84번지","category":"신변잡화 - 기타잡화"},{"name":"바스티안의공작소","tel":"070-4910-9976","addr":"경기도 파주시 탄현면 성동리 84번지","category":"문화.취미 - 문화취미기타"},{"name":"백담원","tel":"031-000-0000","addr":"경기도 파주시 탄현면 성동리 84번지","category":"주방용구 - 주방용식기"},{"name":"벨라","tel":"031-932-2772","addr":"경기도 파주시 탄현면 성동리 84번지","category":"의류 - 아동의류"},{"name":"벨라쿠치나","tel":"031-948-7440","addr":"경기도 파주시 탄현면 성동리 84번지","category":"주방용구 - 주방용식기"},{"name":"블링","tel":"070-4279-6775","addr":"경기도 파주시 탄현면 성동리 84번지","category":"신변잡화 - 액세서리"},{"name":"블링블링","tel":"031-947-0249","addr":"경기도 파주시 탄현면 성동리 84번지","category":"신변잡화 - 액세서리"},{"name":"쁘띠프랑","tel":"031-569-0401","addr":"경기도 파주시 탄현면 성동리 84번지","category":"의류 - 정장"},{"name":"솔이랑","tel":"070-4204-5884","addr":"경기도 파주시 탄현면 성동리 84번지","category":"신변잡화 - 가방"},{"name":"솔향기","tel":"070-8785-7130","addr":"경기도 파주시 탄현면 성동리 84번지","category":"신변잡화 - 기타잡화"},{"name":"스노우드롭","tel":"031-914-0217","addr":"경기도 파주시 탄현면 성동리 84번지","category":"문화.취미 - 민예·공예품"},{"name":"슬로우그램","tel":"031-947-2625","addr":"경기도 파주시 탄현면 성동리 84번지","category":"의류 - 정장"},{"name":"아로야","tel":"031-000-0000","addr":"경기도 파주시 탄현면 성동리 84번지","category":"신변잡화 - 기타잡화"},{"name":"아리아","tel":"","addr":"경기도 파주시 탄현면 성동리 84번지","category":"의류 - 정장"},{"name":"아이리스","tel":"","addr":"경기도 파주시 탄현면 성동리 84번지","category":"신변잡화 - 액세서리"},{"name":"어바웃하웃스","tel":"031-942-1878","addr":"경기도 파주시 탄현면 성동리 84번지","category":"주방용구 - 주방용구"},{"name":"에스지이십오 (SZ25)","tel":"","addr":"경기도 파주시 탄현면 성동리 84번지","category":"의류 - 정장"},{"name":"엘씨엘(ELCL)","tel":"070-7718-4011","addr":"경기도 파주시 탄현면 성동리 84번지","category":"의류 - 정장"},{"name":"여시","tel":"031-945-3796","addr":"경기도 파주시 탄현면 성동리 84번지","category":"의류 - 정장"},{"name":"예쁨","tel":"","addr":"경기도 파주시 탄현면 성동리 84번지","category":"가구 - 기타가구"},{"name":"예성산업","tel":"070-8281-5046","addr":"경기도 파주시 탄현면 성동리 84번지","category":"가구 - 일반가구"},{"name":"올리브공장","tel":"031-949-7225","addr":"경기도 파주시 탄현면 성동리 84번지","category":"보건위생 - 화장품"},{"name":"위드유위드 주식회사","tel":"","addr":"경기도 파주시 탄현면 성동리 84번지","category":"보건위생 - 화장품"},{"name":"유아트","tel":"070-4789-2381","addr":"경기도 파주시 탄현면 성동리 84번지","category":"신변잡화 - 기타잡화"},{"name":"자스민","tel":"","addr":"경기도 파주시 탄현면 성동리 84번지","category":"신변잡화 - 신발"},{"name":"주식회사 쥬라리움","tel":"070-8860-7542","addr":"경기도 파주시 탄현면 성동리 84번지","category":"학원 - 기타 교육기관"},{"name":"카라 Kara","tel":"","addr":"경기도 파주시 탄현면 성동리 84번지","category":"의류 - 정장"},{"name":"카엔(Ca.N_N)","tel":"031-422-6760","addr":"경기도 파주시 탄현면 성동리 84번지","category":"직물 - 침구·수예점"},{"name":"카페 퀴너스","tel":"031-947-0321","addr":"경기도 파주시 탄현면 성동리 84번지 프로방스힐B2층 201호","category":"일반휴게음식 - 스넥"},{"name":"카페비","tel":"070-4468-6688","addr":"경기도 파주시 탄현면 성동리 84번지","category":"일반휴게음식 - 서양음식"},{"name":"카페쁘아","tel":"070-7858-8680","addr":"경기도 파주시 탄현면 성동리 84번지 B2층217호 프로방스힐","category":"일반휴게음식 - 서양음식"},{"name":"케어셀라","tel":"","addr":"경기도 파주시 탄현면 성동리 84번지","category":"보건위생 - 화장품"},{"name":"케어셀라","tel":"","addr":"경기도 파주시 탄현면 성동리 84번지","category":"건강식품 - 기타건강식품"},{"name":"코코민트","tel":"","addr":"경기도 파주시 탄현면 성동리 84번지","category":"의류 - 정장"},{"name":"클립","tel":"032-212-3313","addr":"경기도 파주시 탄현면 성동리 84번지","category":"신변잡화 - 기타잡화"},{"name":"프로방스25","tel":"031-944-1315","addr":"경기도 파주시 탄현면 성동리 84번지","category":"유통업 영리 - 편 의 점"},{"name":"프로방스524향기가게","tel":"031-957-0524","addr":"경기도 파주시 탄현면 성동리 84번지 B317호 외6필지프로방스힐","category":"일반휴게음식 - 서양음식"},{"name":"프로방스샵","tel":"031-943-7934","addr":"경기도 파주시 탄현면 성동리 84번지","category":"신변잡화 - 기타잡화"},{"name":"프로방스초콜릿","tel":"","addr":"경기도 파주시 탄현면 성동리 84번지","category":"음료식품 - 기타음료식품"}]},{"lat":"37.781976585","long":"126.68621747","items":[{"name":"(주)커맨더나인","tel":"031-950-7850","addr":"경기도 파주시 탄현면 성동리 331-2번지","category":"보건위생 - 안경"}]},{"lat":"37.79103267","long":"126.68346547","items":[{"name":"(주)케이엔 펫스팟 프로방스지점","tel":"031-964-7466","addr":"경기도 파주시 탄현면 성동리 80-11번지","category":"문화.취미 - 애완동물"}]},{"lat":"37.790448999","long":"126.68418322","items":[{"name":"(주)테이블마운틴","tel":"02-2047-1881","addr":"경기도 파주시 탄현면 성동리 83번지","category":"일반휴게음식 - 서양음식"},{"name":"나리야네","tel":"070-4152-4681","addr":"경기도 파주시 탄현면 성동리 83번지","category":"신변잡화 - 기타잡화"},{"name":"달곰삼삼","tel":"","addr":"경기도 파주시 탄현면 성동리 83번지","category":"음료식품 - 기타음료식품"},{"name":"더치by쿠쿠오나","tel":"031-000-0000","addr":"경기도 파주시 탄현면 성동리 83번지","category":"일반휴게음식 - 서양음식"},{"name":"메종","tel":"031-000-0000","addr":"경기도 파주시 탄현면 성동리 83번지","category":"의류 - 정장"},{"name":"아토","tel":"031-945-1866","addr":"경기도 파주시 탄현면 성동리 83번지","category":"의류 - 정장"},{"name":"카페 쿠쿠오나","tel":"031-941-9713","addr":"경기도 파주시 탄현면 성동리 83번지","category":"음료식품 - 기타음료식품"},{"name":"팝케리커쳐","tel":"","addr":"경기도 파주시 탄현면 성동리 83번지","category":"용역 서비스 - 사무서비스"},{"name":"퍼플","tel":"031-944-6488","addr":"경기도 파주시 탄현면 성동리 83번지 다동","category":"의류 - 정장"},{"name":"프로방스 데코","tel":"031-942-9503","addr":"경기도 파주시 탄현면 성동리 83번지","category":"의류 - 정장"}]},{"lat":"37.786194386","long":"126.69010464","items":[{"name":"CAFE 미제/케이제이에스멀티샵(주)","tel":"031-111-1111","addr":"경기도 파주시 탄현면 성동리 279-1번지","category":"일반휴게음식 - 서양음식"},{"name":"JDX","tel":"031-944-9015","addr":"경기도 파주시 탄현면 성동리 279-1번지","category":"레져용품 - 스포츠·레져용품"},{"name":"장보는강냥이 파주점","tel":"070-7739-4286","addr":"경기도 파주시 탄현면 성동리 279-1번지","category":"문화.취미 - 애완동물"}]},{"lat":"37.789581456","long":"126.68654831","items":[{"name":"GS25파주프로방스점","tel":"","addr":"경기도 파주시 탄현면 성동리 67-10번지","category":"유통업 영리 - 편 의 점"}]},{"lat":"37.79083815","long":"126.68482866","items":[{"name":"LUPE(루페)","tel":"031-949-6525","addr":"경기도 파주시 탄현면 성동리 82-1번지","category":"의류 - 정장"},{"name":"PuRiDa (뿌리다)","tel":"031-949-6525","addr":"경기도 파주시 탄현면 성동리 82-1번지","category":"신변잡화 - 기타잡화"},{"name":"W.드레스룸","tel":"031-945-9755","addr":"경기도 파주시 탄현면 성동리 82-1번지","category":"의류 - 정장"},{"name":"나비","tel":"031-942-3085","addr":"경기도 파주시 탄현면 성동리 82-1번지","category":"의류 - 정장"},{"name":"라이네쎄 플라워카페","tel":"02-1599-7787","addr":"경기도 파주시 탄현면 성동리 82-1번지","category":"문화.취미 - 화원"},{"name":"라피네","tel":"","addr":"경기도 파주시 탄현면 성동리 82-1번지","category":"신변잡화 - 액세서리"},{"name":"르바인/(주) 바인트리","tel":"031-949-2603","addr":"경기도 파주시 탄현면 성동리 82-1번지","category":"일반휴게음식 - 서양음식"},{"name":"벨라","tel":"031-941-6442","addr":"경기도 파주시 탄현면 성동리 82-1번지","category":"신변잡화 - 기타잡화"},{"name":"벨라","tel":"031-941-6442","addr":"경기도 파주시 탄현면 성동리 82-1번지","category":"가구 - 기타가구"},{"name":"샤인","tel":"070-8785-7130","addr":"경기도 파주시 탄현면 성동리 82-1번지","category":"신변잡화 - 액세서리"},{"name":"올리브크릭","tel":"02-000-0000","addr":"경기도 파주시 탄현면 성동리 82-1번지","category":"일반휴게음식 - 서양음식"},{"name":"용호낙지 프로방스점","tel":"031-8071-5444","addr":"경기도 파주시 탄현면 성동리 82-1번지","category":"일반휴게음식 - 일반한식"},{"name":"우컬렉션","tel":"032-422-2297","addr":"경기도 파주시 탄현면 성동리 82-1번지","category":"신변잡화 - 액세서리"},{"name":"인디(Indie)","tel":"031-945-0641","addr":"경기도 파주시 탄현면 성동리 82-1번지","category":"의류 - 정장"},{"name":"자운삼계탕/다이닝트리 주식회사","tel":"031-8071-5444","addr":"경기도 파주시 탄현면 성동리 82-1번지","category":"일반휴게음식 - 일반한식"},{"name":"자운삼계탕/다이닝트리주식회사","tel":"031-8071-5444","addr":"경기도 파주시 탄현면 성동리 82-1번지","category":"일반휴게음식 - 일반한식"},{"name":"치크","tel":"031-944-7041","addr":"경기도 파주시 탄현면 성동리 82-1번지","category":"의류 - 정장"},{"name":"포토스토리","tel":"","addr":"경기도 파주시 탄현면 성동리 82-1번지","category":"신변잡화 - 기타잡화"},{"name":"프로방스 레스토랑","tel":"070-4896-6149","addr":"경기도 파주시 탄현면 성동리 82-1번지","category":"용역 서비스 - 사무서비스"},{"name":"프로방스레스토랑본점","tel":"070-8778-3100","addr":"경기도 파주시 탄현면 성동리 82-1번지","category":"일반휴게음식 - 일반한식"},{"name":"프로방스코리아","tel":"031-949-0027","addr":"경기도 파주시 탄현면 성동리 82-1번지 지하,지상1,2,3층전체","category":"의류 - 정장"},{"name":"헤라","tel":"031-1234-5678","addr":"경기도 파주시 탄현면 성동리 82-1번지","category":"의류 - 정장"}]},{"lat":"37.796307187","long":"126.68494146","items":[{"name":"MooMoon스튜디오","tel":"070-4116-8187","addr":"경기도 파주시 탄현면 성동리 118번지","category":"광학제품 - 사진관"},{"name":"매료","tel":"031-949-1127","addr":"경기도 파주시 탄현면 성동리 118번지","category":"일반휴게음식 - 서양음식"},{"name":"어화둥둥","tel":"","addr":"경기도 파주시 탄현면 성동리 118번지","category":"일반휴게음식 - 일반한식"}]},{"lat":"37.788641275","long":"126.68872067","items":[{"name":"Q HOTEL","tel":"031-944-5353","addr":"경기도 파주시 탄현면 성동리 204-18번지","category":"숙박업 - 여관/기타숙박업"}]},{"lat":"37.790471153","long":"126.68571576","items":[{"name":"가림시골밥상","tel":"02-1234-1234","addr":"경기도 파주시 탄현면 성동리 86번지","category":"일반휴게음식 - 일반한식"},{"name":"이랑이네","tel":"031-947-5558","addr":"경기도 파주시 탄현면 성동리 86번지","category":"숙박업 - 여관/기타숙박업"}]},{"lat":"37.79752406","long":"126.68516333","items":[{"name":"가을노을","tel":"031-907-3315","addr":"경기도 파주시 탄현면 성동리 124-28번지","category":"신변잡화 - 신발"}]},{"lat":"37.78152624","long":"126.6896362","items":[{"name":"고구려최강달인의집","tel":"031-957-9252","addr":"경기도 파주시 탄현면 성동리 671-2번지","category":"일반휴게음식 - 일반한식"}]},{"lat":"37.791110144","long":"126.68546326","items":[{"name":"고궁","tel":"","addr":"경기도 파주시 탄현면 성동리 87번지","category":"일반휴게음식 - 일반한식"},{"name":"전통프로방스","tel":"031-945-0230","addr":"경기도 파주시 탄현면 성동리 87번지","category":"일반휴게음식 - 일반한식"}]},{"lat":"37.797862733","long":"126.68379939","items":[{"name":"곰비모텔","tel":"031-945-0000","addr":"경기도 파주시 탄현면 성동리 124-9번지","category":"숙박업 - 여관/기타숙박업"}]},{"lat":"37.798330849","long":"126.68366113","items":[{"name":"굿타임","tel":"031-942-2201","addr":"경기도 파주시 탄현면 성동리 124-51번지","category":"숙박업 - 여관/기타숙박업"},{"name":"나는 애견인이다","tel":"031-947-5354","addr":"경기도 파주시 탄현면 성동리 124-51번지","category":"일반휴게음식 - 서양음식"}]},{"lat":"37.783253892","long":"126.68882293","items":[{"name":"금산","tel":"031-1588-7499","addr":"경기도 파주시 탄현면 성동리 664-1번지","category":"문화.취미 - 애완동물"},{"name":"네일파일","tel":"031-944-9218","addr":"경기도 파주시 탄현면 성동리 664-1번지","category":"보건위생 - 미용재료"},{"name":"애드코리아페이퍼","tel":"031-949-0027","addr":"경기도 파주시 탄현면 성동리 664-1번지","category":"의류 - 정장"},{"name":"일미터갈치","tel":"031-948-7798","addr":"경기도 파주시 탄현면 성동리 664-1번지","category":"일반휴게음식 - 일반한식"},{"name":"케냐","tel":"031-944-9007","addr":"경기도 파주시 탄현면 성동리 664-1 부림프라자1층104,105호","category":"일반휴게음식 - 일반한식"},{"name":"팡팡노래연습장","tel":"031-944-4070","addr":"경기도 파주시 탄현면 성동리 664-1번지","category":"레저업소 - 노 래 방"}]},{"lat":"37.784525573","long":"126.68932839","items":[{"name":"금이네 바지락칼국수.손만두","tel":"070-7872-8733","addr":"경기도 파주시 탄현면 성동리 663-3번지","category":"일반휴게음식 - 일반한식"},{"name":"파주수평선","tel":"031-947-9300","addr":"경기도 파주시 탄현면 성동리 663-3번지","category":"일반휴게음식 - 일반한식"}]},{"lat":"37.787560274","long":"126.68877065","items":[{"name":"나테라스","tel":"031-948-6868","addr":"경기도 파주시 탄현면 성동리 206-6 2층","category":"일반휴게음식 - 주점"}]},{"lat":"37.781972928","long":"126.68821537","items":[{"name":"낙지, 쭈꾸미 철판","tel":"031-949-2750","addr":"경기도 파주시 탄현면 성동리 665-1번지","category":"일반휴게음식 - 일반한식"},{"name":"오렌지24시편의점","tel":"031-949-1870","addr":"경기도 파주시 탄현면 성동리 665-1번지","category":"유통업 영리 - 편 의 점"},{"name":"이마트24 통일동산점","tel":"031-1111-1111","addr":"경기도 파주시 탄현면 성동리 665-1번지","category":"유통업 영리 - 편 의 점"},{"name":"춘천닭갈비","tel":"031-944-1020","addr":"경기도 파주시 탄현면 성동리 665-1번지","category":"일반휴게음식 - 일반한식"}]},{"lat":"37.786365859","long":"126.68349691","items":[{"name":"내용연구소 주식회사","tel":"031-957-1387","addr":"경기도 파주시 탄현면 성동리 215-4번지","category":"신변잡화 - 기타잡화"}]},{"lat":"37.78436437","long":"126.68969233","items":[{"name":"느루(Nroo)","tel":"031-000-0000","addr":"경기도 파주시 탄현면 성동리 663-10번지","category":"일반휴게음식 - 서양음식"},{"name":"산내음","tel":"031-946-8155","addr":"경기도 파주시 탄현면 성동리 663-10번지","category":"일반휴게음식 - 일반한식"}]},{"lat":"37.779589226","long":"126.68627306","items":[{"name":"닭한마리","tel":"031-944-2096","addr":"경기도 파주시 탄현면 성동리 667번지","category":"일반휴게음식 - 일반한식"},{"name":"벌교꼬막","tel":"031-942-1690","addr":"경기도 파주시 탄현면 성동리 667번지 디지털실내자동차영화관 다동 110호","category":"일반휴게음식 - 일반한식"},{"name":"썬노래연습장","tel":"031-944-2541","addr":"경기도 파주시 탄현면 성동리 667","category":"레저업소 - 노 래 방"},{"name":"양스","tel":"031-944-5239","addr":"경기도 파주시 탄현면 성동리 667번지","category":"일반휴게음식 - 일반한식"},{"name":"요술","tel":"031-957-5239","addr":"경기도 파주시 탄현면 성동리 667번지","category":"일반휴게음식 - 일반한식"},{"name":"으리","tel":"031-945-4957","addr":"경기도 파주시 탄현면 성동리 667번지","category":"일반휴게음식 - 일반한식"},{"name":"짱 짱구네","tel":"031-947-3222","addr":"경기도 파주시 탄현면 성동리 667번지","category":"일반휴게음식 - 일반한식"},{"name":"쭈꾸미쪽갈비","tel":"031-942-9601","addr":"경기도 파주시 탄현면 성동리 667번지","category":"일반휴게음식 - 일반한식"},{"name":"회랑구이랑포차","tel":"031-957-0346","addr":"경기도 파주시 탄현면 성동리 667번지","category":"일반휴게음식 - 일반한식"}]},{"lat":"37.790722738","long":"126.68882538","items":[{"name":"대승매운탕","tel":"031-941-1155","addr":"경기도 파주시 탄현면 성동리 34","category":"일반휴게음식 - 일반한식"}]},{"lat":"37.795088084","long":"126.68724011","items":[{"name":"대청마루 참나무 장작구이","tel":"031-943-2536","addr":"경기도 파주시 탄현면 성동리 100-6번지","category":"일반휴게음식 - 일반한식"}]},{"lat":"37.769698764","long":"126.68699622","items":[{"name":"대한불교조계종 검단사","tel":"031-949-8729","addr":"경기도 파주시 탄현면 성동리 689번지","category":"신변잡화 - 기념품점"}]},{"lat":"37.776340527","long":"126.68766035","items":[{"name":"더위즈 (The WIZ)","tel":"031-944-7779","addr":"경기도 파주시 탄현면 성동리 679-4번지","category":"일반휴게음식 - 일반한식"},{"name":"호텔위즈","tel":"031-949-9046","addr":"경기도 파주시 탄현면 성동리 679-4번지","category":"숙박업 - 여관/기타숙박업"}]},{"lat":"37.78441995","long":"126.68688817","items":[{"name":"데데아호텔","tel":"031-957-7600","addr":"경기도 파주시 탄현면 성동리 266-10번지","category":"숙박업 - 여관/기타숙박업"}]},{"lat":"37.797778126","long":"126.68583212","items":[{"name":"돝고기집","tel":"031-111-1111","addr":"경기도 파주시 탄현면 성동리 124-29번지","category":"일반휴게음식 - 일반한식"}]},{"lat":"37.780055637","long":"126.68549919","items":[{"name":"듀오텔","tel":"031-945-3086","addr":"경기도 파주시 탄현면 성동리 666-6 나동","category":"숙박업 - 여관/기타숙박업"},{"name":"리오텔","tel":"031-945-7218","addr":"경기도 파주시 탄현면 성동리 666-6번지","category":"숙박업 - 여관/기타숙박업"}]},{"lat":"37.779167188","long":"126.68679702","items":[{"name":"땅끝마을","tel":"070-4114-9050","addr":"경기도 파주시 탄현면 성동리 674번지","category":"일반휴게음식 - 일반한식"},{"name":"라이브음악인클럽","tel":"031-947-7901","addr":"경기도 파주시 탄현면 성동리 674번지","category":"일반휴게음식 - 일반한식"},{"name":"리베노래방","tel":"031-949-5347","addr":"경기도 파주시 탄현면 성동리 674번지","category":"레저업소 - 노 래 방"},{"name":"리베노래연습장","tel":"031-949-5347","addr":"경기도 파주시 탄현면 성동리 674번지","category":"레저업소 - 노 래 방"},{"name":"브니엘","tel":"031-945-8628","addr":"경기도 파주시 탄현면 성동리 674번지","category":"일반휴게음식 - 서양음식"},{"name":"차니","tel":"031-000-0000","addr":"경기도 파주시 탄현면 성동리 674번지","category":"일반휴게음식 - 주점"},{"name":"체리영마트","tel":"031-949-1304","addr":"경기도 파주시 탄현면 성동리 674번지","category":"유통업 영리 - 슈퍼마켓"},{"name":"푸른하늘(Blue Sky)","tel":"","addr":"경기도 파주시 탄현면 성동리 674번지","category":"보건위생 - 화장품"}]},{"lat":"37.781501945","long":"126.68393785","items":[{"name":"뜰","tel":"031-949-6580","addr":"경기도 파주시 탄현면 성동리 248-43","category":"일반휴게음식 - 일반한식"}]},{"lat":"37.787477494","long":"126.68813527","items":[{"name":"라치오비엘","tel":"031-947-5672","addr":"경기도 파주시 탄현면 성동리 231-1","category":"일반휴게음식 - 서양음식"}]},{"lat":"37.797861687","long":"126.68341336","items":[{"name":"락모텔","tel":"031-942-1000","addr":"경기도 파주시 탄현면 성동리 124-1외필지상가,나,다동,124-49외1필지상가,나동","category":"숙박업 - 여관/기타숙박업"}]},{"lat":"37.790031191","long":"126.68627393","items":[{"name":"락빈칼국수","tel":"031-942-1436","addr":"경기도 파주시 탄현면 성동리 52-3번지","category":"일반휴게음식 - 일반한식"}]},{"lat":"37.780282215","long":"126.68599768","items":[{"name":"로데오모텔","tel":"031-949-5667","addr":"경기도 파주시 탄현면 성동리 666-4번지","category":"숙박업 - 여관/기타숙박업"},{"name":"샤이나(SHAINA)","tel":"031-949-6830","addr":"경기도 파주시 탄현면 성동리 666-4번지","category":"숙박업 - 여관/기타숙박업"},{"name":"샤이나(SHAINA)","tel":"031-949-6830","addr":"경기도 파주시 탄현면 성동리 666-4번지","category":"숙박업 - 여관/기타숙박업"},{"name":"신데렐라","tel":"031-948-9125","addr":"경기도 파주시 탄현면 성동리 666-4번지","category":"숙박업 - 여관/기타숙박업"},{"name":"에로스모텔","tel":"031-949-3236","addr":"경기도 파주시 탄현면 성동리 666-4번지 나동","category":"용역 서비스 - 부동산 중개·임대"}]},{"lat":"37.789445126","long":"126.68610614","items":[{"name":"로얄플로랜스","tel":"031-945-9144","addr":"경기도 파주시 탄현면 성동리 186-1번지","category":"신변잡화 - 기타잡화"},{"name":"불끈 힘쎈장어","tel":"031-941-8808","addr":"경기도 파주시 탄현면 성동리 186-1번지","category":"일반휴게음식 - 일반한식"},{"name":"태형수산","tel":"070-7259-2804","addr":"경기도 파주시 탄현면 성동리 186-1번지","category":"음료식품 - 농·축·수산품"}]},{"lat":"37.790226406","long":"126.68852096","items":[{"name":"루트66","tel":"031-947-6066","addr":"경기도 파주시 탄현면 성동리 66번지","category":"일반휴게음식 - 일반한식"}]},{"lat":"37.780724406","long":"126.68626822","items":[{"name":"마루","tel":"031-945-1155","addr":"경기도 파주시 탄현면 성동리 666-2번지","category":"숙박업 - 여관/기타숙박업"},{"name":"이브텔","tel":"031-944-0335","addr":"경기도 파주시 탄현면 성동리 666-2","category":"숙박업 - 여관/기타숙박업"}]},{"lat":"37.794191972","long":"126.68904912","items":[{"name":"마리별펜션","tel":"031-945-5940","addr":"경기도 파주시 탄현면 성동리 11-1","category":"숙박업 - 여관/기타숙박업"}]},{"lat":"37.784779223","long":"126.68984951","items":[{"name":"맘스의정부부대찌개","tel":"","addr":"경기도 파주시 탄현면 성동리 663-2번지 로드빌","category":"일반휴게음식 - 일반한식"},{"name":"바그너노래연습장","tel":"031-943-8430","addr":"경기도 파주시 탄현면 성동리 663-2번지 로드빌","category":"레저업소 - 노 래 방"},{"name":"바다 양푼이 동태탕","tel":"031-948-7363","addr":"경기도 파주시 탄현면 성동리 663-2번지 로드빌","category":"일반휴게음식 - 일반한식"},{"name":"산오징어눈빠지는날","tel":"031-8071-1233","addr":"경기도 파주시 탄현면 성동리 663-2번지 로드빌","category":"일반휴게음식 - 일반한식"},{"name":"스튜디오112","tel":"031-947-7248","addr":"경기도 파주시 탄현면 성동리 663-2번지 로드빌","category":"용역 서비스 - 사무서비스"},{"name":"시골토종닭","tel":"031-946-0053","addr":"경기도 파주시 탄현면 성동리 663-2번지 로드빌","category":"일반휴게음식 - 일반한식"},{"name":"우리당구장","tel":"","addr":"경기도 파주시 탄현면 성동리 663-2번지 로드빌","category":"레저업소 - 당 구 장"},{"name":"원인1컵(one in 1 cup)","tel":"","addr":"경기도 파주시 탄현면 성동리 663-2번지 로드빌","category":"일반휴게음식 - 서양음식"},{"name":"윤설참치","tel":"","addr":"경기도 파주시 탄현면 성동리 663-2번지 로드빌","category":"일반휴게음식 - 일식·회집"},{"name":"윤설참치","tel":"031-111-1111","addr":"경기도 파주시 탄현면 성동리 663-2번지 로드빌","category":"일반휴게음식 - 일식·회집"},{"name":"이상순아바이순대국","tel":"031-947-9203","addr":"경기도 파주시 탄현면 성동리 663-2번지 로드빌","category":"일반휴게음식 - 일반한식"},{"name":"잎새쌈밥","tel":"000-000-0000","addr":"경기도 파주시 탄현면 성동리 663-2번지 로드빌","category":"일반휴게음식 - 일반한식"},{"name":"주식회사 닥터스포뮬러","tel":"031-943-9851","addr":"경기도 파주시 탄현면 성동리 663-2번지 로드빌","category":"건강식품 - 기타건강식품"},{"name":"주식회사 테트라","tel":"031-123-4567","addr":"경기도 파주시 탄현면 성동리 663-2번지 로드빌","category":"용역 서비스 - 종합용역"},{"name":"통일동산 한우마을","tel":"031-987-6543","addr":"경기도 파주시 탄현면 성동리 663-2번지 로드빌","category":"일반휴게음식 - 일반한식"},{"name":"통일양평해장국","tel":"031-948-0189","addr":"경기도 파주시 탄현면 성동리 663-2번지 로드빌","category":"일반휴게음식 - 일반한식"},{"name":"함흥냉면","tel":"031-944-9698","addr":"경기도 파주시 탄현면 성동리 663-2번지 로드빌","category":"일반휴게음식 - 일반한식"},{"name":"호돌이관광식당","tel":"031-957-0301","addr":"경기도 파주시 탄현면 성동리 663-2번지 201호 202 로드빌상가 (로드빌)","category":"일반휴게음식 - 일반한식"},{"name":"호식이두마리치킨(통일동산점)","tel":"031-944-9698","addr":"경기도 파주시 탄현면 성동리 663-2번지 로드빌","category":"일반휴게음식 - 스넥"},{"name":"화로향","tel":"031-945-8591","addr":"경기도 파주시 탄현면 성동리 663-2번지 로드빌","category":"일반휴게음식 - 일반한식"}]},{"lat":"37.788305747","long":"126.6879047","items":[{"name":"메이찬","tel":"031-941-4858","addr":"경기도 파주시 탄현면 성동리 204번지","category":"일반휴게음식 - 중국식"}]},{"lat":"37.784248467","long":"126.68677538","items":[{"name":"반지모텔","tel":"031-945-3276","addr":"경기도 파주시 탄현면 성동리 266-12번지","category":"숙박업 - 여관/기타숙박업"}]},{"lat":"37.782694858","long":"126.68865502","items":[{"name":"발효공방/(주)힐팜바이오농업회사법인","tel":"031-945-8576","addr":"경기도 파주시 탄현면 성동리 664-3번지","category":"일반휴게음식 - 서양음식"}]},{"lat":"37.792444383","long":"126.68577544","items":[{"name":"버즈커피","tel":"031-949-7797","addr":"경기도 파주시 탄현면 성동리 94번지 2층","category":"일반휴게음식 - 일반한식"},{"name":"아이린 브로우","tel":"031-0000-0000","addr":"경기도 파주시 탄현면 성동리 94번지","category":"보건위생 - 화장품"},{"name":"오백년누룽지백숙","tel":"031-8071-6500","addr":"경기도 파주시 탄현면 성동리 94번지","category":"일반휴게음식 - 일반한식"}]},{"lat":"37.790776952","long":"126.68552145","items":[{"name":"베로키오","tel":"031-945-3071","addr":"경기도 파주시 탄현면 성동리 87-3번지 1층","category":"일반휴게음식 - 일반한식"}]},{"lat":"37.798583418","long":"126.68377359","items":[{"name":"벨리타","tel":"031-942-5858","addr":"경기도 파주시 탄현면 성동리 124-50 124-53","category":"숙박업 - 여관/기타숙박업"}]},{"lat":"37.789001256","long":"126.68857156","items":[{"name":"보름다리","tel":"031-947-9555","addr":"경기도 파주시 탄현면 성동리 33-11번지","category":"일반휴게음식 - 서양음식"}]},{"lat":"37.789168883","long":"126.68724258","items":[{"name":"복드림한우고기","tel":"031-944-8060","addr":"경기도 파주시 탄현면 성동리 67-12번지","category":"일반휴게음식 - 일반한식"}]},{"lat":"37.781056122","long":"126.68902521","items":[{"name":"산에들에","tel":"031-943-8592","addr":"경기도 파주시 탄현면 성동리 672-1번지","category":"일반휴게음식 - 일반한식"}]},{"lat":"37.790668901","long":"126.68554462","items":[{"name":"서울토기","tel":"031-949-3394","addr":"경기도 파주시 탄현면 성동리 87-6번지","category":"문화.취미 - 화원"},{"name":"파주풍기인견","tel":"031-948-3281","addr":"경기도 파주시 탄현면 성동리 87-6번지","category":"의류 - 정장"},{"name":"포스티노","tel":"031-945-0834","addr":"경기도 파주시 탄현면 성동리 87-6번지","category":"신변잡화 - 기타잡화"}]},{"lat":"37.791198462","long":"126.68480441","items":[{"name":"선도기업","tel":"","addr":"경기도 파주시 탄현면 성동리 82-18번지","category":"용역 서비스 - 부동산 중개·임대"}]},{"lat":"37.781725207","long":"126.68654774","items":[{"name":"소풍가는길","tel":"031-942-3542","addr":"경기도 파주시 탄현면 성동리 331번지","category":"일반휴게음식 - 주점"}]},{"lat":"37.784866143","long":"126.68197084","items":[{"name":"소풍호텔","tel":"02-312-6700","addr":"경기도 파주시 탄현면 성동리 476-1","category":"숙박업 - 여관/기타숙박업"}]},{"lat":"37.783614418","long":"126.68887817","items":[{"name":"숯피는 한우마을","tel":"031-947-6147","addr":"경기도 파주시 탄현면 성동리 663-6번지","category":"일반휴게음식 - 일반한식"}]},{"lat":"37.785061985","long":"126.68777089","items":[{"name":"숲속의궁전1","tel":"031-947-5800","addr":"경기도 파주시 탄현면 성동리 262-11번지","category":"숙박업 - 여관/기타숙박업"}]},{"lat":"37.797498378","long":"126.68566301","items":[{"name":"스튜디오161","tel":"070-7166-7189","addr":"경기도 파주시 탄현면 성동리 124-17번지","category":"숙박업 - 여관/기타숙박업"}]},{"lat":"37.783726959","long":"126.68716356","items":[{"name":"시노안","tel":"031-945-7959","addr":"경기도 파주시 탄현면 성동리 267-32번지","category":"숙박업 - 여관/기타숙박업"}]},{"lat":"37.789557318","long":"126.68762692","items":[{"name":"신성아구찜","tel":"031-946-9920","addr":"경기도 파주시 탄현면 성동리 67-13","category":"일반휴게음식 - 일반한식"}]},{"lat":"37.785364805","long":"126.68646412","items":[{"name":"아임버디","tel":"031-957-9332","addr":"경기도 파주시 탄현면 성동리 263번지","category":"숙박업 - 여관/기타숙박업"}]},{"lat":"37.789366267","long":"126.68693522","items":[{"name":"아침의향기","tel":"032-957-7721","addr":"경기도 파주시 탄현면 성동리 67-3번지","category":"일반휴게음식 - 일반한식"}]},{"lat":"37.789194115","long":"126.68657267","items":[{"name":"알베로","tel":"031-947-5558","addr":"경기도 파주시 탄현면 성동리 186-13","category":"숙박업 - 여관/기타숙박업"}]},{"lat":"37.789638158","long":"126.6841867","items":[{"name":"약산정","tel":"031-945-3369","addr":"경기도 파주시 탄현면 성동리 193-1번지","category":"일반휴게음식 - 일반한식"}]},{"lat":"37.777250868","long":"126.68780405","items":[{"name":"에스아이엔플러스(주)","tel":"031-949-9525","addr":"경기도 파주시 탄현면 성동리 679-1번지 3동","category":"숙박업 - 여관/기타숙박업"},{"name":"칼튼","tel":"031-944-9010","addr":"경기도 파주시 탄현면 성동리 679-1번지","category":"음료식품 - 기타음료식품"},{"name":"칼튼호텔","tel":"031-944-9010","addr":"경기도 파주시 탄현면 성동리 679-1번지","category":"숙박업 - 여관/기타숙박업"},{"name":"칼튼호텔","tel":"031-944-9010","addr":"경기도 파주시 탄현면 성동리 679-1번지","category":"숙박업 - 여관/기타숙박업"},{"name":"파주칼튼","tel":"031-944-9010","addr":"경기도 파주시 탄현면 성동리 679-1번지","category":"숙박업 - 여관/기타숙박업"}]},{"lat":"37.791136339","long":"126.6818302","items":[{"name":"여미지","tel":"031-945-8185","addr":"경기도 파주시 탄현면 성동리 154-3번지","category":"일반휴게음식 - 일반한식"}]},{"lat":"37.791449282","long":"126.68426974","items":[{"name":"열한시사십오분 어 헝그리타임","tel":"031-111-1111","addr":"경기도 파주시 탄현면 성동리 80-14번지","category":"일반휴게음식 - 서양음식"},{"name":"제이하우스","tel":"070-4241-7171","addr":"경기도 파주시 탄현면 성동리 80-14번지","category":"신변잡화 - 신발"}]},{"lat":"37.782866499","long":"126.68213841","items":[{"name":"오두산전망대농장","tel":"031-944-8865","addr":"경기도 파주시 탄현면 성동리 473번지 1층","category":"일반휴게음식 - 일반한식"}]},{"lat":"37.789615021","long":"126.6856286","items":[{"name":"오리엔탈비스트로포맨","tel":"031-943-2218","addr":"경기도 파주시 탄현면 성동리 196-1번지","category":"일반휴게음식 - 서양음식"}]},{"lat":"37.797643872","long":"126.68616196","items":[{"name":"오리촌","tel":"031-943-5295","addr":"경기도 파주시 탄현면 성동리 124-18번지","category":"일반휴게음식 - 일반한식"}]},{"lat":"37.790141637","long":"126.68379854","items":[{"name":"용궁칼국수","tel":"031-944-8805","addr":"경기도 파주시 탄현면 성동리 77-1번지","category":"일반휴게음식 - 일반한식"},{"name":"파주웰빙팜","tel":"031-234-5696","addr":"경기도 파주시 탄현면 성동리 77-1번지","category":"농업 - 비료,사료,종자"}]},{"lat":"37.783419769","long":"126.68349824","items":[{"name":"우신성동숯불고기","tel":"031-944-1740","addr":"경기도 파주시 탄현면 성동리 248-6번지","category":"일반휴게음식 - 일반한식"}]},{"lat":"37.783089403","long":"126.68460078","items":[{"name":"웨스트힐관광호텔","tel":"03-194-6036","addr":"경기도 파주시 탄현면 성동리 251-1번지","category":"숙박업 - 여관/기타숙박업"}]},{"lat":"37.786776158","long":"126.68866045","items":[{"name":"윤랩의카페더스킬","tel":"031-949-4679","addr":"경기도 파주시 탄현면 성동리 235번지","category":"일반휴게음식 - 서양음식"}]},{"lat":"37.79058699","long":"126.68523844","items":[{"name":"이마트24 파주프로방스점","tel":"","addr":"경기도 파주시 탄현면 성동리 82-5번지","category":"유통업 영리 - 편 의 점"}]},{"lat":"37.794391318","long":"126.68610773","items":[{"name":"자유가든","tel":"031-945-1508","addr":"경기도 파주시 탄현면 성동리 산13-4번지","category":"일반휴게음식 - 일반한식"}]},{"lat":"37.788613036","long":"126.68826668","items":[{"name":"자유로","tel":"031-945-9977","addr":"경기도 파주시 탄현면 성동리 204-9번지","category":"숙박업 - 여관/기타숙박업"}]},{"lat":"37.790364598","long":"126.68629521","items":[{"name":"전라도갈치찜전문점","tel":"031-949-7771","addr":"경기도 파주시 탄현면 성동리 52-1번지","category":"일반휴게음식 - 일반한식"}]},{"lat":"37.781783064","long":"126.68796644","items":[{"name":"전라도식당","tel":"031-944-3524","addr":"경기도 파주시 탄현면 성동리 665-2번지","category":"일반휴게음식 - 일반한식"},{"name":"통일동산한우촌","tel":"031-949-2332","addr":"경기도 파주시 탄현면 성동리 665-2번지","category":"일반휴게음식 - 일반한식"}]},{"lat":"37.78633751","long":"126.68971806","items":[{"name":"주막보리밥 통일동산점","tel":"031-945-0700","addr":"경기도 파주시 탄현면 성동리 279-6번지","category":"일반휴게음식 - 일반한식"}]},{"lat":"37.788753114","long":"126.68674484","items":[{"name":"주식회사 선우에너지","tel":"031-945-8185","addr":"경기도 파주시 탄현면 성동리 186-4번지","category":"연료판매점 - GS주유소"}]},{"lat":"37.778449245","long":"126.68449581","items":[{"name":"주식회사 제이시엠","tel":"031-945-0609","addr":"경기도 파주시 탄현면 성동리 646번지","category":"음료식품 - 기타음료식품"},{"name":"주식회사 제이시엠","tel":"031-945-0609","addr":"경기도 파주시 탄현면 성동리 646번지 자동차극장","category":"문화.취미 - 영화관"},{"name":"통일휴게소","tel":"031-944-0044","addr":"경기도 파주시 탄현면 성동리 646번지 통일휴게소","category":"유통업 영리 - 슈퍼마켓"}]},{"lat":"37.791360845","long":"126.68488319","items":[{"name":"주식회사 후앙베이커리 프로방스점","tel":"031-957-0803","addr":"경기도 파주시 탄현면 성동리 89-2번지","category":"음료식품 - 제과점"}]},{"lat":"37.780499934","long":"126.68655296","items":[{"name":"주식회사제이디씨","tel":"031-949-4226","addr":"경기도 파주시 탄현면 성동리 666-3번지","category":"숙박업 - 여관/기타숙박업"}]},{"lat":"37.784084627","long":"126.68952324","items":[{"name":"쥬비샵","tel":"070-8820-5819","addr":"경기도 파주시 탄현면 성동리 663-9번지","category":"신변잡화 - 신발"}]},{"lat":"37.795610565","long":"126.68721518","items":[{"name":"지유갤러리","tel":"031-945-7645","addr":"경기도 파주시 탄현면 성동리 100-17번지","category":"문화.취미 - 화랑"}]},{"lat":"37.784254778","long":"126.68913655","items":[{"name":"지향막국수","tel":"031-944-0555","addr":"경기도 파주시 탄현면 성동리 663-4번지","category":"일반휴게음식 - 일반한식"}]},{"lat":"37.789112299","long":"126.68630055","items":[{"name":"천진","tel":"031-947-5558","addr":"경기도 파주시 탄현면 성동리 186-12번지","category":"일반휴게음식 - 일반한식"}]},{"lat":"37.792913694","long":"126.68607998","items":[{"name":"청순보리밥 돈까스","tel":"031-529-8188","addr":"경기도 파주시 탄현면 성동리 95-1번지","category":"일반휴게음식 - 일반한식"}]},{"lat":"37.792165307","long":"126.68585611","items":[{"name":"춘자의 완당 공자의 우동","tel":"031-944-7404","addr":"경기도 파주시 탄현면 성동리 93-2번지","category":"일반휴게음식 - 일반한식"}]},{"lat":"37.781860612","long":"126.69002074","items":[{"name":"카페토향","tel":"031-945-1511","addr":"경기도 파주시 탄현면 성동리 671-1번지","category":"일반휴게음식 - 서양음식"}]},{"lat":"37.797921358","long":"126.68549089","items":[{"name":"카페화이트버찌","tel":"031-945-0424","addr":"경기도 파주시 탄현면 성동리 124-4번지","category":"일반휴게음식 - 서양음식"}]},{"lat":"37.788808144","long":"126.68710789","items":[{"name":"콩밭 뜰","tel":"031-941-0017","addr":"경기도 파주시 탄현면 성동리 186-16번지","category":"일반휴게음식 - 일반한식"}]},{"lat":"37.789780027","long":"126.6866837","items":[{"name":"태근민박","tel":"070-7756-2325","addr":"경기도 파주시 탄현면 성동리 68번지","category":"숙박업 - 여관/기타숙박업"}]},{"lat":"37.773249355","long":"126.67737881","items":[{"name":"통일교육원","tel":"031-945-3171","addr":"경기도 파주시 탄현면 성동리 659번지","category":"문화.취미 - 티켓"}]},{"lat":"37.784609359","long":"126.68696682","items":[{"name":"통일동산펜션","tel":"031-902-9352","addr":"경기도 파주시 탄현면 성동리 266-18번지","category":"숙박업 - 여관/기타숙박업"}]},{"lat":"37.796024325","long":"126.68696364","items":[{"name":"파주맛고을낙지마당","tel":"031-944-8381","addr":"경기도 파주시 탄현면 성동리 109-3번지","category":"일반휴게음식 - 서양음식"}]},{"lat":"37.791249663","long":"126.68374836","items":[{"name":"파주프로방스허브","tel":"","addr":"경기도 파주시 탄현면 성동리 80-10번지","category":"신변잡화 - 기타잡화"}]},{"lat":"37.781584099","long":"126.68768349","items":[{"name":"평양옥","tel":"031-945-1195","addr":"경기도 파주시 탄현면 성동리 665-3번지","category":"일반휴게음식 - 일반한식"}]},{"lat":"37.781756753","long":"126.68487893","items":[{"name":"풍금한정식","tel":"031-949-2828","addr":"경기도 파주시 탄현면 성동리 251-24번지","category":"일반휴게음식 - 일반한식"}]},{"lat":"37.791116397","long":"126.68444147","items":[{"name":"프로방스베이커리본점","tel":"031-943-3304","addr":"경기도 파주시 탄현면 성동리 82-12 2층","category":"음료식품 - 제과점"}]},{"lat":"37.784249806","long":"126.68727486","items":[{"name":"하이무인텔","tel":"031-947-5677","addr":"경기도 파주시 탄현면 성동리 267-6번지","category":"숙박업 - 여관/기타숙박업"}]},{"lat":"37.791446515","long":"126.68324798","items":[{"name":"허브테라스","tel":"031-945-6315","addr":"경기도 파주시 탄현면 성동리 81번지","category":"일반휴게음식 - 서양음식"}]},{"lat":"37.789362236","long":"126.68879708","items":[{"name":"헤이리풀빌라워라밸호스텔","tel":"02-1949-7602","addr":"경기도 파주시 탄현면 성동리 33-24번지","category":"숙박업 - 여관/기타숙박업"}]},{"lat":"37.776640595","long":"126.688692","items":[{"name":"호텔더블유원","tel":"031-947-4662","addr":"경기도 파주시 탄현면 성동리 679-8","category":"숙박업 - 여관/기타숙박업"}]},{"lat":"37.779867082","long":"126.68573837","items":[{"name":"호텔럭스","tel":"031-949-6611","addr":"경기도 파주시 탄현면 성동리 666-5번지","category":"숙박업 - 여관/기타숙박업"}]},{"lat":"37.776888396","long":"126.68702238","items":[{"name":"호텔미즈","tel":"031-946-9999","addr":"경기도 파주시 탄현면 성동리 679-2번지","category":"숙박업 - 여관/기타숙박업"}]},{"lat":"37.77667284","long":"126.68727302","items":[{"name":"호텔힐즈","tel":"031-945-9800","addr":"경기도 파주시 탄현면 성동리 679-3","category":"숙박업 - 여관/기타숙박업"}]},{"lat":"37.795058619","long":"126.68633195","items":[{"name":"휠하우스","tel":"031-945-9666","addr":"경기도 파주시 탄현면 성동리 100-2번지 휠하우스","category":"숙박업 - 여관/기타숙박업"},{"name":"힐하우스","tel":"031-945-9666","addr":"경기도 파주시 탄현면 성동리 100-2번지","category":"일반휴게음식 - 서양음식"}]},{"lat":"37.789415561","long":"126.68516399","items":[{"name":"흔적","tel":"031-948-8585","addr":"경기도 파주시 탄현면 성동리 196-2","category":"일반휴게음식 - 서양음식"}]}]