[{"lat":"37.711911489","long":"127.10581215","items":[{"name":"(주)현대에너지","tel":"031-821-2972","addr":"경기도 의정부시 산곡동 518-18번지","category":"건축자재 - 조명기구"}]},{"lat":"37.721542744","long":"127.10581413","items":[{"name":"JK유통","tel":"031-841-8436","addr":"경기도 의정부시 산곡동 392-2번지","category":"음료식품 - 기타음료식품"}]},{"lat":"37.708460706","long":"127.10593213","items":[{"name":"금성건업","tel":"031-572-2008","addr":"경기도 의정부시 산곡동 547-2번지","category":"건축자재 - 기타건축자재"}]},{"lat":"37.720072957","long":"127.10720719","items":[{"name":"남정택도예공방","tel":"031-848-4677","addr":"경기도 의정부시 산곡동 446번지 나동","category":"문화.취미 - 문화취미기타"}]},{"lat":"37.711244383","long":"127.10626486","items":[{"name":"늘봄화원","tel":"031-848-1566","addr":"경기도 의정부시 산곡동 515번지 516","category":"문화.취미 - 화원"},{"name":"은혜화원","tel":"070-8802-7554","addr":"경기도 의정부시 산곡동 515번지","category":"문화.취미 - 화원"},{"name":"토동이다육","tel":"","addr":"경기도 의정부시 산곡동 515,516(11호)","category":"문화.취미 - 화원"}]},{"lat":"37.717211942","long":"127.10254173","items":[{"name":"다육농장멕시코","tel":"031-878-0088","addr":"경기도 의정부시 산곡동 639-3번지","category":"문화.취미 - 화원"}]},{"lat":"37.713987188","long":"127.10173218","items":[{"name":"다카포(DaCaPo)","tel":"031-841-9271","addr":"경기도 의정부시 산곡동 596번지 1층","category":"직물 - 침구·수예점"}]},{"lat":"37.712015399","long":"127.10015317","items":[{"name":"담다헌","tel":"031-848-8523","addr":"경기도 의정부시 산곡동 575-3번지","category":"문화.취미 - 문화취미기타"}]},{"lat":"37.721715292","long":"127.10423778","items":[{"name":"대통다육","tel":"031-841-5880","addr":"경기도 의정부시 산곡동 386 하우스","category":"문화.취미 - 화원"},{"name":"보름달 다육","tel":"031-541-5880","addr":"경기도 의정부시 산곡동 386번지","category":"문화.취미 - 화원"}]},{"lat":"37.715598379","long":"127.10353761","items":[{"name":"대희농원","tel":"031-000-0000","addr":"경기도 의정부시 산곡동 486-4","category":"음료식품 - 농·축·수산품"}]},{"lat":"37.717184259","long":"127.10331293","items":[{"name":"더본사이(THE BONSAI)","tel":"02-1111-1111","addr":"경기도 의정부시 산곡동 484-14번지","category":"문화.취미 - 화원"},{"name":"왈츠플라워","tel":"031-846-9333","addr":"경기도 의정부시 산곡동 484-14번지 4호","category":"문화.취미 - 화원"}]},{"lat":"37.714050046","long":"127.10198177","items":[{"name":"등불세움터","tel":"070-7797-2015","addr":"경기도 의정부시 산곡동 594번지","category":"학원 - 기타 교육기관"},{"name":"흑석슈퍼","tel":"031-841-9796","addr":"경기도 의정부시 산곡동 594번지","category":"유통업 영리 - 슈퍼마켓"}]},{"lat":"37.728492005","long":"127.11261848","items":[{"name":"마루아웃도어","tel":"070-8159-8848","addr":"경기도 의정부시 산곡동 228번지","category":"자동차정비 유지 - 자동차부품"}]},{"lat":"37.724519857","long":"127.11145565","items":[{"name":"맛의지존","tel":"","addr":"경기도 의정부시 산곡동 164-1번지 1층","category":"음료식품 - 기타음료식품"}]},{"lat":"37.715183199","long":"127.104399","items":[{"name":"메밀꽃냉면","tel":"031-847-8008","addr":"경기도 의정부시 산곡동 493-2번지 1층","category":"일반휴게음식 - 일반한식"}]},{"lat":"37.709716935","long":"127.10137495","items":[{"name":"바위소리","tel":"031-841-4400","addr":"경기도 의정부시 산곡동 552-2번지","category":"일반휴게음식 - 서양음식"}]},{"lat":"37.716966931","long":"127.10459424","items":[{"name":"백강수산","tel":"031-848-1184","addr":"경기도 의정부시 산곡동 481-15번지 1층","category":"일반휴게음식 - 일반한식"}]},{"lat":"37.713292011","long":"127.10343243","items":[{"name":"삼민수산","tel":"031-848-6985","addr":"경기도 의정부시 산곡동 532-1번지","category":"음료식품 - 농·축·수산품"}]},{"lat":"37.727240192","long":"127.11206081","items":[{"name":"생선이야기","tel":"031-840-5292","addr":"경기도 의정부시 산곡동 207번지 외1필지","category":"일반휴게음식 - 일반한식"}]},{"lat":"37.716877837","long":"127.10342593","items":[{"name":"석촌냉면","tel":"031-848-3322","addr":"경기도 의정부시 산곡동 484-6번지 1층","category":"일반휴게음식 - 일반한식"}]},{"lat":"37.71370893","long":"127.10048428","items":[{"name":"수락캠핑가든","tel":"","addr":"경기도 의정부시 산곡동 603번지","category":"숙박업 - 여관/기타숙박업"}]},{"lat":"37.713211002","long":"127.10334159","items":[{"name":"신민물 장어나라","tel":"031-853-0898","addr":"경기도 의정부시 산곡동 532번지 1층","category":"일반휴게음식 - 일반한식"}]},{"lat":"37.713047897","long":"127.10443011","items":[{"name":"신원타이어","tel":"031-876-3373","addr":"경기도 의정부시 산곡동 522-18번지","category":"자동차정비 유지 - 자동차시트·타이어"}]},{"lat":"37.724906881","long":"127.1118759","items":[{"name":"영원종합광고","tel":"031-846-0511","addr":"경기도 의정부시 산곡동 166-10번지 2층","category":"건축자재 - 인테리어전문"}]},{"lat":"37.711577986","long":"127.10598181","items":[{"name":"예푸른디아이와이(DIY)","tel":"031-840-3340","addr":"경기도 의정부시 산곡동 518-41","category":"문화.취미 - 화원"}]},{"lat":"37.713544377","long":"127.10331935","items":[{"name":"온누리장작구이","tel":"031-841-9392","addr":"경기도 의정부시 산곡동 529번지","category":"일반휴게음식 - 일반한식"}]},{"lat":"37.712903861","long":"127.10429382","items":[{"name":"우리카프라자","tel":"031-821-1191","addr":"경기도 의정부시 산곡동 522-24번지","category":"자동차정비 유지 - 자동차정비"}]},{"lat":"37.713047545","long":"127.10483839","items":[{"name":"유성주유소","tel":"031-841-2254","addr":"경기도 의정부시 산곡동 522-13번지","category":"연료판매점 - SK주유소"},{"name":"이마트24 동의정부IC점","tel":"","addr":"경기도 의정부시 산곡동 522-13번지","category":"유통업 영리 - 편 의 점"}]},{"lat":"37.721850728","long":"127.10389769","items":[{"name":"이선미 아트러브공방","tel":"031-875-4748","addr":"경기도 의정부시 산곡동 384-1번지","category":"문화.취미 - 문화취미기타"}]},{"lat":"37.709379476","long":"127.10617155","items":[{"name":"장수촌","tel":"031-847-7622","addr":"경기도 의정부시 산곡동 545-1번지 1층","category":"일반휴게음식 - 일반한식"}]},{"lat":"37.727375178","long":"127.11223116","items":[{"name":"주식회사 수노을푸드","tel":"031-843-6692","addr":"경기도 의정부시 산곡동 206-2번지","category":"음료식품 - 기타음료식품"}]},{"lat":"37.725824336","long":"127.11351064","items":[{"name":"천기사","tel":"02-971-3272","addr":"경기도 의정부시 산곡동 188번지","category":"자동차정비 유지 - 자동차정비"}]},{"lat":"37.721516945","long":"127.1043963","items":[{"name":"철수네다육식물","tel":"031-841-5880","addr":"경기도 의정부시 산곡동 458-2번지","category":"문화.취미 - 화원"}]},{"lat":"37.71088376","long":"127.10653654","items":[{"name":"행복한 정원","tel":"031-847-3976","addr":"경기도 의정부시 산곡동 516-5, 10호","category":"문화.취미 - 화원"}]},{"lat":"37.712517361","long":"127.10322724","items":[{"name":"휠 아트 코리아","tel":"031-821-5777","addr":"경기도 의정부시 산곡동 536-1번지 가동","category":"자동차정비 유지 - 자동차정비"}]}]