[{"lat":"37.654739582","long":"126.78362617","items":[{"name":"BHC마두점","tel":"031-906-8895","addr":"경기도 고양시 일산동구 강송로","category":"일반휴게음식 - 서양음식"},{"name":"일프로수학교습소","tel":"031-908-0630","addr":"경기도 고양시 일산동구 강송로","category":"회원제형태 - 학원"}]},{"lat":"37.654549346","long":"126.78307145","items":[{"name":"강촌장수사우나","tel":"031-905-3777","addr":"경기도 고양시 일산동구 강송로","category":"보건위생 - 사우나"},{"name":"고공수학교습소","tel":"031-907-0922","addr":"경기도 고양시 일산동구 강송로","category":"학원 - 보습학원"},{"name":"본연애","tel":"031-902-0650","addr":"경기도 고양시 일산동구 강송로","category":"회원제형태 - 기타4"}]},{"lat":"37.653460362","long":"126.78370926","items":[{"name":"김정희샵","tel":"031-903-7872","addr":"경기도 고양시 일산동구 강송로","category":"의류 - 정장"},{"name":"진학영어교습소","tel":"070-4355-2854","addr":"경기도 고양시 일산동구 강송로","category":"회원제형태 - 학원"}]},{"lat":"37.64954536","long":"126.78598705","items":[{"name":"리폼이야기","tel":"031-905-5008","addr":"경기도 고양시 일산동구 강송로","category":"수리서비스 - 세탁소"},{"name":"파리바게트 일산백송점","tel":"031-905-5577","addr":"경기도 고양시 일산동구 강송로","category":"음료식품 - 제과점"}]},{"lat":"37.655294093","long":"126.78143741","items":[{"name":"무림전력(주)","tel":"031-903-1655","addr":"경기도 고양시 일산동구 강송로","category":"용역 서비스 - 기타용역서비스"}]},{"lat":"37.644772188","long":"126.79204018","items":[{"name":"바닐라리본","tel":"031-812-1103","addr":"경기도 고양시 일산동구 강송로","category":"신변잡화 - 액세서리"},{"name":"예스에띠임","tel":"070-3721-7771","addr":"경기도 고양시 일산동구 강송로","category":"회원제형태 - 기타1"}]},{"lat":"37.644464663","long":"126.79137254","items":[{"name":"밥한술술한잔","tel":"031-908-6628","addr":"경기도 고양시 일산동구 강송로","category":"일반휴게음식 - 일반한식"}]},{"lat":"37.654270301","long":"126.78320826","items":[{"name":"우리들의원","tel":"031-906-7833","addr":"경기도 고양시 일산동구 강송로","category":"의원 - 의원"},{"name":"원피부과의원","tel":"031-904-0319","addr":"경기도 고양시 일산동구 강송로","category":"의원 - 의원"}]},{"lat":"37.652099381","long":"126.78342996","items":[{"name":"원수학 교습소","tel":"031-903-3127","addr":"경기도 고양시 일산동구 강송로","category":"회원제형태 - 학원"}]},{"lat":"37.653739344","long":"126.78353846","items":[{"name":"착한전산","tel":"031-906-5135","addr":"경기도 고양시 일산동구 강송로","category":"사무통신 - 기타 사무용품"},{"name":"한결온누리약국","tel":"031-902-0526","addr":"경기도 고양시 일산동구 강송로","category":"약국 - 약국"}]},{"lat":"37.653794601","long":"126.78418422","items":[{"name":"피부스토리","tel":"031-904-4353","addr":"경기도 고양시 일산동구 강송로","category":"회원제형태 - 기타4"}]},{"lat":"37.656461304","long":"126.78409707","items":[{"name":"한국지역난방공사일산따소미어린이집[아이","tel":"031-908-6563","addr":"경기도 고양시 일산동구 강송로","category":"학원 - 유아원"}]}]