[{"lat":"37.13000534","long":"126.9094891","items":[{"name":"고동혁내과의원","tel":"031-353-8486","addr":"경기도 화성시 향남읍 방축리 11-17번지","category":"의원 - 의원"},{"name":"대원가축약품","tel":"031-353-3221","addr":"경기도 화성시 향남읍 방축리 11-17번지","category":"기타의료기관 - 동물병원"},{"name":"화성한의원","tel":"031-353-1122","addr":"경기도 화성시 향남읍 방축리 11-17번지","category":"의원 - 한의원"}]},{"lat":"37.119390434","long":"126.92095661","items":[{"name":"대덕농기계","tel":"031-354-9659","addr":"경기도 화성시 향남읍 방축리 274-6번지","category":"수리서비스 - 기타수리서비스"}]},{"lat":"37.121893046","long":"126.91767949","items":[{"name":"봉이네손칼국수","tel":"02-1111-1111","addr":"경기도 화성시 향남읍 방축리 297-56번지","category":"일반휴게음식 - 일반한식"}]},{"lat":"37.130393488","long":"126.91037765","items":[{"name":"제일종합상사","tel":"031-354-5188","addr":"경기도 화성시 향남읍 방축리 10번지","category":"자동차정비 유지 - 자동차시트·타이어"}]},{"lat":"37.120307537","long":"126.91815386","items":[{"name":"향남종합철물","tel":"031-366-2267","addr":"경기도 화성시 향남읍 방축리 299-1번지","category":"건축자재 - 목재·석재·철물"}]},{"lat":"37.119388866","long":"126.91871748","items":[{"name":"화성향남LPG충전소","tel":"031-354-2186","addr":"경기도 화성시 향남읍 방축리 460번지 1층","category":"연료판매점 - E1가스충전소"}]}]