[{"lat":"37.689611294","long":"126.78114267","items":[{"name":"거산식품","tel":"031-812-9500","addr":"경기도 고양시 일산동구 탄중로","category":"음료식품 - 기타음료식품"}]},{"lat":"37.693963065","long":"126.78120908","items":[{"name":"남자축산","tel":"031-975-4422","addr":"경기도 고양시 일산동구 탄중로","category":"음료식품 - 정육점"},{"name":"커피에반하다","tel":"070-7758-3827","addr":"경기도 고양시 일산동구 탄중로","category":"일반휴게음식 - 스넥"}]},{"lat":"37.689019085","long":"126.7824369","items":[{"name":"브레인키즈스쿨어린이집[아이행복]","tel":"070-7441-4240","addr":"경기도 고양시 일산동구 탄중로","category":"학원 - 유아원"}]},{"lat":"37.689083844","long":"126.7833437","items":[{"name":"빛나라어린이집[아이행복]","tel":"070-7519-0138","addr":"경기도 고양시 일산동구 탄중로","category":"학원 - 유아원"}]},{"lat":"37.69368362","long":"126.78113055","items":[{"name":"빨강떡뽁기","tel":"031-977-3449","addr":"경기도 고양시 일산동구 탄중로 325","category":"일반휴게음식 - 스넥"},{"name":"신전떡볶이(증산점)","tel":"031-975-4266","addr":"경기도 고양시 일산동구 탄중로","category":"일반휴게음식 - 스넥"}]},{"lat":"37.693852707","long":"126.7800189","items":[{"name":"수라궁","tel":"031-976-7447","addr":"경기도 고양시 일산동구 탄중로","category":"일반휴게음식 - 중국식"}]},{"lat":"37.687011713","long":"126.77859956","items":[{"name":"에바다뷰티헤어","tel":"031-975-3167","addr":"경기도 고양시 일산동구 탄중로","category":"보건위생 - 미용원"},{"name":"장터지짐이","tel":"031-949-2203","addr":"경기도 고양시 일산동구 탄중로","category":"일반휴게음식 - 일반한식"}]},{"lat":"37.693403683","long":"126.78079124","items":[{"name":"에스피엘학원","tel":"070-7591-6382","addr":"경기도 고양시 일산동구 탄중로","category":"학원 - 보습학원"},{"name":"에스피엘학원","tel":"070-7591-6382","addr":"경기도 고양시 일산동구 탄중로","category":"학원 - 보습학원"},{"name":"왕순이주먹밥김밥","tel":"031-977-1207","addr":"경기도 고양시 일산동구 탄중로","category":"일반휴게음식 - 스넥"}]},{"lat":"37.694123144","long":"126.78009746","items":[{"name":"육(육)이오","tel":"031-975-6250","addr":"경기도 고양시 일산동구 탄중로","category":"일반휴게음식 - 일반한식"}]},{"lat":"37.690181066","long":"126.78229741","items":[{"name":"은샘어린이집[아이행복]","tel":"031-812-4646","addr":"경기도 고양시 일산동구 탄중로","category":"학원 - 유아원"}]},{"lat":"37.69304146","long":"126.77981725","items":[{"name":"중산스포츠","tel":"031-977-8188","addr":"경기도 고양시 일산동구 탄중로","category":"레져용품 - 스포츠·레져용품"}]},{"lat":"37.693123125","long":"126.78012313","items":[{"name":"커트클럽","tel":"031-975-4535","addr":"경기도 고양시 일산동구 탄중로","category":"보건위생 - 미용원"}]},{"lat":"37.688932409","long":"126.77946676","items":[{"name":"프레시윈","tel":"031-815-9874","addr":"경기도 고양시 일산동구 탄중로","category":"회원제형태 - 기타4"}]}]