[{"lat":"37.684790021","long":"126.7758174","items":[{"name":"(주)케이디크리에이티브","tel":"02-3664-3565","addr":"경기도 고양시 일산서구 원일로","category":"서적문구 - 문구용품"},{"name":"스카이노래연습장","tel":"031-975-4877","addr":"경기도 고양시 일산서구 원일로","category":"레저업소 - 노 래 방"},{"name":"실로향기일산점","tel":"031-921-4924","addr":"경기도 고양시 일산서구 원일로","category":"건강식품 - 기타건강식품"}]},{"lat":"37.685845622","long":"126.77193696","items":[{"name":"그래그집","tel":"031-975-1661","addr":"경기도 고양시 일산서구 원일로","category":"일반휴게음식 - 일반한식"}]},{"lat":"37.68534669","long":"126.77481806","items":[{"name":"나눔역","tel":"070-4104-8560","addr":"경기도 고양시 일산서구 원일로","category":"신변잡화 - 기타잡화"}]},{"lat":"37.686959739","long":"126.76584548","items":[{"name":"마중닷컴","tel":"070-8818-9989","addr":"경기도 고양시 일산서구 원일로","category":"수리서비스 - 사무·통신기기수리"}]},{"lat":"37.686734071","long":"126.77015428","items":[{"name":"매울신(  )짬뽕","tel":"031-975-6430","addr":"경기도 고양시 일산서구 원일로","category":"일반휴게음식 - 일반한식"},{"name":"예안의원","tel":"031-977-7579","addr":"경기도 고양시 일산서구 원일로","category":"의원 - 의원"}]},{"lat":"37.685459872","long":"126.77278842","items":[{"name":"삼덕낚시","tel":"031-975-3904","addr":"경기도 고양시 일산서구 원일로","category":"레져용품 - 스포츠·레져용품"}]},{"lat":"37.685209282","long":"126.77365079","items":[{"name":"쇼워이오리목집","tel":"031-955-5884","addr":"경기도 고양시 일산서구 원일로","category":"일반휴게음식 - 일반한식"}]},{"lat":"37.685960945","long":"126.77101831","items":[{"name":"신일산청과","tel":"031-975-7706","addr":"경기도 고양시 일산서구 원일로","category":"음료식품 - 농·축·수산품"}]},{"lat":"37.685567013","long":"126.77228926","items":[{"name":"약속","tel":"031-906-2921","addr":"경기도 고양시 일산서구 원일로","category":"일반휴게음식 - 주점"}]},{"lat":"37.685512073","long":"126.77648408","items":[{"name":"이바인서점","tel":"031-975-7930","addr":"경기도 고양시 일산서구 원일로","category":"서적문구 - 일반서적"}]},{"lat":"37.68598922","long":"126.77165309","items":[{"name":"장터빈대떡","tel":"031-975-8887","addr":"경기도 고양시 일산서구 원일로","category":"일반휴게음식 - 일반한식"}]},{"lat":"37.687017813","long":"126.76785196","items":[{"name":"주식회사비앤더블유코리아모터스","tel":"031-975-0227","addr":"경기도 고양시 일산서구 원일로","category":"자동차판매 - 이륜차판매"}]},{"lat":"37.687237713","long":"126.76518704","items":[{"name":"태후사랑","tel":"031-975-3055","addr":"경기도 고양시 일산서구 원일로","category":"보건위생 - 화장품"}]},{"lat":"37.685187097","long":"126.7761563","items":[{"name":"펀비어킹","tel":"031-111-1111","addr":"경기도 고양시 일산서구 원일로","category":"일반휴게음식 - 주점"}]},{"lat":"37.685379273","long":"126.77303808","items":[{"name":"흥일산업","tel":"031-976-0858","addr":"경기도 고양시 일산서구 원일로","category":"건축자재 - 기타건축자재"}]}]