[{"lat":"37.380582456","long":"126.93709021","items":[{"name":"(주)에스알피엠(SRPM)","tel":"031-441-0969","addr":"경기도 안양시 만안구 안양로","category":"건축자재 - 기타건축자재"}]},{"lat":"37.387444838","long":"126.93137053","items":[{"name":"(주)주원인터랙티브","tel":"031-689-5599","addr":"경기도 안양시 만안구 안양로","category":"사무통신 - 컴퓨터"}]},{"lat":"37.384887128","long":"126.93331509","items":[{"name":"6번가","tel":"031-464-3539","addr":"경기도 안양시 만안구 안양로","category":"일반휴게음식 - 일반한식"}]},{"lat":"37.414783467","long":"126.90858316","items":[{"name":"김현앤Beauty","tel":"031-472-8202","addr":"경기도 안양시 만안구 안양로","category":"보건위생 - 미용원"}]},{"lat":"37.400970673","long":"126.92014283","items":[{"name":"깔끔이슈퍼","tel":"031-447-6234","addr":"경기도 안양시 만안구 안양로","category":"유통업 영리 - 슈퍼마켓"}]},{"lat":"37.399799828","long":"126.92081045","items":[{"name":"나나컴퍼니","tel":"031-464-8253","addr":"경기도 안양시 만안구 안양로","category":"레져용품 - 스포츠·레져용품"},{"name":"나나컴퍼니","tel":"031-464-8254","addr":"경기도 안양시 만안구 안양로","category":"레져용품 - 스포츠·레져용품"}]},{"lat":"37.384725192","long":"126.93373303","items":[{"name":"누나포차","tel":"070-4195-8092","addr":"경기도 안양시 만안구 안양로","category":"일반휴게음식 - 주점"},{"name":"지앤지헤어","tel":"031-465-3784","addr":"경기도 안양시 만안구 안양로","category":"보건위생 - 미용원"},{"name":"쿨레컷","tel":"031-465-6733","addr":"경기도 안양시 만안구 안양로","category":"보건위생 - 미용원"}]},{"lat":"37.389137686","long":"126.92965252","items":[{"name":"다모횟집","tel":"031-449-4969","addr":"경기도 안양시 만안구 안양로","category":"일반휴게음식 - 일반한식"}]},{"lat":"37.400438675","long":"126.91956743","items":[{"name":"더하라주쿠헤어","tel":"031-465-9436","addr":"경기도 안양시 만안구 안양로","category":"보건위생 - 미용원"}]},{"lat":"37.401834249","long":"126.91817672","items":[{"name":"로체","tel":"031-465-7678","addr":"경기도 안양시 만안구 안양로","category":"의류 - 정장"}]},{"lat":"37.399358585","long":"126.92117233","items":[{"name":"르꼬꼬안양점","tel":"031-449-3333","addr":"경기도 안양시 만안구 안양로","category":"레져용품 - 스포츠·레져용품"}]},{"lat":"37.398467069","long":"126.92187349","items":[{"name":"마코","tel":"031-449-3519","addr":"경기도 안양시 만안구 안양로","category":"레져용품 - 스포츠·레져용품"}]},{"lat":"37.406742487","long":"126.91508772","items":[{"name":"만안동영어숲학원","tel":"031-441-4049","addr":"경기도 안양시 만안구 안양로","category":"학원 - 보습학원"}]},{"lat":"37.405832471","long":"126.91508879","items":[{"name":"명성다방","tel":"031-444-6127","addr":"경기도 안양시 만안구 안양로","category":"일반휴게음식 - 서양음식"},{"name":"엑스포노래연습장","tel":"031-469-6166","addr":"경기도 안양시 만안구 안양로","category":"레저업소 - 노 래 방"},{"name":"케이씨씨도료상사","tel":"031-441-7774","addr":"경기도 안양시 만안구 안양로","category":"건축자재 - 페인트"}]},{"lat":"37.399358028","long":"126.92037048","items":[{"name":"베스트간호학원","tel":"031-443-4123","addr":"경기도 안양시 만안구 안양로","category":"회원제형태 - 학원"}]},{"lat":"37.384913617","long":"126.93240046","items":[{"name":"비앤비","tel":"031-388-9349","addr":"경기도 안양시 만안구 안양로","category":"용역 서비스 - 종합용역"},{"name":"주식회사 다인","tel":"031-348-0205","addr":"경기도 안양시 만안구 안양로","category":"의류 - 아동의류"}]},{"lat":"37.406579776","long":"126.91437635","items":[{"name":"삐삐","tel":"031-466-6009","addr":"경기도 안양시 만안구 안양로","category":"레저업소 - 노 래 방"}]},{"lat":"37.398223416","long":"126.92132038","items":[{"name":"사계절노래연습장","tel":"031-466-6744","addr":"경기도 안양시 만안구 안양로","category":"레저업소 - 노 래 방"}]},{"lat":"37.419052544","long":"126.90648793","items":[{"name":"산내음","tel":"02-891-7528","addr":"경기도 안양시 만안구 안양로","category":"음료식품 - 기타음료식품"}]},{"lat":"37.398863279","long":"126.92153426","items":[{"name":"삼성마취통증의학과의원","tel":"031-445-1915","addr":"경기도 안양시 만안구 안양로","category":"의원 - 의원"}]},{"lat":"37.39525243","long":"126.92479056","items":[{"name":"새안양보룡약국","tel":"031-465-0140","addr":"경기도 안양시 만안구 안양로","category":"약국 - 약국"}]},{"lat":"37.403942045","long":"126.91739504","items":[{"name":"소문난김밥","tel":"031-442-3371","addr":"경기도 안양시 만안구 안양로","category":"일반휴게음식 - 스넥"}]},{"lat":"37.416555264","long":"126.90467244","items":[{"name":"신원사랑푸드","tel":"031-474-3335","addr":"경기도 안양시 만안구 안양로 525","category":"일반휴게음식 - 일반한식"}]},{"lat":"37.396665561","long":"126.92262079","items":[{"name":"아울렛수선","tel":"031-463-8451","addr":"경기도 안양시 만안구 안양로","category":"수리서비스 - 세탁소"}]},{"lat":"37.413828185","long":"126.90831325","items":[{"name":"아이알트레이딩(IR Trading Co.)","tel":"031-7531-1868","addr":"경기도 안양시 만안구 안양로","category":"레져용품 - 스포츠·레져용품"}]},{"lat":"37.401357662","long":"126.91950995","items":[{"name":"안양권투체육관","tel":"031-443-1161","addr":"경기도 안양시 만안구 안양로","category":"회원제형태 - 레져업소"}]},{"lat":"37.40547291","long":"126.91622996","items":[{"name":"안양대성학원","tel":"031-464-9000","addr":"경기도 안양시 만안구 안양로","category":"학원 - 보습학원"}]},{"lat":"37.399160441","long":"126.92128548","items":[{"name":"안양피부과의원","tel":"031-388-2561","addr":"경기도 안양시 만안구 안양로","category":"의원 - 의원"}]},{"lat":"37.398745594","long":"126.92073254","items":[{"name":"엔에스코포레이션","tel":"031-442-9123","addr":"경기도 안양시 만안구 안양로","category":"보건위생 - 화장품"}]},{"lat":"37.38567058","long":"126.93259171","items":[{"name":"엔제리너스 만안구청점","tel":"031-442-7280","addr":"경기도 안양시 만안구 안양로","category":"일반휴게음식 - 서양음식"}]},{"lat":"37.397746717","long":"126.92254058","items":[{"name":"여성크로커다일 안양점","tel":"031-442-3005","addr":"경기도 안양시 만안구 안양로","category":"의류 - 스포츠의류"}]},{"lat":"37.410883912","long":"126.91086971","items":[{"name":"영영노래연습장","tel":"031-472-6726","addr":"경기도 안양시 만안구 안양로","category":"레저업소 - 노 래 방"}]},{"lat":"37.407940083","long":"126.91409237","items":[{"name":"오도라타주식회사","tel":"031-466-7296","addr":"경기도 안양시 만안구 안양로","category":"보건위생 - 화장품"}]},{"lat":"37.393442312","long":"126.92618145","items":[{"name":"오렌지클럽","tel":"031-446-1311","addr":"경기도 안양시 만안구 안양로","category":"보건위생 - 미용원"}]},{"lat":"37.410749495","long":"126.91181869","items":[{"name":"울림노래연습장","tel":"031-474-1960","addr":"경기도 안양시 만안구 안양로","category":"레저업소 - 노 래 방"}]},{"lat":"37.396550046","long":"126.92503766","items":[{"name":"은경이네","tel":"031-469-4085","addr":"경기도 안양시 만안구 안양로","category":"신변잡화 - 신발"},{"name":"은경이네2","tel":"031-469-4085","addr":"경기도 안양시 만안구 안양로","category":"신변잡화 - 가방"},{"name":"터치우드","tel":"031-318-1173","addr":"경기도 안양시 만안구 안양로","category":"의류 - 정장"}]},{"lat":"37.411856388","long":"126.91008913","items":[{"name":"이대조뼈다귀해장국","tel":"031-472-9060","addr":"경기도 안양시 만안구 안양로","category":"일반휴게음식 - 일반한식"}]},{"lat":"37.417242011","long":"126.90708896","items":[{"name":"이티에스원","tel":"031-471-1582","addr":"경기도 안양시 만안구 안양로","category":"기타 - 기계공구"}]},{"lat":"37.384364129","long":"126.93261551","items":[{"name":"인피넥스","tel":"031-465-5636","addr":"경기도 안양시 만안구 안양로","category":"사무통신 - 컴퓨터"}]},{"lat":"37.381419584","long":"126.93564424","items":[{"name":"정화양곡","tel":"031-466-0710","addr":"경기도 안양시 만안구 안양로","category":"음료식품 - 미곡상"}]},{"lat":"37.401609135","long":"126.91836897","items":[{"name":"제이제이스크린골프","tel":"031-446-3939","addr":"경기도 안양시 만안구 안양로","category":"레저업소 - 스크린골프"}]},{"lat":"37.414936494","long":"126.90840223","items":[{"name":"종합상설매장","tel":"031-472-9919","addr":"경기도 안양시 만안구 안양로","category":"의류 - 정장"},{"name":"크린토피아석수현대점","tel":"","addr":"경기도 안양시 만안구 안양로","category":"수리서비스 - 세탁소"}]},{"lat":"37.41119006","long":"126.91062084","items":[{"name":"쥬파크헤어","tel":"031-472-2680","addr":"경기도 안양시 만안구 안양로","category":"보건위생 - 미용원"}]},{"lat":"37.385246789","long":"126.9320614","items":[{"name":"진부령동태찜탕전문점","tel":"031-465-8797","addr":"경기도 안양시 만안구 안양로","category":"일반휴게음식 - 일반한식"}]},{"lat":"37.405580947","long":"126.91611689","items":[{"name":"카멜네온광고기획","tel":"070-8654-6708","addr":"경기도 안양시 만안구 안양로","category":"건축자재 - 인테리어전문"}]},{"lat":"37.384166855","long":"126.93423036","items":[{"name":"카페보니또(안양만안점)","tel":"031-445-9600","addr":"경기도 안양시 만안구 안양로","category":"일반휴게음식 - 서양음식"}]},{"lat":"37.388912601","long":"126.92992375","items":[{"name":"폴로리안웨딩","tel":"031-465-4456","addr":"경기도 안양시 만안구 안양로","category":"광학제품 - 사진관"}]},{"lat":"37.404104226","long":"126.91739485","items":[{"name":"필산부인과산후조리원","tel":"031-441-1718","addr":"경기도 안양시 만안구 안양로","category":"기타의료기관 - 산후조리원"}]},{"lat":"37.394585959","long":"126.92520909","items":[{"name":"한마음요양원","tel":"031-469-1013","addr":"경기도 안양시 만안구 안양로","category":"기타의료기관 - 기타의료기관 및 기타"}]},{"lat":"37.397107414","long":"126.9231511","items":[{"name":"한복문","tel":"031-466-3079","addr":"경기도 안양시 만안구 안양로","category":"의류 - 맞춤복점"}]},{"lat":"37.406859543","long":"126.91498594","items":[{"name":"홍스베이커리","tel":"031-473-5122","addr":"경기도 안양시 만안구 안양로","category":"음료식품 - 제과점"}]}]