[{"lat":"37.318766287","long":"127.41268488","items":[{"name":"(주)씨에스푸드","tel":"031-631-5679","addr":"경기도 이천시 신둔면 남정리 159-9번지","category":"음료식품 - 기타음료식품"}]},{"lat":"37.315901524","long":"127.4099393","items":[{"name":"공기","tel":"031-634-3722","addr":"경기도 이천시 신둔면 남정리 297-1번지","category":"주방용구 - 주방용식기"}]},{"lat":"37.314681206","long":"127.41368926","items":[{"name":"김미선도예공방","tel":"070-4223-5327","addr":"경기도 이천시 신둔면 남정리 152-8번지","category":"문화.취미 - 문화취미기타"},{"name":"차림","tel":"070-4223-0415","addr":"경기도 이천시 신둔면 남정리 152-8번지","category":"문화.취미 - 화랑"}]},{"lat":"37.317547691","long":"127.40809804","items":[{"name":"남양유업 이천가정대리점","tel":"031-631-4121","addr":"경기도 이천시 신둔면 남정리 216-2","category":"음료식품 - 기타음료식품"},{"name":"남정마트","tel":"031-631-2066","addr":"경기도 이천시 신둔면 남정리 216-2","category":"유통업 영리 - 슈퍼마켓"},{"name":"신둔약국","tel":"031-631-1334","addr":"경기도 이천시 신둔면 남정리 216-2","category":"약국 - 약국"}]},{"lat":"37.316959468","long":"127.40621091","items":[{"name":"남정건재철물","tel":"031-631-9900","addr":"경기도 이천시 신둔면 남정리 372-4번지","category":"기타 - 기계공구"}]},{"lat":"37.318324681","long":"127.41271632","items":[{"name":"너츠스토리","tel":"031-634-7234","addr":"경기도 이천시 신둔면 남정리 159-2","category":"음료식품 - 농·축·수산품"}]},{"lat":"37.321208544","long":"127.40465415","items":[{"name":"노원도요","tel":"031-633-7859","addr":"경기도 이천시 신둔면 남정리 437번지","category":"문화.취미 - 민예·공예품"}]},{"lat":"37.315739539","long":"127.40988202","items":[{"name":"담담도예","tel":"031-631-8368","addr":"경기도 이천시 신둔면 남정리 297-2번지","category":"문화.취미 - 민예·공예품"},{"name":"도예공방수수","tel":"031-634-3722","addr":"경기도 이천시 신둔면 남정리 297-2번지","category":"문화.취미 - 민예·공예품"},{"name":"두드림도예공방","tel":"031-634-6074","addr":"경기도 이천시 신둔면 남정리 297-2번지 여둔도요","category":"주방용구 - 주방용식기"},{"name":"삼동고전가구","tel":"031-638-8628","addr":"경기도 이천시 신둔면 남정리 297-2번지","category":"기타 - 기타 전문점"},{"name":"소리도예","tel":"","addr":"경기도 이천시 신둔면 남정리 297-2번지","category":"주방용구 - 주방용식기"}]},{"lat":"37.313296399","long":"127.41548664","items":[{"name":"도예공방-담다","tel":"031-634-6074","addr":"경기도 이천시 신둔면 남정리 120-19","category":"문화.취미 - 문화취미기타"},{"name":"보인행","tel":"031-635-6391","addr":"경기도 이천시 신둔면 남정리 120-19","category":"문화.취미 - 민예·공예품"}]},{"lat":"37.31996476","long":"127.40741155","items":[{"name":"로하수","tel":"070-8822-1483","addr":"경기도 이천시 신둔면 남정리 192-1번지 1층","category":"일반휴게음식 - 서양음식"}]},{"lat":"37.305520227","long":"127.41560207","items":[{"name":"매직터치","tel":"031-631-9911","addr":"경기도 이천시 신둔면 남정리 49-1번지","category":"자동차정비 유지 - 카인테리어"}]},{"lat":"37.318851858","long":"127.40877065","items":[{"name":"목원요","tel":"031-632-6555","addr":"경기도 이천시 신둔면 남정리 224-1","category":"문화.취미 - 민예·공예품"}]},{"lat":"37.312041256","long":"127.41626942","items":[{"name":"민승기 공방","tel":"031-631-9357","addr":"경기도 이천시 신둔면 남정리 121-24번지","category":"문화.취미 - 민예·공예품"}]},{"lat":"37.306602178","long":"127.41279933","items":[{"name":"밥차명가 사이참 이천점","tel":"031-633-5423","addr":"경기도 이천시 신둔면 남정리 65-4번지","category":"일반휴게음식 - 일반한식"}]},{"lat":"37.309962508","long":"127.41552482","items":[{"name":"산이랑공방","tel":"031-643-2452","addr":"경기도 이천시 신둔면 남정리 95-2번지","category":"문화.취미 - 민예·공예품"}]},{"lat":"37.306209743","long":"127.41682403","items":[{"name":"산촌농장","tel":"031-631-0865","addr":"경기도 이천시 신둔면 남정리 535번지","category":"음료식품 - 농·축·수산품"},{"name":"산촌딸기농장","tel":"031-631-0865","addr":"경기도 이천시 신둔면 남정리 535번지 1층","category":"학원 - 기타 교육기관"}]},{"lat":"37.319685643","long":"127.40735364","items":[{"name":"석보요","tel":"031-631-8565","addr":"경기도 이천시 신둔면 남정리 192-4번지","category":"문화.취미 - 민예·공예품"}]},{"lat":"37.317485548","long":"127.40782695","items":[{"name":"수헤어","tel":"031-631-8098","addr":"경기도 이천시 신둔면 남정리 214-2번지","category":"보건위생 - 미용원"},{"name":"신화치킨","tel":"031-633-5277","addr":"경기도 이천시 신둔면 남정리 214-2번지 1층","category":"일반휴게음식 - 일반한식"},{"name":"창전뼈다귀해장국","tel":"031-635-1107","addr":"경기도 이천시 신둔면 남정리 214-2,215-1","category":"일반휴게음식 - 일반한식"}]},{"lat":"37.308488861","long":"127.41952116","items":[{"name":"신둔분재농장","tel":"031-634-9959","addr":"경기도 이천시 신둔면 남정리 15-12","category":"문화.취미 - 화원"}]},{"lat":"37.317292628","long":"127.40890892","items":[{"name":"아리라 도예연구소","tel":"070-8875-1038","addr":"경기도 이천시 신둔면 남정리 220-1번지","category":"문화.취미 - 민예·공예품"}]},{"lat":"37.309681664","long":"127.41596321","items":[{"name":"아리아워크룸","tel":"031-634-0662","addr":"경기도 이천시 신둔면 남정리 95-1번지","category":"문화.취미 - 민예·공예품"},{"name":"주식회사 에코","tel":"032-543-9366","addr":"경기도 이천시 신둔면 남정리 95-1번지 1층","category":"기타 - 기계공구"}]},{"lat":"37.314713748","long":"127.40685321","items":[{"name":"예스튜디오","tel":"070-7560-0814","addr":"경기도 이천시 신둔면 남정리 360-4번지","category":"용역 서비스 - 사무서비스"}]},{"lat":"37.308213364","long":"127.41327056","items":[{"name":"용광도요","tel":"031-634-5662","addr":"경기도 이천시 신둔면 남정리 62-13","category":"주방용구 - 주방용식기"}]},{"lat":"37.308292549","long":"127.41640681","items":[{"name":"원일식품","tel":"031-632-6757","addr":"경기도 이천시 신둔면 남정리 98-8","category":"음료식품 - 제과점"}]},{"lat":"37.318208313","long":"127.40988405","items":[{"name":"육감만족 신둔도예촌점","tel":"031-632-9212","addr":"경기도 이천시 신둔면 남정리 223-5번지 1층","category":"일반휴게음식 - 일반한식"},{"name":"카붐 모터스","tel":"031-632-4586","addr":"경기도 이천시 신둔면 남정리 223-5번지","category":"자동차정비 유지 - 자동차정비"}]},{"lat":"37.307854489","long":"127.41282869","items":[{"name":"이천CCTV","tel":"070-7561-9975","addr":"경기도 이천시 신둔면 남정리 62-12번지","category":"용역 서비스 - 기타용역서비스"}]},{"lat":"37.305437091","long":"127.41618815","items":[{"name":"이천안전","tel":"031-634-9998","addr":"경기도 이천시 신둔면 남정리 36번지 3-4호","category":"기타 - 기계공구"},{"name":"호식이건축설비","tel":"031-762-2402","addr":"경기도 이천시 신둔면 남정리 36번지","category":"용역 서비스 - 기타용역서비스"}]},{"lat":"37.306043279","long":"127.41546957","items":[{"name":"이천여주농특산물","tel":"031-632-7070","addr":"경기도 이천시 신둔면 남정리 51번지","category":"음료식품 - 농·축·수산품"}]},{"lat":"37.316959722","long":"127.40877176","items":[{"name":"자연식품","tel":"031-631-2514","addr":"경기도 이천시 신둔면 남정리 303-3번지 B동","category":"음료식품 - 기타음료식품"}]},{"lat":"37.318935497","long":"127.40538664","items":[{"name":"자연암","tel":"031-634-1170","addr":"경기도 이천시 신둔면 남정리 411번지","category":"보건위생 - 기타대인서비스"}]},{"lat":"37.317934077","long":"127.40840471","items":[{"name":"정개산샘터","tel":"031-634-5400","addr":"경기도 이천시 신둔면 남정리 197-5번지","category":"일반휴게음식 - 일반한식"}]},{"lat":"37.323352274","long":"127.41012615","items":[{"name":"토원공방","tel":"031-633-7122","addr":"경기도 이천시 신둔면 남정리 168-49번지 해광마을","category":"문화.취미 - 민예·공예품"}]},{"lat":"37.305407064","long":"127.41704523","items":[{"name":"한국타이어신둔점","tel":"031-636-0588","addr":"경기도 이천시 신둔면 남정리 35-2번지 1층","category":"자동차정비 유지 - 자동차정비"}]},{"lat":"37.323683242","long":"127.4029073","items":[{"name":"한도요","tel":"031-632-7106","addr":"경기도 이천시 신둔면 남정리 454-2번지","category":"문화.취미 - 민예·공예품"}]},{"lat":"37.31901894","long":"127.40996739","items":[{"name":"해밀도요","tel":"070-7563-8563","addr":"경기도 이천시 신둔면 남정리 230-2번지","category":"문화.취미 - 민예·공예품"}]}]