[{"lat":"37.683617335","long":"127.52122426","items":[{"name":"(주)에이치에이글로벌아트센터","tel":"031-589-5200","addr":"경기도 가평군 설악면 송산리 583-2번지","category":"용역 서비스 - 사무서비스"},{"name":"(주)에이치제이매그놀리아그룹","tel":"031-589-4023","addr":"경기도 가평군 설악면 송산리 583-2번지 지하1층","category":"음료식품 - 기타음료식품"},{"name":"엘본에프앤비 주식회사","tel":"02-547-4100","addr":"경기도 가평군 설악면 송산리 583-2번지 지하1층","category":"음료식품 - 기타음료식품"}]},{"lat":"37.690887321","long":"127.52138823","items":[{"name":"(주)츠단코리아","tel":"031-589-4488","addr":"경기도 가평군 설악면 송산리 426-10번지","category":"보건위생 - 의료용품"},{"name":"에스트라스파(에스테틱)","tel":"031-589-4888","addr":"경기도 가평군 설악면 송산리 426-10번지 2층","category":"보건위생 - 피부미용실"},{"name":"의료법인에이치제이매그놀리아의료재단","tel":"031-589-4300","addr":"경기도 가평군 설악면 송산리 426-10번지","category":"병원 - 병원"},{"name":"이마트24 HJ매그놀리아 국제병원점","tel":"031-589-4543","addr":"경기도 가평군 설악면 송산리 426-10번지 지하1층","category":"유통업 영리 - 편 의 점"},{"name":"이마트24 HJ매그놀리아 국제병원점","tel":"","addr":"경기도 가평군 설악면 송산리 426-10번지 지하1층","category":"유통업 영리 - 편 의 점"},{"name":"휴브라운","tel":"031-589-4664","addr":"경기도 가평군 설악면 송산리 426-10번지","category":"일반휴게음식 - 일반한식"}]},{"lat":"37.687779815","long":"127.51294311","items":[{"name":"(주)카페코나퀸즈 매그놀리아점","tel":"031-589-9600","addr":"경기도 가평군 설악면 송산리 706번지","category":"일반휴게음식 - 서양음식"},{"name":"이마트24 가평매그놀리아점","tel":"","addr":"경기도 가평군 설악면 송산리 706번지 1층","category":"유통업 영리 - 편 의 점"},{"name":"재미인샵","tel":"031-589-4023","addr":"경기도 가평군 설악면 송산리 706번지 1층,2층","category":"음료식품 - 기타음료식품"},{"name":"효정베이커리","tel":"031-589-9661","addr":"경기도 가평군 설악면 송산리 706번지 지하1층","category":"음료식품 - 기타음료식품"},{"name":"효정설렁탕","tel":"031-585-2623","addr":"경기도 가평군 설악면 송산리 706번지 1층","category":"일반휴게음식 - 일반한식"},{"name":"효정설렁탕/엘본에프앤비(주)","tel":"031-585-2623","addr":"경기도 가평군 설악면 송산리 706번지","category":"일반휴게음식 - 일반한식"},{"name":"효정연","tel":"031-585-2622","addr":"경기도 가평군 설악면 송산리 706번지 2층","category":"일반휴게음식 - 일반한식"},{"name":"효정연/엘본에프앤비(주)","tel":"031-585-2622","addr":"경기도 가평군 설악면 송산리 706번지 2층","category":"일반휴게음식 - 일반한식"}]},{"lat":"37.677193442","long":"127.48733168","items":[{"name":"㈜카페코나퀸즈매그놀이아점","tel":"031-589-9640","addr":"경기도 가평군 설악면 송산리 706번지 3층","category":"음료식품-기타음료식품"},{"name":"㈜효정설렁탕","tel":"031-585-2623","addr":"경기도 가평군 설악면 송산리 706번지 1층","category":"일반휴게음식- 일반한식"},{"name":"㈜효정원","tel":"031-585-2622","addr":"경기도 가평군 설악면 송산리 706번지 2층","category":"일반휴게음식- 일반한식"},{"name":"재미인샵","tel":"031-589-9630","addr":"경기도 가평군 설악면 송산리 706번지 1층","category":"음료식품-기타음료식품"}]},{"lat":"37.68683451","long":"127.52513523","items":[{"name":"문'스 스키아카데미(Moon's Ski Academy)","tel":"","addr":"경기도 가평군 설악면 송산리 328-2번지","category":"레저업소 - 기타레져업소"}]},{"lat":"37.721996929","long":"127.52552944","items":[{"name":"물미낚시터식당","tel":"031-584-8244","addr":"경기도 가평군 설악면 송산리 976-5","category":"일반휴게음식 - 일반한식"}]},{"lat":"37.723250866","long":"127.52719426","items":[{"name":"물미마을 연꽃호수","tel":"031-584-5804","addr":"경기도 가평군 설악면 송산리 1000번지 ,1001,100-1","category":"용역 서비스 - 종합용역"}]},{"lat":"37.684753287","long":"127.53321502","items":[{"name":"블루엘","tel":"","addr":"경기도 가평군 설악면 송산리 산108-22번지 2동","category":"숙박업 - 여관/기타숙박업"}]},{"lat":"37.688838837","long":"127.51389135","items":[{"name":"사회복지법인청심복지재단","tel":"031-589-5352","addr":"경기도 가평군 설악면 송산리 711-1번지","category":"일반휴게음식 - 일반한식"}]},{"lat":"37.693642413","long":"127.51975206","items":[{"name":"세계기독교통일신령협회청심교회효정카페","tel":"031-589-7061","addr":"경기도 가평군 설악면 송산리 445-2번지","category":"유통업 영리 - 편 의 점"}]},{"lat":"37.687199442","long":"127.53818672","items":[{"name":"소풍","tel":"031-589-8900","addr":"경기도 가평군 설악면 송산리 산102번지","category":"음료식품 - 기타음료식품"},{"name":"청심국제고등학교","tel":"","addr":"경기도 가평군 설악면 송산리 산102번지 선학유피대학원대학교","category":"학원 - 초중고교육기관"},{"name":"청심국제중고등학교","tel":"031-589-8978","addr":"경기도 가평군 설악면 송산리 산102번지","category":"학원 - 초중고교육기관"}]},{"lat":"37.720752047","long":"127.52588365","items":[{"name":"송산2리새마을회","tel":"031-584-6926","addr":"경기도 가평군 설악면 송산리 1036-1번지","category":"숙박업 - 여관/기타숙박업"}]},{"lat":"37.685030458","long":"127.5296686","items":[{"name":"송산식당","tel":"031-584-8434","addr":"경기도 가평군 설악면 송산리 178-4번지","category":"일반휴게음식 - 일반한식"}]},{"lat":"37.723359128","long":"127.527161","items":[{"name":"연꽃호수","tel":"031-584-5804","addr":"경기도 가평군 설악면 송산리 1001번지","category":"일반휴게음식 - 일반한식"}]},{"lat":"37.681609211","long":"127.5209949","items":[{"name":"주식회사 에이치제이투어 (HJ TOUR)","tel":"031-589-1714","addr":"경기도 가평군 설악면 송산리 595번지 2층","category":"음료식품 - 기타음료식품"}]},{"lat":"37.684582701","long":"127.52296548","items":[{"name":"청심유치원[아이행복]","tel":"031-589-9900","addr":"경기도 가평군 설악면 송산리 286번지","category":"학원 - 유치원"}]},{"lat":"37.724492905","long":"127.52341455","items":[{"name":"탑코리아수상레저","tel":"","addr":"경기도 가평군 설악면 송산리 941번지","category":"레저업소 - 기타레져업소"}]},{"lat":"37.68633704","long":"127.5214926","items":[{"name":"해븐지버거 카페코나퀸즈","tel":"070-7721-0055","addr":"경기도 가평군 설악면 송산리 555-9번지","category":"일반휴게음식 - 서양음식"}]},{"lat":"37.690309232","long":"127.52172433","items":[{"name":"효정약국","tel":"031-585-7639","addr":"경기도 가평군 설악면 송산리 426-26번지 1층","category":"약국 - 약국"}]}]