[{"lat":"37.502232754","long":"126.78468359","items":[{"name":"(LAMM)램","tel":"","addr":"경기도 부천시 춘의동 171-6번지 1층 1호","category":"음료식품 - 제과점"},{"name":"(주)청대사","tel":"","addr":"경기도 부천시 춘의동 171-6번지","category":"용역 서비스 - 종합용역"}]},{"lat":"37.501427775","long":"126.787909","items":[{"name":"(주) 유비케이","tel":"032-623-0401","addr":"경기도 부천시 춘의동 202번지 춘의테크노파크II 202동 608호","category":"전기제품 - 기타전기제품"},{"name":"(주)아트플러스엠","tel":"032-623-0542","addr":"경기도 부천시 춘의동 202춘의테크노파크2차202동10층11호","category":"기타 - 기타 전문점"},{"name":"(주)에너지팜","tel":"070-8721-4012","addr":"경기도 부천시 춘의동 202번지 춘의테크노파크ll 202동 705호","category":"기타 - 기계공구"},{"name":"(주)위키박스","tel":"031-6383-0101","addr":"경기도 부천시 춘의동 202번지 춘의테크노파크II 202동 1210호","category":"용역 서비스 - 보관및 창고업"},{"name":"(주)코튼리퍼블릭 (COTTON REPUBLIC)","tel":"032-623-8362","addr":"경기도 부천시 춘의동 202번지 춘의테크노파트 11201동 1112호","category":"유통업 영리 - 기타유통업"},{"name":"(주)크리어전자","tel":"032-613-1844","addr":"경기도 부천시 춘의동 202번지 춘의테크노파크II 202동 801,802,803호","category":"전기제품 - 가전제품"},{"name":"(주)휴비텍","tel":"032-623-0967","addr":"경기도 부천시 춘의동 202번지 춘의테크노파크2차201동 711호~712호","category":"전기제품 - 기타전기제품"},{"name":"IS.PHOTO","tel":"032-623-0336","addr":"경기도 부천시 춘의동 202번지 부천테크노2차 201동 1504호","category":"광학제품 - 사진관"},{"name":"구슬치기","tel":"032-623-0477","addr":"경기도 부천시 춘의동 202번지 춘의테크노파크II 201동 1층 103,104,105호","category":"레저업소 - 당 구 장"},{"name":"까페 메르시 춘의점","tel":"032-623-0838","addr":"경기도 부천시 춘의동 202번지 춘의테크노파크2차 201동 106호","category":"일반휴게음식 - 서양음식"},{"name":"대광정보시스템(주)","tel":"032-623-0404","addr":"경기도 부천시 춘의동 202번지 춘의테크노파크II 202동 211호","category":"사무통신 - 통신기기"},{"name":"더푸드맘","tel":"","addr":"경기도 부천시 춘의동 202번지 201동 B201호","category":"일반휴게음식 - 일반한식"},{"name":"더푸드맘","tel":"032-623-0109","addr":"경기도 부천시 춘의동 202번지 201동 B201호","category":"일반휴게음식 - 일반한식"},{"name":"덕진R&C","tel":"032-623-0910","addr":"경기도 부천시 춘의동 202번지 춘의테크노파크II 202동 505호","category":"기타 - 기계공구"},{"name":"로그엠","tel":"070-8622-3752","addr":"경기도 부천시 춘의동 202번지 202동 1010-03 춘의테크노파크2","category":"서적문구 - 과학기자재"},{"name":"로얄메드","tel":"032-623-8303","addr":"경기도 부천시 춘의동 202번지 춘의테크노파크II 201동 1002호","category":"보건위생 - 의료용품"},{"name":"메탈라이브러리","tel":"02-3281-5031","addr":"경기도 부천시 춘의동 202번지 춘의테크노파크ll, 202동 10층","category":"가구 - 기타가구"},{"name":"명동할머니국수부천춘의점","tel":"032-623-8894","addr":"경기도 부천시 춘의동 202번지 춘의테크노파크II 202동 108호","category":"일반휴게음식 - 일반한식"},{"name":"백채김치찌개","tel":"032-623-8494","addr":"경기도 부천시 춘의동 202번지 춘의테크노파크II 202동 101호","category":"일반휴게음식 - 일반한식"},{"name":"부천지도","tel":"032-611-1400","addr":"경기도 부천시 춘의동 202번지 춘의테크노마트2 201동 110호","category":"서적문구 - 출판 및 인쇄물"},{"name":"사단법인 디엠지국제다큐영화제","tel":"032-623-8047","addr":"경기도 부천시 춘의동 202번지 춘의테크노파크II 202동 906호","category":"용역 서비스 - 종합용역"},{"name":"생선구이밥집","tel":"032-623-0066","addr":"경기도 부천시 춘의동 202번지 춘의테크노파크II 104,105호","category":"일반휴게음식 - 일반한식"},{"name":"세븐데이즈","tel":"032-623-0366","addr":"경기도 부천시 춘의동 202번지 춘의테크노파크II 201동 113호","category":"유통업 영리 - 슈퍼마켓"},{"name":"소호(SOHO)202","tel":"02-1111-1111","addr":"경기도 부천시 춘의동 202번지 춘의테크노파크II 202동 107호","category":"일반휴게음식 - 서양음식"},{"name":"손봄","tel":"070-7708-7050","addr":"경기도 부천시 춘의동 202번지 춘의테크노파크II 201동 504호","category":"서적문구 - 출판 및 인쇄물"},{"name":"스케줄엔지니어링","tel":"031-7658-7227","addr":"경기도 부천시 춘의동 202번지 춘의테크노파크2 201동 110호","category":"서적문구 - 출판 및 인쇄물"},{"name":"쏘컴퍼니","tel":"032-651-0150","addr":"경기도 부천시 춘의동 202번지 춘의테크노파크II 201동 701호","category":"신변잡화 - 가방"},{"name":"아쿠아랩시스템","tel":"02-3667-3496","addr":"경기도 부천시 춘의동 202번지 춘의테크노파크II 201동 1305호","category":"서적문구 - 과학기자재"},{"name":"위아텍","tel":"032-623-8549","addr":"경기도 부천시 춘의동 202번지 춘의테크노파크II201-1310","category":"서적문구 - 과학기자재"},{"name":"일성미디어통신주식회사","tel":"032-623-0877","addr":"경기도 부천시 춘의동 202번지 부천춘의테크노파크II 201동 1301호","category":"전기제품 - 기타전기제품"},{"name":"일신금형","tel":"032-623-0466","addr":"경기도 부천시 춘의동 202번지 춘의테크노파크202동409호~411호 202동 409호","category":"기타 - 기계공구"},{"name":"주식회사 넥스팩","tel":"032-623-0446","addr":"경기도 부천시 춘의동 202번지 춘의테크노파크2차 202동 204호","category":"유통업 영리 - 기타유통업"},{"name":"주식회사 드림이스트코믹스나인","tel":"","addr":"경기도 부천시 춘의동 202번지 춘의테크노파크II 202동 1110호","category":"용역 서비스 - 정보서비스"},{"name":"주식회사 미래에이드","tel":"032-623-8114","addr":"경기도 부천시 춘의동 202번지 춘의테크노파크II 202동 702호","category":"서적문구 - 기타서적문구"},{"name":"주식회사 아이케이와이코퍼레이션","tel":"032-623-0800","addr":"경기도 부천시 춘의동 202번지 춘의테크노파크II 201동 1203호 일부","category":"신변잡화 - 기타잡화"},{"name":"주식회사 인브랜드","tel":"031-000-0000","addr":"경기도 부천시 춘의동 202번지 202동 10층 코워킹스페이스 5호","category":"용역 서비스 - 종합용역"},{"name":"주식회사 히즈쇼","tel":"070-4667-4811","addr":"경기도 부천시 춘의동 202번지 춘의테크노파크II 202동 1203호","category":"서적문구 - 출판 및 인쇄물"},{"name":"지노인터네셔널","tel":"031-901-9553","addr":"경기도 부천시 춘의동 202번지 춘의테크노파크II 201동 1007호","category":"보건위생 - 화장품"},{"name":"참맛나푸드","tel":"032-623-8284","addr":"경기도 부천시 춘의동 202번지 춘의테크노파크ll 201동 101호","category":"일반휴게음식 - 일반한식"},{"name":"첸(CHEN)","tel":"032-623-8229","addr":"경기도 부천시 춘의동 202번지 춘의테크노파크II 202동 103호","category":"일반휴게음식 - 중국식"},{"name":"춘의테크노파크2 관리단대표회의","tel":"032-623-0114","addr":"경기도 부천시 춘의동 202번지 원미구 춘의테크노파크2","category":"자동차정비 유지 - 주차장"},{"name":"캠쏘월드","tel":"031-997-7636","addr":"경기도 부천시 춘의동 202번지 춘의테크노파크Ⅱ 201동 1302호","category":"회원제형태 - 기타3"},{"name":"태성몰드에칭","tel":"032-623-8350","addr":"경기도 부천시 춘의동 202번지 춘의테크노파크II 201동 B106호","category":"기타 - 기계공구"},{"name":"토리디자인","tel":"032-623-8430","addr":"경기도 부천시 춘의동 202번지 춘의테크노파크Ⅱ 202동 1403호","category":"용역 서비스 - 사무서비스"},{"name":"플러스인쇄","tel":"032-623-8224","addr":"경기도 부천시 춘의동 202번지 춘의테크노파크II 202동 106호","category":"용역 서비스 - 종합용역"},{"name":"한국중앙교육","tel":"032-1566-9354","addr":"경기도 부천시 춘의동 202번지 춘의테크노파크II 202동 1109호","category":"용역 서비스 - 소프트웨어"},{"name":"한스테크","tel":"02-2616-3111","addr":"경기도 부천시 춘의동 202번지 춘의테크노파크II 201동 1001호","category":"기타 - 기타 전문점"},{"name":"행복한식당","tel":"032-623-8542","addr":"경기도 부천시 춘의동 202 춘의테크노파크2차 201동 111, 112호","category":"일반휴게음식 - 일반한식"}]},{"lat":"37.500734196","long":"126.79302261","items":[{"name":"(주) 이현","tel":"032-656-7115","addr":"경기도 부천시 춘의동 193-4번지 삼륭인더스파크 403호","category":"기타 - 기계공구"},{"name":"(주)애플하우스","tel":"032-0000-0000","addr":"경기도 부천시 춘의동 193-4번지 삼륭인더스파크 405호","category":"기타 - 기계공구"},{"name":"(주)테라넥서스","tel":"032-212-0411","addr":"경기도 부천시 춘의동 193-4번지 삼륭인더스파크 407호","category":"서적문구 - 과학기자재"},{"name":"바이오앤바이오","tel":"070-7098-5551","addr":"경기도 부천시 춘의동 193-4 삼륭인더스파크내6층1~3호","category":"보건위생 - 화장품"},{"name":"에스알케미칼 주식회사","tel":"032-661-0091","addr":"경기도 부천시 춘의동 193-4번지 삼륭인더스파크 510호","category":"건축자재 - 페인트"},{"name":"테크노몬스터","tel":"032-611-1122","addr":"경기도 부천시 춘의동 193-4번지 삼륭인더스파크 404호","category":"건축자재 - 기타건축자재"},{"name":"푸짐한밥상","tel":"032-1111-1111","addr":"경기도 부천시 춘의동 193-4번지 삼륭인더스파크 2층 204호","category":"일반휴게음식 - 일반한식"}]},{"lat":"37.502204129","long":"126.79376489","items":[{"name":"(주)대영엔지니어링","tel":"032-542-1732","addr":"경기도 부천시 춘의동 192-13번지","category":"신변잡화 - 기타잡화"},{"name":"예림기획","tel":"032-324-4805","addr":"경기도 부천시 춘의동 192-13번지 1층","category":"용역 서비스 - 종합용역"}]},{"lat":"37.503480016","long":"126.7819318","items":[{"name":"(주)대진기공","tel":"032-673-3002","addr":"경기도 부천시 춘의동 144-14번지","category":"건축자재 - 보일러·펌프·샷시"},{"name":"가가라이팅","tel":"032-675-3518","addr":"경기도 부천시 춘의동 144-14번지 2층 201호","category":"건축자재 - 조명기구"},{"name":"주식회사 이레스토리","tel":"02-1544-1473","addr":"경기도 부천시 춘의동 144-14번지 301호","category":"음료식품 - 농·축·수산품"}]},{"lat":"37.501148891","long":"126.79315715","items":[{"name":"(주)비바","tel":"032-656-5626","addr":"경기도 부천시 춘의동 193-2번지","category":"주방용구 - 주방용구"}]},{"lat":"37.503319764","long":"126.78785834","items":[{"name":"(주)비웰","tel":"02-2274-1141","addr":"경기도 부천시 춘의동 163-18번지 A동 4층 2호","category":"서적문구 - 출판 및 인쇄물"},{"name":"주식회사 제일프린코","tel":"032-212-4433","addr":"경기도 부천시 춘의동 163-18번지 A동 4층 2호","category":"서적문구 - 출판 및 인쇄물"}]},{"lat":"37.501569433","long":"126.79151617","items":[{"name":"(주)비트정보통신","tel":"032-7825-3763","addr":"경기도 부천시 춘의동 195번지 삼보테크노타워 A동 18층 1811호","category":"용역 서비스 - 소프트웨어"},{"name":"(주)새한무역","tel":"032-612-5181","addr":"경기도 부천시 춘의동 195번지 삼보테크노타워 1720호","category":"기타 - 기계공구"},{"name":"(주)세은테크","tel":"032-684-9095","addr":"경기도 부천시 춘의동 195번지 삼보테크노타워 1822,1823호","category":"기타 - 기계공구"},{"name":"(주)아이디스","tel":"032-719-4068","addr":"경기도 부천시 춘의동 195번지 삼보테크노타워 1314동 1319호","category":"보건위생 - 의료용품"},{"name":"(주)에이나인","tel":"070-4226-0715","addr":"경기도 부천시 춘의동 195번지 삼보테크노타워 21층 2115호 (주)에이나인","category":"전기제품 - 가전제품"},{"name":"(주)큐솔루션","tel":"032-252-1169","addr":"경기도 부천시 춘의동 195번지 삼보테크노타워 1603호","category":"용역 서비스 - 소프트웨어"},{"name":"(주)트래비스바이오사이언스","tel":"032-270-6091","addr":"경기도 부천시 춘의동 195번지 삼보테크노타워 17층 1713호","category":"서적문구 - 과학기자재"},{"name":"(주)플래드","tel":"032-220-7866","addr":"경기도 부천시 춘의동 195번지 삼보테크노타워 12층 1218호","category":"건축자재 - 인테리어전문"},{"name":"GS25부천삼보테크노점","tel":"","addr":"경기도 부천시 춘의동 195번지 삼보테크노타워 B101호","category":"유통업 영리 - 편 의 점"},{"name":"KH코퍼레이션","tel":"070-5038-2899","addr":"경기도 부천시 춘의동 195번지 삼보테크노타워 2201호","category":"건축자재 - 기타건축자재"},{"name":"건영정밀조각","tel":"032-341-3049","addr":"경기도 부천시 춘의동 195번지 삼보테크노타워 132호","category":"기타 - 기계공구"},{"name":"다원인터내셔날","tel":"032-296-8118","addr":"경기도 부천시 춘의동 195번지 삼보테크노타워 1806호","category":"유통업 영리 - 기타유통업"},{"name":"라크리마커피","tel":"","addr":"경기도 부천시 춘의동 195번지 삼보테크노타워 B146호","category":"일반휴게음식 - 서양음식"},{"name":"롤링필로우 주식회사","tel":"","addr":"경기도 부천시 춘의동 195번지 21층 스타트업 하이브에프호","category":"직물 - 침구·수예점"},{"name":"릴랩(ReLab)","tel":"070-4686-4257","addr":"경기도 부천시 춘의동 195번지 삼보테크노타워 1910호","category":"서적문구 - 과학기자재"},{"name":"만조원(주)","tel":"032-220-7885","addr":"경기도 부천시 춘의동 195번지 삼보테크노타워 2층 237호","category":"음료식품 - 기타음료식품"},{"name":"명지광산업","tel":"","addr":"경기도 부천시 춘의동 195번지 삼보테크노타워 1508호","category":"광학제품 - 기타광학제품"},{"name":"무청화학연구소","tel":"032-270-6176","addr":"경기도 부천시 춘의동 195번지 삼보테크노타워 1003호","category":"보건위생 - 화장품"},{"name":"바르다김선생 부천삼보테크노타워점","tel":"032-270-6141","addr":"경기도 부천시 춘의동 195번지 삼보테크노타워 B141호 일부","category":"일반휴게음식 - 스넥"},{"name":"생각과표현","tel":"032-220-7897","addr":"경기도 부천시 춘의동 195번지 삼보테크노타워 2406호","category":"서적문구 - 출판 및 인쇄물"},{"name":"소아21","tel":"02-2644-1224","addr":"경기도 부천시 춘의동 195번지 삼보테크노타워 6층 614호","category":"보건위생 - 의료용품"},{"name":"스튜디오 봉봉","tel":"031-111-1111","addr":"경기도 부천시 춘의동 195번지 삼보테크노타워 2506층","category":"레져용품 - 악기점"},{"name":"씨유삼보테크노점","tel":"080-080-3663","addr":"경기도 부천시 춘의동 195번지 B150호","category":"유통업 영리 - 편 의 점"},{"name":"아쿠아수족관","tel":"032-329-8990","addr":"경기도 부천시 춘의동 195번지 삼보테크노타워 1019호","category":"문화.취미 - 수족관"},{"name":"알파 삼보테크노점","tel":"02-1111-1111","addr":"경기도 부천시 춘의동 195번지 지하1층 비147호","category":"서적문구 - 문구용품"},{"name":"에스디 리테일 (SD retail)","tel":"","addr":"경기도 부천시 춘의동 195번지 삼보테크노타워 17층 1718호","category":"전기제품 - 기타전기제품"},{"name":"에스티이(STE)","tel":"070-7538-1566","addr":"경기도 부천시 춘의동 195번지 삼보테크노타워 2519호","category":"기타 - 기계공구"},{"name":"에이치 에스 컴퍼니","tel":"070-4633-1375","addr":"경기도 부천시 춘의동 195번지 삼보테크노타워 1514호","category":"용역 서비스 - 사무서비스"},{"name":"엘상사","tel":"","addr":"경기도 부천시 춘의동 195번지 삼보테크노타워 707호","category":"신변잡화 - 기타잡화"},{"name":"와이제이디자인","tel":"032-324-6626","addr":"경기도 부천시 춘의동 195번지 삼보테크노타워 1011호","category":"건축자재 - 인테리어전문"},{"name":"요셉성물","tel":"032-655-4714","addr":"경기도 부천시 춘의동 195번지 삼보테크노타워 1017호","category":"서적문구 - 전문서적"},{"name":"유앤아이씨티","tel":"032-283-4598","addr":"경기도 부천시 춘의동 195번지 삼보테크노타워 16층 1606호","category":"용역 서비스 - 소프트웨어"},{"name":"이지엔","tel":"070-7313-7141","addr":"경기도 부천시 춘의동 195번지 삼보테크노타워 2322호","category":"사무통신 - 컴퓨터"},{"name":"인플러스(In PLUS)","tel":"","addr":"경기도 부천시 춘의동 195번지 삼보테크노타워 1819호","category":"전기제품 - 기타전기제품"},{"name":"젠 코리아","tel":"050-2720-3000","addr":"경기도 부천시 춘의동 195번지 삼보테크노타워 지하1층 비111호","category":"전기제품 - 기타전기제품"},{"name":"주병율의 문학티비 씨네포엠(Cine-poem)","tel":"032-220-7897","addr":"경기도 부천시 춘의동 195번지 삼보테크노타워 2406호 일부","category":"용역 서비스 - 종합용역"},{"name":"주식회사 누누로","tel":"031-1111-1111","addr":"경기도 부천시 춘의동 195번지 삼보테크노타워 14층 18호","category":"레져용품 - 스포츠·레져용품"},{"name":"주식회사 블루코스모스","tel":"032-662-2350","addr":"경기도 부천시 춘의동 195번지 삼보테크노타워 2320호","category":"전기제품 - 기타전기제품"},{"name":"주식회사 이룸에스엔에스","tel":"032-220-7860","addr":"경기도 부천시 춘의동 195번지 삼보테크노타워 15층 1523호","category":"사무통신 - 통신기기"},{"name":"주식회사 크루텍","tel":"032-270-6097","addr":"경기도 부천시 춘의동 195번지 삼보테크노타워 16층 1611호","category":"전기제품 - 기타전기제품"},{"name":"주식회사 헤윰아이씨티","tel":"02-1544-2390","addr":"경기도 부천시 춘의동 195번지 삼보테크노타워 1808호","category":"사무통신 - 통신기기"},{"name":"주식회사킹터보","tel":"032-1544-1923","addr":"경기도 부천시 춘의동 195번지 삼보테크노타워 337호","category":"자동차정비 유지 - 자동차부품"},{"name":"주준전자","tel":"02-2672-6622","addr":"경기도 부천시 춘의동 195번지 삼보테크노타워 14층 1423호","category":"서적문구 - 완구점"},{"name":"케이 앤 케이","tel":"032-270-6550","addr":"경기도 부천시 춘의동 195번지 삼보테크노타워 5층 514호","category":"서적문구 - 완구점"},{"name":"포36거리 가맹사업부(부천춘의직영점)","tel":"070-8825-0036","addr":"경기도 부천시 춘의동 195번지 삼보테크노타워 지하층 비148-1호","category":"일반휴게음식 - 서양음식"},{"name":"포피플4P+(for people)","tel":"","addr":"경기도 부천시 춘의동 195번지 삼보테크노타워 2003호","category":"용역 서비스 - 종합용역"},{"name":"해피출력","tel":"032-322-3601","addr":"경기도 부천시 춘의동 195번지 일부삼보테크노타워 536호","category":"서적문구 - 출판 및 인쇄물"}]},{"lat":"37.502348006","long":"126.79360616","items":[{"name":"(주)성원모터스","tel":"032-661-9659","addr":"경기도 부천시 춘의동 192-11 3층","category":"자동차정비 유지 - 자동차부품"},{"name":"지에스에스아이주식회사","tel":"031-497-3291","addr":"경기도 부천시 춘의동 192-11번지","category":"건축자재 - 기타건축자재"}]},{"lat":"37.501538416","long":"126.78929969","items":[{"name":"(주)세계정보통신","tel":"011-***-****","addr":"경기도 부천시 춘의동 200-1번지 춘의테크노파크 101동 1007호","category":"전기제품 - 기타전기제품"},{"name":"(주)세익엔지니어링","tel":"032-655-1972","addr":"경기도 부천시 춘의동 200-1번지 춘의테크노파크 102동 1109호","category":"기타 - 기계공구"},{"name":"(주)에이치케이트레이드","tel":"032-611-0566","addr":"경기도 부천시 춘의동 200-1번지 춘의테크노파크 102동 1102호","category":"레져용품 - 스포츠·레져용품"},{"name":"(주)영진기업","tel":"032-665-2633","addr":"경기도 부천시 춘의동 200-1번지","category":"기타 - 기계공구"},{"name":"(주)유니디자인","tel":"070-1111-1111","addr":"경기도 부천시 춘의동 200-1번지 춘의테크노파크 101동 903호","category":"직물 - 카페트,커튼,천막,지물"},{"name":"(주)지에스피네트웍스","tel":"032-651-2123","addr":"경기도 부천시 춘의동 200-1번지 춘의테크노파크 101동 1306호","category":"용역 서비스 - 기타용역서비스"},{"name":"(주)지에스피씨스템즈","tel":"032-651-2123","addr":"경기도 부천시 춘의동 200-1번지 춘의테크노파크 101동 13층","category":"회원제형태 - 기타1"},{"name":"H.M.TEC(주)/원격지","tel":"032-714-0741","addr":"경기도 부천시 춘의동 200-1번지 춘의테크노파크 101동 409호","category":"기타 - 기타 전문점"},{"name":"강남동태탕동태찜","tel":"032-668-8896","addr":"경기도 부천시 춘의동 200-1번지 춘의테크노파크 102동 110호","category":"일반휴게음식 - 일반한식"},{"name":"경인Sock","tel":"032-652-0012","addr":"경기도 부천시 춘의동 200-1번지 춘의테크노파크 102동 605-606호","category":"의류 - 기타의류"},{"name":"근화정공/원격지","tel":"032-675-4200","addr":"경기도 부천시 춘의동 200-1번지 춘의테크노파크 101동 303호","category":"기타 - 기타 전문점"},{"name":"남원추어탕","tel":"032-714-1333","addr":"경기도 부천시 춘의동 200-1번지 춘의테크노파크 102동 111호","category":"일반휴게음식 - 일반한식"},{"name":"노무법인사람들","tel":"032-656-1350","addr":"경기도 부천시 춘의동 200-1번지 춘의테크노파크 103동 204호","category":"용역 서비스 - 법률회계서비스(법인)"},{"name":"농업회사법인주식회사지산바이오","tel":"032-664-1002","addr":"경기도 부천시 춘의동 200-1번지 춘의테크노파크 102동 213,214호","category":"농업 - 농기계"},{"name":"대경","tel":"032-614-8111","addr":"경기도 부천시 춘의동 200-1번지 춘의테크노파크 101동 405호","category":"전기제품 - 기타전기제품"},{"name":"더밥스","tel":"032-611-3393","addr":"경기도 부천시 춘의동 200-1번지 춘의테크노파크 102동 B11호","category":"일반휴게음식 - 일반한식"},{"name":"럼블코리아","tel":"032-321-2072","addr":"경기도 부천시 춘의동 200-1번지 춘의테크노파크 101동 804호","category":"가구 - 일반가구"},{"name":"리온(Rion) 테크","tel":"032-614-8135","addr":"경기도 부천시 춘의동 200-1번지 춘의테크노파크 101동 301호","category":"신변잡화 - 기타잡화"},{"name":"명성한식부페","tel":"032-714-0092","addr":"경기도 부천시 춘의동 200-1번지 춘의테크노파크 103동 201,202호","category":"일반휴게음식 - 일반한식"},{"name":"미래테크","tel":"032-663-4133","addr":"경기도 부천시 춘의동 200-1번지 부천춘의테크노파크 102동 1108호","category":"전기제품 - 기타전기제품"},{"name":"미래테크/원격지","tel":"032-0-0","addr":"경기도 부천시 춘의동 200-1번지 부천춘의테크노파크 102동 1108호","category":"기타 - 기타 전문점"},{"name":"선덴탈","tel":"032-672-0355","addr":"경기도 부천시 춘의동 200-1 춘의테크노파크101-1408","category":"보건위생 - 의료용품"},{"name":"소풍나라","tel":"032-714-1313","addr":"경기도 부천시 춘의동 200-1번지 춘의테크노파크 103동 105호","category":"일반휴게음식 - 스넥"},{"name":"시골통돼지볶음","tel":"032-664-4060","addr":"경기도 부천시 춘의동 200-1번지 춘의테크노파크 102동 104호","category":"일반휴게음식 - 일반한식"},{"name":"신원애드","tel":"032-655-2120","addr":"경기도 부천시 춘의동 200-1번지 춘의테크노파크 102동 1411호","category":"신변잡화 - 기타잡화"},{"name":"신진와이어","tel":"032-656-4770","addr":"경기도 부천시 춘의동 200-1번지 춘의테크노파크 102동 410호","category":"기타 - 기타 전문점"},{"name":"씨유부천춘의점","tel":"032-613-2143","addr":"경기도 부천시 춘의동 200-1번지 춘의테크노파크1차 103호,104호","category":"유통업 영리 - 편 의 점"},{"name":"씰러산업","tel":"032-657-7652","addr":"경기도 부천시 춘의동 200-1 춘의테크노파크102동210호~211호","category":"기타 - 기계공구"},{"name":"아리스타커피","tel":"032-661-3232","addr":"경기도 부천시 춘의동 200-1번지 춘의테크노파크 102동 110호","category":"일반휴게음식 - 서양음식"},{"name":"에스에스글로벌","tel":"032-655-2845","addr":"경기도 부천시 춘의동 200-1번지 춘의테크노파크 101동 304호","category":"보건위생 - 의료용품"},{"name":"에이엠통상","tel":"032-667-0458","addr":"경기도 부천시 춘의동 200-1번지 춘의테크노파크 102동 1411호","category":"보건위생 - 미용재료"},{"name":"엔스텍(ENSTEC)","tel":"032-655-7082","addr":"경기도 부천시 춘의동 200-1번지 춘의테크노파크 102동 1508호","category":"서적문구 - 과학기자재"},{"name":"원폴테크","tel":"032-612-7416","addr":"경기도 부천시 춘의동 200-1번지 102동 제비07호","category":"직물 - 기타직물"},{"name":"웰딩파트너","tel":"032-714-0714","addr":"경기도 부천시 춘의동 200-1춘의테크노파크102동407.408호","category":"기타 - 기계공구"},{"name":"웰빙식당","tel":"032-655-8983","addr":"경기도 부천시 춘의동 200-1번지 춘의테크노파크 103동 101,102호","category":"일반휴게음식 - 일반한식"},{"name":"웰빙식당","tel":"032-655-8983","addr":"경기도 부천시 춘의동 200-1번지 춘의테크노파크 103동 101,102호","category":"일반휴게음식 - 일반한식"},{"name":"웰빙테크","tel":"032-665-2020","addr":"경기도 부천시 춘의동 200-1번지 춘의테크노파크 102동 1203호","category":"전기제품 - 기타전기제품"},{"name":"유미사","tel":"032-652-2300","addr":"경기도 부천시 춘의동 200-1번지 춘의테크노파크 102동 103,105호","category":"사무통신 - 기타 사무용품"},{"name":"이가네순대국","tel":"032-666-7797","addr":"경기도 부천시 춘의동 200-1번지 춘의테크노파크 102동 107호","category":"일반휴게음식 - 일반한식"},{"name":"이엘피","tel":"032-351-2209","addr":"경기도 부천시 춘의동 200-1번지 춘의테크노파크 102동 1301호","category":"기타 - 기타 전문점"},{"name":"이엘피/원격지","tel":"032-351-2209","addr":"경기도 부천시 춘의동 200-1번지 춘의테크노파크 102-1301","category":"기타 - 기타 전문점"},{"name":"제니스용접기","tel":"032-714-0838","addr":"경기도 부천시 춘의동 200-1번지 춘의테크노파크 101동 703호","category":"기타 - 기계공구"},{"name":"주식회사 상상제작소","tel":"","addr":"경기도 부천시 춘의동 200-1번지 춘의테크노파크 101동 1004호","category":"신변잡화 - 기타잡화"},{"name":"주식회사 소이스코리아","tel":"032-655-6906","addr":"경기도 부천시 춘의동 200-1번지 춘의테크노파크 102동 702호","category":"신변잡화 - 기타잡화"},{"name":"주식회사맑은전자","tel":"02-2613-9745","addr":"경기도 부천시 춘의동 200-1번지 춘의테크노파크 102동 1401호","category":"전기제품 - 냉열기기"},{"name":"주식회사화인코팅","tel":"032-652-7779","addr":"경기도 부천시 춘의동 200-1번지 춘의테크노파크 101동 605호","category":"기타 - 기계공구"},{"name":"춘의테크노종합상사","tel":"032-714-0077","addr":"경기도 부천시 춘의동 200-1번지 춘의테크노파크 102동 106호","category":"기타 - 기계공구"},{"name":"춘의테크노파크 1차 경영자협의회","tel":"032-714-0670","addr":"경기도 부천시 춘의동 200-1번지 지하1층","category":"자동차정비 유지 - 주차장"},{"name":"춘의테크노포장","tel":"032-000-0000","addr":"경기도 부천시 춘의동 200-1번지 춘의테크노파크 102동 102호","category":"유통업 영리 - 기타유통업"},{"name":"카이로스","tel":"032-223-5700","addr":"경기도 부천시 춘의동 200-1번지 춘의테크노파크 102동 1405호","category":"서적문구 - 문구용품"},{"name":"케이엔에취인스트루먼트","tel":"032-668-9941","addr":"경기도 부천시 춘의동 200-1번지 춘의테크노파크 102동 1501호","category":"기타 - 기타 전문점"},{"name":"케이엔에취인스트루먼트/원격지","tel":"032-668-9941","addr":"경기도 부천시 춘의동 200-1번지 춘의테크노파크 102동 1501호","category":"기타 - 기타 전문점"},{"name":"토탈리빙주식회사","tel":"02-1899-2894","addr":"경기도 부천시 춘의동 200-1번지 춘의테크노파크 101동 1305호","category":"주방용구 - 주방용구"},{"name":"티제이전자/원격지","tel":"032-668-8831","addr":"경기도 부천시 춘의동 200-1번지 춘의테크노파크 102동 711호","category":"기타 - 기타 전문점"},{"name":"퍼펙트테크(perfect tech)","tel":"032-611-0653","addr":"경기도 부천시 춘의동 200-1번지 춘의테크노파크 102동 411호","category":"신변잡화 - 기타잡화"},{"name":"하나엔지니어링","tel":"","addr":"경기도 부천시 춘의동 200-1번지 춘의테크노파크 101동 101호","category":"기타 - 기계공구"},{"name":"하늘누에","tel":"032-682-1882","addr":"경기도 부천시 춘의동 200-1번지 춘의테크노파크 101동 1507호","category":"신변잡화 - 기념품점"},{"name":"한국광학","tel":"032-613-5412","addr":"경기도 부천시 춘의동 200-1번지 춘의테크노파크 101동 909호","category":"전기제품 - 기타전기제품"},{"name":"혜성OA","tel":"032-657-8989","addr":"경기도 부천시 춘의동 200-1번지 부천춘의테크노파크 102동 1410호","category":"사무통신 - 사무용 OA기기"}]},{"lat":"37.500455485","long":"126.78343348","items":[{"name":"(주)센추리공조","tel":"032-668-2878","addr":"경기도 부천시 춘의동 218-14번지","category":"기타 - 기계공구"}]},{"lat":"37.501624322","long":"126.7869924","items":[{"name":"(주)에이치제이투어","tel":"032-329-0671","addr":"경기도 부천시 춘의동 203-1번지 조강빌딩 701호","category":"여행 - 관광여행"},{"name":"GS25부천춘의점","tel":"02-2006-2485","addr":"경기도 부천시 춘의동 203-1번지 춘의케디컬센터 101호","category":"유통업 영리 - 편 의 점"},{"name":"W치과의원","tel":"032-614-2080","addr":"경기도 부천시 춘의동 203-1번지 외1필지춘의메디칼빌딩 403호","category":"의원 - 치과의원"},{"name":"가띠","tel":"","addr":"경기도 부천시 춘의동 203-1번지 1층 103호","category":"의류 - 정장"},{"name":"경인디지털컴퓨터기계설계학원","tel":"032-666-3004","addr":"경기도 부천시 춘의동 203-1번지 6층 602호","category":"학원 - 컴퓨터학원"},{"name":"김양비어춘의동점","tel":"032-613-3001","addr":"경기도 부천시 춘의동 203-1번지 1층","category":"일반휴게음식 - 일반한식"}]},{"lat":"37.503874275","long":"126.79057099","items":[{"name":"(주)엘케이파트너스","tel":"","addr":"경기도 부천시 춘의동 155-5번지 1층,2층","category":"가구 - 일반가구"}]},{"lat":"37.506034554","long":"126.81037946","items":[{"name":"(주)완도참전복","tel":"032-672-8844","addr":"경기도 부천시 춘의동 421-3번지","category":"일반휴게음식 - 일반한식"},{"name":"완도수산","tel":"032-672-8844","addr":"경기도 부천시 춘의동 421-3번지 3층","category":"음료식품 - 농·축·수산품"}]},{"lat":"37.504896531","long":"126.78787643","items":[{"name":"(주)정석엔지니어링/원격지","tel":"032-613-5636","addr":"경기도 부천시 춘의동 73-1번지","category":"기타 - 기타 전문점"},{"name":"대일산업","tel":"032-684-9666","addr":"경기도 부천시 춘의동 73-1번지","category":"기타 - 기계공구"},{"name":"세일시스템/원격지","tel":"032-684-6960","addr":"경기도 부천시 춘의동 73-1번지","category":"기타 - 기타 전문점"},{"name":"한길지류","tel":"032-651-8680","addr":"경기도 부천시 춘의동 73-1번지","category":"사무통신 - 기타 사무용품"}]},{"lat":"37.501201925","long":"126.79258025","items":[{"name":"(주)제이에스에프앤비 (JS F&B Co.,Ltd.)","tel":"032-657-4380","addr":"경기도 부천시 춘의동 193-15번지 B동 2층 전체","category":"음료식품 - 기타음료식품"}]},{"lat":"37.500595062","long":"126.78583055","items":[{"name":"(주)지엔그린","tel":"032-677-0151","addr":"경기도 부천시 춘의동 211-1번지 201호","category":"음료식품 - 농·축·수산품"},{"name":"삼원통상","tel":"032-651-6643","addr":"경기도 부천시 춘의동 211-1번지 서원빌딩 504호","category":"의류 - 정장"},{"name":"이즈헤어클럽","tel":"032-666-5016","addr":"경기도 부천시 춘의동 211-1번지","category":"보건위생 - 미용원"},{"name":"이즈헤어클럽","tel":"032-653-6783","addr":"경기도 부천시 춘의동 211-1번지 103호","category":"보건위생 - 미용원"},{"name":"주식회사지엔그린","tel":"032-677-0151","addr":"경기도 부천시 춘의동 211-1번지 201호","category":"건축자재 - 인테리어전문"}]},{"lat":"37.498090859","long":"126.78613182","items":[{"name":"(주)태평양부천영업소김문심","tel":"032-657-2214","addr":"경기도 부천시 춘의동 207-5번지","category":"보건위생 - 화장품"},{"name":"(주)태평양부천영업소김수자","tel":"032-657-2214","addr":"경기도 부천시 춘의동 207-5번지","category":"보건위생 - 화장품"},{"name":"(주)태평양부천영업소나인숙","tel":"032-657-2214","addr":"경기도 부천시 춘의동 207-5번지","category":"보건위생 - 화장품"},{"name":"(주)태평양부천영업소박영옥","tel":"032-657-2214","addr":"경기도 부천시 춘의동 207-5번지 성일빌딩 4층","category":"보건위생 - 화장품"},{"name":"(주)태평양부천영업소봉순화","tel":"032-657-2214","addr":"경기도 부천시 춘의동 207-5번지","category":"보건위생 - 화장품"},{"name":"(주)태평양부천영업소이윤의","tel":"032-657-2214","addr":"경기도 부천시 춘의동 207-5번지","category":"보건위생 - 화장품"},{"name":"(주)태평양부천영업소채신자","tel":"032-657-2214","addr":"경기도 부천시 춘의동 207-5번지 성일빌딩 4층","category":"보건위생 - 화장품"},{"name":"(주)태평양부천영업소최양임","tel":"032-657-2214","addr":"경기도 부천시 춘의동 207-5번지","category":"보건위생 - 화장품"},{"name":"아모레","tel":"032-657-2214","addr":"경기도 부천시 춘의동 207-5번지","category":"보건위생 - 화장품"},{"name":"아모레","tel":"032-657-2214","addr":"경기도 부천시 춘의동 207-5번지","category":"보건위생 - 화장품"},{"name":"아모레<(주)태평양카운셀러>","tel":"032-657-2214","addr":"경기도 부천시 춘의동 207-5번지","category":"보건위생 - 화장품"},{"name":"아모레<(주)태평양카운셀러>","tel":"032-657-2214","addr":"경기도 부천시 춘의동 207-5번지","category":"보건위생 - 화장품"},{"name":"아모레카운셀러","tel":"032-657-2214","addr":"경기도 부천시 춘의동 207-5번지","category":"보건위생 - 화장품"},{"name":"엔비플러스 주식회사","tel":"032-614-6234","addr":"경기도 부천시 춘의동 207-5번지 성일빌딩 302호","category":"용역 서비스 - 혼례서비스"}]},{"lat":"37.503371366","long":"126.79148847","items":[{"name":"(주)테크리더","tel":"032-613-9901","addr":"경기도 부천시 춘의동 157-1번지","category":"사무통신 - 사무용 OA기기"},{"name":"명성테크","tel":"032-667-5866","addr":"경기도 부천시 춘의동 157-1번지 현빌딩 A동 104호","category":"기타 - 기계공구"},{"name":"성하모델","tel":"032-666-3319","addr":"경기도 부천시 춘의동 157-1번지","category":"기타 - 기타 전문점"},{"name":"장터맛집","tel":"032-657-3006","addr":"경기도 부천시 춘의동 157-1번지 현빌딩","category":"일반휴게음식 - 일반한식"}]},{"lat":"37.504067405","long":"126.79276447","items":[{"name":"(주)텍스타","tel":"032-657-6213","addr":"경기도 부천시 춘의동 152-8번지","category":"전기제품 - 기타전기제품"},{"name":"주식회사 엔조이콘","tel":"070-7644-1582","addr":"경기도 부천시 춘의동 152-8번지 1층","category":"신변잡화 - 기타잡화"}]},{"lat":"37.50440296","long":"126.78896356","items":[{"name":"116공방","tel":"032-672-3376","addr":"경기도 부천시 춘의동 116-1번지","category":"주방용구 - 주방용구"}]},{"lat":"37.505180583","long":"126.78554585","items":[{"name":"Bloom a spoon","tel":"","addr":"경기도 부천시 춘의동 123-7번지 청광아트빌라 401호","category":"신변잡화 - 기타잡화"}]},{"lat":"37.504514645","long":"126.78112578","items":[{"name":"DIY하드웨어상사","tel":"070-8241-0989","addr":"경기도 부천시 춘의동 130-17번지","category":"기타 - 기계공구"},{"name":"아지트","tel":"032-674-5414","addr":"경기도 부천시 춘의동 130-17번지 1층","category":"일반휴게음식 - 일반한식"}]},{"lat":"37.50145647","long":"126.79385745","items":[{"name":"GS25부천애플점","tel":"","addr":"경기도 부천시 춘의동 188-5번지 애플하우스","category":"유통업 영리 - 편 의 점"}]},{"lat":"37.505146928","long":"126.79693467","items":[{"name":"GS25부천운동장역점","tel":"","addr":"경기도 부천시 춘의동 15-1번지 부천종합운동장역내","category":"유통업 영리 - 편 의 점"}]},{"lat":"37.502125853","long":"126.79029322","items":[{"name":"GS25춘의산업단지점","tel":"","addr":"경기도 부천시 춘의동 196-5번지 1층","category":"유통업 영리 - 편 의 점"},{"name":"양 카샵","tel":"032-666-1377","addr":"경기도 부천시 춘의동 196-5번지","category":"자동차정비 유지 - 자동차부품"}]},{"lat":"37.504177461","long":"126.78390889","items":[{"name":"GS25춘의우남점","tel":"080-555-2525","addr":"경기도 부천시 춘의동 141-4번지 1층","category":"유통업 영리 - 편 의 점"},{"name":"스타일헤어","tel":"031-671-0231","addr":"경기도 부천시 춘의동 141-4번지","category":"보건위생 - 미용원"},{"name":"청년식당","tel":"032-672-7688","addr":"경기도 부천시 춘의동 141-4번지 1층 일부","category":"일반휴게음식 - 일반한식"},{"name":"해법수학통문장영어보습학원","tel":"032-678-3090","addr":"경기도 부천시 춘의동 141-4번지 2층 201호","category":"학원 - 보습학원"}]},{"lat":"37.499316823","long":"126.78646754","items":[{"name":"GS25춘의지식센터점","tel":"","addr":"경기도 부천시 춘의동 205-12번지 1층 102호","category":"유통업 영리 - 편 의 점"},{"name":"스마트카","tel":"032-611-3344","addr":"경기도 부천시 춘의동 205-12번지 101호","category":"자동차정비 유지 - 자동차부품"},{"name":"오토스","tel":"032-661-0235","addr":"경기도 부천시 춘의동 205-12번지 1층 101호","category":"자동차정비 유지 - 자동차부품"},{"name":"욜당구클럽","tel":"032-666-5133","addr":"경기도 부천시 춘의동 205-12번지 지하1층 102호","category":"레저업소 - 당 구 장"},{"name":"주식회사 키에사","tel":"031-111-1111","addr":"경기도 부천시 춘의동 205-12번지 302호","category":"음료식품 - 기타음료식품"},{"name":"테니스토리","tel":"032-612-0908","addr":"경기도 부천시 춘의동 205-12번지 SH타워 2층","category":"레저업소 - 테니스장"},{"name":"프리미어 모터스(주) 부천지점","tel":"032-710-3355","addr":"경기도 부천시 춘의동 205-12번지 에스에이치타워 지하1층","category":"자동차판매 - 수입자동차"}]},{"lat":"37.501123306","long":"126.78401959","items":[{"name":"LG에어컨","tel":"032-666-8249","addr":"경기도 부천시 춘의동 216-13번지 바론하우스 1층","category":"수리서비스 - 가정용품수리"},{"name":"문셰프의 골목식당","tel":"032-665-5355","addr":"경기도 부천시 춘의동 216-13번지 바론하우스 101호","category":"일반휴게음식 - 일반한식"}]},{"lat":"37.504202367","long":"126.78276657","items":[{"name":"RGO헤어클럽","tel":"032-684-2012","addr":"경기도 부천시 춘의동 126-69번지 정진빌라","category":"보건위생 - 미용원"}]},{"lat":"37.505786485","long":"126.78676554","items":[{"name":"SG미디어","tel":"","addr":"경기도 부천시 춘의동 120-1번지 나동 312호","category":"수리서비스 - 사무·통신기기수리"},{"name":"가람마트","tel":"032-684-2904","addr":"경기도 부천시 춘의동 120-1번지 1층","category":"유통업 영리 - 슈퍼마켓"},{"name":"대성식당","tel":"032-673-6136","addr":"경기도 부천시 춘의동 120-1번지","category":"일반휴게음식 - 일반한식"},{"name":"부일공구","tel":"032-673-0975","addr":"경기도 부천시 춘의동 120-1번지 동선빌딩 111호","category":"기타 - 기계공구"},{"name":"부천밧데리","tel":"032-672-8669","addr":"경기도 부천시 춘의동 120-1번지 나동 111호","category":"자동차정비 유지 - 자동차부품"},{"name":"부천상사","tel":"032-346-4172","addr":"경기도 부천시 춘의동 120-1번지","category":"기타 - 기타 전문점"},{"name":"삼원세무회계사무소","tel":"02-2611-6212","addr":"경기도 부천시 춘의동 120-1번지 동선모노(주) 109호","category":"용역 서비스 - 법률회계서비스(개인)"},{"name":"성대콘베아","tel":"032-675-0381","addr":"경기도 부천시 춘의동 120-1번지 1층 106호","category":"기타 - 기계공구"},{"name":"영일기획","tel":"032-611-0801","addr":"경기도 부천시 춘의동 120-1번지 나동 3층 301호","category":"용역 서비스 - 사무서비스"},{"name":"재이교역","tel":"032-679-3957","addr":"경기도 부천시 춘의동 120-1번지 동선빌딩 113호","category":"기타 - 기계공구"},{"name":"재이교역/원격지","tel":"032-679-3957","addr":"경기도 부천시 춘의동 120-1번지 동선빌딩 113호","category":"기타 - 기타 전문점"},{"name":"주식회사 코리아지엠","tel":"032-714-0033","addr":"경기도 부천시 춘의동 120-1번지 나동 311호","category":"농업 - 농기계"},{"name":"창대프로파일 춘의점","tel":"032-684-8231","addr":"경기도 부천시 춘의동 120-1번지 1층","category":"건축자재 - 목재·석재·철물"}]},{"lat":"37.503093838","long":"126.78260019","items":[{"name":"STCO부천상설점","tel":"032-668-2773","addr":"경기도 부천시 춘의동 144-7번지","category":"레져용품 - 스포츠·레져용품"},{"name":"STCO부천상설점","tel":"032-668-2773","addr":"경기도 부천시 춘의동 144-7번지","category":"레져용품 - 스포츠·레져용품"},{"name":"사회적협동조합이음플러스","tel":"070-1111-1111","addr":"경기도 부천시 춘의동 144-7번지 3층","category":"학원 - 기타 교육기관"}]},{"lat":"37.499928519","long":"126.78593426","items":[{"name":"X-바이크","tel":"032-655-1450","addr":"경기도 부천시 춘의동 210-2번지","category":"자동차판매 - 이륜차판매"},{"name":"수성종합광고","tel":"032-653-9775","addr":"경기도 부천시 춘의동 210-2번지","category":"용역 서비스 - 종합용역"},{"name":"스마트 인천본점","tel":"032-467-6297","addr":"경기도 부천시 춘의동 210-2번지","category":"레져용품 - 스포츠·레져용품"},{"name":"착한삼겹","tel":"","addr":"경기도 부천시 춘의동 210-2번지 1층 일부","category":"일반휴게음식 - 일반한식"},{"name":"패션갤러리","tel":"031-654-0276","addr":"경기도 부천시 춘의동 210-2번지","category":"의류 - 정장"},{"name":"한국천막기업","tel":"032-613-1040","addr":"경기도 부천시 춘의동 210-2번지","category":"직물 - 카페트,커튼,천막,지물"},{"name":"현우금속","tel":"032-654-2550","addr":"경기도 부천시 춘의동 210-2번지","category":"기타 - 기타 전문점"}]},{"lat":"37.503785115","long":"126.78612667","items":[{"name":"가구아울렛","tel":"032-684-4989","addr":"경기도 부천시 춘의동 136-8번지","category":"가구 - 일반가구"},{"name":"가구아울렛","tel":"032-684-4989","addr":"경기도 부천시 춘의동 136-8번지","category":"가구 - 일반가구"},{"name":"삼익가구 부천춘의점","tel":"032-682-0588","addr":"경기도 부천시 춘의동 136-8번지 ,2,3층","category":"가구 - 일반가구"},{"name":"참친절한세무회계","tel":"032-673-7755","addr":"경기도 부천시 춘의동 136-8번지 5층","category":"용역 서비스 - 법률회계서비스(개인)"}]},{"lat":"37.505006368","long":"126.78390647","items":[{"name":"가나운수 달려라(퀵)서비스","tel":"032-1666-8537","addr":"경기도 부천시 춘의동 125-61번지 1층","category":"전기제품 - 냉열기기"}]},{"lat":"37.50473657","long":"126.78909832","items":[{"name":"가나텍","tel":"032-681-2001","addr":"경기도 부천시 춘의동 74-2번지","category":"전기제품 - 기타전기제품"},{"name":"가나텍/원격지","tel":"032-681-2001","addr":"경기도 부천시 춘의동 74-2번지 1층","category":"기타 - 기타 전문점"}]},{"lat":"37.498681926","long":"126.78418504","items":[{"name":"가든데코","tel":"032-662-4564","addr":"경기도 부천시 춘의동 222-7번지","category":"건축자재 - 인테리어전문"}]},{"lat":"37.504983696","long":"126.78627023","items":[{"name":"가띠","tel":"","addr":"경기도 부천시 춘의동 122-1번지 형제빌딩 1층","category":"의류 - 정장"},{"name":"경인프로파일","tel":"032-672-6966","addr":"경기도 부천시 춘의동 122-1(1층)3","category":"건축자재 - 기타건축자재"},{"name":"김지호복싱다이어트","tel":"032-312-8820","addr":"경기도 부천시 춘의동 122-1번지 형제빌딩 4층","category":"레저업소 - 헬스클럽"},{"name":"엔젤가구","tel":"032-684-1004","addr":"경기도 부천시 춘의동 122-1번지","category":"가구 - 일반가구"},{"name":"영신루리헤어공방","tel":"032-672-3060","addr":"경기도 부천시 춘의동 122-1번지 2층 2호-1","category":"보건위생 - 피부미용실"},{"name":"출산유아용품베베존","tel":"032-679-8588","addr":"경기도 부천시 춘의동 122-1번지 5층 1호","category":"의류 - 아동의류"},{"name":"플스빌부천점","tel":"032-213-7701","addr":"경기도 부천시 춘의동 122-1번지 형제빌딩 1층","category":"서적문구 - 완구점"}]},{"lat":"37.503037711","long":"126.78635502","items":[{"name":"가마두담","tel":"032-614-2226","addr":"경기도 부천시 춘의동 166-3번지 1층 2층","category":"일반휴게음식 - 일반한식"},{"name":"잔누르미","tel":"032-663-3133","addr":"경기도 부천시 춘의동 166-3번지 2층","category":"일반휴게음식 - 일반한식"},{"name":"춘의자전거(가원상사)","tel":"032-655-2568","addr":"경기도 부천시 춘의동 166-3번지 1층","category":"레져용품 - 스포츠·레져용품"}]},{"lat":"37.5042865","long":"126.78440619","items":[{"name":"가온스포츠아카데미","tel":"070-4249-4817","addr":"경기도 부천시 춘의동 137-19번지 1층","category":"학원 - 기타 교육기관"}]},{"lat":"37.499564432","long":"126.78393367","items":[{"name":"가은선글라스","tel":"070-4499-3630","addr":"경기도 부천시 춘의동 220-36번지 백운쉐르빌 501호","category":"보건위생 - 안경"}]},{"lat":"37.503069004","long":"126.79887426","items":[{"name":"가인한지","tel":"032-663-2222","addr":"경기도 부천시 춘의동 8번지 부천종합운동장내전통공예체험교육관","category":"문화.취미 - 문화취미기타"},{"name":"경인랜드주식회사","tel":"032-667-9600","addr":"경기도 부천시 춘의동 8번지","category":"레저업소 - 종합레져타운"},{"name":"고고판다","tel":"02-1111-1111","addr":"경기도 부천시 춘의동 8번지 부천종합운동장원형잔디광장","category":"일반휴게음식 - 일반한식"},{"name":"동우인체육사","tel":"032-655-5071","addr":"경기도 부천시 춘의동 8번지 부천레포츠공원내종합운동장","category":"레져용품 - 스포츠·레져용품"},{"name":"들꽃공예","tel":"032-342-3480","addr":"경기도 부천시 춘의동 8번지 부천종합운동장공예체험교육장","category":"문화.취미 - 문화취미기타"},{"name":"바늘이천을콕찌를때","tel":"070-7399-0836","addr":"경기도 부천시 춘의동 8번지 춘의종합운동장내공예체험교육관(퀼트교실)","category":"직물 - 침구·수예점"},{"name":"부천시아마튜어복싱연맹","tel":"032-321-8820","addr":"경기도 부천시 춘의동 8번지 부천종합운동지하부공간","category":"레저업소 - 헬스클럽"},{"name":"부천에프씨 사회적협동조합","tel":"032-656-1995","addr":"경기도 부천시 춘의동 8번지","category":"기타 - 비영리/대상"},{"name":"운동장식당","tel":"032-665-5158","addr":"경기도 부천시 춘의동 8번지 1층일부,부천춘의동 체육공원 체육관","category":"일반휴게음식 - 일반한식"},{"name":"제이리또","tel":"","addr":"경기도 부천시 춘의동 8번지 부천종합운동장","category":"일반휴게음식 - 서양음식"},{"name":"진달래카페","tel":"032-613-1458","addr":"경기도 부천시 춘의동 8번지 1층 일부","category":"일반휴게음식 - 일반한식"}]},{"lat":"37.503896138","long":"126.78282402","items":[{"name":"가족실버타운","tel":"032-675-8879","addr":"경기도 부천시 춘의동 142-4번지","category":"기타의료기관 - 기타의료기관 및 기타"}]},{"lat":"37.501784863","long":"126.78609853","items":[{"name":"강고집수산","tel":"032-613-8888","addr":"경기도 부천시 춘의동 167-6번지 1층","category":"일반휴게음식 - 일반한식"},{"name":"대동각","tel":"032-613-7528","addr":"경기도 부천시 춘의동 167-6번지","category":"일반휴게음식 - 중국식"},{"name":"대발이숯불꼼장어구이","tel":"032-665-6660","addr":"경기도 부천시 춘의동 167-6번지","category":"일반휴게음식 - 일반한식"}]},{"lat":"37.505649229","long":"126.78077183","items":[{"name":"강남 노래연습장","tel":"032-683-8036","addr":"경기도 부천시 춘의동 131-26번지 지층","category":"레저업소 - 노 래 방"},{"name":"모아 당구장","tel":"032-683-0915","addr":"경기도 부천시 춘의동 131-26번지 3층","category":"레저업소 - 당 구 장"},{"name":"복사골식당","tel":"032-676-6739","addr":"경기도 부천시 춘의동 131-26번지 1층","category":"일반휴게음식 - 일반한식"},{"name":"친친차이나","tel":"031-678-8443","addr":"경기도 부천시 춘의동 131-26번지","category":"일반휴게음식 - 중국식"},{"name":"프리사이즈","tel":"070-7687-7723","addr":"경기도 부천시 춘의동 131-26번지 1층","category":"의류 - 아동의류"}]},{"lat":"37.504121826","long":"126.79296789","items":[{"name":"강원벤딩","tel":"032-671-6731","addr":"경기도 부천시 춘의동 152-9번지","category":"건축자재 - 기타건축자재"}]},{"lat":"37.505704869","long":"126.79654861","items":[{"name":"거산","tel":"032-612-6946","addr":"경기도 부천시 춘의동 93번지","category":"문화.취미 - 화원"}]},{"lat":"37.502040001","long":"126.78277292","items":[{"name":"거성유리","tel":"032-665-2323","addr":"경기도 부천시 춘의동 175-9번지 1층","category":"용역 서비스 - 기타용역서비스"},{"name":"미건기업","tel":"032-651-6869","addr":"경기도 부천시 춘의동 175-9번지","category":"용역 서비스 - 종합용역"}]},{"lat":"37.503372109","long":"126.78204521","items":[{"name":"건강의료기","tel":"032-684-9882","addr":"경기도 부천시 춘의동 144-20번지 1층 3호","category":"보건위생 - 의료용품"},{"name":"경동보일러","tel":"032-667-3651","addr":"경기도 부천시 춘의동 144-20번지 1층","category":"건축자재 - 보일러·펌프·샷시"},{"name":"영심이","tel":"032-672-6993","addr":"경기도 부천시 춘의동 144-20번지 1층","category":"일반휴게음식 - 일반한식"}]},{"lat":"37.499484578","long":"126.78460112","items":[{"name":"걸리버서점","tel":"032-347-2612","addr":"경기도 부천시 춘의동 220-18번지 1층","category":"서적문구 - 일반서적"},{"name":"풀레기","tel":"070-7706-5640","addr":"경기도 부천시 춘의동 220-18번지 신성베네치아 401호","category":"직물 - 침구·수예점"}]},{"lat":"37.501534826","long":"126.80807266","items":[{"name":"겨자씨 분재원","tel":"032-343-4151","addr":"경기도 부천시 춘의동 산55번지","category":"문화.취미 - 화원"}]},{"lat":"37.502563141","long":"126.78307673","items":[{"name":"경기미디어통신","tel":"032-614-3342","addr":"경기도 부천시 춘의동 173-4번지 1층","category":"전기제품 - 기타전기제품"},{"name":"궁전노래연습장","tel":"032-611-1239","addr":"경기도 부천시 춘의동 173-4번지 지층","category":"레저업소 - 노 래 방"},{"name":"네이버컴퓨터","tel":"02-713-2774","addr":"경기도 부천시 춘의동 173-4번지 1층","category":"사무통신 - 전자(상우회)"},{"name":"카스타일","tel":"032-665-5505","addr":"경기도 부천시 춘의동 173-4번지 1층","category":"자동차정비 유지 - 자동차부품"},{"name":"포시즌인테리어건축","tel":"031-614-8883","addr":"경기도 부천시 춘의동 173-4번지 새빛빌딩 1층 일부","category":"건축자재 - 인테리어전문"}]},{"lat":"37.503952858","long":"126.80468488","items":[{"name":"경복궁개성손만두","tel":"032-000-0000","addr":"경기도 부천시 춘의동 255번지","category":"일반휴게음식 - 일반한식"}]},{"lat":"37.505480078","long":"126.78185805","items":[{"name":"경성어패럴","tel":"032-682-3536","addr":"경기도 부천시 춘의동 127번지 광성프라자 2층 61","category":"의류 - 정장"},{"name":"광성목욕탕","tel":"032-683-6666","addr":"경기도 부천시 춘의동 127번지 광성아파트","category":"회원제형태 - 기타4"},{"name":"광성홈데코","tel":"032-676-3773","addr":"경기도 부천시 춘의동 127번지 광성프라자108-23호","category":"가구 - 기타가구"},{"name":"광성화원(꽃)","tel":"032-674-4484","addr":"경기도 부천시 춘의동 129번지 광성상가 1층 2호","category":"문화.취미 - 화원"},{"name":"김병환볼링마을","tel":"032-673-1121","addr":"경기도 부천시 춘의동 127번지 광성프라자 2층 73","category":"레져용품 - 스포츠·레져용품"},{"name":"도룡볼링장","tel":"032-675-5050","addr":"경기도 부천시 춘의동 127광성프라자2층70","category":"레저업소 - 볼 링 장"},{"name":"민성엘리베이터","tel":"032-675-9131","addr":"경기도 부천시 춘의동 127번지 광성프라자 지하층","category":"수리서비스 - 기타수리서비스"},{"name":"부천제일의원","tel":"032-671-9011","addr":"경기도 부천시 춘의동 127번지 광성프라자 1층 1호","category":"의원 - 의원"},{"name":"센추리냉난방시스템","tel":"032-611-3150","addr":"경기도 부천시 춘의동 127번지 광성프라자 108호","category":"전기제품 - 냉열기기"},{"name":"수연헤어콜렉션","tel":"032-674-7470","addr":"경기도 부천시 춘의동 127번지 광성프라자 105호","category":"보건위생 - 미용원"},{"name":"씨앤에이치시스템","tel":"032-329-2970","addr":"경기도 부천시 춘의동 127번지 광성프자라 2층 73호","category":"전기제품 - 냉열기기"},{"name":"왕마트","tel":"032-674-7206","addr":"경기도 부천시 춘의동 127번지 광성프라자 1층 38호","category":"보건위생 - 미용재료"},{"name":"유일","tel":"032-683-3037","addr":"경기도 부천시 춘의동 127번지 광성프라자 1층 91호","category":"신변잡화 - 기타잡화"},{"name":"제이엠더블유(JMW)부천점","tel":"031-000-0000","addr":"경기도 부천시 춘의동 127번지 광성프라자 지하1층 36,39호","category":"보건위생 - 미용재료"},{"name":"제이엠씨코리아","tel":"02-2604-2293","addr":"경기도 부천시 춘의동 127번지 광성 상가 지하1층","category":"보건위생 - 미용재료"},{"name":"제일시스템","tel":"032-679-8815","addr":"경기도 부천시 춘의동 127번지 광성아파트","category":"사무통신 - 사무용 OA기기"},{"name":"중동안경","tel":"032-676-0735","addr":"경기도 부천시 춘의동 127번지 광성 상가 1층","category":"보건위생 - 안경"},{"name":"흥문상사","tel":"032-683-3037","addr":"경기도 부천시 춘의동 127광성프라자1층75","category":"주방용구 - 주방용구"}]},{"lat":"37.505763586","long":"126.79407164","items":[{"name":"경인건설","tel":"032-656-7370","addr":"경기도 부천시 춘의동 103-3번지","category":"건축자재 - 기타건축자재"}]},{"lat":"37.505172862","long":"126.78624707","items":[{"name":"경인특수용접학원","tel":"032-677-9077","addr":"경기도 부천시 춘의동 121-3번지 2층","category":"회원제형태 - 학원"},{"name":"부천피엘씨(PLC)교육전자학원","tel":"032-653-4635","addr":"경기도 부천시 춘의동 121-3번지 2층","category":"학원 - 기능학원"},{"name":"제이케이플라스틱","tel":"032-678-8890","addr":"경기도 부천시 춘의동 121-3번지 1층 102호","category":"유통업 영리 - 기타유통업"},{"name":"준아크릴","tel":"032-673-9855","addr":"경기도 부천시 춘의동 121-3번지 1층","category":"기타 - 기타 전문점"}]},{"lat":"37.504125307","long":"126.79493571","items":[{"name":"고려가든","tel":"032-663-0058","addr":"경기도 부천시 춘의동 146-4번지","category":"일반휴게음식 - 일반한식"}]},{"lat":"37.504118594","long":"126.78133052","items":[{"name":"고려페인트대동상사","tel":"032-676-0881","addr":"경기도 부천시 춘의동 130-13번지","category":"건축자재 - 페인트"},{"name":"전국냉열","tel":"032-677-6341","addr":"경기도 부천시 춘의동 130-13번지 1동 2층","category":"전기제품 - 냉열기기"}]},{"lat":"37.499259895","long":"126.78490711","items":[{"name":"고리울태권도장","tel":"031-679-1616","addr":"경기도 부천시 춘의동 221-28번지 3층","category":"학원 - 예·체능계학원"},{"name":"명문청탑보습학원","tel":"032-612-4549","addr":"경기도 부천시 춘의동 221-28번지 4층","category":"학원 - 보습학원"},{"name":"소문난식당","tel":"032-664-7270","addr":"경기도 부천시 춘의동 221-28번지","category":"일반휴게음식 - 칵테일바"}]},{"lat":"37.503147074","long":"126.78215897","items":[{"name":"고운미소약국","tel":"032-676-0757","addr":"경기도 부천시 춘의동 144-26번지 1층","category":"약국 - 약국"},{"name":"천지쇼파천갈이","tel":"032-671-3004","addr":"경기도 부천시 춘의동 144-26번지 1층","category":"수리서비스 - 기타수리서비스"}]},{"lat":"37.505731016","long":"126.78599664","items":[{"name":"고운세상","tel":"","addr":"경기도 부천시 춘의동 121번지 현봉빌딩 1층 107호","category":"보건위생 - 화장품"},{"name":"미담","tel":"","addr":"경기도 부천시 춘의동 121번지 현봉빌딩 3층 301C호","category":"보건위생 - 미용재료"},{"name":"세영케미칼","tel":"032-684-4483","addr":"경기도 부천시 춘의동 121번지 현봉빌딩 1층 103호","category":"건축자재 - 페인트"},{"name":"주식회사 메디텍코리아","tel":"032-671-6390","addr":"경기도 부천시 춘의동 121번지 현봉빌딩 201호","category":"전기제품 - 기타전기제품"},{"name":"착한밥집","tel":"032-678-1577","addr":"경기도 부천시 춘의동 121번지 현봉빌딩 103호,104호","category":"일반휴게음식 - 일반한식"},{"name":"타임마스터(주)","tel":"032-1588-3211","addr":"경기도 부천시 춘의동 121번지 현봉빌딩 201호","category":"보건위생 - 미용재료"},{"name":"타임마스터(주)","tel":"02-1588-3211","addr":"경기도 부천시 춘의동 121번지 현봉빌딩 201호","category":"보건위생 - 미용재료"},{"name":"한샘위생기타일","tel":"032-681-9524","addr":"경기도 부천시 춘의동 121번지","category":"건축자재 - 건축용 요업제품"}]},{"lat":"37.498593519","long":"126.78510129","items":[{"name":"골목슈퍼","tel":"032-613-0945","addr":"경기도 부천시 춘의동 222-9번지","category":"유통업 영리 - 슈퍼마켓"}]},{"lat":"37.503257721","long":"126.78351576","items":[{"name":"골프프렌드","tel":"032-563-8277","addr":"경기도 부천시 춘의동 143-1번지 1층상가","category":"레져용품 - 스포츠·레져용품"},{"name":"신도전자","tel":"032-665-8811","addr":"경기도 부천시 춘의동 143-1번지","category":"사무통신 - 사무용 OA기기"}]},{"lat":"37.50567573","long":"126.78532953","items":[{"name":"공간호프","tel":"032-679-3342","addr":"경기도 부천시 춘의동 123-63번지","category":"일반휴게음식 - 주점"}]},{"lat":"37.503928639","long":"126.79074048","items":[{"name":"공감디자인&파로마가구","tel":"032-612-7627","addr":"경기도 부천시 춘의동 155-4번지","category":"가구 - 일반가구"}]},{"lat":"37.505039145","long":"126.7821534","items":[{"name":"과외지도","tel":"031-676-0707","addr":"경기도 부천시 춘의동 128-6번지 2층","category":"회원제형태 - 학원"}]},{"lat":"37.501341403","long":"126.78502546","items":[{"name":"광명인테리어","tel":"032-655-8850","addr":"경기도 부천시 춘의동 214-3번지","category":"건축자재 - 인테리어전문"}]},{"lat":"37.504897539","long":"126.7884306","items":[{"name":"광성실업","tel":"032-675-1418","addr":"경기도 부천시 춘의동 74-1번지","category":"유통업 영리 - 기타유통업"}]},{"lat":"37.504262139","long":"126.78585387","items":[{"name":"구슬치기당구클럽","tel":"070-4388-1475","addr":"경기도 부천시 춘의동 138-30번지 3층","category":"레저업소 - 당 구 장"},{"name":"뚝딱","tel":"032-683-0606","addr":"경기도 부천시 춘의동 138-30번지","category":"일반휴게음식 - 일반한식"},{"name":"와 노래연습장","tel":"032-676-3402","addr":"경기도 부천시 춘의동 138-30번지 지하","category":"레저업소 - 노 래 방"},{"name":"점핑다이어트","tel":"","addr":"경기도 부천시 춘의동 138-30번지 104호 점핑다이어트","category":"건강식품 - 기타건강식품"}]},{"lat":"37.498983292","long":"126.78637803","items":[{"name":"국일전기조명","tel":"032-664-9333","addr":"경기도 부천시 춘의동 206-1번지 대성빌딩 1층","category":"건축자재 - 조명기구"},{"name":"국일타일도기","tel":"032-663-9333","addr":"경기도 부천시 춘의동 206-1번지 대성빌딩 1층 일부","category":"건축자재 - 건축용 요업제품"},{"name":"정민테크/원격지","tel":"032-667-4370","addr":"경기도 부천시 춘의동 206-1번지","category":"기타 - 기타 전문점"}]},{"lat":"37.502728964","long":"126.78504404","items":[{"name":"국일종합공사","tel":"032-662-9333","addr":"경기도 부천시 춘의동 169-1번지 10,11","category":"건축자재 - 기타건축자재"}]},{"lat":"37.498037463","long":"126.78649385","items":[{"name":"국제로타리3690지구GoodForU Rotary E-Club","tel":"032-323-3166","addr":"경기도 부천시 춘의동 207-3번지","category":"기타 - 비영리/비대상"},{"name":"생생낙지","tel":"032-652-7394","addr":"경기도 부천시 춘의동 207-3번지","category":"일반휴게음식 - 일반한식"}]},{"lat":"37.503898762","long":"126.78423768","items":[{"name":"굳데이마트","tel":"032-677-0636","addr":"경기도 부천시 춘의동 138-9번지 1층","category":"유통업 영리 - 슈퍼마켓"},{"name":"참숯장작바베큐","tel":"032-684-9255","addr":"경기도 부천시 춘의동 138-9번지 1층 판타스틱스튜디오부대시설","category":"일반휴게음식 - 일반한식"}]},{"lat":"37.502256888","long":"126.78801971","items":[{"name":"굴다리전주콩나물국밥","tel":"032-611-8111","addr":"경기도 부천시 춘의동 165-1번지 1층 108호","category":"일반휴게음식 - 일반한식"},{"name":"담소소사골순대.육개장","tel":"032-666-1821","addr":"경기도 부천시 춘의동 165-1번지 서림테크노파크1 109호 일부","category":"일반휴게음식 - 일반한식"},{"name":"더리터 부천춘의동점","tel":"032-655-1705","addr":"경기도 부천시 춘의동 165-1번지 서림테크노파크1 1층 101호","category":"일반휴게음식 - 서양음식"},{"name":"더치 앤 빈 춘의역점","tel":"032-657-1228","addr":"경기도 부천시 춘의동 165-1번지 1층 110호","category":"일반휴게음식 - 서양음식"},{"name":"메가커피 춘의점","tel":"070-1111-1111","addr":"경기도 부천시 춘의동 165-1번지 1층 111호","category":"일반휴게음식 - 서양음식"},{"name":"서림테크노파크1차 관리운영위원회","tel":"032-668-9328","addr":"경기도 부천시 춘의동 165-1번지","category":"자동차정비 유지 - 주차장"},{"name":"성도포장상사","tel":"032-675-8015","addr":"경기도 부천시 춘의동 165-1번지 1차 1층 112호 서림테크노파크","category":"유통업 영리 - 기타유통업"},{"name":"스킨채움","tel":"02-1544-7884","addr":"경기도 부천시 춘의동 165-1번지 1층 109호 일부","category":"보건위생 - 피부미용실"},{"name":"참치조합","tel":"032-613-0060","addr":"경기도 부천시 춘의동 165-1번지 1층 107호","category":"일반휴게음식 - 일식·회집"},{"name":"커피에반하다(춘의점)","tel":"032-613-2813","addr":"경기도 부천시 춘의동 165-1번지","category":"일반휴게음식 - 서양음식"}]},{"lat":"37.498312939","long":"126.78441229","items":[{"name":"굴세상","tel":"032-506-9353","addr":"경기도 부천시 춘의동 222-13번지 1층","category":"일반휴게음식 - 일반한식"}]},{"lat":"37.505145357","long":"126.78113523","items":[{"name":"궁전","tel":"032-613-8238","addr":"경기도 부천시 춘의동 129-3번지","category":"일반휴게음식 - 칵테일바"},{"name":"부송건강원","tel":"032-683-1602","addr":"경기도 부천시 춘의동 129-3번지","category":"건강식품 - 기타건강식품"}]},{"lat":"37.505622337","long":"126.78569159","items":[{"name":"귀족","tel":"032-678-9262","addr":"경기도 부천시 춘의동 121-17번지","category":"일반휴게음식 - 주점"},{"name":"세기종합냉열상사","tel":"032-677-3352","addr":"경기도 부천시 춘의동 121-17번지","category":"전기제품 - 가전제품"}]},{"lat":"37.504228797","long":"126.79232295","items":[{"name":"규수방춘의점","tel":"032-611-6641","addr":"경기도 부천시 춘의동 151-4번지","category":"가구 - 일반가구"},{"name":"성남엔지니어링","tel":"032-651-6451","addr":"경기도 부천시 춘의동 151-4번지","category":"용역 서비스 - 종합용역"}]},{"lat":"37.499459798","long":"126.78582253","items":[{"name":"그린모터펌프","tel":"032-663-6826","addr":"경기도 부천시 춘의동 210-6번지","category":"건축자재 - 보일러·펌프·샷시"},{"name":"세운음향","tel":"032-665-7301","addr":"경기도 부천시 춘의동 210-6번지","category":"전기제품 - 가전제품"},{"name":"안성액자","tel":"032-655-9463","addr":"경기도 부천시 춘의동 210-6번지","category":"문화.취미 - 화방·표구점"},{"name":"자연지압안마원","tel":"032-667-1414","addr":"경기도 부천시 춘의동 210-6번지","category":"보건위생 - 안마시술소"},{"name":"장터보리밥","tel":"032-666-2225","addr":"경기도 부천시 춘의동 210-6번지","category":"일반휴게음식 - 일반한식"},{"name":"주식회사에이쓰리","tel":"032-668-7030","addr":"경기도 부천시 춘의동 210-6번지 2층","category":"보건위생 - 의료용품"},{"name":"칠만공사","tel":"032-671-6305","addr":"경기도 부천시 춘의동 210-6번지","category":"건축자재 - 페인트"},{"name":"해오름","tel":"032-664-4051","addr":"경기도 부천시 춘의동 210-6번지","category":"일반휴게음식 - 주점"}]},{"lat":"37.501895885","long":"126.78279596","items":[{"name":"그린카써비스","tel":"032-661-5959","addr":"경기도 부천시 춘의동 178-4번지","category":"자동차정비 유지 - 자동차정비"}]},{"lat":"37.50568011","long":"126.78283009","items":[{"name":"금강수퍼마켓","tel":"032-675-7384","addr":"경기도 부천시 춘의동 126-1번지","category":"유통업 영리 - 슈퍼마켓"},{"name":"금산종합철물","tel":"032-677-3670","addr":"경기도 부천시 춘의동 126-1번지","category":"건축자재 - 목재·석재·철물"}]},{"lat":"37.50184671","long":"126.79038448","items":[{"name":"금도레이져","tel":"032-651-1967","addr":"경기도 부천시 춘의동 196-4번지","category":"기타 - 기계공구"}]},{"lat":"37.505036197","long":"126.78058138","items":[{"name":"금호타이어프로도당점","tel":"032-652-3001","addr":"경기도 부천시 춘의동 131-20번지 외2필지","category":"자동차정비 유지 - 자동차시트·타이어"},{"name":"심원자동차부분정비공업사","tel":"032-329-3513","addr":"경기도 부천시 춘의동 131-20번지","category":"자동차정비 유지 - 자동차부품"}]},{"lat":"37.500820662","long":"126.78602215","items":[{"name":"기분좋은날","tel":"032-661-1319","addr":"경기도 부천시 춘의동 209-12번지","category":"일반휴게음식 - 일반한식"}]},{"lat":"37.504065187","long":"126.78654431","items":[{"name":"기쁨을드리는집유용섭","tel":"032-684-1384","addr":"경기도 부천시 춘의동 136-1번지 앞도로","category":"수리서비스 - 신변잡화수리"},{"name":"피자헛춘의점","tel":"032-676-1587","addr":"경기도 부천시 춘의동 136-1번지 1층","category":"일반휴게음식 - 서양음식"}]},{"lat":"37.504594276","long":"126.78518565","items":[{"name":"길가다가게","tel":"032-426-7164","addr":"경기도 부천시 춘의동 123-40번지","category":"의류 - 정장"}]},{"lat":"37.498287079","long":"126.78504564","items":[{"name":"김박사해물나라","tel":"031-223-5214","addr":"경기도 부천시 춘의동 222-2번지 1층","category":"일반휴게음식 - 일반한식"}]},{"lat":"37.501819426","long":"126.78529548","items":[{"name":"김영헤어샵","tel":"032-655-2535","addr":"경기도 부천시 춘의동 172-2","category":"보건위생 - 미용원"},{"name":"삼양종합상사","tel":"031-9174-4494","addr":"경기도 부천시 춘의동 172-2번지 우민늘사랑아파트2차","category":"기타 - 기계공구"},{"name":"장군실내포차","tel":"032-613-8254","addr":"경기도 부천시 춘의동 172-2","category":"일반휴게음식 - 일반한식"}]},{"lat":"37.504619171","long":"126.80443431","items":[{"name":"김정수할머니메밀국수보쌈","tel":"032-673-1150","addr":"경기도 부천시 춘의동 254-9번지","category":"일반휴게음식 - 일반한식"}]},{"lat":"37.498984017","long":"126.78677383","items":[{"name":"김제식당","tel":"032-662-6290","addr":"경기도 부천시 춘의동 206-6번지 1층","category":"일반휴게음식 - 일반한식"},{"name":"수원상회 (슈퍼)","tel":"032-651-7762","addr":"경기도 부천시 춘의동 206-6번지","category":"유통업 영리 - 슈퍼마켓"}]},{"lat":"37.506431103","long":"126.804995","items":[{"name":"까치놀","tel":"032-672-8850","addr":"경기도 부천시 춘의동 245번지 3층","category":"일반휴게음식 - 서양음식"},{"name":"서진상사","tel":"032-612-1320","addr":"경기도 부천시 춘의동 245","category":"음료식품 - 기타음료식품"}]},{"lat":"37.503813071","long":"126.81282798","items":[{"name":"까치울버섯나라","tel":"032-683-7366","addr":"경기도 부천시 춘의동 441번지2,3층","category":"일반휴게음식 - 일반한식"}]},{"lat":"37.504735766","long":"126.80954589","items":[{"name":"까치울장모집","tel":"032-681-3325","addr":"경기도 부천시 춘의동 276-2번지","category":"일반휴게음식 - 일반한식"},{"name":"조은수산","tel":"032-681-3325","addr":"경기도 부천시 춘의동 276-2번지 1층 일부","category":"음료식품 - 농·축·수산품"}]},{"lat":"37.504451576","long":"126.78112597","items":[{"name":"깜꼬치킨","tel":"032-675-3092","addr":"경기도 부천시 춘의동 130-15번지 1층","category":"일반휴게음식 - 스넥"}]},{"lat":"37.50039724","long":"126.78604599","items":[{"name":"꼬꼬누룽지통닭구이","tel":"032-343-3456","addr":"경기도 부천시 춘의동 210-1번지 1층","category":"일반휴게음식 - 일반한식"},{"name":"다솜유통","tel":"032-668-5044","addr":"경기도 부천시 춘의동 210-1번지","category":"신변잡화 - 기타잡화"},{"name":"미진인테리어","tel":"032-668-4417","addr":"경기도 부천시 춘의동 210-1번지","category":"전기제품 - 가전제품"},{"name":"부천 데이터복구센터 DB30","tel":"032-656-0180","addr":"경기도 부천시 춘의동 210-1번지","category":"사무통신 - 컴퓨터"},{"name":"우리전산","tel":"032-651-8119","addr":"경기도 부천시 춘의동 210-1번지","category":"사무통신 - 기타 사무용품"},{"name":"이안경","tel":"032-664-3030","addr":"경기도 부천시 춘의동 210-1번지","category":"보건위생 - 안경"},{"name":"지장수부천대리점","tel":"032-682-8216","addr":"경기도 부천시 춘의동 210-1번지","category":"유통업 영리 - 기타유통업"}]},{"lat":"37.501542011","long":"126.78632541","items":[{"name":"꼴치킨호프","tel":"070-3180-0562","addr":"경기도 부천시 춘의동 209-1번지 1층 일부","category":"일반휴게음식 - 주점"},{"name":"대박노래연습장","tel":"032-656-1457","addr":"경기도 부천시 춘의동 209-1번지","category":"레저업소 - 노 래 방"},{"name":"대성전기","tel":"032-668-3990","addr":"경기도 부천시 춘의동 209-1번지","category":"전기제품 - 기타전기제품"},{"name":"디어 벨(Dear Belle)","tel":"032-000-0000","addr":"경기도 부천시 춘의동 209-1번지 4층 401호","category":"신변잡화 - 액세서리"},{"name":"모타뱅크","tel":"032-651-4253","addr":"경기도 부천시 춘의동 209-1번지 1층","category":"건축자재 - 보일러·펌프·샷시"},{"name":"스마일종합상가","tel":"032-674-0066","addr":"경기도 부천시 춘의동 209-1번지 1층","category":"유통업 영리 - 기타유통업"},{"name":"장보고 노래연습장","tel":"032-655-9995","addr":"경기도 부천시 춘의동 209-1번지","category":"레저업소 - 노 래 방"},{"name":"주식회사미살림","tel":"032-664-0178","addr":"경기도 부천시 춘의동 209-1번지","category":"서적문구 - 완구점"}]},{"lat":"37.497344896","long":"126.80788","items":[{"name":"꽃들의 풍경","tel":"032-346-5355","addr":"경기도 부천시 춘의동 336번지","category":"문화.취미 - 화원"}]},{"lat":"37.501401731","long":"126.7835438","items":[{"name":"꿈의 온돌방","tel":"032-653-7546","addr":"경기도 부천시 춘의동 184-6번지","category":"음료식품 - 농·축·수산품"}]},{"lat":"37.505812461","long":"126.81232529","items":[{"name":"나인식양평해장국","tel":"032-671-3900","addr":"경기도 부천시 춘의동 412번지","category":"일반휴게음식 - 일반한식"},{"name":"작동동태탕","tel":"032-683-8585","addr":"경기도 부천시 춘의동 412번지 1층","category":"일반휴게음식 - 일반한식"}]},{"lat":"37.502595333","long":"126.81196026","items":[{"name":"남원추어탕","tel":"032-683-2237","addr":"경기도 부천시 춘의동 448번지","category":"일반휴게음식 - 일반한식"}]},{"lat":"37.504284656","long":"126.78341097","items":[{"name":"내날미술음악학원","tel":"032-676-6277","addr":"경기도 부천시 춘의동 125-8번지","category":"학원 - 예·체능계학원"}]},{"lat":"37.505400742","long":"126.78279698","items":[{"name":"내일두헤어","tel":"032-202-5008","addr":"경기도 부천시 춘의동 126-24번지","category":"보건위생 - 미용원"},{"name":"단따완퀴진(Tantawan Cuisine)","tel":"032-203-1127","addr":"경기도 부천시 춘의동 126-24번지","category":"일반휴게음식 - 서양음식"}]},{"lat":"37.505648697","long":"126.78048909","items":[{"name":"노가리호프","tel":"032-676-5300","addr":"경기도 부천시 춘의동 131-2번지 1층","category":"일반휴게음식 - 주점"},{"name":"로얄당구장","tel":"031-000-0000","addr":"경기도 부천시 춘의동 131-2번지 2층","category":"레저업소 - 당 구 장"},{"name":"뿌리공사","tel":"032-676-2229","addr":"경기도 부천시 춘의동 131-2번지","category":"건축자재 - 인테리어전문"},{"name":"성광인테리어","tel":"032-683-1033","addr":"경기도 부천시 춘의동 131-2번지","category":"직물 - 카페트,커튼,천막,지물"},{"name":"소문난곱창","tel":"032-672-2201","addr":"경기도 부천시 춘의동 131-2번지 1층","category":"일반휴게음식 - 일반한식"},{"name":"우슈 격투기 비호관","tel":"032-677-5504","addr":"경기도 부천시 춘의동 131-2번지 3층","category":"회원제형태 - 레져업소"},{"name":"퀸종합상사","tel":"032-671-5254","addr":"경기도 부천시 춘의동 131-2번지","category":"주방용구 - 주방용구"},{"name":"헤어샵쟈드","tel":"032-681-0806","addr":"경기도 부천시 춘의동 131-2번지","category":"보건위생 - 미용원"},{"name":"화이팅노래연습장","tel":"032-683-7374","addr":"경기도 부천시 춘의동 131-2번지","category":"레저업소 - 노 래 방"}]},{"lat":"37.50397426","long":"126.7860922","items":[{"name":"농업회사법인 주식회사 산앤들","tel":"032-684-6992","addr":"경기도 부천시 춘의동 136-7번지 한울팰리스 가동 101호","category":"음료식품 - 농·축·수산품"},{"name":"킴테크","tel":"","addr":"경기도 부천시 춘의동 136-7번지 한울팰리스 가동 101호","category":"서적문구 - 일반서적"}]},{"lat":"37.501450792","long":"126.78571499","items":[{"name":"뉴스타노래연습장","tel":"032-611-3216","addr":"경기도 부천시 춘의동 214-5번지 지하층","category":"레저업소 - 노 래 방"},{"name":"사계절해물포차","tel":"070-7630-8538","addr":"경기도 부천시 춘의동 214-5번지 1층","category":"일반휴게음식 - 주점"}]},{"lat":"37.504232149","long":"126.79421161","items":[{"name":"뉴신한모터스","tel":"032-612-7966","addr":"경기도 부천시 춘의동 149-4번지","category":"자동차정비 유지 - 자동차정비"},{"name":"진우1급자동차공업사","tel":"032-655-0307","addr":"경기도 부천시 춘의동 149-4번지","category":"자동차정비 유지 - 자동차정비"}]},{"lat":"37.502063608","long":"126.78579238","items":[{"name":"뉴한양유통","tel":"032-664-2422","addr":"경기도 부천시 춘의동 172-7번지","category":"유통업 영리 - 기타유통업"}]},{"lat":"37.499344701","long":"126.78693112","items":[{"name":"다만나식당","tel":"032-613-4241","addr":"경기도 부천시 춘의동 205-17번지","category":"일반휴게음식 - 일반한식"}]},{"lat":"37.505010209","long":"126.78113563","items":[{"name":"다솜","tel":"032-684-5441","addr":"경기도 부천시 춘의동 129-23번지 1층","category":"일반휴게음식 - 일반한식"},{"name":"배달삼겹 직구삼 (부천점)","tel":"032-678-2122","addr":"경기도 부천시 춘의동 129-23번지 1층 일부","category":"일반휴게음식 - 일반한식"},{"name":"핑키핑키헤어","tel":"032-676-4884","addr":"경기도 부천시 춘의동 129-23번지","category":"보건위생 - 미용원"}]},{"lat":"37.504317319","long":"126.78646442","items":[{"name":"다시원","tel":"032-678-5026","addr":"경기도 부천시 춘의동 135-1번지 203호","category":"보건위생 - 화장품"},{"name":"빙고노래연습장","tel":"032-348-0490","addr":"경기도 부천시 춘의동 135-1번지 2층","category":"레저업소 - 노 래 방"},{"name":"스카이호프","tel":"032-671-9097","addr":"경기도 부천시 춘의동 135-1번지","category":"일반휴게음식 - 주점"},{"name":"쎄븐칼라","tel":"032-676-2270","addr":"경기도 부천시 춘의동 135-1번지","category":"광학제품 - 사진관"},{"name":"연일호프","tel":"032-677-9290","addr":"경기도 부천시 춘의동 135-1번지","category":"일반휴게음식 - 주점"},{"name":"오~연탄주먹고기","tel":"032-671-5166","addr":"경기도 부천시 춘의동 135-1번지 1층 일부","category":"일반휴게음식 - 일반한식"},{"name":"춘의밥상","tel":"070-111-1111","addr":"경기도 부천시 춘의동 135-1번지 1층","category":"일반휴게음식 - 일반한식"},{"name":"케익나라빵마을","tel":"032-672-8234","addr":"경기도 부천시 춘의동 135-1번지","category":"음료식품 - 제과점"}]},{"lat":"37.503649983","long":"126.79110317","items":[{"name":"다이나","tel":"032-613-9622","addr":"경기도 부천시 춘의동 156-3번지","category":"레져용품 - 스포츠·레져용품"},{"name":"신생교역","tel":"032-657-1591","addr":"경기도 부천시 춘의동 156-3번지 3층","category":"기타 - 기타 전문점"},{"name":"칼라스타","tel":"032-613-9622","addr":"경기도 부천시 춘의동 156-3 3층","category":"레져용품 - 스포츠·레져용품"},{"name":"한성P&C","tel":"032-329-5284","addr":"경기도 부천시 춘의동 156-3번지 5층","category":"전기제품 - 기타전기제품"}]},{"lat":"37.502172951","long":"126.7864593","items":[{"name":"다이소 부천춘의역점","tel":"032-655-6016","addr":"경기도 부천시 춘의동 167-10번지","category":"신변잡화 - 기타잡화"},{"name":"팔공티 춘의역점","tel":"","addr":"경기도 부천시 춘의동 167-10번지 1층 일부","category":"일반휴게음식 - 서양음식"}]},{"lat":"37.499816247","long":"126.78368415","items":[{"name":"다이아몬드덴트칼라","tel":"032-213-1765","addr":"경기도 부천시 춘의동 220-51번지 1층","category":"자동차정비 유지 - 자동차정비"}]},{"lat":"37.503537255","long":"126.78854758","items":[{"name":"다임산업","tel":"032-654-1746","addr":"경기도 부천시 춘의동 160-4번지 1층 1호","category":"주방용구 - 주방용구"},{"name":"디자인데코","tel":"032-668-7533","addr":"경기도 부천시 춘의동 160-4번지 2층","category":"직물 - 침구·수예점"},{"name":"팔로모","tel":"031-656-8791","addr":"경기도 부천시 춘의동 160-4번지 7,8,9호","category":"가구 - 일반가구"},{"name":"팔로모침대김민건갤러리","tel":"032-656-8791","addr":"경기도 부천시 춘의동 160-4번지 A동 1.2.3.4.7.8.9호","category":"가구 - 일반가구"}]},{"lat":"37.503065238","long":"126.78662636","items":[{"name":"다정손만두칼국수","tel":"032-667-7114","addr":"경기도 부천시 춘의동 166-1번지 B동 1층","category":"일반휴게음식 - 일반한식"},{"name":"유에이치엠코리아","tel":"032-663-6796","addr":"경기도 부천시 춘의동 166-1번지","category":"자동차정비 유지 - 세차장"},{"name":"춘의 카 서비스","tel":"032-655-7771","addr":"경기도 부천시 춘의동 166-1번지 B동 1층","category":"자동차정비 유지 - 자동차정비"},{"name":"쾌미감","tel":"032-652-3034","addr":"경기도 부천시 춘의동 166-1번지 1층","category":"일반휴게음식 - 일반한식"},{"name":"토이컴퍼니","tel":"032-664-8253","addr":"경기도 부천시 춘의동 166-1번지","category":"의류 - 내의판매"}]},{"lat":"37.504451305","long":"126.7858307","items":[{"name":"닭발의화신","tel":"032-681-9998","addr":"경기도 부천시 춘의동 137-1번지 1층 일부","category":"일반휴게음식 - 일반한식"},{"name":"명심이네","tel":"032-672-3596","addr":"경기도 부천시 춘의동 137-1번지 1층 식당","category":"일반휴게음식 - 일반한식"},{"name":"사)한국정보교육문화협회(부천지부)","tel":"032-1800-5676","addr":"경기도 부천시 춘의동 137-1번지","category":"학원 - 기타 교육기관"},{"name":"수기명장평생교육원","tel":"050-2530-8888","addr":"경기도 부천시 춘의동 137-1번지 3층","category":"학원 - 기타 교육기관"},{"name":"월드컵 노래연습장","tel":"032-679-4589","addr":"경기도 부천시 춘의동 137-1번지 지층","category":"레저업소 - 노 래 방"},{"name":"코사마트(춘의점)","tel":"032-675-5130","addr":"경기도 부천시 춘의동 137-1번지 1층","category":"유통업 영리 - 슈퍼마켓"}]},{"lat":"37.504262845","long":"126.78623839","items":[{"name":"닭발츄","tel":"032-675-1991","addr":"경기도 부천시 춘의동 135-10번지 1층","category":"일반휴게음식 - 일반한식"},{"name":"이윤경헤어뱅크","tel":"032-683-8701","addr":"경기도 부천시 춘의동 135-10번지","category":"보건위생 - 미용원"},{"name":"토브갈비탕","tel":"032-678-7871","addr":"경기도 부천시 춘의동 135-10번지 2층","category":"일반휴게음식 - 일반한식"},{"name":"팡팡노래연습장","tel":"032-674-6278","addr":"경기도 부천시 춘의동 135-10번지 지하층","category":"레저업소 - 노 래 방"}]},{"lat":"37.500873911","long":"126.78558095","items":[{"name":"대가추어탕","tel":"032-220-9944","addr":"경기도 부천시 춘의동 214-27번지 1층","category":"일반휴게음식 - 일반한식"}]},{"lat":"37.505402563","long":"126.78868927","items":[{"name":"대동종합기계","tel":"032-676-8528","addr":"경기도 부천시 춘의동 72-4","category":"기타 - 기계공구"}]},{"lat":"37.498340366","long":"126.78462707","items":[{"name":"대림특수인쇄","tel":"032-654-8027","addr":"경기도 부천시 춘의동 222-4번지","category":"서적문구 - 출판 및 인쇄물"},{"name":"태영한냉유통","tel":"","addr":"경기도 부천시 춘의동 222-4번지 1층 일부","category":"음료식품 - 정육점"}]},{"lat":"37.499542173","long":"126.78652343","items":[{"name":"대상타일상사","tel":"032-651-9610","addr":"경기도 부천시 춘의동 205-11번지","category":"건축자재 - 건축용 요업제품"}]},{"lat":"37.504346972","long":"126.79291071","items":[{"name":"대성","tel":"032-0000-0000","addr":"경기도 부천시 춘의동 151-5번지","category":"가구 - 일반가구"},{"name":"레이디가구대진침대춘의점","tel":"032-614-0444","addr":"경기도 부천시 춘의동 151-5호 1층2층","category":"가구 - 일반가구"},{"name":"토리홈","tel":"032-656-8054","addr":"경기도 부천시 춘의동 151-5번지 ,1,2층","category":"가구 - 일반가구"}]},{"lat":"37.50226427","long":"126.78712627","items":[{"name":"대성","tel":"032-654-3735","addr":"경기도 부천시 춘의동 165-6번지","category":"용역 서비스 - 종합용역"},{"name":"도란도란 베이커리 카페","tel":"032-611-1124","addr":"경기도 부천시 춘의동 165-6번지 A동 1층","category":"음료식품 - 제과점"},{"name":"메디컬 우리약국","tel":"032-679-1237","addr":"경기도 부천시 춘의동 165-6번지 A동 1층 일부","category":"약국 - 약국"},{"name":"부천JS연마","tel":"032-653-6311","addr":"경기도 부천시 춘의동 165-6번지","category":"기타 - 기계공구"},{"name":"삼경볼트","tel":"032-651-0558","addr":"경기도 부천시 춘의동 165-6번지","category":"기타 - 기계공구"},{"name":"폰앤샵","tel":"","addr":"경기도 부천시 춘의동 165-6번지 A동 1층 일부","category":"사무통신 - 통신기기"}]},{"lat":"37.505675459","long":"126.78518251","items":[{"name":"대성지물포","tel":"032-676-8514","addr":"경기도 부천시 춘의동 123-62번지","category":"직물 - 카페트,커튼,천막,지물"}]},{"lat":"37.500734539","long":"126.78329696","items":[{"name":"대성텔레콤","tel":"032-653-6011","addr":"경기도 부천시 춘의동 216-9번지","category":"사무통신 - 통신기기"}]},{"lat":"37.503203787","long":"126.78849199","items":[{"name":"대신정공","tel":"032-672-9040","addr":"경기도 부천시 춘의동 160-6번지","category":"기타 - 기계공구"},{"name":"명성기공구내식당(우리식당)","tel":"032-651-9133","addr":"경기도 부천시 춘의동 160-6번지 1층","category":"일반휴게음식 - 일반한식"},{"name":"주연와이어","tel":"070-5022-4846","addr":"경기도 부천시 춘의동 160-6번지 춘의동공장 1층","category":"기타 - 기계공구"},{"name":"한빛정밀/원격지","tel":"032-662-4390","addr":"경기도 부천시 춘의동 160-6번지","category":"기타 - 기타 전문점"}]},{"lat":"37.504702707","long":"126.78535497","items":[{"name":"대안 is","tel":"032-581-1531","addr":"경기도 부천시 춘의동 123-42번지 유창팰리스 102호","category":"일반휴게음식 - 일반한식"},{"name":"지구석재앙카","tel":"032-677-0807","addr":"경기도 부천시 춘의동 123-42번지 유창팰리스 101호","category":"건축자재 - 목재·석재·철물"}]},{"lat":"37.505647865","long":"126.78004802","items":[{"name":"대장군","tel":"032-675-6290","addr":"경기도 부천시 춘의동 133번지","category":"일반휴게음식 - 일반한식"},{"name":"씨유부천강남점","tel":"080-080-3663","addr":"경기도 부천시 춘의동 133번지 1층","category":"유통업 영리 - 편 의 점"},{"name":"중동오토바이","tel":"032-676-4741","addr":"경기도 부천시 춘의동 133번지","category":"자동차판매 - 이륜차판매"}]},{"lat":"37.505959103","long":"126.80832129","items":[{"name":"대한꽃화원","tel":"032-676-0030","addr":"경기도 부천시 춘의동 273번지","category":"문화.취미 - 화원"},{"name":"대한화원","tel":"032-676-0030","addr":"경기도 부천시 춘의동 273,273-3","category":"문화.취미 - 화원"}]},{"lat":"37.501565919","long":"126.78462899","items":[{"name":"댄디호프","tel":"032-654-9749","addr":"경기도 부천시 춘의동 182-4번지","category":"일반휴게음식 - 일반한식"},{"name":"신안화장품","tel":"032-611-4608","addr":"경기도 부천시 춘의동 182-4번지","category":"보건위생 - 화장품"}]},{"lat":"37.502484925","long":"126.78462631","items":[{"name":"더드림덴탈","tel":"032-666-2885","addr":"경기도 부천시 춘의동 171-5번지 1층","category":"보건위생 - 의료용품"},{"name":"더드림덴탈","tel":"032-666-2885","addr":"경기도 부천시 춘의동 171-5번지 1층","category":"보건위생 - 의료용품"},{"name":"덴탈더드림","tel":"032-666-2885","addr":"경기도 부천시 춘의동 171-5번지 1층","category":"보건위생 - 의료용품"},{"name":"인아트스튜디오","tel":"","addr":"경기도 부천시 춘의동 171-5번지 지하1층","category":"광학제품 - 사진관"},{"name":"주원테크","tel":"032-351-4915","addr":"경기도 부천시 춘의동 171-5번지","category":"기타 - 기계공구"}]},{"lat":"37.505455937","long":"126.78340754","items":[{"name":"더블에스","tel":"032-721-5587","addr":"경기도 부천시 춘의동 125-27번지 엘시티 103동 301호","category":"신변잡화 - 기타잡화"}]},{"lat":"37.506375867","long":"126.80429394","items":[{"name":"덕앤덕오리굽는마을","tel":"032-6720-259","addr":"경기도 부천시 춘의동 248번지","category":"일반휴게음식 - 일반한식"}]},{"lat":"37.503454127","long":"126.78254258","items":[{"name":"도신물산","tel":"070-7360-3406","addr":"경기도 부천시 춘의동 144-48번지","category":"음료식품 - 기타음료식품"}]},{"lat":"37.501368725","long":"126.7851837","items":[{"name":"돌쇠가구운석쇠 feat. 마님이 끓인 짜글이","tel":"032-668-7718","addr":"경기도 부천시 춘의동 214-16번지","category":"일반휴게음식 - 일반한식"},{"name":"한앤둘치킨","tel":"032-612-1669","addr":"경기도 부천시 춘의동 214-16번지","category":"일반휴게음식 - 주점"}]},{"lat":"37.505979313","long":"126.80965578","items":[{"name":"동부모터스","tel":"032-344-6488","addr":"경기도 부천시 춘의동 421번지 1층","category":"자동차정비 유지 - 자동차시트·타이어"},{"name":"원미모터스","tel":"032-677-1010","addr":"경기도 부천시 춘의동 421번지","category":"자동차정비 유지 - 자동차부품"}]},{"lat":"37.505680973","long":"126.78329378","items":[{"name":"동부철물","tel":"032-672-4060","addr":"경기도 부천시 춘의동 126-45번지","category":"건축자재 - 목재·석재·철물"}]},{"lat":"37.504791488","long":"126.78957316","items":[{"name":"동아매점","tel":"032-681-7005","addr":"경기도 부천시 춘의동 75-10번지","category":"음료식품 - 기타음료식품"},{"name":"동아진공열처리","tel":"032-683-8145","addr":"경기도 부천시 춘의동 75-10번지","category":"기타 - 기계공구"}]},{"lat":"37.505564937","long":"126.78388222","items":[{"name":"동양","tel":"032-676-7210","addr":"경기도 부천시 춘의동 125-22번지 1층","category":"서적문구 - 문구용품"}]},{"lat":"37.501259082","long":"126.78435847","items":[{"name":"동원카부분정비업","tel":"032-663-5161","addr":"경기도 부천시 춘의동 215-17번지","category":"자동차정비 유지 - 자동차정비"},{"name":"엠투설계","tel":"032-7556-0991","addr":"경기도 부천시 춘의동 215-17번지 신원빌딩","category":"용역 서비스 - 사무서비스"},{"name":"이레시스템퍼니처","tel":"032-653-5353","addr":"경기도 부천시 춘의동 215-17번지","category":"가구 - 기타가구"},{"name":"조아당구재료","tel":"032-664-3949","addr":"경기도 부천시 춘의동 215-17번지 2층","category":"레져용품 - 스포츠·레져용품"}]},{"lat":"37.50464758","long":"126.79476462","items":[{"name":"동원환경기업","tel":"032-666-7373","addr":"경기도 부천시 춘의동 149-10","category":"용역 서비스 - 종합용역"},{"name":"부천슈퍼","tel":"032-656-8943","addr":"경기도 부천시 춘의동 149-10번지 1층","category":"유통업 영리 - 슈퍼마켓"},{"name":"할매순대국","tel":"032-349-8282","addr":"경기도 부천시 춘의동 149-10번지 1층","category":"일반휴게음식 - 일반한식"}]},{"lat":"37.503481536","long":"126.78274607","items":[{"name":"동호전자","tel":"032-675-9722","addr":"경기도 부천시 춘의동 142-16번지","category":"전기제품 - 가전제품"}]},{"lat":"37.503790547","long":"126.80460614","items":[{"name":"두쓰하우스(Doo's House)","tel":"032-682-5175","addr":"경기도 부천시 춘의동 243번지","category":"가구 - 기타가구"},{"name":"산골마을","tel":"032-682-5175","addr":"경기도 부천시 춘의동 243번지","category":"일반휴게음식 - 일반한식"}]},{"lat":"37.503230018","long":"126.78315394","items":[{"name":"드림모터스","tel":"032-682-5197","addr":"경기도 부천시 춘의동 143-3번지","category":"자동차판매 - 이륜차판매"}]},{"lat":"37.503818772","long":"126.79482347","items":[{"name":"디아이커뮤니케이션","tel":"032-663-1997","addr":"경기도 부천시 춘의동 146-5번지 2층","category":"건축자재 - 인테리어전문"},{"name":"트윈마트","tel":"032-662-1776","addr":"경기도 부천시 춘의동 146-5번지 1층","category":"유통업 영리 - 슈퍼마켓"}]},{"lat":"37.504375582","long":"126.78877137","items":[{"name":"디자인까사나무이야기","tel":"032-514-8228","addr":"경기도 부천시 춘의동 116-6번지 1층","category":"가구 - 일반가구"},{"name":"우드챔프타운","tel":"032-514-8228","addr":"경기도 부천시 춘의동 116-6번지 1층","category":"가구 - 일반가구"}]},{"lat":"37.505645501","long":"126.78359925","items":[{"name":"딸기미용실","tel":"032-683-3336","addr":"경기도 부천시 춘의동 125-31번지 일부 1층","category":"보건위생 - 미용원"},{"name":"이왕이면","tel":"032-679-8580","addr":"경기도 부천시 춘의동 125-31번지 1층","category":"일반휴게음식 - 일반한식"}]},{"lat":"37.49967512","long":"126.78532432","items":[{"name":"또요또","tel":"","addr":"경기도 부천시 춘의동 219-7번지","category":"일반휴게음식 - 일반한식"},{"name":"요리가 좋아서하는 사람들","tel":"032-653-0921","addr":"경기도 부천시 춘의동 219-7번지","category":"일반휴게음식 - 일반한식"}]},{"lat":"37.501509135","long":"126.78315898","items":[{"name":"라라래","tel":"032-652-9431","addr":"경기도 부천시 춘의동 184-2번지 춘의동리치빌 101동 706호","category":"문화.취미 - 티켓"}]},{"lat":"37.500647935","long":"126.7851858","items":[{"name":"라보","tel":"","addr":"경기도 부천시 춘의동 217-3번지 엘림하우스 나동 301호","category":"신변잡화 - 액세서리"},{"name":"진희쌀엘림마트","tel":"032-662-9675","addr":"경기도 부천시 춘의동 217-3번지 엘림하우스","category":"음료식품 - 기타음료식품"}]},{"lat":"37.503958595","long":"126.78249586","items":[{"name":"라이더샵 부천","tel":"032-676-6429","addr":"경기도 부천시 춘의동 144-30번지 백운센트럴빌 101호","category":"자동차판매 - 이륜차판매"}]},{"lat":"37.503702133","long":"126.78509776","items":[{"name":"라자가구","tel":"032-674-5566","addr":"경기도 부천시 춘의동 140-5번지","category":"가구 - 일반가구"},{"name":"제일종합주방","tel":"032-679-9689","addr":"경기도 부천시 춘의동 140-5번지","category":"주방용구 - 주방용구"}]},{"lat":"37.503979809","long":"126.78421482","items":[{"name":"로뎀나무","tel":"070-8831-5126","addr":"경기도 부천시 춘의동 138-3번지","category":"신변잡화 - 기타잡화"},{"name":"로이플라워","tel":"","addr":"경기도 부천시 춘의동 138-3번지","category":"문화.취미 - 화원"},{"name":"자연미인","tel":"032-992-0875","addr":"경기도 부천시 춘의동 138-3번지","category":"보건위생 - 미용원"},{"name":"캔터키치킨","tel":"032-766-2939","addr":"경기도 부천시 춘의동 138-3번지 101호","category":"일반휴게음식 - 일반한식"}]},{"lat":"37.501487434","long":"126.78604284","items":[{"name":"로얄이발관","tel":"032-655-0197","addr":"경기도 부천시 춘의동 209-2번지","category":"보건위생 - 이용원"},{"name":"킹 노래연습장","tel":"032-651-4015","addr":"경기도 부천시 춘의동 209-2번지 동인빌딩 지하","category":"레저업소 - 노 래 방"}]},{"lat":"37.502340703","long":"126.78952359","items":[{"name":"로열 칸막이","tel":"070-7366-8026","addr":"경기도 부천시 춘의동 162-5번지","category":"용역 서비스 - 기타용역서비스"},{"name":"엄마손","tel":"032-653-1340","addr":"경기도 부천시 춘의동 162-5번지 1층","category":"일반휴게음식 - 일반한식"},{"name":"훈필정밀용접","tel":"032-614-9393","addr":"경기도 부천시 춘의동 162-5번지 1층","category":"기타 - 기계공구"},{"name":"훈필정밀용접","tel":"032-655-5310","addr":"경기도 부천시 춘의동 162-5번지","category":"기타 - 기계공구"}]},{"lat":"37.50273582","long":"126.78387918","items":[{"name":"로페로보엘로","tel":"","addr":"경기도 부천시 춘의동 173-14번지 외7필지 2층","category":"의류 - 정장"}]},{"lat":"37.505070316","long":"126.78438129","items":[{"name":"룩앤룩스","tel":"032-677-6844","addr":"경기도 부천시 춘의동 491번지 춘의동우민늘사랑아파트","category":"용역 서비스 - 종합용역"},{"name":"명가오향족발","tel":"032-679-9100","addr":"경기도 부천시 춘의동 491번지","category":"일반휴게음식 - 일반한식"},{"name":"소영헤어#","tel":"","addr":"경기도 부천시 춘의동 491번지 춘의동우민늘사랑아파트","category":"보건위생 - 미용원"},{"name":"참사랑","tel":"032-678-8852","addr":"경기도 부천시 춘의동 491번지","category":"회원제형태 - 기타1"},{"name":"해피청소","tel":"032-681-9458","addr":"경기도 부천시 춘의동 491번지 춘의동우민늘사랑아파트","category":"용역 서비스 - 종합용역"}]},{"lat":"37.503153926","long":"126.78585707","items":[{"name":"르네상스","tel":"032-653-4356","addr":"경기도 부천시 춘의동 168-7번지 1층 06호","category":"의류 - 정장"},{"name":"인오테크","tel":"032-612-8719","addr":"경기도 부천시 춘의동 168-7번지","category":"전기제품 - 기타전기제품"},{"name":"일신테크CNC","tel":"032-613-6662","addr":"경기도 부천시 춘의동 168-7번지 일부 1층","category":"용역 서비스 - 종합용역"},{"name":"주식회사 제이원엔터프라이즈","tel":"031-1111-1111","addr":"경기도 부천시 춘의동 168-7번지 1층","category":"자동차정비 유지 - 세차장"}]},{"lat":"37.504316641","long":"126.78123946","items":[{"name":"리꼬벨로","tel":"031-000-0000","addr":"경기도 부천시 춘의동 130-11번지 정순가 103호","category":"신변잡화 - 기타잡화"},{"name":"영도회센타","tel":"031-111-1111","addr":"경기도 부천시 춘의동 130-11번지","category":"일반휴게음식 - 일식·회집"}]},{"lat":"37.505118076","long":"126.78585139","items":[{"name":"리코","tel":"070-7825-8508","addr":"경기도 부천시 춘의동 121-6번지","category":"서적문구 - 문구용품"},{"name":"포미","tel":"","addr":"경기도 부천시 춘의동 121-6번지 1층 일부","category":"보건위생 - 피부미용실"}]},{"lat":"37.501538576","long":"126.78445943","items":[{"name":"마당돈까스","tel":"070-7730-6921","addr":"경기도 부천시 춘의동 182-24번지 1층","category":"일반휴게음식 - 일반한식"}]},{"lat":"37.50368068","long":"126.78324309","items":[{"name":"마루미용실","tel":"032-0000-0000","addr":"경기도 부천시 춘의동 142-5번지 하나리아벨아파트 1층 103호","category":"보건위생 - 미용원"},{"name":"원진ENG","tel":"02-1577-3921","addr":"경기도 부천시 춘의동 142-5","category":"회원제형태 - 기타4"}]},{"lat":"37.501067693","long":"126.78318289","items":[{"name":"마루스포츠","tel":"032-656-6348","addr":"경기도 부천시 춘의동 216-2번지 2층","category":"레져용품 - 스포츠·레져용품"},{"name":"쪼만국수","tel":"032-612-8948","addr":"경기도 부천시 춘의동 216-2번지 1층","category":"일반휴게음식 - 일반한식"}]},{"lat":"37.4984849","long":"126.7848302","items":[{"name":"마샬미용실","tel":"032-665-5429","addr":"경기도 부천시 춘의동 222-17번지","category":"보건위생 - 미용원"}]},{"lat":"37.501818509","long":"126.78479789","items":[{"name":"머리짱","tel":"032-613-3963","addr":"경기도 부천시 춘의동 172-4번지","category":"보건위생 - 미용원"}]},{"lat":"37.50237216","long":"126.79198889","items":[{"name":"메르홀릭 주식회사","tel":"032-662-3721","addr":"경기도 부천시 춘의동 194-5번지 2층","category":"보건위생 - 화장품"}]},{"lat":"37.502148119","long":"126.7827726","items":[{"name":"메이메이","tel":"","addr":"경기도 부천시 춘의동 175-7번지 성진그린타운 101동 102호","category":"보건위생 - 피부미용실"},{"name":"씨유부천계남로점","tel":"031-613-6660","addr":"경기도 부천시 춘의동 175-7번지 성진그린타운 101동 101호","category":"유통업 영리 - 편 의 점"}]},{"lat":"37.501401368","long":"126.79326954","items":[{"name":"메이트유통","tel":"032-663-6633","addr":"경기도 부천시 춘의동 193-1번지 1층","category":"신변잡화 - 기타잡화"},{"name":"부천플라워","tel":"032-652-2024","addr":"경기도 부천시 춘의동 193-1번지","category":"문화.취미 - 화원"},{"name":"소라정","tel":"032-651-0444","addr":"경기도 부천시 춘의동 193-1번지","category":"일반휴게음식 - 일반한식"}]},{"lat":"37.501844234","long":"126.79404862","items":[{"name":"메트로셀프세차장부천점","tel":"032-651-7515","addr":"경기도 부천시 춘의동 188-7","category":"자동차정비 유지 - 세차장"}]},{"lat":"37.505369285","long":"126.78043337","items":[{"name":"멕시카나치킨","tel":"032-677-9946","addr":"경기도 부천시 춘의동 131-4번지","category":"일반휴게음식 - 칵테일바"},{"name":"스카이당구장","tel":"032-677-3313","addr":"경기도 부천시 춘의동 131-4번지 3층","category":"레저업소 - 당 구 장"},{"name":"테크젠전자","tel":"032-679-8293","addr":"경기도 부천시 춘의동 131-4번지","category":"전기제품 - 기타전기제품"},{"name":"한일건축설비","tel":"032-683-8804","addr":"경기도 부천시 춘의동 131-4번지","category":"용역 서비스 - 기타용역서비스"}]},{"lat":"37.504120815","long":"126.782518","items":[{"name":"명동슈퍼","tel":"032-674-8563","addr":"경기도 부천시 춘의동 130-74번지","category":"유통업 영리 - 슈퍼마켓"}]},{"lat":"37.504236478","long":"126.78660036","items":[{"name":"명동찌개마을","tel":"032-676-0616","addr":"경기도 부천시 춘의동 135-8번지","category":"일반휴게음식 - 일반한식"},{"name":"수노래연습장","tel":"032-677-1238","addr":"경기도 부천시 춘의동 135-8번지 지층","category":"레저업소 - 노 래 방"},{"name":"제일마트","tel":"032-675-5249","addr":"경기도 부천시 춘의동 135-8번지","category":"유통업 영리 - 슈퍼마켓"}]},{"lat":"37.504925279","long":"126.78390671","items":[{"name":"명문 사무기 (부천)","tel":"032-675-5850","addr":"경기도 부천시 춘의동 125-62번지 엘시티빌 101호","category":"사무통신 - 사무용 OA기기"}]},{"lat":"37.504589433","long":"126.78257317","items":[{"name":"몬스터키친","tel":"032-684-9452","addr":"경기도 부천시 춘의동 130-21번지","category":"일반휴게음식 - 일반한식"}]},{"lat":"37.501367829","long":"126.79468325","items":[{"name":"무지개","tel":"070-7860-9211","addr":"경기도 부천시 춘의동 57-9번지 신진시티하우스 110동 202호","category":"의류 - 내의판매"}]},{"lat":"37.50567475","long":"126.78479798","items":[{"name":"미남 인테리어","tel":"","addr":"경기도 부천시 춘의동 123-1번지","category":"건축자재 - 인테리어전문"},{"name":"코끼리상사","tel":"070-8797-8609","addr":"경기도 부천시 춘의동 123-1번지","category":"건축자재 - 목재·석재·철물"}]},{"lat":"37.504676177","long":"126.78562648","items":[{"name":"미녀들의 수다","tel":"032-354-2364","addr":"경기도 부천시 춘의동 123-55번지 1층","category":"보건위생 - 피부미용실"},{"name":"태양종합장식","tel":"032-675-7476","addr":"경기도 부천시 춘의동 123-55번지 1층","category":"직물 - 카페트,커튼,천막,지물"}]},{"lat":"37.503759235","long":"126.79173618","items":[{"name":"미니마트","tel":"","addr":"경기도 부천시 춘의동 156-1번지","category":"유통업 영리 - 슈퍼마켓"}]},{"lat":"37.499924323","long":"126.78366121","items":[{"name":"미니스톱부천춘의점","tel":"032-663-0692","addr":"경기도 부천시 춘의동 220-50번지","category":"유통업 영리 - 편 의 점"}]},{"lat":"37.50142939","long":"126.78388299","items":[{"name":"미래에너지","tel":"080-777-4114","addr":"경기도 부천시 춘의동 182-20번지 지층","category":"건축자재 - 보일러·펌프·샷시"}]},{"lat":"37.503785801","long":"126.78163686","items":[{"name":"미소인테리어","tel":"032-675-1182","addr":"경기도 부천시 춘의동 144-4번지 1층","category":"건축자재 - 인테리어전문"},{"name":"부천아귀","tel":"032-677-8877","addr":"경기도 부천시 춘의동 144-4번지 1층","category":"일반휴게음식 - 일반한식"}]},{"lat":"37.500342204","long":"126.78551464","items":[{"name":"미소헤어","tel":"032-667-3040","addr":"경기도 부천시 춘의동 217-46번지 1층","category":"보건위생 - 미용원"}]},{"lat":"37.505680511","long":"126.78304497","items":[{"name":"미인나라","tel":"","addr":"경기도 부천시 춘의동 126-44번지 1층","category":"보건위생 - 화장품"},{"name":"박미미용실","tel":"032-673-4660","addr":"경기도 부천시 춘의동 126-44번지 1층","category":"보건위생 - 미용원"},{"name":"옛날누룽지","tel":"032-761-0855","addr":"경기도 부천시 춘의동 126-44번지","category":"음료식품 - 기타음료식품"},{"name":"크린토피아","tel":"032-683-8509","addr":"경기도 부천시 춘의동 126-44번지 1층","category":"수리서비스 - 세탁소"}]},{"lat":"37.505316119","long":"126.78090853","items":[{"name":"믿음공업사","tel":"032-677-2658","addr":"경기도 부천시 춘의동 131-9번지","category":"건축자재 - 보일러·펌프·샷시"},{"name":"믿음장식","tel":"032-674-5619","addr":"경기도 부천시 춘의동 131-9번지","category":"직물 - 카페트,커튼,천막,지물"}]},{"lat":"37.504763387","long":"126.80990772","items":[{"name":"바까날레","tel":"032-678-4542","addr":"경기도 부천시 춘의동 281번지","category":"일반휴게음식 - 서양음식"}]},{"lat":"37.500313339","long":"126.78451955","items":[{"name":"바람 숲","tel":"031-111-1111","addr":"경기도 부천시 춘의동 217-58번지 허브빌 다동 1층 101호","category":"문화.취미 - 화원"},{"name":"바람.숲","tel":"031-111-1111","addr":"경기도 부천시 춘의동 217-58번지 허브빌 다동 1층 101호","category":"문화.취미 - 화원"}]},{"lat":"37.50551117","long":"126.79399317","items":[{"name":"바른","tel":"032-678-3634","addr":"경기도 부천시 춘의동 104-7번지","category":"건축자재 - 기타건축자재"},{"name":"홍세라믹스","tel":"032-508-4268","addr":"경기도 부천시 춘의동 104-7번지","category":"건축자재 - 건축용 요업제품"}]},{"lat":"37.504597514","long":"126.78207553","items":[{"name":"반석금속","tel":"032-651-1285","addr":"경기도 부천시 춘의동 130-2번지 1층","category":"건축자재 - 기타건축자재"}]},{"lat":"37.502097292","long":"126.78451435","items":[{"name":"배달짜글oh짜글","tel":"032-611-0092","addr":"경기도 부천시 춘의동 175-12번지 1층 일부","category":"일반휴게음식 - 일반한식"}]},{"lat":"37.499179889","long":"126.78549539","items":[{"name":"백송스카시","tel":"032-667-9290","addr":"경기도 부천시 춘의동 212-1번지","category":"신변잡화 - 기념품점"},{"name":"승화산업(SH Global Industry)","tel":"070-4655-6227","addr":"경기도 부천시 춘의동 212-1번지 지하","category":"직물 - 침구·수예점"}]},{"lat":"37.505291211","long":"126.78691399","items":[{"name":"버드펠리스","tel":"032-713-4959","addr":"경기도 부천시 춘의동 120-7번지 경창빌딩 4층","category":"문화.취미 - 애완동물"},{"name":"어랏차회","tel":"032-654-2016","addr":"경기도 부천시 춘의동 120-7번지 경창빌딩 1층","category":"일반휴게음식 - 일반한식"}]},{"lat":"37.504676356","long":"126.7808765","items":[{"name":"번성","tel":"032-348-7510","addr":"경기도 부천시 춘의동 131-7번지 1층","category":"건축자재 - 인테리어전문"},{"name":"청담식당","tel":"032-676-5166","addr":"경기도 부천시 춘의동 131-7번지 1층","category":"일반휴게음식 - 일반한식"},{"name":"한국목재","tel":"032-675-2207","addr":"경기도 부천시 춘의동 131-7번지","category":"건축자재 - 목재·석재·철물"}]},{"lat":"37.505703363","long":"126.78565743","items":[{"name":"베스트헤어","tel":"032-675-8310","addr":"경기도 부천시 춘의동 121-16번지 1층 일부","category":"보건위생 - 미용원"}]},{"lat":"37.502652973","long":"126.78782632","items":[{"name":"보람메디칼","tel":"032-681-8661","addr":"경기도 부천시 춘의동 164-2번지 다성빌딩 본관 1층","category":"보건위생 - 의료용품"}]},{"lat":"37.502569032","long":"126.7862659","items":[{"name":"보은식당","tel":"032-657-5595","addr":"경기도 부천시 춘의동 167-2번지","category":"일반휴게음식 - 일반한식"},{"name":"우리컴","tel":"032-661-1297","addr":"경기도 부천시 춘의동 167-2번지 210호","category":"수리서비스 - 기타수리서비스"}]},{"lat":"37.504118293","long":"126.78602392","items":[{"name":"복댕이네집","tel":"070-8907-8370","addr":"경기도 부천시 춘의동 135-3번지 1층","category":"일반휴게음식 - 일반한식"},{"name":"회포장마차","tel":"032-676-4845","addr":"경기도 부천시 춘의동 135-3번지","category":"일반휴게음식 - 일반한식"}]},{"lat":"37.504539904","long":"126.78501616","items":[{"name":"복덩이","tel":"","addr":"경기도 부천시 춘의동 123-28번지 1층","category":"신변잡화 - 기타잡화"},{"name":"엘이디 나인","tel":"032-671-0777","addr":"경기도 부천시 춘의동 123-28번지 지층","category":"건축자재 - 조명기구"}]},{"lat":"37.504847607","long":"126.78090992","items":[{"name":"본시루","tel":"032-321-6886","addr":"경기도 부천시 춘의동 131-16번지 1층","category":"음료식품 - 제과점"}]},{"lat":"37.502014441","long":"126.793494","items":[{"name":"부여종합상사","tel":"032-681-3277","addr":"경기도 부천시 춘의동 192-2 대명빌딩1층가1-1호","category":"의류 - 기타의류"},{"name":"오로라식품","tel":"032-655-4992","addr":"경기도 부천시 춘의동 192-2번지 대명빌딩 1층 1-B호","category":"음료식품 - 정육점"},{"name":"현대카서비스","tel":"032-653-5414","addr":"경기도 부천시 춘의동 192-2대명빌딩1층1,2호","category":"자동차정비 유지 - 자동차정비"}]},{"lat":"37.504121127","long":"126.7875733","items":[{"name":"부천가구프라자","tel":"032-678-9595","addr":"경기도 부천시 춘의동 117-1지층1층","category":"가구 - 일반가구"},{"name":"정원유통","tel":"032-672-4604","addr":"경기도 부천시 춘의동 117-1번지 춘의빌딩 5층","category":"신변잡화 - 신발"}]},{"lat":"37.506090014","long":"126.80576496","items":[{"name":"부천상록학교","tel":"070-4099-5336","addr":"경기도 부천시 춘의동 246번지 부천특수학교","category":"신변잡화 - 기타잡화"}]},{"lat":"37.502535691","long":"126.78285063","items":[{"name":"부천총판","tel":"032-435-1240","addr":"경기도 부천시 춘의동 173-5번지","category":"자동차정비 유지 - 자동차시트·타이어"}]},{"lat":"37.502931619","long":"126.78746363","items":[{"name":"부천춘의영창피아노","tel":"032-613-6234","addr":"경기도 부천시 춘의동 163-1번지","category":"레져용품 - 악기점"},{"name":"상지레포츠","tel":"032-613-3002","addr":"경기도 부천시 춘의동 163-1번지 중앙지하상가 1층 1,2호","category":"레져용품 - 스포츠·레져용품"},{"name":"오케마춤","tel":"032-656-0444","addr":"경기도 부천시 춘의동 163-1번지","category":"의류 - 맞춤복점"},{"name":"이박사왕만두","tel":"032-662-2119","addr":"경기도 부천시 춘의동 163-1번지 1층 일부","category":"일반휴게음식 - 스넥"},{"name":"중앙공인중개사무소","tel":"032-611-7171","addr":"경기도 부천시 춘의동 163-1번지","category":"용역 서비스 - 부동산 중개·임대"},{"name":"홍대디자인가구","tel":"032-666-3466","addr":"경기도 부천시 춘의동 163-1번지 1층 5~10호","category":"가구 - 일반가구"}]},{"lat":"37.502790403","long":"126.78416175","items":[{"name":"부천커먼레일","tel":"032-657-1531","addr":"경기도 부천시 춘의동 173-22번지 1층","category":"자동차정비 유지 - 자동차부품"},{"name":"수 모터스","tel":"070-4117-5887","addr":"경기도 부천시 춘의동 173-22번지 1층","category":"자동차정비 유지 - 자동차부품"}]},{"lat":"37.50139775","long":"126.78626928","items":[{"name":"붐붐당구장","tel":"032-111-1111","addr":"경기도 부천시 춘의동 209-3번지 3층","category":"레저업소 - 당 구 장"},{"name":"옹찬해물아구조림찜탕","tel":"","addr":"경기도 부천시 춘의동 209-3번지 1층","category":"일반휴게음식 - 일반한식"},{"name":"차차차노래연습장","tel":"032-663-4400","addr":"경기도 부천시 춘의동 209-3번지 1층","category":"레저업소 - 노 래 방"}]},{"lat":"37.501737065","long":"126.78460587","items":[{"name":"브러쉬캔들","tel":"032-277-1728","addr":"경기도 부천시 춘의동 182-1번지 더헤리움 1층 101호","category":"음료식품 - 기타음료식품"}]},{"lat":"37.505208001","long":"126.78090885","items":[{"name":"비바","tel":"032-678-8882","addr":"경기도 부천시 춘의동 131-12번지 일부 1층","category":"일반휴게음식 - 일반한식"}]},{"lat":"37.503319464","long":"126.78280309","items":[{"name":"뽀뽀","tel":"032-677-6579","addr":"경기도 부천시 춘의동 142-8번지 1층","category":"일반휴게음식 - 주점"}]},{"lat":"37.501118299","long":"126.78619093","items":[{"name":"사단법인범국민건강생활운동협회","tel":"032-651-0311","addr":"경기도 부천시 춘의동 209-5번지","category":"회원제형태 - 학원"}]},{"lat":"37.502562256","long":"126.78748731","items":[{"name":"사랑편의점","tel":"032-717-1641","addr":"경기도 부천시 춘의동 164-3번지 다성빌딩 1층","category":"유통업 영리 - 편 의 점"}]},{"lat":"37.50479161","long":"126.80518028","items":[{"name":"산울림농장","tel":"032-663-2901","addr":"경기도 부천시 춘의동 265번지","category":"음료식품 - 농·축·수산품"}]},{"lat":"37.501403243","long":"126.81585359","items":[{"name":"산장가든","tel":"032-673-5655","addr":"경기도 부천시 춘의동 465-1번지","category":"일반휴게음식 - 일반한식"}]},{"lat":"37.502400184","long":"126.78265877","items":[{"name":"삼부연","tel":"032-612-5777","addr":"경기도 부천시 춘의동 173-6번지 KD타워 상가동 2층 201호","category":"일반휴게음식 - 일반한식"}]},{"lat":"37.50462355","long":"126.78640699","items":[{"name":"삼성오에이사무기기","tel":"032-678-4415","addr":"경기도 부천시 춘의동 122-4번지 세종빌딩 1층","category":"사무통신 - 사무용 OA기기"},{"name":"오한의원","tel":"032-676-2354","addr":"경기도 부천시 춘의동 122-4번지 세종빌딩 3층","category":"의원 - 한의원"},{"name":"우정인쇄산업","tel":"032-673-2322","addr":"경기도 부천시 춘의동 122-4번지 세종빌딩 1층 103호","category":"서적문구 - 출판 및 인쇄물"},{"name":"이종석치과의원","tel":"032-676-2880","addr":"경기도 부천시 춘의동 122-4번지 세종빌딩 3층","category":"의원 - 치과의원"},{"name":"제노피씨방","tel":"","addr":"경기도 부천시 춘의동 122-4번지 2층","category":"레저업소 - 기타레져업소"},{"name":"제이텔정보(JTEL)","tel":"032-677-2010","addr":"경기도 부천시 춘의동 122-4번지 세종빌딩 1층 3호","category":"사무통신 - 통신기기"}]},{"lat":"37.50200905","long":"126.78552112","items":[{"name":"삼신내산펌프","tel":"032-664-1325","addr":"경기도 부천시 춘의동 172-1번지","category":"건축자재 - 보일러·펌프·샷시"}]},{"lat":"37.502228647","long":"126.79235119","items":[{"name":"삼양식당","tel":"032-613-5955","addr":"경기도 부천시 춘의동 194-7번지","category":"유통업 영리 - 기타유통업"},{"name":"송하테크","tel":"032-657-7060","addr":"경기도 부천시 춘의동 194-7번지 5층","category":"기타 - 기계공구"},{"name":"에이치에스엠 (HSM)","tel":"032-462-6011","addr":"경기도 부천시 춘의동 194-7번지 3층","category":"기타 - 기계공구"}]},{"lat":"37.502398101","long":"126.81257146","items":[{"name":"삼원가든","tel":"032-678-2777","addr":"경기도 부천시 춘의동 448-3번지","category":"일반휴게음식 - 일반한식"}]},{"lat":"37.505451267","long":"126.78090813","items":[{"name":"삼일농산","tel":"032-681-1359","addr":"경기도 부천시 춘의동 131-8번지","category":"음료식품 - 농·축·수산품"},{"name":"슬기네야채","tel":"032-673-3354","addr":"경기도 부천시 춘의동 131-8번지","category":"음료식품 - 농·축·수산품"}]},{"lat":"37.50467437","long":"126.79462883","items":[{"name":"삼정스텐부속","tel":"032-613-1600","addr":"경기도 부천시 춘의동 149-11번지","category":"기타 - 기타 전문점"}]},{"lat":"37.499901032","long":"126.78568555","items":[{"name":"상근축산","tel":"032-654-5042","addr":"경기도 부천시 춘의동 211-7번지","category":"음료식품 - 정육점"}]},{"lat":"37.498762972","long":"126.78416219","items":[{"name":"상상떡볶이","tel":"032-710-8988","addr":"경기도 부천시 춘의동 222-6번지 1층","category":"일반휴게음식 - 일반한식"}]},{"lat":"37.50201067","long":"126.78640322","items":[{"name":"샵노래연습장","tel":"032-611-3320","addr":"경기도 부천시 춘의동 167-3번지","category":"레저업소 - 노 래 방"},{"name":"횡성생고기","tel":"032-668-5250","addr":"경기도 부천시 춘의동 167-3번지 1층","category":"일반휴게음식 - 일반한식"}]},{"lat":"37.504513029","long":"126.79510428","items":[{"name":"서연정밀","tel":"032-666-5392","addr":"경기도 부천시 춘의동 146-3번지","category":"의류 - 정장"}]},{"lat":"37.504985124","long":"126.78705058","items":[{"name":"서울사무용가구","tel":"032-684-8582","addr":"경기도 부천시 춘의동 120-5번지","category":"가구 - 기타가구"},{"name":"세종볼링장","tel":"032-675-2024","addr":"경기도 부천시 춘의동 120-5","category":"레저업소 - 볼 링 장"},{"name":"판타지아부천풋볼아카데미","tel":"","addr":"경기도 부천시 춘의동 120-5번지 지층","category":"학원 - 예·체능계학원"}]},{"lat":"37.500811901","long":"126.78615788","items":[{"name":"서울앵글상사","tel":"032-666-9166","addr":"경기도 부천시 춘의동 209-7번지","category":"기타 - 기계공구"}]},{"lat":"37.502731314","long":"126.78632197","items":[{"name":"서준지물포","tel":"","addr":"경기도 부천시 춘의동 167-14번지 노아빌라 1층","category":"직물 - 카페트,커튼,천막,지물"},{"name":"주식회사 동인","tel":"032-655-4488","addr":"경기도 부천시 춘의동 167-14번지 노마빌라 1층","category":"건축자재 - 부동산 분양"}]},{"lat":"37.505316916","long":"126.7861901","items":[{"name":"서진앵글 진열장","tel":"032-675-1616","addr":"경기도 부천시 춘의동 121-2번지 101호","category":"건축자재 - 목재·석재·철물"},{"name":"신양케미칼","tel":"032-672-4420","addr":"경기도 부천시 춘의동 121-2번지 102호","category":"유통업 영리 - 기타유통업"}]},{"lat":"37.504287127","long":"126.78474547","items":[{"name":"선경인테리어","tel":"032-673-7663","addr":"경기도 부천시 춘의동 137-4번지 뜨란채빌 1층","category":"건축자재 - 인테리어전문"}]},{"lat":"37.504374343","long":"126.79310289","items":[{"name":"성민컴퍼니","tel":"032-654-7363","addr":"경기도 부천시 춘의동 151-6번지 3층 일부","category":"의류 - 정장"},{"name":"성진","tel":"032-613-5656","addr":"경기도 부천시 춘의동 151-6번지 1층","category":"건축자재 - 인테리어전문"}]},{"lat":"37.504039832","long":"126.78746044","items":[{"name":"성신엔지니어링","tel":"032-672-4679","addr":"경기도 부천시 춘의동 117-6","category":"기타 - 기계공구"}]},{"lat":"37.504375363","long":"126.78373867","items":[{"name":"성진스포츠","tel":"032-288-4727","addr":"경기도 부천시 춘의동 125-10번지 어번빌리지 1층 101호","category":"레져용품 - 스포츠·레져용품"}]},{"lat":"37.504757933","long":"126.78113637","items":[{"name":"세븐일레븐부천춘의점","tel":"","addr":"경기도 부천시 춘의동 129-18번지 1층","category":"유통업 영리 - 편 의 점"}]},{"lat":"37.505730642","long":"126.78579307","items":[{"name":"세원뼈다귀","tel":"032-671-0643","addr":"경기도 부천시 춘의동 121-15번지","category":"일반휴게음식 - 일반한식"},{"name":"호프포차황금돼지","tel":"032-673-4901","addr":"경기도 부천시 춘의동 121-15번지 1층","category":"일반휴게음식 - 주점"}]},{"lat":"37.50345917","long":"126.79021027","items":[{"name":"세익메디칼(주)","tel":"032-662-9211","addr":"경기도 부천시 춘의동 156-8번지","category":"보건위생 - 의료용품"}]},{"lat":"37.503619208","long":"126.80451612","items":[{"name":"소바애부천본점","tel":"032-684-1662","addr":"경기도 부천시 춘의동 244번지","category":"일반휴게음식 - 일반한식"},{"name":"카페케냐","tel":"070-5121-6771","addr":"경기도 부천시 춘의동 244번지 1층 일부","category":"일반휴게음식 - 서양음식"}]},{"lat":"37.504403067","long":"126.80451404","items":[{"name":"솔사랑/주식회사솔사랑에프에스","tel":"032-682-1124","addr":"경기도 부천시 춘의동 254-1번지","category":"일반휴게음식 - 일반한식"}]},{"lat":"37.503596954","long":"126.78182967","items":[{"name":"송가네 짬뽕","tel":"","addr":"경기도 부천시 춘의동 144-5번지 1층","category":"일반휴게음식 - 중국식"}]},{"lat":"37.503259083","long":"126.79421432","items":[{"name":"송서방치킨","tel":"032-668-7775","addr":"경기도 부천시 춘의동 190-7번지 1층","category":"일반휴게음식 - 스넥"},{"name":"종가집","tel":"032-657-4419","addr":"경기도 부천시 춘의동 190-7번지","category":"일반휴게음식 - 일반한식"}]},{"lat":"37.502617558","long":"126.78326883","items":[{"name":"수정약국(의경약국)","tel":"032-664-3423","addr":"경기도 부천시 춘의동 173-3번지","category":"약국 - 약국"},{"name":"현대상사","tel":"032-666-5800","addr":"경기도 부천시 춘의동 173-3번지 1층","category":"직물 - 기타직물"}]},{"lat":"37.499179431","long":"126.7852466","items":[{"name":"수정음악학원","tel":"032-668-5372","addr":"경기도 부천시 춘의동 221-13번지","category":"학원 - 예·체능계학원"}]},{"lat":"37.504013581","long":"126.78299331","items":[{"name":"수지테크","tel":"031-311-8034","addr":"경기도 부천시 춘의동 142-2번지","category":"기타 - 기계공구"},{"name":"엠에스케미칼","tel":"032-675-7744","addr":"경기도 부천시 춘의동 142-2번지","category":"서적문구 - 과학기자재"},{"name":"장터생고기","tel":"032-683-8903","addr":"경기도 부천시 춘의동 142-2번지","category":"일반휴게음식 - 일반한식"},{"name":"제이투엘코리아","tel":"032-679-8889","addr":"경기도 부천시 춘의동 142-2번지 샘솟는교회 1층 101호","category":"전기제품 - 가전제품"}]},{"lat":"37.503230397","long":"126.78335751","items":[{"name":"슈퍼텐트칼라","tel":"032-672-0960","addr":"경기도 부천시 춘의동 143-7번지 1층","category":"자동차정비 유지 - 카인테리어"},{"name":"카페라떼르","tel":"032-672-2252","addr":"경기도 부천시 춘의동 143-7번지 1층","category":"일반휴게음식 - 일반한식"},{"name":"힐링크린","tel":"032-1577-3606","addr":"경기도 부천시 춘의동 143-7번지 2층","category":"용역 서비스 - 종합용역"}]},{"lat":"37.504429737","long":"126.78390816","items":[{"name":"스마트전기전자에어컨","tel":"032-652-3502","addr":"경기도 부천시 춘의동 125-12번지 1층","category":"수리서비스 - 기타수리서비스"}]},{"lat":"37.504235566","long":"126.78610275","items":[{"name":"시골순두부","tel":"031-1111-1111","addr":"경기도 부천시 춘의동 135-2번지 1층","category":"일반휴게음식 - 일반한식"}]},{"lat":"37.502649665","long":"126.78601686","items":[{"name":"시골칼국수","tel":"032-668-5542","addr":"경기도 부천시 춘의동 171-1번지","category":"일반휴게음식 - 일반한식"}]},{"lat":"37.501368996","long":"126.78533072","items":[{"name":"식도락포차","tel":"032-666-4157","addr":"경기도 부천시 춘의동 214-17번지 1층","category":"일반휴게음식 - 일반한식"}]},{"lat":"37.50539682","long":"126.78554522","items":[{"name":"신성냉동","tel":"032-684-9109","addr":"경기도 부천시 춘의동 123-80번지 청년빌딩","category":"전기제품 - 냉열기기"},{"name":"청년떡볶이 춘의역점","tel":"032-672-1977","addr":"경기도 부천시 춘의동 123-80번지 청년빌딩 101호","category":"일반휴게음식 - 스넥"}]},{"lat":"37.502375228","long":"126.78868661","items":[{"name":"신성실크스크린","tel":"032-666-6130","addr":"경기도 부천시 춘의동 162-2번지","category":"서적문구 - 출판 및 인쇄물"}]},{"lat":"37.498784971","long":"126.78632206","items":[{"name":"신세계","tel":"032-667-0909","addr":"경기도 부천시 춘의동 206-4번지","category":"건축자재 - 조명기구"}]},{"lat":"37.499062241","long":"126.78521302","items":[{"name":"신세대헤어뱅크","tel":"032-665-4890","addr":"경기도 부천시 춘의동 221-14번지 1층","category":"보건위생 - 미용원"},{"name":"연세우유중부대리점","tel":"032-662-2700","addr":"경기도 부천시 춘의동 221-14 35/1","category":"음료식품 - 기타음료식품"}]},{"lat":"37.505791015","long":"126.79429775","items":[{"name":"신우유통","tel":"032-663-5572","addr":"경기도 부천시 춘의동 103-6번지 신우유통","category":"음료식품 - 기타음료식품"}]},{"lat":"37.501235531","long":"126.78624713","items":[{"name":"싸인아카데미","tel":"032-664-7075","addr":"경기도 부천시 춘의동 209-4번지 1층","category":"용역 서비스 - 종합용역"},{"name":"형제오토바이","tel":"032-664-7516","addr":"경기도 부천시 춘의동 209-4번지 101호","category":"자동차판매 - 이륜차판매"}]},{"lat":"37.505375782","long":"126.79385783","items":[{"name":"썬바위 홍두깨칼국수","tel":"032-677-1653","addr":"경기도 부천시 춘의동 114-6번지 1층","category":"일반휴게음식 - 일반한식"}]},{"lat":"37.49936868","long":"126.78526867","items":[{"name":"씨유부천춘의현대점","tel":"080-080-3663","addr":"경기도 부천시 춘의동 219-33번지 1층","category":"유통업 영리 - 편 의 점"}]},{"lat":"37.503097484","long":"126.79454274","items":[{"name":"아리랑코리아의전","tel":"","addr":"경기도 부천시 춘의동 187-1번지 2층 2호","category":"용역 서비스 - 가례서비스업"}]},{"lat":"37.50398385","long":"126.78640883","items":[{"name":"아모스아인스가구","tel":"032-671-8171","addr":"경기도 부천시 춘의동 136-6번지 동광빌딩 1층","category":"가구 - 기타가구"}]},{"lat":"37.503539668","long":"126.78988207","items":[{"name":"아주식당","tel":"032-667-9491","addr":"경기도 부천시 춘의동 156-6번지 1층","category":"일반휴게음식 - 일반한식"}]},{"lat":"37.501842079","long":"126.78293183","items":[{"name":"아태세탁소","tel":"032-664-2358","addr":"경기도 부천시 춘의동 178-28번지 4층","category":"수리서비스 - 세탁소"},{"name":"하이시스템","tel":"070-8659-1107","addr":"경기도 부천시 춘의동 178-28번지","category":"용역 서비스 - 기타용역서비스"},{"name":"호식이두마리치킨","tel":"032-668-9288","addr":"경기도 부천시 춘의동 178-28번지 1층","category":"일반휴게음식 - 스넥"}]},{"lat":"37.502648708","long":"126.78549664","items":[{"name":"애드온탑에이전시","tel":"032-324-7341","addr":"경기도 부천시 춘의동 171-2번지 청담빌리지 301호","category":"용역 서비스 - 소프트웨어"}]},{"lat":"37.503181205","long":"126.78599271","items":[{"name":"애드헤어센타","tel":"032-667-4119","addr":"경기도 부천시 춘의동 168-6번지","category":"보건위생 - 미용재료"}]},{"lat":"37.498898058","long":"126.78412787","items":[{"name":"어울림공인중개사사무소","tel":"032-668-5511","addr":"경기도 부천시 춘의동 221-35번지 101호","category":"용역 서비스 - 부동산 중개·임대"}]},{"lat":"37.499010777","long":"126.78662674","items":[{"name":"엄마손식당","tel":"032-611-0566","addr":"경기도 부천시 춘의동 206-2번지 1층","category":"일반휴게음식 - 일반한식"}]},{"lat":"37.504314407","long":"126.7848811","items":[{"name":"에스앤지상사","tel":"032-684-9119","addr":"경기도 부천시 춘의동 137-3번지 태림아트빌","category":"용역 서비스 - 기타용역서비스"}]},{"lat":"37.498343943","long":"126.78657212","items":[{"name":"에스제이파워(주)","tel":"032-613-2023","addr":"경기도 부천시 춘의동 207-7번지","category":"전기제품 - 기타전기제품"},{"name":"에스제이파워(주)/원격지","tel":"032-613-2023","addr":"경기도 부천시 춘의동 207-7번지","category":"기타 - 기타 전문점"}]},{"lat":"37.504902027","long":"126.78110202","items":[{"name":"에이 앤드 앤 (A&N)","tel":"032-000-0000","addr":"경기도 부천시 춘의동 129-5번지 1층","category":"의류 - 정장"}]},{"lat":"37.502763059","long":"126.78399219","items":[{"name":"에이스덴트","tel":"032-656-5688","addr":"경기도 부천시 춘의동 173-20번지","category":"자동차정비 유지 - 카인테리어"}]},{"lat":"37.503955973","long":"126.79091004","items":[{"name":"에이스산업","tel":"032-666-3230","addr":"경기도 부천시 춘의동 155-3번지","category":"주방용구 - 주방용구"}]},{"lat":"37.505284511","long":"126.78818068","items":[{"name":"에이치디카페(HD cafe)","tel":"032-679-6561","addr":"경기도 부천시 춘의동 72-2번지 지층","category":"일반휴게음식 - 서양음식"}]},{"lat":"37.503928046","long":"126.78545901","items":[{"name":"에프와이이엔지(FYENG)","tel":"032-676-9711","addr":"경기도 부천시 춘의동 139-1 FYENG빌딩","category":"기타 - 기계공구"},{"name":"에프와이이엔지(FYENG)/원격지","tel":"02-808-9711","addr":"경기도 부천시 춘의동 139-1번지 FYENG빌딩","category":"기타 - 기타 전문점"}]},{"lat":"37.503040294","long":"126.78776866","items":[{"name":"엠투인테크","tel":"032-677-4001","addr":"경기도 부천시 춘의동 163-15번지 춘의동공장 1층 103호","category":"기타 - 기계공구"}]},{"lat":"37.505397381","long":"126.78585058","items":[{"name":"엽이네돈갈비","tel":"070-0000-0000","addr":"경기도 부천시 춘의동 121-13번지","category":"일반휴게음식 - 일반한식"}]},{"lat":"37.503237067","long":"126.78210216","items":[{"name":"영광천막사","tel":"032-676-7053","addr":"경기도 부천시 춘의동 144-25","category":"직물 - 카페트,커튼,천막,지물"}]},{"lat":"37.499765281","long":"126.78535799","items":[{"name":"영주방앗간","tel":"032-664-0521","addr":"경기도 부천시 춘의동 219-6번지","category":"음료식품 - 제과점"}]},{"lat":"37.500706322","long":"126.79254771","items":[{"name":"영천ENG","tel":"032-672-3448","addr":"경기도 부천시 춘의동 193-14번지 3층","category":"기타 - 기계공구"}]},{"lat":"37.504174093","long":"126.7919612","items":[{"name":"예찬한식푸드","tel":"032-612-3003","addr":"경기도 부천시 춘의동 151-2번지","category":"일반휴게음식 - 일반한식"},{"name":"일석밧데리 할인매장","tel":"032-678-7373","addr":"경기도 부천시 춘의동 151-2번지 1층 일부","category":"자동차정비 유지 - 자동차부품"},{"name":"포스코컬러하우징","tel":"032-614-4848","addr":"경기도 부천시 춘의동 151-2번지","category":"자동차정비 유지 - 자동차부품"}]},{"lat":"37.505673097","long":"126.78390453","items":[{"name":"오땡큐","tel":"032-671-5002","addr":"경기도 부천시 춘의동 125-20번지 1층","category":"보건위생 - 미용원"},{"name":"장터즉석치킨춘의역점","tel":"032-671-9990","addr":"경기도 부천시 춘의동 125-20번지","category":"일반휴게음식 - 일반한식"}]},{"lat":"37.501429138","long":"126.78374728","items":[{"name":"오뜨헤어","tel":"032-656-2222","addr":"경기도 부천시 춘의동 184-12번지 1층","category":"보건위생 - 미용원"}]},{"lat":"37.503256016","long":"126.78259971","items":[{"name":"오렌지","tel":"032-677-4560","addr":"경기도 부천시 춘의동 144-51번지","category":"일반휴게음식 - 주점"}]},{"lat":"37.505649547","long":"126.78094147","items":[{"name":"오부장치킨","tel":"031-676-9995","addr":"경기도 부천시 춘의동 131-1번지 1층","category":"일반휴게음식 - 스넥"}]},{"lat":"37.504092418","long":"126.79163346","items":[{"name":"오토오아시스일광점","tel":"032-345-8373","addr":"경기도 부천시 춘의동 155-1번지","category":"자동차정비 유지 - 자동차정비"}]},{"lat":"37.506313487","long":"126.79423975","items":[{"name":"오토패션","tel":"032-675-7205","addr":"경기도 부천시 춘의동 106-4번지 1층","category":"자동차정비 유지 - 자동차부품"}]},{"lat":"37.504512478","long":"126.78480136","items":[{"name":"온누리미용실","tel":"032-681-9295","addr":"경기도 부천시 춘의동 123-27번지","category":"보건위생 - 미용원"},{"name":"정일냉동사","tel":"032-678-9696","addr":"경기도 부천시 춘의동 123-27번지","category":"전기제품 - 냉열기기"}]},{"lat":"37.502205369","long":"126.78449142","items":[{"name":"우민공조","tel":"032-655-5048","addr":"경기도 부천시 춘의동 175-11번지 1층","category":"용역 서비스 - 기타용역서비스"}]},{"lat":"37.503035605","long":"126.79015493","items":[{"name":"우영","tel":"032-651-4911","addr":"경기도 부천시 춘의동 157-5번지","category":"기타 - 기계공구"},{"name":"주식회사 브이아이피코퍼레이션","tel":"031-614-8802","addr":"경기도 부천시 춘의동 157-5번지 2층","category":"신변잡화 - 기타잡화"}]},{"lat":"37.502150809","long":"126.79418348","items":[{"name":"우일세차장","tel":"","addr":"경기도 부천시 춘의동 188-1번지","category":"자동차정비 유지 - 세차장"},{"name":"푸른정비서비스","tel":"070-7720-1276","addr":"경기도 부천시 춘의동 188-1번지","category":"자동차정비 유지 - 자동차정비"},{"name":"한국에코그린서비스협동조합","tel":"032-654-6788","addr":"경기도 부천시 춘의동 188-1번지 2층","category":"자동차정비 유지 - 세차장"}]},{"lat":"37.499760476","long":"126.78765368","items":[{"name":"원미현대모터스","tel":"032-614-3900","addr":"경기도 부천시 춘의동 205-30번지","category":"자동차정비 유지 - 자동차정비"}]},{"lat":"37.505567903","long":"126.78548818","items":[{"name":"원포차","tel":"032-684-9802","addr":"경기도 부천시 춘의동 123-65번지 1층","category":"일반휴게음식 - 주점"}]},{"lat":"37.503762255","long":"126.79343258","items":[{"name":"유성정밀","tel":"032-668-6539","addr":"경기도 부천시 춘의동 150-9,10","category":"전기제품 - 기타전기제품"}]},{"lat":"37.502848449","long":"126.79129769","items":[{"name":"유진산업","tel":"031-673-7480","addr":"경기도 부천시 춘의동 158-1번지 후편 2층","category":"전기제품 - 기타전기제품"}]},{"lat":"37.500820413","long":"126.78588645","items":[{"name":"이가네아구해물찜","tel":"032-684-9242","addr":"경기도 부천시 춘의동 209-11번지 1층","category":"일반휴게음식 - 일반한식"}]},{"lat":"37.505093985","long":"126.78257169","items":[{"name":"이경민헤어샵","tel":"032-323-5199","addr":"경기도 부천시 춘의동 128-24번지 청담빌리지 6동 101호","category":"보건위생 - 미용원"}]},{"lat":"37.50464896","long":"126.78552477","items":[{"name":"이레공인중개사사무소","tel":"032-684-3100","addr":"경기도 부천시 춘의동 123-46번지 1층","category":"용역 서비스 - 부동산 중개·임대"}]},{"lat":"37.501735306","long":"126.78365592","items":[{"name":"이레정보통신","tel":"070-4114-0417","addr":"경기도 부천시 춘의동 184-8번지 화인하이빌 401호","category":"사무통신 - 통신기기"}]},{"lat":"37.500536532","long":"126.78341063","items":[{"name":"이마트24부천계남로점","tel":"","addr":"경기도 부천시 춘의동 218-6번지 1층","category":"유통업 영리 - 편 의 점"}]},{"lat":"37.50231636","long":"126.79101646","items":[{"name":"이모네집","tel":"032-201-5952","addr":"경기도 부천시 춘의동 196-1번지 1층","category":"일반휴게음식 - 일반한식"}]},{"lat":"37.500513454","long":"126.78554807","items":[{"name":"이오컴퓨터","tel":"032-611-2772","addr":"경기도 부천시 춘의동 217-9번지 1층","category":"사무통신 - 컴퓨터"},{"name":"일미리금계찜닭춘의점","tel":"032-225-1030","addr":"경기도 부천시 춘의동 217-9번지 102호","category":"일반휴게음식 - 일반한식"},{"name":"헤어까페","tel":"032-651-1452","addr":"경기도 부천시 춘의동 217-9번지 1층","category":"보건위생 - 미용원"}]},{"lat":"37.503785185","long":"126.81229651","items":[{"name":"이재옥남원추어탕","tel":"032-325-8821","addr":"경기도 부천시 춘의동 442-5,2~3층","category":"일반휴게음식 - 일반한식"}]},{"lat":"37.500312418","long":"126.78402196","items":[{"name":"이프로스터디(EPROSTUDY)","tel":"","addr":"경기도 부천시 춘의동 218-8번지 프라우드빌 B동 502호","category":"용역 서비스 - 사무서비스"}]},{"lat":"37.504595946","long":"126.78123864","items":[{"name":"이화원헤어","tel":"","addr":"경기도 부천시 춘의동 130-16번지","category":"보건위생 - 미용원"}]},{"lat":"37.502569488","long":"126.7865147","items":[{"name":"이화카써비스센터","tel":"070-7317-3843","addr":"경기도 부천시 춘의동 167-7번지 외2필지","category":"자동차정비 유지 - 자동차정비"}]},{"lat":"37.505177555","long":"126.78390597","items":[{"name":"이화헤어샵","tel":"070-7353-1128","addr":"경기도 부천시 춘의동 125-37번지 신원로얄펠리스 101호","category":"보건위생 - 미용원"}]},{"lat":"37.505204018","long":"126.78360054","items":[{"name":"일루젼가든돌","tel":"032-000-0000","addr":"경기도 부천시 춘의동 125-39번지 금강빌리지 401호","category":"서적문구 - 완구점"}]},{"lat":"37.49925954","long":"126.78471486","items":[{"name":"잉크이야기","tel":"00-000-0000","addr":"경기도 부천시 춘의동 221-26번지 202호","category":"사무통신 - 기타 사무용품"}]},{"lat":"37.501122593","long":"126.78363509","items":[{"name":"자미온하우스(원미점)","tel":"032-655-7957","addr":"경기도 부천시 춘의동 216-16번지","category":"직물 - 침구·수예점"}]},{"lat":"37.500675673","long":"126.78557022","items":[{"name":"자연과친환경","tel":"032-328-9999","addr":"경기도 부천시 춘의동 217-1번지 1층","category":"건축자재 - 인테리어전문"}]},{"lat":"37.505034716","long":"126.81054036","items":[{"name":"정가네한방민물장어","tel":"031-223-5214","addr":"경기도 부천시 춘의동 424-3번지 1층일부,2층,3층일부","category":"일반휴게음식 - 일반한식"}]},{"lat":"37.504233565","long":"126.80552103","items":[{"name":"정글애(  )갑오징어","tel":"032-671-8393","addr":"경기도 부천시 춘의동 240번지 2-3층","category":"일반휴게음식 - 일반한식"}]},{"lat":"37.50212474","long":"126.78474045","items":[{"name":"정주식당","tel":"032-653-9662","addr":"경기도 부천시 춘의동 171-21번지 1층일부","category":"일반휴게음식 - 일반한식"},{"name":"헐리우드헤어","tel":"032-653-8823","addr":"경기도 부천시 춘의동 171-21번지 1층","category":"보건위생 - 미용원"}]},{"lat":"37.502429943","long":"126.78904835","items":[{"name":"제이몰","tel":"032-612-0988","addr":"경기도 부천시 춘의동 162-1번지 1층","category":"기타 - 기계공구"}]},{"lat":"37.504843624","long":"126.78360159","items":[{"name":"제이티시스템","tel":"","addr":"경기도 부천시 춘의동 125-51번지 풍성애뜰안 가동 401호","category":"용역 서비스 - 기타용역서비스"}]},{"lat":"37.498429859","long":"126.78429886","items":[{"name":"제일산업","tel":"032-663-0888","addr":"경기도 부천시 춘의동 222-30번지 1층","category":"유통업 영리 - 기타유통업"}]},{"lat":"37.504341687","long":"126.78501674","items":[{"name":"제일전자","tel":"032-675-7419","addr":"경기도 부천시 춘의동 137-7번지 청담빌리지","category":"기타 - 기타 전문점"}]},{"lat":"37.499206253","long":"126.78513344","items":[{"name":"제주근고기 소,막창","tel":"032-662-2688","addr":"경기도 부천시 춘의동 221-1번지 1층","category":"일반휴게음식 - 일반한식"}]},{"lat":"37.503677873","long":"126.78173896","items":[{"name":"조선일보서중동지국","tel":"032-676-2082","addr":"경기도 부천시 춘의동 144-11번지 1층","category":"서적문구 - 정기간행물"},{"name":"청국장&돈까스","tel":"032-676-4667","addr":"경기도 부천시 춘의동 144-11번지 1층 일부호","category":"일반휴게음식 - 일반한식"},{"name":"행복재활용센터","tel":"032-681-4489","addr":"경기도 부천시 춘의동 144-11번지","category":"전기제품 - 가전제품"}]},{"lat":"37.498511721","long":"126.78471704","items":[{"name":"죠스마린","tel":"070-5035-6504","addr":"경기도 부천시 춘의동 222-16번지","category":"건축자재 - 인테리어전문"}]},{"lat":"37.500953603","long":"126.78482302","items":[{"name":"주니헤어","tel":"032-652-3014","addr":"경기도 부천시 춘의동 215-15번지 1층","category":"보건위생 - 미용원"}]},{"lat":"37.505702292","long":"126.79507836","items":[{"name":"주미정","tel":"032-682-8838","addr":"경기도 부천시 춘의동 98-3번지","category":"일반휴게음식 - 일반한식"}]},{"lat":"37.505869905","long":"126.78804329","items":[{"name":"주식회사 네오몬드","tel":"032-684-9750","addr":"경기도 부천시 춘의동 70-5번지 2층","category":"용역 서비스 - 사무서비스"}]},{"lat":"37.505486413","long":"126.78043302","items":[{"name":"주식회사 봄프렌즈 부천지사","tel":"02-1544-8885","addr":"경기도 부천시 춘의동 131-27번지","category":"문화.취미 - 애완동물"},{"name":"주식회사 봄프렌즈 부천지사","tel":"032-1544-8855","addr":"경기도 부천시 춘의동 131-27번지","category":"문화.취미 - 애완동물"}]},{"lat":"37.5027576","long":"126.7908795","items":[{"name":"주식회사 선경","tel":"032-655-2100","addr":"경기도 부천시 춘의동 158-2번지","category":"자동차정비 유지 - 자동차정비"},{"name":"혁신건업","tel":"032-654-7220","addr":"경기도 부천시 춘의동 158-2번지 1층","category":"건축자재 - 유리"}]},{"lat":"37.505458229","long":"126.79462666","items":[{"name":"주식회사 스타클럽","tel":"032-671-0888","addr":"경기도 부천시 춘의동 102-4번지 서주빌딩","category":"자동차정비 유지 - 자동차부품"}]},{"lat":"37.504675767","long":"126.79035384","items":[{"name":"주식회사지오푸드시스템","tel":"032-678-7700","addr":"경기도 부천시 춘의동 75-8번지 1층","category":"유통업 영리 - 슈퍼마켓"}]},{"lat":"37.505090873","long":"126.7809092","items":[{"name":"중동열쇠","tel":"032-666-1304","addr":"경기도 부천시 춘의동 131-13번지 1층","category":"수리서비스 - 기타수리서비스"},{"name":"치킨플러스춘의점","tel":"032-677-9515","addr":"경기도 부천시 춘의동 131-13번지","category":"일반휴게음식 - 스넥"}]},{"lat":"37.49956696","long":"126.78530202","items":[{"name":"중앙세탁소","tel":"","addr":"경기도 부천시 춘의동 219-8번지","category":"수리서비스 - 세탁소"}]},{"lat":"37.501067904","long":"126.78329598","items":[{"name":"중앙자동차전문정비","tel":"032-666-9125","addr":"경기도 부천시 춘의동 216-4번지 1층","category":"자동차정비 유지 - 자동차정비"}]},{"lat":"37.502899191","long":"126.78452332","items":[{"name":"중앙전기조명","tel":"032-652-3441","addr":"경기도 부천시 춘의동 169-3번지","category":"건축자재 - 조명기구"}]},{"lat":"37.501090792","long":"126.7859309","items":[{"name":"지오지아미용실","tel":"032-661-6978","addr":"경기도 부천시 춘의동 209-8번지","category":"보건위생 - 미용원"}]},{"lat":"37.501620396","long":"126.78485501","items":[{"name":"지올","tel":"032-000-0000","addr":"경기도 부천시 춘의동 172-6번지 1층","category":"의류 - 정장"},{"name":"춘자노래방","tel":"070-4922-1261","addr":"경기도 부천시 춘의동 172-6번지 지하","category":"레저업소 - 노 래 방"}]},{"lat":"37.502845603","long":"126.78971441","items":[{"name":"진영기업","tel":"032-656-4333","addr":"경기도 부천시 춘의동 161-7번지","category":"건축자재 - 기타건축자재"}]},{"lat":"37.502399996","long":"126.79244118","items":[{"name":"진흥공업(주)","tel":"032-613-0071","addr":"경기도 부천시 춘의동 194-6번지","category":"건축자재 - 기타건축자재"}]},{"lat":"37.500953958","long":"126.78501527","items":[{"name":"진희쌀상회","tel":"032-662-9675","addr":"경기도 부천시 춘의동 214-13번지 1층","category":"음료식품 - 미곡상"}]},{"lat":"37.504286709","long":"126.78451928","items":[{"name":"차차리나","tel":"032-672-1006","addr":"경기도 부천시 춘의동 137-16번지","category":"의류 - 정장"}]},{"lat":"37.500982175","long":"126.7856598","items":[{"name":"천조기업","tel":"031-111-2222","addr":"경기도 부천시 춘의동 214-34번지","category":"용역 서비스 - 기타용역서비스"}]},{"lat":"37.500318242","long":"126.78718841","items":[{"name":"청솔조각","tel":"032-652-3301","addr":"경기도 부천시 춘의동 205-1번지","category":"기타 - 기계공구"}]},{"lat":"37.504201587","long":"126.78234812","items":[{"name":"초이미용실","tel":"070-4922-1261","addr":"경기도 부천시 춘의동 130-4번지 태림아트빌 1층 101호","category":"보건위생 - 미용원"}]},{"lat":"37.503955637","long":"126.78576428","items":[{"name":"쵸이스셀테라피","tel":"032-671-2212","addr":"경기도 부천시 춘의동 139-9번지","category":"보건위생 - 화장품"}]},{"lat":"37.501313852","long":"126.78474281","items":[{"name":"추억의막걸리","tel":"032-667-7179","addr":"경기도 부천시 춘의동 215-1번지","category":"일반휴게음식 - 주점"}]},{"lat":"37.504202683","long":"126.78293621","items":[{"name":"춘의닭집(치킨)","tel":"032-678-5603","addr":"경기도 부천시 춘의동 126-68번지","category":"일반휴게음식 - 스넥"}]},{"lat":"37.502622344","long":"126.78585861","items":[{"name":"춘의동주민자치위원회","tel":"032-612-4489","addr":"경기도 부천시 춘의동 171-56번지 춘의동사무소","category":"문화.취미 - 문화취미기타"}]},{"lat":"37.503181703","long":"126.78626413","items":[{"name":"춘의생한의원","tel":"032-653-8800","addr":"경기도 부천시 춘의동 166-2번지 3동","category":"의원 - 한의원"}]},{"lat":"37.501235012","long":"126.78596441","items":[{"name":"춘의슈퍼마켓","tel":"032-651-0566","addr":"경기도 부천시 춘의동 209-13번지 1층","category":"유통업 영리 - 슈퍼마켓"}]},{"lat":"37.502288771","long":"126.78574649","items":[{"name":"춘의철물","tel":"032-665-0271","addr":"경기도 부천시 춘의동 171-48번지","category":"건축자재 - 목재·석재·철물"}]},{"lat":"37.505403691","long":"126.79435538","items":[{"name":"취선","tel":"070-7529-8843","addr":"경기도 부천시 춘의동 103번지 1층 일부","category":"일반휴게음식 - 중국식"}]},{"lat":"37.500230407","long":"126.78352461","items":[{"name":"치킨덕후떡덕후","tel":"032-665-1552","addr":"경기도 부천시 춘의동 218-7번지 1층 일부","category":"일반휴게음식 - 일반한식"}]},{"lat":"37.504541964","long":"126.78613579","items":[{"name":"카페리베","tel":"","addr":"경기도 부천시 춘의동 122-3번지 1층 101호","category":"일반휴게음식 - 서양음식"}]},{"lat":"37.501258233","long":"126.79384669","items":[{"name":"커피사랑","tel":"032-000-0000","addr":"경기도 부천시 춘의동 188-16번지 애플하우스 B동 101호","category":"일반휴게음식 - 서양음식"}]},{"lat":"37.503094302","long":"126.78284899","items":[{"name":"컴스토리","tel":"032-677-3119","addr":"경기도 부천시 춘의동 143-6번지 1층","category":"사무통신 - 컴퓨터"}]},{"lat":"37.503953282","long":"126.7944612","items":[{"name":"컴코","tel":"032-624-1499","addr":"경기도 부천시 춘의동 149-12번지 4층","category":"의류 - 정장"}]},{"lat":"37.505672803","long":"126.78374619","items":[{"name":"컵오브커피(cup of coffee)부천춘의점","tel":"032-683-9092","addr":"경기도 부천시 춘의동 125-19번지 1층","category":"일반휴게음식 - 서양음식"}]},{"lat":"37.500010893","long":"126.78663517","items":[{"name":"킹콩샤워","tel":"032-667-3377","addr":"경기도 부천시 춘의동 205-8번지","category":"자동차정비 유지 - 세차장"}]},{"lat":"37.500680963","long":"126.78846528","items":[{"name":"태산 알루미늄","tel":"032-612-5051","addr":"경기도 부천시 춘의동 204-5번지","category":"건축자재 - 기타건축자재"}]},{"lat":"37.505035447","long":"126.78501472","items":[{"name":"태성에어컨","tel":"","addr":"경기도 부천시 춘의동 123-34번지 골든빌리지 202호","category":"용역 서비스 - 기타용역서비스"}]},{"lat":"37.498235784","long":"126.78654982","items":[{"name":"태성초경","tel":"032-665-0982","addr":"경기도 부천시 춘의동 207-8번지 2층","category":"기타 - 기계공구"}]},{"lat":"37.499764802","long":"126.78509789","items":[{"name":"태양시스템","tel":"02-1661-7728","addr":"경기도 부천시 춘의동 219-19번지 3층","category":"용역 서비스 - 기타용역서비스"}]},{"lat":"37.504339638","long":"126.78390842","items":[{"name":"태양정육점","tel":"032-679-5252","addr":"경기도 부천시 춘의동 125-11번지","category":"음료식품 - 정육점"},{"name":"한쇼숯불갈비","tel":"032-679-5252","addr":"경기도 부천시 춘의동 125-11번지","category":"일반휴게음식 - 일반한식"}]},{"lat":"37.504149197","long":"126.79316007","items":[{"name":"태일산업","tel":"032-612-9144","addr":"경기도 부천시 춘의동 152-10번지","category":"주방용구 - 주방용구"}]},{"lat":"37.504731212","long":"126.78615787","items":[{"name":"테라","tel":"032-664-0705","addr":"경기도 부천시 춘의동 122-2번지 동아주택 A동 501호","category":"의류 - 정장"}]},{"lat":"37.504202009","long":"126.78257431","items":[{"name":"토탈솔루션","tel":"032-246-3353","addr":"경기도 부천시 춘의동 130-27번지 1층","category":"사무통신 - 컴퓨터"}]},{"lat":"37.504952741","long":"126.81559593","items":[{"name":"푸른나라","tel":"032-611-3400","addr":"경기도 부천시 춘의동 381번지 부천식물원내","category":"문화.취미 - 화원"}]},{"lat":"37.503820859","long":"126.81207024","items":[{"name":"풀잎사랑","tel":"032-681-1466","addr":"경기도 부천시 춘의동 442-4번지 2층","category":"일반휴게음식 - 일반한식"},{"name":"풀잎사랑","tel":"032-681-1466","addr":"경기도 부천시 춘의동 442-4번지","category":"일반휴게음식 - 일반한식"}]},{"lat":"37.504120025","long":"126.81321172","items":[{"name":"풍계가든","tel":"032-681-2211","addr":"경기도 부천시 춘의동 437-2번지","category":"일반휴게음식 - 일반한식"}]},{"lat":"37.503202378","long":"126.78282605","items":[{"name":"프로포즈","tel":"032-673-7359","addr":"경기도 부천시 춘의동 143-4번지 1층","category":"일반휴게음식 - 일반한식"},{"name":"형제만물사","tel":"032-662-3360","addr":"경기도 부천시 춘의동 143-4번지","category":"신변잡화 - 기념품점"}]},{"lat":"37.504841709","long":"126.78257243","items":[{"name":"플레이홈케어","tel":"070-8829-6215","addr":"경기도 부천시 춘의동 128-22번지 청담빌리지 5동 101호","category":"용역 서비스 - 종합용역"}]},{"lat":"37.50525772","long":"126.78340812","items":[{"name":"피규어굿즈(FigureGoods)","tel":"070-8711-0805","addr":"경기도 부천시 춘의동 125-2번지 엘시티 102동 302호","category":"서적문구 - 완구점"}]},{"lat":"37.502653913","long":"126.78343836","items":[{"name":"피아노악기랜드","tel":"032-666-1888","addr":"경기도 부천시 춘의동 173-19번지","category":"레져용품 - 피아노대리점"}]},{"lat":"37.499704454","long":"126.78657951","items":[{"name":"하나공예","tel":"032-652-7175","addr":"경기도 부천시 춘의동 205-10번지","category":"주방용구 - 주방용구"},{"name":"하나산업","tel":"032-652-7175","addr":"경기도 부천시 춘의동 205-10번지","category":"주방용구 - 주방용구"}]},{"lat":"37.500340504","long":"126.79457302","items":[{"name":"하늘인","tel":"031-1688-8865","addr":"경기도 부천시 춘의동 237번지 춘의주공아파트","category":"용역 서비스 - 사무서비스"}]},{"lat":"37.504510775","long":"126.79382632","items":[{"name":"하이카프라자 춘의점","tel":"032-662-7784","addr":"경기도 부천시 춘의동 149-7","category":"자동차정비 유지 - 자동차정비"}]},{"lat":"37.503756963","long":"126.78551605","items":[{"name":"한국주방","tel":"","addr":"경기도 부천시 춘의동 139-6번지 2층 호","category":"용역 서비스 - 기타용역서비스"}]},{"lat":"37.501848409","long":"126.78635845","items":[{"name":"한근에한근더","tel":"032-664-0005","addr":"경기도 부천시 춘의동 167-9번지","category":"일반휴게음식 - 일반한식"}]},{"lat":"37.503012138","long":"126.78227246","items":[{"name":"한복을만드는사람들","tel":"032-672-6100","addr":"경기도 부천시 춘의동 144-19번지","category":"의류 - 맞춤복점"}]},{"lat":"37.503813799","long":"126.79201876","items":[{"name":"해오름한식부페","tel":"032-656-1003","addr":"경기도 부천시 춘의동 152-4번지 지하1층","category":"일반휴게음식 - 일반한식"}]},{"lat":"37.499708233","long":"126.78374101","items":[{"name":"행복야채청과","tel":"031-000-0000","addr":"경기도 부천시 춘의동 220-8번지 1층 102호","category":"음료식품 - 농·축·수산품"}]},{"lat":"37.500095343","long":"126.78357024","items":[{"name":"향기꽃방","tel":"031-671-0943","addr":"경기도 부천시 춘의동 218-35번지","category":"문화.취미 - 화원"},{"name":"향기꽃방 퀵서비스","tel":"032-671-0943","addr":"경기도 부천시 춘의동 218-35번지 1층","category":"문화.취미 - 화원"}]},{"lat":"37.504292209","long":"126.79251503","items":[{"name":"헤리티까사","tel":"070-8945-2569","addr":"경기도 부천시 춘의동 151-1번지","category":"가구 - 일반가구"}]},{"lat":"37.503875456","long":"126.81807537","items":[{"name":"현대이벤트여행사","tel":"02-2649-5300","addr":"경기도 부천시 춘의동 387-1번지","category":"학원 - 기타 교육기관"}]},{"lat":"37.49817871","long":"126.78491025","items":[{"name":"현대카서비스","tel":"032-655-5238","addr":"경기도 부천시 춘의동 222-21번지","category":"자동차정비 유지 - 자동차정비"}]},{"lat":"37.505675918","long":"126.78543132","items":[{"name":"홍진청과","tel":"032-676-4062","addr":"경기도 부천시 춘의동 123-64번지","category":"음료식품 - 농·축·수산품"}]},{"lat":"37.50079153","long":"126.78488004","items":[{"name":"화담다인","tel":"","addr":"경기도 부천시 춘의동 217-26번지 1층 일부","category":"일반휴게음식 - 일반한식"}]},{"lat":"37.505707961","long":"126.82032147","items":[{"name":"화우","tel":"032-1899-3272","addr":"경기도 부천시 춘의동 366-1번지 2층","category":"일반휴게음식 - 일반한식"}]},{"lat":"37.500816048","long":"126.7835229","items":[{"name":"화이트진인테리어","tel":"","addr":"경기도 부천시 춘의동 216-11번지 영동리치빌 203호","category":"건축자재 - 인테리어전문"}]},{"lat":"37.505618286","long":"126.78840592","items":[{"name":"환철기업","tel":"032-677-6514","addr":"경기도 부천시 춘의동 72-7번지","category":"기타 - 기계공구"}]},{"lat":"37.50401316","long":"126.78276713","items":[{"name":"황인선 테라피","tel":"032-683-6110","addr":"경기도 부천시 춘의동 142-3번지 드림타운 101호","category":"보건위생 - 화장품"}]}]