[{"lat":"37.402069562","long":"127.6625985","items":[{"name":"김원주조형","tel":"031-884-9584","addr":"경기도 여주시 북내면 상교리 335번지","category":"문화.취미 - 민예·공예품"}]},{"lat":"37.387258576","long":"127.66397049","items":[{"name":"봉순이한지문화연구소","tel":"031-882-3535","addr":"경기도 여주시 북내면 상교리 99-1번지","category":"학원 - 기타 교육기관"}]},{"lat":"37.401653526","long":"127.65802086","items":[{"name":"숲속건강나라","tel":"031-884-2192","addr":"경기도 여주시 북내면 상교리 370-5번지 외2필지","category":"일반휴게음식 - 일반한식"},{"name":"숲속건강나라","tel":"031-884-5999","addr":"경기도 여주시 북내면 상교리 370-5번지","category":"보건위생 - 사우나"}]},{"lat":"37.380457321","long":"127.66535599","items":[{"name":"아로마파티","tel":"031-884-0879","addr":"경기도 여주시 북내면 상교리 61번지","category":"보건위생 - 화장품"}]},{"lat":"37.3837088195","long":"127.6671572983","items":[{"name":"여주도자기","tel":"031-111-1111","addr":"경기도 여주시 북내면 상교리 37-1번지","category":"문화.취미 - 민예·공예품"}]},{"lat":"37.40239643","long":"127.65890825","items":[{"name":"여주참숯제조","tel":"031-884-4062","addr":"경기도 여주시 북내면 상교리 355번지","category":"일반휴게음식 - 일반한식"}]},{"lat":"37.400784704","long":"127.66518478","items":[{"name":"주식회사민들레식품","tel":"031-884-4180","addr":"경기도 여주시 북내면 상교리 297-2번지","category":"음료식품 - 정육점"}]},{"lat":"37.37898707","long":"127.66885437","items":[{"name":"토산방","tel":"031-883-3744","addr":"경기도 여주시 북내면 상교리 56-1번지 1층","category":"문화.취미 - 민예·공예품"}]}]