[{"lat":"37.599137755","long":"126.86515074","items":[{"name":"(유)웰드원(Weldwone Ltd)","tel":"02-3159-0454","addr":"경기도 고양시 덕양구 화전동 646-6번지","category":"기타 - 기계공구"},{"name":"(유)웰드원(Weldwone Ltd)","tel":"02-3159-0454","addr":"경기도 고양시 덕양구 화전동 646-6번지","category":""},{"name":"(주)매직자동문","tel":"02-3159-8286","addr":"경기도 고양시 덕양구 화전동 646-6번지","category":""},{"name":"(주)매직자동문","tel":"02-3159-8286","addr":"경기도 고양시 덕양구 화전동 646-6번지","category":"건축자재 - 기타건축자재"},{"name":"(주)뮤시스","tel":"031-5577-9900","addr":"경기도 고양시 덕양구 화전동 646-6번지","category":""},{"name":"(주)뮤시스","tel":"031-5577-9900","addr":"경기도 고양시 덕양구 화전동 646-6번지","category":"사무통신 - 컴퓨터"},{"name":"(주)플랭","tel":"031-908-8202","addr":"경기도 고양시 덕양구 화전동 646-6번지","category":"기타 - 기계공구"},{"name":"드론파워테크","tel":"031-000-0000","addr":"경기도 고양시 덕양구 화전동 646-6번지","category":"전기제품 - 기타전기제품"},{"name":"블루포트 항공대학교점/(주)씨앤코컴퍼니","tel":"031-1111-1111","addr":"경기도 고양시 덕양구 화전동 646-6번지","category":"일반휴게음식 - 서양음식"},{"name":"세븐일레븐항공대공학관점","tel":"031-1577-0711","addr":"경기도 고양시 덕양구 화전동 646-6번지","category":"유통업 영리 - 편 의 점"},{"name":"세븐일레븐항공대국제은익관점","tel":"031-1577-0711","addr":"경기도 고양시 덕양구 화전동 646-6번지","category":"유통업 영리 - 편 의 점"},{"name":"에이브트리일렉트로닉스코리아 주식회사","tel":"02-569-2227","addr":"경기도 고양시 덕양구 화전동 646-6번지","category":"사무통신 - 컴퓨터"},{"name":"에이브트리일렉트로닉스코리아 주식회사","tel":"02-569-2227","addr":"경기도 고양시 덕양구 화전동 646-6번지","category":""},{"name":"에이스코","tel":"02-3159-0802","addr":"경기도 고양시 덕양구 화전동 646-6번지","category":""},{"name":"주식회사엔터뉴스","tel":"070-8704-8840","addr":"경기도 고양시 덕양구 화전동 646-6번지","category":""},{"name":"주식회사유씨알(User Creative Robot Co.,L","tel":"02-3158-5226","addr":"경기도 고양시 덕양구 화전동 646-6번지","category":"서적문구 - 과학기자재"},{"name":"주식회사유씨알(User Creative Robot Co.,L","tel":"02-3158-5226","addr":"경기도 고양시 덕양구 화전동 646-6번지","category":""},{"name":"카피콜","tel":"02-3158-4631","addr":"경기도 고양시 덕양구 화전동 646-6번지","category":"서적문구 - 출판 및 인쇄물"},{"name":"카피콜","tel":"02-3158-4631","addr":"경기도 고양시 덕양구 화전동 646-6번지","category":""},{"name":"테크원","tel":"031-918-2128","addr":"경기도 고양시 덕양구 화전동 646-6번지","category":"회원제형태 - 기타4"},{"name":"테크원","tel":"031-918-2128","addr":"경기도 고양시 덕양구 화전동 646-6번지","category":""},{"name":"한아시스템","tel":"02-3159-6061","addr":"경기도 고양시 덕양구 화전동 646-6번지","category":""},{"name":"한아시스템","tel":"02-3159-6061","addr":"경기도 고양시 덕양구 화전동 646-6번지","category":"사무통신 - 통신기기"}]},{"lat":"37.613277273","long":"126.86792217","items":[{"name":"(주)대륭냉동물류","tel":"02-3158-6900","addr":"경기도 고양시 덕양구 화전동 455-29번지","category":""}]},{"lat":"37.599643503","long":"126.87419757","items":[{"name":"(주)동창산업","tel":"031-972-2351","addr":"경기도 고양시 덕양구 화전동 229-6번지","category":"건축자재 - 보일러·펌프·샷시"},{"name":"(주)동창산업","tel":"031-972-2351","addr":"경기도 고양시 덕양구 화전동 229-6번지","category":""},{"name":"(주)동창산업","tel":"02-3159-7070","addr":"경기도 고양시 덕양구 화전동 229-6번지","category":"회원제형태 - 레져업소"},{"name":"(주)동창산업","tel":"02-3159-7070","addr":"경기도 고양시 덕양구 화전동 229-6번지","category":""},{"name":"돈통마늘보쌈화전점","tel":"02-3159-8899","addr":"경기도 고양시 덕양구 화전동 229-6번지","category":"일반휴게음식 - 일반한식"},{"name":"돈통마늘보쌈화전점","tel":"02-3159-8899","addr":"경기도 고양시 덕양구 화전동 229-6번지","category":""}]},{"lat":"37.613497647","long":"126.87159139","items":[{"name":"(주)삼하트리니티","tel":"070-7590-4625","addr":"경기도 고양시 덕양구 화전동 413-7번지","category":""}]},{"lat":"37.601388098","long":"126.871205","items":[{"name":"(주)신정고려인삼","tel":"02-395-8868","addr":"경기도 고양시 덕양구 화전동 203-36번지","category":"건강식품 - 인삼제품"},{"name":"주식회사 신정고려인삼 고양지점","tel":"02-395-8868","addr":"경기도 고양시 덕양구 화전동 203-36번지","category":"건강식품 - 인삼제품"}]},{"lat":"37.599164895","long":"126.8732019","items":[{"name":"(주)제스코인터내셔널","tel":"070-4848-1695","addr":"경기도 고양시 덕양구 화전동 229-13번지","category":""},{"name":"(주)제스코인터내셔널","tel":"070-4848-1695","addr":"경기도 고양시 덕양구 화전동 229-13번지","category":"건축자재 - 조명기구"},{"name":"캠핑Zip","tel":"02-3158-1291","addr":"경기도 고양시 덕양구 화전동 229-13번지","category":""},{"name":"캠핑Zip","tel":"02-3158-1291","addr":"경기도 고양시 덕양구 화전동 229-13번지","category":"레져용품 - 스포츠·레져용품"},{"name":"하우커뮤니케이션","tel":"031-905-3500","addr":"경기도 고양시 덕양구 화전동 229-13번지","category":"레져용품 - 스포츠·레져용품"},{"name":"하우커뮤니케이션","tel":"031-905-3500","addr":"경기도 고양시 덕양구 화전동 229-13번지","category":""}]},{"lat":"37.604753788","long":"126.86769976","items":[{"name":"(주)태드웍스","tel":"02-385-1241","addr":"경기도 고양시 덕양구 화전동 549-22번지","category":""},{"name":"네파(고양화전점)","tel":"02-3158-5505","addr":"경기도 고양시 덕양구 화전동 549-22번지","category":""},{"name":"네파(고양화전점)","tel":"02-3158-5505","addr":"경기도 고양시 덕양구 화전동 549-22번지","category":"레져용품 - 스포츠·레져용품"},{"name":"놀숲 (항공대점)","tel":"070-4334-1600","addr":"경기도 고양시 덕양구 화전동 549-22번지","category":""},{"name":"놀숲 (항공대점)","tel":"070-4334-1600","addr":"경기도 고양시 덕양구 화전동 549-22번지","category":"서적문구 - 일반서적"},{"name":"소문난팔도뼈해장국","tel":"02-3158-5388","addr":"경기도 고양시 덕양구 화전동 549-22번지","category":""},{"name":"소문난팔도뼈해장국","tel":"02-3158-5388","addr":"경기도 고양시 덕양구 화전동 549-22번지","category":""},{"name":"파쓰리","tel":"","addr":"경기도 고양시 덕양구 화전동 549-22번지","category":"일반휴게음식 - 일반한식"}]},{"lat":"37.599498045","long":"126.87300882","items":[{"name":"119GOLF","tel":"031-3159-1190","addr":"경기도 고양시 덕양구 화전동 229-14번지","category":""},{"name":"119GOLF","tel":"031-3159-1190","addr":"경기도 고양시 덕양구 화전동 229-14번지","category":"레져용품 - 골프용품 전문점"},{"name":"몽벨 화전점","tel":"02-3159-6468","addr":"경기도 고양시 덕양구 화전동 229-14번지","category":""},{"name":"오스카","tel":"070-8813-8714","addr":"경기도 고양시 덕양구 화전동 229-14번지","category":"자동차정비 유지 - 자동차부품"},{"name":"오스카","tel":"070-8813-8714","addr":"경기도 고양시 덕양구 화전동 229-14번지","category":""}]},{"lat":"37.604719053","long":"126.86884361","items":[{"name":"21세기","tel":"070-8234-1892","addr":"경기도 고양시 덕양구 화전동 562-60번지","category":""},{"name":"파트너","tel":"070-8234-1892","addr":"경기도 고양시 덕양구 화전동 562-60번지","category":""},{"name":"파트너","tel":"070-8234-1892","addr":"경기도 고양시 덕양구 화전동","category":"신변잡화 - 기타잡화"}]},{"lat":"37.610333582","long":"126.87012464","items":[{"name":"Bn씽크","tel":"070-8873-2041","addr":"경기도 고양시 덕양구 화전동 502-1번지","category":""},{"name":"Bn씽크","tel":"070-8873-2041","addr":"경기도 고양시 덕양구 화전동 502-1번지","category":"주방용구 - 주방용구"}]},{"lat":"37.599976109","long":"126.87350624","items":[{"name":"ELLE 고양화전점","tel":"070-7435-3985","addr":"경기도 고양시 덕양구 화전동 229-60번지","category":"레져용품 - 스포츠·레져용품"},{"name":"ELLE 고양화전점","tel":"070-7435-3985","addr":"경기도 고양시 덕양구 화전동 229-60번지","category":""},{"name":"ELLE 고양화전점","tel":"070-7435-3985","addr":"경기도 고양시 덕양구 화전동 229-60번지","category":""},{"name":"STCO 화전상설점","tel":"02-3159-7191","addr":"경기도 고양시 덕양구 화전동 229-60번지","category":""},{"name":"STCO 화전상설점","tel":"02-3159-7191","addr":"경기도 고양시 덕양구 화전동 229-60번지","category":"레져용품 - 스포츠·레져용품"},{"name":"디즈니골프","tel":"02-3159-8583","addr":"경기도 고양시 덕양구 화전동 229-60번지","category":""},{"name":"레노마 고양화전","tel":"02-3158-3001","addr":"경기도 고양시 덕양구 화전동 229-60번지","category":"의류 - 스포츠의류"},{"name":"레노마 고양화전","tel":"02-3158-3001","addr":"경기도 고양시 덕양구 화전동 229-60번지","category":""},{"name":"레노마 고양화전점","tel":"02-3158-3001","addr":"경기도 고양시 덕양구 화전동 229-60번지","category":""},{"name":"레노마스포츠","tel":"","addr":"경기도 고양시 덕양구 화전동 229-60번지","category":"의류 - 스포츠의류"},{"name":"벤제프 골프","tel":"02-3159-8583","addr":"경기도 고양시 덕양구 화전동 229-60번지","category":"의류 - 스포츠의류"},{"name":"엘레강스스포츠 고양화전점","tel":"02-3158-5115","addr":"경기도 고양시 덕양구 화전동 229-60번지","category":""},{"name":"제이디엑스","tel":"02-3159-1719","addr":"경기도 고양시 덕양구 화전동 229-60번지","category":""},{"name":"제이디엑스(JDX)","tel":"02-3159-1719","addr":"경기도 고양시 덕양구 화전동 229-60번지","category":"의류 - 스포츠의류"},{"name":"제이디엑스(JDX)","tel":"02-3159-1719","addr":"경기도 고양시 덕양구 화전동 229-60번지","category":""},{"name":"팬텀 고양화전점","tel":"02-3159-1400","addr":"경기도 고양시 덕양구 화전동 229-60번지","category":"레져용품 - 스포츠·레져용품"},{"name":"팬텀 고양화전점","tel":"02-3159-1400","addr":"경기도 고양시 덕양구 화전동 229-60번지","category":""},{"name":"핑","tel":"02-3159-1719","addr":"경기도 고양시 덕양구 화전동 229-60번지","category":""},{"name":"핑","tel":"02-3159-1719","addr":"경기도 고양시 덕양구 화전동 229-60번지","category":"의류 - 스포츠의류"}]},{"lat":"37.600192107","long":"126.87329071","items":[{"name":"G L&S","tel":"070-7729-8360","addr":"경기도 고양시 덕양구 화전동","category":"의류 - 스포츠의류"},{"name":"G L&S","tel":"070-7729-8360","addr":"경기도 고양시 덕양구 화전동 229-60번지","category":""}]},{"lat":"37.603476209","long":"126.86928749","items":[{"name":"GS25화전역점","tel":"","addr":"경기도 고양시 덕양구 화전동 578-1번지","category":""},{"name":"GS25화전역점","tel":"","addr":"경기도 고양시 덕양구 화전동 578-1번지","category":"유통업 영리 - 편 의 점"}]},{"lat":"37.604947834","long":"126.85664654","items":[{"name":"JH스포츠","tel":"070-4405-6544","addr":"경기도 고양시 덕양구 화전동 790-2번지","category":""},{"name":"JH스포츠","tel":"070-4405-6544","addr":"경기도 고양시 덕양구 화전동 790-2번지","category":"학원 - 기타 교육기관"}]},{"lat":"37.600583135","long":"126.87661929","items":[{"name":"KINGKONGS","tel":"031-852-2278","addr":"경기도 고양시 덕양구 화전동 143-25번지","category":"레져용품 - 악기점"},{"name":"KINGKONGS","tel":"031-852-2278","addr":"경기도 고양시 덕양구 화전동 143-25번지","category":""}]},{"lat":"37.603890311","long":"126.86898099","items":[{"name":"N.B틴팅","tel":"02-3158-3200","addr":"경기도 고양시 덕양구 화전동 558-9번지","category":"자동차정비 유지 - 자동차부품"},{"name":"N.B틴팅","tel":"02-3158-3200","addr":"경기도 고양시 덕양구 화전동 558-9번지","category":""},{"name":"빅프로멀티샵","tel":"02-3159-8253","addr":"경기도 고양시 덕양구 화전동 558-9번지","category":""}]},{"lat":"37.613299797","long":"126.87192018","items":[{"name":"SH기업","tel":"031-3159-7078","addr":"경기도 고양시 덕양구 화전동 411-4번지","category":""},{"name":"황금주방용품","tel":"02-3159-7281","addr":"경기도 고양시 덕양구 화전동 411-4번지","category":""}]},{"lat":"37.599615047","long":"126.87289538","items":[{"name":"TG패션","tel":"02-3159-9118","addr":"경기도 고양시 덕양구 화전동 229-56번지","category":""},{"name":"TG패션","tel":"02-3159-9118","addr":"경기도 고양시 덕양구 화전동 229-56번지","category":"의류 - 정장"},{"name":"아이언줄리엣","tel":"02-3158-6444","addr":"경기도 고양시 덕양구 화전동 229-56번지","category":"직물 - 침구·수예점"}]},{"lat":"37.600309928","long":"126.87392465","items":[{"name":"THE MOST(더 모스트)","tel":"","addr":"경기도 고양시 덕양구 화전동 229-50번지 2동","category":""},{"name":"THE MOST(더 모스트)","tel":"","addr":"경기도 고양시 덕양구 화전동 229-50번지","category":"자동차정비 유지 - 자동차부품"},{"name":"에너지박스","tel":"031-967-5324","addr":"경기도 고양시 덕양구 화전동 229-50번지","category":""}]},{"lat":"37.602946101","long":"126.87059074","items":[{"name":"가람에어컨","tel":"02-3159-8880","addr":"경기도 고양시 덕양구 화전동 576-1번지","category":""},{"name":"가람에어컨","tel":"02-3159-8880","addr":"경기도 고양시 덕양구 화전동 576-1번지","category":"용역 서비스 - 기타용역서비스"},{"name":"선우전자","tel":"02-3158-4773","addr":"경기도 고양시 덕양구 화전동 576-1번지","category":"전기제품 - 기타전기제품"},{"name":"선우전자","tel":"02-3158-4773","addr":"경기도 고양시 덕양구 화전동 576-1번지","category":""},{"name":"오토매직","tel":"02-3158-0117","addr":"경기도 고양시 덕양구 화전동 576-1번지","category":""},{"name":"청송환경","tel":"070-5091-0772","addr":"경기도 고양시 덕양구 화전동 576-1번지","category":"신변잡화 - 기타잡화"},{"name":"청송환경","tel":"070-5091-0772","addr":"경기도 고양시 덕양구 화전동 576-1번지","category":""},{"name":"커피닥터","tel":"02-3159-3728","addr":"경기도 고양시 덕양구 화전동 576-1번지","category":""},{"name":"커피닥터","tel":"02-3159-3728","addr":"경기도 고양시 덕양구 화전동 576-1번지","category":"주방용구 - 주방용구"}]},{"lat":"37.609253141","long":"126.86295763","items":[{"name":"가정식백반","tel":"","addr":"경기도 고양시 덕양구 화전동 759-1번지","category":"일반휴게음식 - 일반한식"},{"name":"고양포장","tel":"","addr":"경기도 고양시 덕양구 화전동 759-1번지","category":"유통업 영리 - 기타유통업"},{"name":"대창유통","tel":"02-3158-3322","addr":"경기도 고양시 덕양구 화전동 759-1번지","category":"유통업 영리 - 기타유통업"},{"name":"대창유통","tel":"02-3158-3322","addr":"경기도 고양시 덕양구 화전동 759-1번지","category":""},{"name":"서광산업","tel":"031-973-8090","addr":"경기도 고양시 덕양구 화전동 759-1번지","category":""},{"name":"서광산업","tel":"031-973-8090","addr":"경기도 고양시 덕양구 화전동 759-1번지","category":"가구 - 일반가구"}]},{"lat":"37.613750322","long":"126.87195337","items":[{"name":"강원식품","tel":"02-3158-5490","addr":"경기도 고양시 덕양구 화전동 424-16번지","category":"유통업 영리 - 슈퍼마켓"},{"name":"강원식품","tel":"02-3158-5490","addr":"경기도 고양시 덕양구 화전동 424-16번지","category":""}]},{"lat":"37.607800424","long":"126.86887205","items":[{"name":"건창사","tel":"02-3159-7784","addr":"경기도 고양시 덕양구 화전동 514-70번지","category":""},{"name":"헤어미장","tel":"054-741-5251","addr":"경기도 고양시 덕양구 화전동 514-70번지","category":""},{"name":"헤어미장","tel":"054-741-5251","addr":"경기도 고양시 덕양구 화전동 514-70번지","category":"보건위생 - 미용원"}]},{"lat":"37.608052941","long":"126.86908678","items":[{"name":"경기철물","tel":"02-3158-0018","addr":"경기도 고양시 덕양구 화전동 514-4번지","category":"건축자재 - 목재·석재·철물"},{"name":"경기철물","tel":"02-3158-0018","addr":"경기도 고양시 덕양구 화전동 514-4번지","category":""}]},{"lat":"37.600696155","long":"126.87283688","items":[{"name":"경서동물","tel":"02-3158-0733","addr":"경기도 고양시 덕양구 화전동 219-14번지","category":"문화.취미 - 애완동물"},{"name":"경서동물","tel":"02-3158-0733","addr":"경기도 고양시 덕양구 화전동 219-14번지","category":""},{"name":"경서동물병원","tel":"02-3158-0733","addr":"경기도 고양시 덕양구 화전동 219-14번지","category":"문화.취미 - 애완동물"},{"name":"경서동물병원","tel":"02-3158-0733","addr":"경기도 고양시 덕양구 화전동 219-14번지","category":""},{"name":"경서동물병원","tel":"02-3158-0733","addr":"경기도 고양시 덕양구 화전동 219-14번지","category":""},{"name":"왁스랩(Wax Lab)","tel":"02-3158-2111","addr":"경기도 고양시 덕양구 화전동 219-14번지","category":""},{"name":"크로커다일레이디 고양화전점","tel":"031-321-2680","addr":"경기도 고양시 덕양구 화전동 219-14번지","category":""}]},{"lat":"37.604359164","long":"126.86928591","items":[{"name":"고려상사","tel":"02-3158-4200","addr":"경기도 고양시 덕양구 화전동 558-5번지","category":""}]},{"lat":"37.603584236","long":"126.86920803","items":[{"name":"고양화전동우체국","tel":"02-3158-5231","addr":"경기도 고양시 덕양구 화전동 578-5번지","category":""},{"name":"고양화전동우체국","tel":"02-3158-5231","addr":"경기도 고양시 덕양구 화전동 578-5번지","category":"용역 서비스 - 공공요금대행서비스/소"}]},{"lat":"37.601612658","long":"126.8705931","items":[{"name":"골뱅이","tel":"02-3159-9292","addr":"경기도 고양시 덕양구 화전동 203-63번지","category":""},{"name":"골뱅이","tel":"02-3159-9292","addr":"경기도 고양시 덕양구 화전동 203-63번지","category":"일반휴게음식 - 주점"},{"name":"한길토우돈","tel":"02-3158-4260","addr":"경기도 고양시 덕양구 화전동 203-63번지","category":""}]},{"lat":"37.602305811","long":"126.87005963","items":[{"name":"골뱅이2","tel":"02-3159-8700","addr":"경기도 고양시 덕양구 화전동 576-34번지","category":""},{"name":"골뱅이2","tel":"02-3159-8700","addr":"경기도 고양시 덕양구 화전동 576-34번지","category":"일반휴게음식 - 주점"},{"name":"브이아이피 당구장","tel":"070-8952-4675","addr":"경기도 고양시 덕양구 화전동 576-34번지","category":""},{"name":"브이아이피당구클럽","tel":"070-7365-0492","addr":"경기도 고양시 덕양구 화전동 576-34번지","category":""},{"name":"비에스당구클럽","tel":"031-3369-1472","addr":"경기도 고양시 덕양구 화전동 576-34번지","category":"레저업소 - 당 구 장"}]},{"lat":"37.604835987","long":"126.86867353","items":[{"name":"골프로 (Law)","tel":"070-4634-3953","addr":"경기도 고양시 덕양구 화전동 562-60번지","category":"레져용품 - 골프용품 전문점"},{"name":"골프로 (Law)","tel":"070-4634-3953","addr":"경기도 고양시 덕양구 화전동 562-60번지","category":""},{"name":"정도수산","tel":"02-3159-0592","addr":"경기도 고양시 덕양구 화전동 562-60번지","category":""},{"name":"정도수산","tel":"02-3159-0592","addr":"경기도 고양시 덕양구 화전동 562-60번지","category":"음료식품 - 농·축·수산품"},{"name":"코사마트화전점","tel":"02-3158-5162","addr":"경기도 고양시 덕양구 화전동 562-60번지","category":"유통업 영리 - 슈퍼마켓"},{"name":"코사마트화전점","tel":"02-3158-5162","addr":"경기도 고양시 덕양구 화전동 562-60번지","category":""}]},{"lat":"37.597059895","long":"126.87622892","items":[{"name":"광명상사","tel":"02-3158-6620","addr":"경기도 고양시 덕양구 화전동 169-31번지","category":""},{"name":"광명종합산업","tel":"02-3159-6000","addr":"경기도 고양시 덕양구 화전동 169-31번지","category":"건축자재 - 기타건축자재"},{"name":"광명종합산업","tel":"02-3159-6000","addr":"경기도 고양시 덕양구 화전동 169-31번지","category":""}]},{"lat":"37.61430803","long":"126.87114824","items":[{"name":"광일시스템","tel":"02-3158-4555","addr":"경기도 고양시 덕양구 화전동 416-4번지 해온빌","category":""}]},{"lat":"37.610550933","long":"126.87112089","items":[{"name":"국일상사","tel":"031-3159-1959","addr":"경기도 고양시 덕양구 화전동 369-1번지","category":""},{"name":"국일상사","tel":"031-3159-1959","addr":"경기도 고양시 덕양구 화전동 369-1번지","category":"자동차정비 유지 - 자동차정비"},{"name":"대흥상사","tel":"02-384-0012","addr":"경기도 고양시 덕양구 화전동 369-1번지","category":""},{"name":"대흥상사","tel":"02-384-0012","addr":"경기도 고양시 덕양구 화전동 369-1번지","category":"자동차정비 유지 - 자동차시트·타이어"}]},{"lat":"37.60088701","long":"126.87434264","items":[{"name":"국희네식당","tel":"02-306-5367","addr":"경기도 고양시 덕양구 화전동 227-2번지","category":""},{"name":"국희네식당","tel":"02-306-5367","addr":"경기도 고양시 덕양구 화전동 227-2번지","category":"일반휴게음식 - 일반한식"},{"name":"꼬꼬시티","tel":"02-3159-8877","addr":"경기도 고양시 덕양구 화전동 227-2번지","category":""},{"name":"꼬꼬시티(화전점)","tel":"02-3159-8877","addr":"경기도 고양시 덕양구 화전동 227-2번지","category":""},{"name":"꼬꼬시티(화전점)","tel":"02-3159-8877","addr":"경기도 고양시 덕양구 화전동 227-2번지","category":"일반휴게음식 - 스넥"},{"name":"즐거운피아노개인교습소(박정미)","tel":"070-0000-0000","addr":"경기도 고양시 덕양구 화전동 227-2번지","category":"학원 - 예·체능계학원"}]},{"lat":"37.599473044","long":"126.87486597","items":[{"name":"그냥밥집","tel":"02-3159-8853","addr":"경기도 고양시 덕양구 화전동 231-8번지","category":""},{"name":"씨유화전양지마을점","tel":"02-3159-0290","addr":"경기도 고양시 덕양구 화전동","category":"유통업 영리 - 편 의 점"},{"name":"씨유화전양지마을점","tel":"02-3159-0290","addr":"경기도 고양시 덕양구 화전동 231-8번지","category":""},{"name":"앵글천국","tel":"02-3158-2021","addr":"경기도 고양시 덕양구 화전동 231-8번지","category":""},{"name":"커피베이 화전점","tel":"02-3159-0291","addr":"경기도 고양시 덕양구 화전동 231-8번지","category":"일반휴게음식 - 서양음식"},{"name":"커피베이 화전점","tel":"02-3159-0291","addr":"경기도 고양시 덕양구 화전동 231-8번지","category":""}]},{"lat":"37.603468234","long":"126.87020478","items":[{"name":"그리에이트","tel":"02-1577-5391","addr":"경기도 고양시 덕양구 화전동 574-3번지","category":""},{"name":"그리에이트","tel":"02-1577-5391","addr":"경기도 고양시 덕양구 화전동 574-3번지","category":"보건위생 - 미용재료"}]},{"lat":"37.608807559","long":"126.85953824","items":[{"name":"금성철강","tel":"02-3159-8186","addr":"경기도 고양시 덕양구 화전동","category":"기타 - 기계공구"},{"name":"금성철강","tel":"02-3159-8186","addr":"경기도 고양시 덕양구 화전동 757-20번지","category":""}]},{"lat":"37.601027176","long":"126.87073003","items":[{"name":"까치식당","tel":"031-3158-5584","addr":"경기도 고양시 덕양구 화전동 203-84번지","category":""},{"name":"까치식당","tel":"031-3158-5584","addr":"경기도 고양시 덕양구 화전동","category":"일반휴게음식 - 일반한식"}]},{"lat":"37.60197208","long":"126.86973182","items":[{"name":"꼬기꼬기","tel":"070-8958-3818","addr":"경기도 고양시 덕양구 화전동 203-97번지","category":""}]},{"lat":"37.608190675","long":"126.86353721","items":[{"name":"꽃과나무그리고향기","tel":"02-3158-3895","addr":"경기도 고양시 덕양구 화전동 737-12번지","category":"문화.취미 - 화원"},{"name":"꽃과나무그리고향기","tel":"02-3158-3895","addr":"경기도 고양시 덕양구 화전동 737-12번지","category":""},{"name":"들향기","tel":"031-907-6680","addr":"경기도 고양시 덕양구 화전동 737-12번지","category":""},{"name":"들향기","tel":"031-907-6680","addr":"경기도 고양시 덕양구 화전동 737-12번지","category":"문화.취미 - 화원"},{"name":"향수원","tel":"02-3158-5302","addr":"경기도 고양시 덕양구 화전동 737-12번지","category":"문화.취미 - 화원"}]},{"lat":"37.606356664","long":"126.86694941","items":[{"name":"꽃과함께","tel":"02-3158-3271","addr":"경기도 고양시 덕양구 화전동 528번지","category":""},{"name":"꽃사랑난꽃농원","tel":"02-3158-2221","addr":"경기도 고양시 덕양구 화전동 528번지","category":"문화.취미 - 화원"},{"name":"꽃사랑난꽃농원","tel":"02-3158-2221","addr":"경기도 고양시 덕양구 화전동 528번지","category":""},{"name":"생생플라워","tel":"02-3158-3148","addr":"경기도 고양시 덕양구 화전동 528번지","category":""},{"name":"생생플라워","tel":"02-3158-3148","addr":"경기도 고양시 덕양구 화전동 528번지","category":""},{"name":"생생하우스","tel":"02-3158-3148","addr":"경기도 고양시 덕양구 화전동 528번지","category":"문화.취미 - 화원"},{"name":"생생하우스","tel":"02-3158-3148","addr":"경기도 고양시 덕양구 화전동 528번지","category":""},{"name":"서울꽃마트","tel":"02-3158-2811","addr":"경기도 고양시 덕양구 화전동 528번지","category":"문화.취미 - 화원"},{"name":"서울꽃마트","tel":"02-3158-2811","addr":"경기도 고양시 덕양구 화전동 528번지","category":""},{"name":"예지화원","tel":"02-3158-2811","addr":"경기도 고양시 덕양구 화전동 528번지","category":""},{"name":"정원플라워","tel":"02-3159-2225","addr":"경기도 고양시 덕양구 화전동 528번지","category":"문화.취미 - 화원"},{"name":"정원플라워","tel":"02-3159-2225","addr":"경기도 고양시 덕양구 화전동 528번지","category":""},{"name":"화정농원","tel":"02-3159-6902","addr":"경기도 고양시 덕양구 화전동 528번지","category":""},{"name":"화정농원","tel":"02-3159-6902","addr":"경기도 고양시 덕양구 화전동 528번지","category":"문화.취미 - 화원"},{"name":"화정조경개발농원","tel":"031-974-6902","addr":"경기도 고양시 덕양구 화전동 528번지","category":""},{"name":"화정조경개발농원","tel":"031-974-6902","addr":"경기도 고양시 덕양구 화전동 528번지","category":"문화.취미 - 화원"}]},{"lat":"37.600636927","long":"126.87637007","items":[{"name":"꿀단지","tel":"031-979-4089","addr":"경기도 고양시 덕양구 화전동 143-73번지","category":""}]},{"lat":"37.61308394","long":"126.87226034","items":[{"name":"나주식당","tel":"02-3159-9055","addr":"경기도 고양시 덕양구 화전동 825-76번지","category":"일반휴게음식 - 일반한식"},{"name":"서울왕족발","tel":"02-3158-2952","addr":"경기도 고양시 덕양구 화전동 825-76번지","category":""}]},{"lat":"37.612831178","long":"126.87181907","items":[{"name":"나주식당","tel":"02-3159-9055","addr":"경기도 고양시 덕양구 화전동 411-13번지","category":""}]},{"lat":"37.601666564","long":"126.87045711","items":[{"name":"날라비행기","tel":"02-3158-3107","addr":"경기도 고양시 덕양구 화전동 576-30번지","category":""},{"name":"날라비행기","tel":"02-3158-3107","addr":"경기도 고양시 덕양구 화전동 576-30번지","category":"일반휴게음식 - 스넥"},{"name":"뚜이요 (Tu y yo)","tel":"02-3159-9303","addr":"경기도 고양시 덕양구 화전동 576-30번지","category":""}]},{"lat":"37.613772627","long":"126.86776271","items":[{"name":"남도기업","tel":"02-3158-1332","addr":"경기도 고양시 덕양구 화전동 455-10번지","category":""},{"name":"남도기업","tel":"02-3158-1332","addr":"경기도 고양시 덕양구 화전동 455-10번지","category":"건축자재 - 기타건축자재"},{"name":"보성이엔지","tel":"02-3153-3733","addr":"경기도 고양시 덕양구 화전동 455-10번지","category":""},{"name":"보성이엔지","tel":"02-3153-3733","addr":"경기도 고양시 덕양구 화전동 455-10번지","category":"건축자재 - 기타건축자재"}]},{"lat":"37.612083584","long":"126.87201292","items":[{"name":"남신만물사","tel":"02-3158-5705","addr":"경기도 고양시 덕양구 화전동 380-9번지","category":"서적문구 - 문구용품"},{"name":"남신만물사","tel":"02-3158-5705","addr":"경기도 고양시 덕양구 화전동 380-9번지","category":""},{"name":"수림","tel":"02-3159-3043","addr":"경기도 고양시 덕양구 화전동 380-9번지","category":""},{"name":"수림","tel":"02-3159-3043","addr":"경기도 고양시 덕양구 화전동 380-9번지","category":"일반휴게음식 - 중국식"},{"name":"인기노래방","tel":"02-3158-5806","addr":"경기도 고양시 덕양구 화전동","category":"레저업소 - 노 래 방"},{"name":"인기노래방","tel":"02-3158-5806","addr":"경기도 고양시 덕양구 화전동 380-9번지","category":""},{"name":"인기노래방","tel":"02-3158-5806","addr":"경기도 고양시 덕양구 화전동 380-9번지","category":""},{"name":"협동공업사","tel":"02-372-2143","addr":"경기도 고양시 덕양구 화전동 380-9번지","category":""}]},{"lat":"37.6020261","long":"126.86969775","items":[{"name":"늘봄","tel":"02-3158-2158","addr":"경기도 고양시 덕양구 화전동 203-98번지","category":""},{"name":"늘봄","tel":"02-3158-2158","addr":"경기도 고양시 덕양구 화전동 203-98번지","category":""},{"name":"사라타이","tel":"02-3159-7386","addr":"경기도 고양시 덕양구 화전동 203-98번지","category":""},{"name":"사라타이","tel":"02-3159-7386","addr":"경기도 고양시 덕양구 화전동 203-98번지","category":"일반휴게음식 - 서양음식"}]},{"lat":"37.601857072","long":"126.87162317","items":[{"name":"니아 (NIIA)","tel":"02-3159-8256","addr":"경기도 고양시 덕양구 화전동 203-170번지","category":""},{"name":"니아 (NIIA)","tel":"02-3159-8256","addr":"경기도 고양시 덕양구 화전동 203-170번지","category":"자동차정비 유지 - 자동차정비"},{"name":"상승모터스","tel":"02-2159-8256","addr":"경기도 고양시 덕양구 화전동 203-170번지","category":""}]},{"lat":"37.613641827","long":"126.87161378","items":[{"name":"다온하우시스","tel":"031-0-0000","addr":"경기도 고양시 덕양구 화전동 825-62번지","category":""},{"name":"다온하우시스","tel":"031-000-0000","addr":"경기도 고양시 덕양구 화전동 825-62번지","category":"건축자재 - 기타건축자재"}]},{"lat":"37.60153176","long":"126.87076311","items":[{"name":"달마2","tel":"02-3158-1001","addr":"경기도 고양시 덕양구 화전동 203-66번지","category":""},{"name":"달마2","tel":"02-3158-1001","addr":"경기도 고양시 덕양구 화전동 203-66번지","category":"일반휴게음식 - 주점"},{"name":"달마2","tel":"02-3158-1001","addr":"경기도 고양시 덕양구 화전동 203-66번지","category":""},{"name":"달마주점","tel":"02-3158-1001","addr":"경기도 고양시 덕양구 화전동 203-66번지","category":""}]},{"lat":"37.602503783","long":"126.86984412","items":[{"name":"닭마을치킨","tel":"02-3158-5022","addr":"경기도 고양시 덕양구 화전동 615-3번지","category":""},{"name":"닭마을치킨","tel":"02-3158-5022","addr":"경기도 고양시 덕양구 화전동 615-3번지","category":"일반휴게음식 - 일반한식"}]},{"lat":"37.606913668","long":"126.86556676","items":[{"name":"당주당반점","tel":"02-6956-0070","addr":"경기도 고양시 덕양구 화전동 541-2번지","category":"일반휴게음식 - 중국식"},{"name":"로코코소파고양전시장","tel":"02-3158-5453","addr":"경기도 고양시 덕양구 화전동 541-2번지","category":""}]},{"lat":"37.600857993","long":"126.87253085","items":[{"name":"대경닥트자재백화점","tel":"02-3159-7640","addr":"경기도 고양시 덕양구 화전동 219-28번지","category":"기타 - 기타 전문점"},{"name":"대경닥트자재백화점","tel":"02-3159-7640","addr":"경기도 고양시 덕양구 화전동 219-28번지","category":""}]},{"lat":"37.613169325","long":"126.86806961","items":[{"name":"대륭냉동서비스","tel":"02-3158-6900","addr":"경기도 고양시 덕양구 화전동 455-30번지","category":""},{"name":"대륭냉동서비스","tel":"02-3158-6900","addr":"경기도 고양시 덕양구 화전동 455-30번지","category":"수리서비스 - 기타수리서비스"},{"name":"에스엠푸드","tel":"02-3158-1248","addr":"경기도 고양시 덕양구 화전동 455-30번지","category":""},{"name":"은혜목재공예사","tel":"02-305-6121","addr":"경기도 고양시 덕양구 화전동 455-30번지","category":""}]},{"lat":"37.612723388","long":"126.87211373","items":[{"name":"대박호프","tel":"02-3159-3900","addr":"경기도 고양시 덕양구 화전동 381-6번지","category":""},{"name":"대박호프","tel":"02-3159-3900","addr":"경기도 고양시 덕양구 화전동 381-6번지","category":"일반휴게음식 - 주점"},{"name":"호남식당","tel":"02-3158-4420","addr":"경기도 고양시 덕양구 화전동 381-6번지","category":""},{"name":"호남식당","tel":"02-3158-4420","addr":"경기도 고양시 덕양구 화전동 381-6번지","category":"일반휴게음식 - 일반한식"}]},{"lat":"37.601027455","long":"126.87097915","items":[{"name":"대보감자탕","tel":"02-3159-1125","addr":"경기도 고양시 덕양구 화전동 203-79번지","category":"일반휴게음식 - 일반한식"},{"name":"대보감자탕","tel":"02-3159-1125","addr":"경기도 고양시 덕양구 화전동 203-79번지","category":""},{"name":"주식회사팔도섬투어여행사","tel":"02-3158-0188","addr":"경기도 고양시 덕양구 화전동 203-79번지","category":""}]},{"lat":"37.600694183","long":"126.87105901","items":[{"name":"대성오리앤트","tel":"02-3158-4253","addr":"경기도 고양시 덕양구 화전동 203-141","category":""},{"name":"대성오리앤트","tel":"02-3158-4253","addr":"경기도 고양시 덕양구 화전동","category":"서적문구 - 문구용품"},{"name":"대성오리엔트","tel":"02-3158-4253","addr":"경기도 고양시 덕양구 화전동","category":"사무통신 - 기타 사무용품"},{"name":"대성오리엔트","tel":"02-3158-4253","addr":"경기도 고양시 덕양구 화전동 203-141번지","category":""}]},{"lat":"37.601414037","long":"126.87023108","items":[{"name":"대신메디칼","tel":"02-351-3378","addr":"경기도 고양시 덕양구 화전동 203-89번지","category":""}]},{"lat":"37.610334636","long":"126.87106465","items":[{"name":"대일상사","tel":"02-3159-9277","addr":"경기도 고양시 덕양구 화전동 367-1번지","category":""},{"name":"대일상사","tel":"02-3159-9277","addr":"경기도 고양시 덕양구 화전동 367-1번지","category":"자동차정비 유지 - 자동차부품"},{"name":"대일자동차","tel":"02-3159-9278","addr":"경기도 고양시 덕양구 화전동 367-1번지","category":"자동차정비 유지 - 자동차정비"},{"name":"대일자동차","tel":"02-3159-9278","addr":"경기도 고양시 덕양구 화전동 367-1번지","category":""}]},{"lat":"37.600973181","long":"126.87078674","items":[{"name":"대진식품","tel":"02-3158-0414","addr":"경기도 고양시 덕양구 화전동 203-83번지","category":""}]},{"lat":"37.604388937","long":"126.87173197","items":[{"name":"덕양중학교","tel":"02-3158-5352","addr":"경기도 고양시 덕양구 화전동 274-3번지","category":"학원 - 초중고교육기관"}]},{"lat":"37.604051985","long":"126.86853904","items":[{"name":"덕은전기","tel":"02-3159-9712","addr":"경기도 고양시 덕양구 화전동 560-10번지","category":""}]},{"lat":"37.603307263","long":"126.87128089","items":[{"name":"덕은초등학교","tel":"02-3158-4752","addr":"경기도 고양시 덕양구 화전동 274-6번지","category":"학원 - 초중고교육기관"}]},{"lat":"37.599140161","long":"126.87530817","items":[{"name":"덕은카센타","tel":"02-3159-8183","addr":"경기도 고양시 덕양구 화전동 168-2번지","category":""},{"name":"덕은카센타","tel":"02-3159-8183","addr":"경기도 고양시 덕양구 화전동 168-2번지","category":"자동차정비 유지 - 자동차정비"}]},{"lat":"37.598780016","long":"126.87553526","items":[{"name":"도배잘하는 집","tel":"","addr":"경기도 고양시 덕양구 화전동 168-8번지","category":""},{"name":"도배잘하는 집","tel":"","addr":"경기도 고양시 덕양구 화전동 168-8번지","category":"건축자재 - 인테리어전문"},{"name":"산골촌","tel":"02-3158-5832","addr":"경기도 고양시 덕양구 화전동 168-8번지","category":""},{"name":"산골촌","tel":"02-3158-5832","addr":"경기도 고양시 덕양구 화전동 168-8번지","category":"일반휴게음식 - 일반한식"}]},{"lat":"37.604304193","long":"126.86848197","items":[{"name":"동남물산","tel":"031-375-4811","addr":"경기도 고양시 덕양구 화전동 561-10번지","category":"주방용구 - 정수기"},{"name":"동남물산","tel":"031-375-4811","addr":"경기도 고양시 덕양구 화전동 561-10번지","category":""},{"name":"여명양평해장국","tel":"02-3159-8206","addr":"경기도 고양시 덕양구 화전동 561-10번지","category":""},{"name":"쭌호프","tel":"031-410-8588","addr":"경기도 고양시 덕양구 화전동 561-10번지","category":""}]},{"lat":"37.605420639","long":"126.8678118","items":[{"name":"동성모터스","tel":"02-3158-4393","addr":"경기도 고양시 덕양구 화전동 549-3번지","category":""}]},{"lat":"37.598530236","long":"126.87786837","items":[{"name":"동원건장","tel":"02-413-2116","addr":"경기도 고양시 덕양구 화전동 162-14번지","category":"회원제형태 - 기타4"},{"name":"동원건장","tel":"02-413-2116","addr":"경기도 고양시 덕양구 화전동 162-14번지","category":""}]},{"lat":"37.601918213","long":"126.86990178","items":[{"name":"두꺼비하우스","tel":"02-3158-1290","addr":"경기도 고양시 덕양구 화전동 203-95번지","category":""},{"name":"두꺼비하우스","tel":"02-3158-1290","addr":"경기도 고양시 덕양구 화전동 203-95번지","category":"일반휴게음식 - 주점"}]},{"lat":"37.604080234","long":"126.86961482","items":[{"name":"두배로마트","tel":"02-3159-8830","addr":"경기도 고양시 덕양구 화전동 571-2번지","category":""},{"name":"씨그마코리아","tel":"02-314-7625","addr":"경기도 고양시 덕양구 화전동 571-2번지","category":"보건위생 - 안경"}]},{"lat":"37.601749106","long":"126.87175925","items":[{"name":"드림공부방","tel":"02-3158-0581","addr":"경기도 고양시 덕양구 화전동 203-158번지","category":""},{"name":"드림공부방","tel":"02-3158-0581","addr":"경기도 고양시 덕양구 화전동 203-158번지","category":"회원제형태 - 학원"}]},{"lat":"37.599274103","long":"126.87419821","items":[{"name":"라떼떼","tel":"02-3159-0366","addr":"경기도 고양시 덕양구 화전동 230-14번지","category":"일반휴게음식 - 서양음식"}]},{"lat":"37.603024307","long":"126.86037602","items":[{"name":"런어팜","tel":"031-4812-1976","addr":"경기도 고양시 덕양구 화전동","category":"음료식품 - 농·축·수산품"}]},{"lat":"37.599362961","long":"126.87306567","items":[{"name":"레드페이스 고양화전점","tel":"02-3158-2003","addr":"경기도 고양시 덕양구 화전동 229-55번지","category":""},{"name":"블랙야크 덕양점","tel":"02-3158-3272","addr":"경기도 고양시 덕양구 화전동 229-55번지","category":""},{"name":"해피키즈 서울점","tel":"031-902-4784","addr":"경기도 고양시 덕양구 화전동 229-55번지","category":""}]},{"lat":"37.616194587","long":"126.87433895","items":[{"name":"리쿠(LEE KU)","tel":"","addr":"경기도 고양시 덕양구 화전동 441-16번지","category":"문화.취미 - 화원"},{"name":"리쿠(LEE KU)","tel":"","addr":"경기도 고양시 덕양구 화전동 441-16번지","category":""}]},{"lat":"37.616248793","long":"126.87447477","items":[{"name":"리쿠카페","tel":"","addr":"경기도 고양시 덕양구 화전동 441-13번지","category":"일반휴게음식 - 서양음식"},{"name":"리쿠카페","tel":"","addr":"경기도 고양시 덕양구 화전동 441-13번지","category":""}]},{"lat":"37.601837061","long":"126.86984531","items":[{"name":"마루","tel":"02-382-6967","addr":"경기도 고양시 덕양구 화전동 203-94번지","category":"서적문구 - 문구용품"},{"name":"마루","tel":"02-382-6967","addr":"경기도 고양시 덕양구 화전동 203-94번지","category":""},{"name":"스텔라헤어","tel":"031-3158-0977","addr":"경기도 고양시 덕양구 화전동 203-94번지","category":""},{"name":"스텔라헤어","tel":"031-3158-0977","addr":"경기도 고양시 덕양구 화전동 203-94번지","category":"보건위생 - 미용원"},{"name":"스텔라헤어","tel":"02-3158-0977","addr":"경기도 고양시 덕양구 화전동 203-94번지","category":""},{"name":"화전지물토탈인테리어","tel":"02-3159-8080","addr":"경기도 고양시 덕양구 화전동 203-94번지","category":""}]},{"lat":"37.602359346","long":"126.86959524","items":[{"name":"마산국수","tel":"070-7762-0137","addr":"경기도 고양시 덕양구 화전동 575-33번지","category":""},{"name":"마산국수","tel":"031-111-1111","addr":"경기도 고양시 덕양구 화전동 575-33번지","category":"일반휴게음식 - 일반한식"},{"name":"마산국수","tel":"070-7762-0137","addr":"경기도 고양시 덕양구 화전동 575-33번지","category":"일반휴게음식 - 스넥"}]},{"lat":"37.603748159","long":"126.87075919","items":[{"name":"메시아(mesia)코스메틱","tel":"02-304-1213","addr":"경기도 고양시 덕양구 화전동 574-4번지","category":"보건위생 - 미용재료"},{"name":"메시아(mesia)코스메틱","tel":"02-304-1213","addr":"경기도 고양시 덕양구 화전동 574-4번지","category":""}]},{"lat":"37.607883594","long":"126.86290357","items":[{"name":"명진패션","tel":"02-3158-5161","addr":"경기도 고양시 덕양구 화전동 728번지","category":""},{"name":"토탈의류","tel":"02-3158-5161","addr":"경기도 고양시 덕양구 화전동 728번지","category":""}]},{"lat":"37.598942069","long":"126.87542175","items":[{"name":"미가식당","tel":"031-376-9262","addr":"경기도 고양시 덕양구 화전동 168-6번지","category":""},{"name":"미가식당","tel":"031-376-9262","addr":"경기도 고양시 덕양구 화전동 168-6번지","category":""},{"name":"미가식당","tel":"02-376-9262","addr":"경기도 고양시 덕양구 화전동 168-6번지","category":"일반휴게음식 - 일반한식"}]},{"lat":"37.601470055","long":"126.87198622","items":[{"name":"미래에이케이","tel":"02-3158-3290","addr":"경기도 고양시 덕양구 화전동 203-21번지","category":""},{"name":"이원재패션","tel":"02-3159-6626","addr":"경기도 고양시 덕양구 화전동 203-21번지","category":""}]},{"lat":"37.602919882","long":"126.87131554","items":[{"name":"미성피아노","tel":"02-3159-7551","addr":"경기도 고양시 덕양구 화전동 575-22번지","category":"회원제형태 - 학원"},{"name":"미성피아노","tel":"02-3159-7551","addr":"경기도 고양시 덕양구 화전동 575-22번지","category":""},{"name":"예원어린이집","tel":"02-3159-7551","addr":"경기도 고양시 덕양구 화전동 575-22번지","category":"학원 - 유아원"},{"name":"예원어린이집[아이행복]","tel":"02-3159-7551","addr":"경기도 고양시 덕양구 화전동 575-22번지","category":"학원 - 유아원"}]},{"lat":"37.603918314","long":"126.8698416","items":[{"name":"미진창호","tel":"02-3158-6782","addr":"경기도 고양시 덕양구 화전동 572-2번지","category":"건축자재 - 기타건축자재"},{"name":"미진창호","tel":"02-3158-6782","addr":"경기도 고양시 덕양구 화전동 572-2번지","category":""}]},{"lat":"37.603501938","long":"126.86814368","items":[{"name":"바늘코","tel":"031-814-2205","addr":"경기도 고양시 덕양구 화전동 183-10번지","category":""}]},{"lat":"37.605999386","long":"126.86967935","items":[{"name":"바미","tel":"070-4100-4973","addr":"경기도 고양시 덕양구 화전동 514-51번지","category":""}]},{"lat":"37.607858461","long":"126.86451178","items":[{"name":"바이킹보트","tel":"02-374-5800","addr":"경기도 고양시 덕양구 화전동 732번지","category":""},{"name":"바이킹보트","tel":"02-374-5800","addr":"경기도 고양시 덕양구 화전동 732번지","category":"레져용품 - 스포츠·레져용품"}]},{"lat":"37.598751783","long":"126.86639706","items":[{"name":"밤나무골상회","tel":"031-3158-1512","addr":"경기도 고양시 덕양구 화전동 644-3번지","category":"음료식품 - 기타음료식품"},{"name":"밤나무골상회","tel":"031-3158-1512","addr":"경기도 고양시 덕양구 화전동 644-3번지","category":""}]},{"lat":"37.612606299","long":"126.87214792","items":[{"name":"밥도둑","tel":"02-3158-0887","addr":"경기도 고양시 덕양구 화전동 381-7번지","category":""}]},{"lat":"37.613855417","long":"126.8692576","items":[{"name":"벽산개발","tel":"031-964-7400","addr":"경기도 고양시 덕양구 화전동 460번지","category":""},{"name":"벽산개발","tel":"031-964-7400","addr":"경기도 고양시 덕양구 화전동 460번지","category":"용역 서비스 - 종합용역"}]},{"lat":"37.601801888","long":"126.87061541","items":[{"name":"부활21세기","tel":"02-2213-1709","addr":"경기도 고양시 덕양구 화전동 576-28번지","category":""}]},{"lat":"37.600667595","long":"126.8714554","items":[{"name":"뷰티셀헤어","tel":"070-4018-2124","addr":"경기도 고양시 덕양구 화전동 223-7번지","category":""},{"name":"세일약국","tel":"02-3158-5024","addr":"경기도 고양시 덕양구 화전동 223-7번지","category":"약국 - 약국"},{"name":"세일약국","tel":"02-3158-5024","addr":"경기도 고양시 덕양구 화전동 223-7번지","category":""},{"name":"안나천년초농장","tel":"02-6748-5800","addr":"경기도 고양시 덕양구 화전동 223-7번지","category":"음료식품 - 농·축·수산품"},{"name":"안나천년초농장","tel":"02-6748-5800","addr":"경기도 고양시 덕양구 화전동 223-7번지","category":""},{"name":"화전성모의원","tel":"02-3158-0172","addr":"경기도 고양시 덕양구 화전동 223-7번지","category":""},{"name":"화전성모의원","tel":"02-3158-0172","addr":"경기도 고양시 덕양구 화전동 223-7번지","category":"의원 - 의원"}]},{"lat":"37.602029211","long":"126.87248351","items":[{"name":"브레이너리","tel":"031-917-9774","addr":"경기도 고양시 덕양구 화전동 203-12번지","category":"문화.취미 - 문화취미기타"},{"name":"브레이너리","tel":"031-917-9774","addr":"경기도 고양시 덕양구 화전동 203-12번지","category":""}]},{"lat":"37.601135077","long":"126.87053733","items":[{"name":"브로켄","tel":"070-4207-1088","addr":"경기도 고양시 덕양구 화전동 203-162번지","category":""}]},{"lat":"37.606831311","long":"126.86447971","items":[{"name":"사무엘화원","tel":"02-3158-6905","addr":"경기도 고양시 덕양구 화전동 730-5번지","category":"문화.취미 - 화원"},{"name":"사무엘화원","tel":"02-3158-6905","addr":"경기도 고양시 덕양구 화전동 730-5번지","category":""},{"name":"아름다운꽃향기","tel":"02-3158-2008","addr":"경기도 고양시 덕양구 화전동 730-5번지","category":""},{"name":"아름다운꽃향기","tel":"02-3158-2008","addr":"경기도 고양시 덕양구 화전동 730-5번지","category":"문화.취미 - 화원"},{"name":"중앙농원","tel":"031-978-4417","addr":"경기도 고양시 덕양구 화전동 730-5번지","category":"문화.취미 - 화원"},{"name":"중앙농원","tel":"031-978-4417","addr":"경기도 고양시 덕양구 화전동 730-5번지","category":""},{"name":"현대농원","tel":"02-3159-7117","addr":"경기도 고양시 덕양구 화전동 730-5번지","category":"문화.취미 - 화원"},{"name":"현대농원","tel":"02-3159-7117","addr":"경기도 고양시 덕양구 화전동 730-5번지","category":""}]},{"lat":"37.616501189","long":"126.8745876","items":[{"name":"삼성기업","tel":"02-354-8484","addr":"경기도 고양시 덕양구 화전동","category":"건축자재 - 기타건축자재"},{"name":"삼성기업","tel":"02-354-8484","addr":"경기도 고양시 덕양구 화전동 440-1번지","category":""}]},{"lat":"37.600749149","long":"126.87187424","items":[{"name":"삼성인테리어필름(고양총판)","tel":"02-3159-9985","addr":"경기도 고양시 덕양구 화전동 219-31번지","category":"직물 - 카페트,커튼,천막,지물"},{"name":"삼성인테리어필름(고양총판)","tel":"02-3159-9985","addr":"경기도 고양시 덕양구 화전동 219-31번지","category":""},{"name":"화전부페","tel":"02-3159-1788","addr":"경기도 고양시 덕양구 화전동 219-31번지","category":""},{"name":"화전부페","tel":"02-3159-1788","addr":"경기도 고양시 덕양구 화전동 219-31번지","category":""}]},{"lat":"37.600222745","long":"126.8766199","items":[{"name":"삼진엔지니어링","tel":"031-3158-5859","addr":"경기도 고양시 덕양구 화전동 156번지","category":""}]},{"lat":"37.602197821","long":"126.87017307","items":[{"name":"삼호정","tel":"02-3158-4608","addr":"경기도 고양시 덕양구 화전동 576-20번지","category":""},{"name":"삼호정","tel":"02-3158-4608","addr":"경기도 고양시 덕양구 화전동 576-20번지","category":"일반휴게음식 - 중국식"}]},{"lat":"37.613334079","long":"126.87034582","items":[{"name":"상록분재원","tel":"02-3158-6979","addr":"경기도 고양시 덕양구 화전동 492번지","category":""},{"name":"상록분재원","tel":"02-3158-6979","addr":"경기도 고양시 덕양구 화전동 492번지","category":"문화.취미 - 화원"}]},{"lat":"37.601666055","long":"126.87000415","items":[{"name":"새마을환경","tel":"02-1877-7204","addr":"경기도 고양시 덕양구 화전동 203-92번지","category":""},{"name":"새마을환경","tel":"02-1877-7204","addr":"경기도 고양시 덕양구 화전동 203-92번지","category":"용역 서비스 - 기타용역서비스"}]},{"lat":"37.608612339","long":"126.86978794","items":[{"name":"샘물고양가맹점","tel":"031-970-2288","addr":"경기도 고양시 덕양구 화전동","category":"유통업 영리 - 기타유통업"},{"name":"샘물고양가맹점","tel":"031-970-2288","addr":"경기도 고양시 덕양구 화전동 511-3","category":""}]},{"lat":"37.60766515","long":"126.86875904","items":[{"name":"서부스텐","tel":"02-3158-6707","addr":"경기도 고양시 덕양구 화전동 514-71번지","category":"기타 - 기계공구"},{"name":"서부스텐","tel":"02-3158-6707","addr":"경기도 고양시 덕양구 화전동 514-71번지","category":""}]},{"lat":"37.605475679","long":"126.86867238","items":[{"name":"서울상사","tel":"070-8124-6697","addr":"경기도 고양시 덕양구 화전동","category":"음료식품 - 기타음료식품"},{"name":"서울상사","tel":"070-8124-6697","addr":"경기도 고양시 덕양구 화전동 562-40","category":""}]},{"lat":"37.608305599","long":"126.86942608","items":[{"name":"서울상사복지자동차정비센타","tel":"02-3159-9005","addr":"경기도 고양시 덕양구 화전동 512-1번지","category":""}]},{"lat":"37.598302413","long":"126.87545681","items":[{"name":"성산닭집","tel":"02-3158-1003","addr":"경기도 고양시 덕양구 화전동 174-14번지","category":""},{"name":"성산닭집","tel":"02-3158-1003","addr":"경기도 고양시 덕양구 화전동 174-14번지","category":"일반휴게음식 - 주점"}]},{"lat":"37.603252064","long":"126.87026179","items":[{"name":"세원건업","tel":"02-3158-6562","addr":"경기도 고양시 덕양구 화전동 575-45번지","category":""},{"name":"세원건업","tel":"02-3158-6562","addr":"경기도 고양시 덕양구 화전동 575-45번지","category":"용역 서비스 - 기타용역서비스"}]},{"lat":"37.599219225","long":"126.86547898","items":[{"name":"송골매","tel":"02-3159-0159","addr":"경기도 고양시 덕양구 화전동 646-5번지","category":""}]},{"lat":"37.608361499","long":"126.86323111","items":[{"name":"송백","tel":"02-3158-1136","addr":"경기도 고양시 덕양구 화전동 737-1번지","category":""},{"name":"송백","tel":"02-3158-1136","addr":"경기도 고양시 덕양구 화전동 737-1번지","category":"문화.취미 - 화원"}]},{"lat":"37.607522488","long":"126.85493142","items":[{"name":"송유관매점","tel":"031-971-4373","addr":"경기도 고양시 덕양구 화전동 784-3번지","category":""}]},{"lat":"37.616363458","long":"126.87223195","items":[{"name":"수락원","tel":"02-3158-4599","addr":"경기도 고양시 덕양구 화전동","category":"문화.취미 - 화원"},{"name":"수락원","tel":"02-3158-4599","addr":"경기도 고양시 덕양구 화전동 446-7번지","category":""}]},{"lat":"37.609522234","long":"126.86194917","items":[{"name":"수색물류","tel":"02-3158-1201","addr":"경기도 고양시 덕양구 화전동","category":"용역 서비스 - 보관및 창고업"},{"name":"수색물류","tel":"02-3158-1201","addr":"경기도 고양시 덕양구 화전동 870-3번지","category":""}]},{"lat":"37.605661959","long":"126.86612397","items":[{"name":"수색자동차공업사","tel":"02-304-0624","addr":"경기도 고양시 덕양구 화전동 544-12번지","category":"자동차정비 유지 - 자동차정비"},{"name":"수색자동차공업사","tel":"02-304-0624","addr":"경기도 고양시 덕양구 화전동 544-12번지","category":""}]},{"lat":"37.600001728","long":"126.8722266","items":[{"name":"수전모터라드샵","tel":"02-714-7339","addr":"경기도 고양시 덕양구 화전동 832-15번지","category":""}]},{"lat":"37.601918799","long":"126.87042269","items":[{"name":"수효자동차","tel":"02-3159-1630","addr":"경기도 고양시 덕양구 화전동 576-36","category":""},{"name":"수효자동차","tel":"02-3159-1630","addr":"경기도 고양시 덕양구 화전동","category":"자동차정비 유지 - 자동차정비"}]},{"lat":"37.613218093","long":"126.87136536","items":[{"name":"스마일서비스","tel":"02-769-6460","addr":"경기도 고양시 덕양구 화전동 413-6번지","category":""}]},{"lat":"37.60150407","long":"126.8701743","items":[{"name":"스마일찹쌀꽈배기","tel":"02-3159-0315","addr":"경기도 고양시 덕양구 화전동 203-90번지","category":""},{"name":"스마일찹쌀꽈배기","tel":"02-3159-0315","addr":"경기도 고양시 덕양구 화전동 203-90번지","category":"일반휴게음식 - 일반한식"},{"name":"피자매니","tel":"02-3158-5614","addr":"경기도 고양시 덕양구 화전동 203-90번지","category":""},{"name":"피자매니","tel":"02-3158-5614","addr":"경기도 고양시 덕양구 화전동 203-90번지","category":"일반휴게음식 - 서양음식"}]},{"lat":"37.59985944","long":"126.87392543","items":[{"name":"스프링","tel":"02-3159-9349","addr":"경기도 고양시 덕양구 화전동 229-7하우스3.4호","category":""},{"name":"스프링","tel":"02-3159-9349","addr":"경기도 고양시 덕양구 화전동","category":"문화.취미 - 화원"},{"name":"애란실","tel":"031-308-7797","addr":"경기도 고양시 덕양구 화전동 229-7","category":""},{"name":"우리난원","tel":"031-3158-5555","addr":"경기도 고양시 덕양구 화전동 229-7","category":""},{"name":"우리난원","tel":"031-3158-5555","addr":"경기도 고양시 덕양구 화전동","category":"문화.취미 - 화원"},{"name":"한국농원","tel":"031-3158-1711","addr":"경기도 고양시 덕양구 화전동","category":"문화.취미 - 화원"},{"name":"한국농원","tel":"031-3158-1711","addr":"경기도 고양시 덕양구 화전동 229-7번지","category":""}]},{"lat":"37.599416682","long":"126.87275984","items":[{"name":"시립화전어린이집[아이행복]","tel":"02-3158-0655","addr":"경기도 고양시 덕양구 화전동 226-6번지","category":"학원 - 유아원"}]},{"lat":"37.603081095","long":"126.87045461","items":[{"name":"시베기낚시점","tel":"02-3158-3604","addr":"경기도 고양시 덕양구 화전동 575-30번지","category":""},{"name":"시베기낚시점","tel":"02-3158-3604","addr":"경기도 고양시 덕양구 화전동 575-30번지","category":"레져용품 - 스포츠·레져용품"},{"name":"시베기낚시점","tel":"02-3158-3604","addr":"경기도 고양시 덕양구 화전동 575-30번지","category":""},{"name":"에이씨엠종합산업","tel":"1661-4588","addr":"경기도 고양시 덕양구 화전동 575-30번지","category":""},{"name":"에이씨엠종합산업","tel":"00-1661-4588","addr":"경기도 고양시 덕양구 화전동 575-30번지","category":"건축자재 - 기타건축자재"},{"name":"하이(HI)밧데리","tel":"031-3158-6888","addr":"경기도 고양시 덕양구 화전동 575-30번지","category":""}]},{"lat":"37.610388352","long":"126.87075877","items":[{"name":"시스템ENG(system ENG)","tel":"02-3158-6377","addr":"경기도 고양시 덕양구 화전동 366-3번지","category":""}]},{"lat":"37.613363305","long":"126.87231648","items":[{"name":"신성오일플러스","tel":"031-963-5145","addr":"경기도 고양시 덕양구 화전동 424-12번지","category":""},{"name":"신성오일플러스","tel":"031-963-5145","addr":"경기도 고양시 덕양구 화전동 424-12번지","category":""}]},{"lat":"37.605529647","long":"126.86859301","items":[{"name":"신화건재","tel":"02-3158-5387","addr":"경기도 고양시 덕양구 화전동","category":"건축자재 - 기타건축자재"},{"name":"신화건재","tel":"02-3158-5387","addr":"경기도 고양시 덕양구 화전동 562-38번지","category":""}]},{"lat":"37.59939102","long":"126.8740055","items":[{"name":"실크트리","tel":"02-3159-8848","addr":"경기도 고양시 덕양구 화전동 229-11번지","category":"레져용품 - 스포츠·레져용품"},{"name":"실크트리","tel":"02-3159-8848","addr":"경기도 고양시 덕양구 화전동 229-11번지","category":""},{"name":"풍기인견직매장","tel":"02-3159-8848","addr":"경기도 고양시 덕양구 화전동 229-11번지","category":""}]},{"lat":"37.601055204","long":"126.87162458","items":[{"name":"쌤소나이트 화전점","tel":"031-3159-0978","addr":"경기도 고양시 덕양구 화전동 203-22번지","category":""},{"name":"쌤소나이트 화전점","tel":"031-3159-0978","addr":"경기도 고양시 덕양구 화전동","category":"레져용품 - 스포츠·레져용품"}]},{"lat":"37.601162475","long":"126.87086568","items":[{"name":"씨유항공대점","tel":"02-3159-6153","addr":"경기도 고양시 덕양구 화전동 203-71번지","category":"유통업 영리 - 편 의 점"},{"name":"씨유항공대점","tel":"02-3159-6153","addr":"경기도 고양시 덕양구 화전동 203-71번지","category":""}]},{"lat":"37.601747092","long":"126.86995871","items":[{"name":"아침에 토스트","tel":"031-1111-1111","addr":"경기도 고양시 덕양구 화전동 203-93번지","category":""},{"name":"토닥토닭","tel":"","addr":"경기도 고양시 덕양구 화전동 203-93번지","category":"일반휴게음식 - 서양음식"}]},{"lat":"37.604162201","long":"126.87039607","items":[{"name":"알뜰야채","tel":"031-375-7021","addr":"경기도 고양시 덕양구 화전동 572-9번지","category":""}]},{"lat":"37.603643115","long":"126.87353386","items":[{"name":"양지2어린이집[아이행복]","tel":"02-3158-4771","addr":"경기도 고양시 덕양구 화전동 255-13번지 양지마을아파트","category":"학원 - 유아원"}]},{"lat":"37.600418737","long":"126.8745586","items":[{"name":"에이플러스수학학원","tel":"031-970-1803","addr":"경기도 고양시 덕양구 화전동 229-19번지","category":""}]},{"lat":"37.605169219","long":"126.86855968","items":[{"name":"열린고기천하","tel":"02-3159-7989","addr":"경기도 고양시 덕양구 화전동 562-14번지","category":"일반휴게음식 - 일반한식"},{"name":"열린고기천하","tel":"02-3159-7989","addr":"경기도 고양시 덕양구 화전동 562-14번지","category":""}]},{"lat":"37.599084898","long":"126.87419853","items":[{"name":"영신카센터","tel":"02-372-6244","addr":"경기도 고양시 덕양구 화전동 230-11번지","category":"자동차정비 유지 - 자동차정비"},{"name":"영신카센터","tel":"02-372-6244","addr":"경기도 고양시 덕양구 화전동 230-11번지","category":""}]},{"lat":"37.600528895","long":"126.87644952","items":[{"name":"영어수학클리닉","tel":"070-7744-6477","addr":"경기도 고양시 덕양구 화전동 143-80번지","category":"학원 - 보습학원"},{"name":"영어수학클리닉","tel":"070-7744-6477","addr":"경기도 고양시 덕양구 화전동 143-80번지","category":""}]},{"lat":"37.613444355","long":"126.87228236","items":[{"name":"영창상회","tel":"02-3158-4600","addr":"경기도 고양시 덕양구 화전동 424-8번지","category":""},{"name":"영창상회","tel":"02-3158-4600","addr":"경기도 고양시 덕양구 화전동 424-8번지","category":"음료식품 - 미곡상"}]},{"lat":"37.601252077","long":"126.87042388","items":[{"name":"영텔레콤","tel":"02-3158-0606","addr":"경기도 고양시 덕양구 화전동 203-86번지","category":""},{"name":"영텔레콤","tel":"02-3158-0606","addr":"경기도 고양시 덕양구 화전동 203-86번지","category":"사무통신 - 통신기기"}]},{"lat":"37.605610542","long":"126.86842299","items":[{"name":"오일나라(OilNara)","tel":"02-3158-5185","addr":"경기도 고양시 덕양구 화전동 562-21번지","category":""},{"name":"오일나라(OilNara)","tel":"02-3158-5185","addr":"경기도 고양시 덕양구 화전동 562-21번지","category":"자동차정비 유지 - 윤활유 전문 판매"},{"name":"조은윤활유","tel":"070-4100-7097","addr":"경기도 고양시 덕양구 화전동 562-21번지","category":""},{"name":"조은윤활유","tel":"070-4100-7097","addr":"경기도 고양시 덕양구 화전동 562-21번지","category":"자동차정비 유지 - 윤활유 전문 판매"}]},{"lat":"37.602170205","long":"126.8696522","items":[{"name":"용두동고흥쭈꾸미","tel":"","addr":"경기도 고양시 덕양구 화전동 203-99번지","category":""},{"name":"용두동고흥쭈꾸미","tel":"02-3158-3861","addr":"경기도 고양시 덕양구 화전동 203-99번지","category":"일반휴게음식 - 일반한식"},{"name":"원조돼지부속","tel":"02-3158-4644","addr":"경기도 고양시 덕양구 화전동 203-99번지","category":""},{"name":"원조돼지부속","tel":"02-3158-4644","addr":"경기도 고양시 덕양구 화전동 203-99번지","category":"일반휴게음식 - 일반한식"},{"name":"청춘상회","tel":"070-4763-5091","addr":"경기도 고양시 덕양구 화전동 203-99번지","category":"일반휴게음식 - 주점"},{"name":"청춘상회","tel":"070-4763-5091","addr":"경기도 고양시 덕양구 화전동 203-99번지","category":""},{"name":"화전노래연습장","tel":"02-3158-3939","addr":"경기도 고양시 덕양구 화전동 203-99번지","category":"레저업소 - 노 래 방"},{"name":"화전노래연습장","tel":"02-3158-3939","addr":"경기도 고양시 덕양구 화전동 203-99번지","category":""},{"name":"화전당구장","tel":"02-3158-4939","addr":"경기도 고양시 덕양구 화전동 203-99번지","category":""},{"name":"화전당구장","tel":"031-866-8833","addr":"경기도 고양시 덕양구 화전동 203-99번지","category":""},{"name":"화전당구장","tel":"02-3159-3949","addr":"경기도 고양시 덕양구 화전동 203-99번지","category":"레저업소 - 당 구 장"}]},{"lat":"37.601585031","long":"126.87006091","items":[{"name":"용인대 최강 태권도장","tel":"02-3159-7988","addr":"경기도 고양시 덕양구 화전동 203-91번지","category":""},{"name":"용인대최강태권도장","tel":"02-3159-7988","addr":"경기도 고양시 덕양구 화전동 203-91번지","category":""}]},{"lat":"37.607081549","long":"126.87056076","items":[{"name":"용호공업사","tel":"02-3158-6653","addr":"경기도 고양시 덕양구 화전동 516-15번지","category":""},{"name":"용호공업사","tel":"02-3158-6653","addr":"경기도 고양시 덕양구 화전동 516-15번지","category":"주방용구 - 주방용식기"}]},{"lat":"37.609800505","long":"126.86108792","items":[{"name":"우리종합건재","tel":"02-3158-0711","addr":"경기도 고양시 덕양구 화전동 876번지","category":""},{"name":"우리종합건재","tel":"02-3158-0711","addr":"경기도 고양시 덕양구 화전동 876번지","category":"건축자재 - 기타건축자재"}]},{"lat":"37.600802767","long":"126.87147781","items":[{"name":"우리집","tel":"02-3158-2353","addr":"경기도 고양시 덕양구 화전동 219-17 1층","category":""},{"name":"우리집","tel":"02-3158-2353","addr":"경기도 고양시 덕양구 화전동","category":"일반휴게음식 - 스넥"}]},{"lat":"37.603556693","long":"126.8687551","items":[{"name":"우비돈","tel":"","addr":"경기도 고양시 덕양구 화전동 579-3번지","category":"일반휴게음식 - 일반한식"}]},{"lat":"37.601614085","long":"126.87187273","items":[{"name":"워쉬앤드라이","tel":"02-904-0004","addr":"경기도 고양시 덕양구 화전동 203-159번지","category":""},{"name":"워쉬앤드라이","tel":"02-904-0004","addr":"경기도 고양시 덕양구 화전동 203-159번지","category":"수리서비스 - 세탁소"},{"name":"한양쇼파","tel":"02-3158-4646","addr":"경기도 고양시 덕양구 화전동 203-159번지","category":""},{"name":"한양쇼파","tel":"02-3158-4646","addr":"경기도 고양시 덕양구 화전동 203-159번지","category":"가구 - 일반가구"},{"name":"힐링프라자약국","tel":"070-4100-0775","addr":"경기도 고양시 덕양구 화전동 203-159번지","category":""}]},{"lat":"37.603332117","long":"126.86934437","items":[{"name":"원당해물탕해물찜","tel":"02-3159-2224","addr":"경기도 고양시 덕양구 화전동 578-11번지","category":""},{"name":"원당해물탕해물찜","tel":"02-3159-2224","addr":"경기도 고양시 덕양구 화전동 578-11번지","category":"일반휴게음식 - 일반한식"}]},{"lat":"37.606219588","long":"126.86528491","items":[{"name":"원두막농산","tel":"","addr":"경기도 고양시 덕양구 화전동 544-1번지","category":"음료식품 - 농·축·수산품"},{"name":"원두막농산","tel":"","addr":"경기도 고양시 덕양구 화전동 544-1번지","category":""}]},{"lat":"37.601081425","long":"126.87089979","items":[{"name":"원샷호프","tel":"031-493-0399","addr":"경기도 고양시 덕양구 화전동 203-80번지","category":""},{"name":"지앤시갤러리앤커피","tel":"","addr":"경기도 고양시 덕양구 화전동 203-80번지","category":""},{"name":"지엔시(G&C) 카페","tel":"02-3159-3158","addr":"경기도 고양시 덕양구 화전동 203-80번지","category":"일반휴게음식 - 서양음식"},{"name":"지엔씨(G&C)갤러리커피","tel":"02-3159-3158","addr":"경기도 고양시 덕양구 화전동 203-80번지","category":""}]},{"lat":"37.601226162","long":"126.87142044","items":[{"name":"윈드밀(아웃도어)","tel":"02-3159-1942","addr":"경기도 고양시 덕양구 화전동 203-33번지","category":""}]},{"lat":"37.603196256","long":"126.86100986","items":[{"name":"유일상사","tel":"02-307-2828","addr":"경기도 고양시 덕양구 화전동 684-7번지","category":""},{"name":"유일상사","tel":"02-307-2828","addr":"경기도 고양시 덕양구 화전동","category":"건축자재 - 기타건축자재"}]},{"lat":"37.612779626","long":"126.87409566","items":[{"name":"육군1719부대","tel":"02-300-6503","addr":"경기도 고양시 덕양구 화전동","category":"기타 - 비영리/비대상"}]},{"lat":"37.614055998","long":"126.87136388","items":[{"name":"이레코스메틱","tel":"031-977-2250","addr":"경기도 고양시 덕양구 화전동","category":"보건위생 - 화장품"},{"name":"이레코스메틱","tel":"031-977-2250","addr":"경기도 고양시 덕양구 화전동 825-24 10/3","category":""}]},{"lat":"37.612912567","long":"126.87209075","items":[{"name":"이숙영 한식부페","tel":"02-3158-2323","addr":"경기도 고양시 덕양구 화전동 381-1번지","category":"일반휴게음식 - 일반한식"},{"name":"이숙영 한식부페","tel":"02-3158-2323","addr":"경기도 고양시 덕양구 화전동 381-1번지","category":""}]},{"lat":"37.608224818","long":"126.86969803","items":[{"name":"이창우","tel":"","addr":"경기도 고양시 덕양구 화전동 511-21번지","category":""}]},{"lat":"37.602002482","long":"126.87275533","items":[{"name":"이코리아투어여행사","tel":"02-3158-6227","addr":"경기도 고양시 덕양구 화전동 203-11번지","category":""},{"name":"이코리아투어여행사","tel":"02-3158-6227","addr":"경기도 고양시 덕양구 화전동 203-11번지","category":"여행 - 관광여행"}]},{"lat":"37.604582382","long":"126.86750755","items":[{"name":"인터케이 인테리어","tel":"","addr":"경기도 고양시 덕양구 화전동 550-1번지","category":"건축자재 - 인테리어전문"},{"name":"인터케이 인테리어","tel":"","addr":"경기도 고양시 덕양구 화전동 550-1번지","category":""}]},{"lat":"37.602026827","long":"126.87034323","items":[{"name":"장수감자탕","tel":"02-3158-5008","addr":"경기도 고양시 덕양구 화전동 576-55번지","category":"일반휴게음식 - 일반한식"},{"name":"장수감자탕","tel":"02-3158-5008","addr":"경기도 고양시 덕양구 화전동 576-55번지","category":""}]},{"lat":"37.59900308","long":"126.87353057","items":[{"name":"장수돌침대고양본점월드(주)","tel":"02-381-9985","addr":"경기도 고양시 덕양구 화전동 849-12번지","category":"가구 - 일반가구"},{"name":"장수돌침대고양본점월드(주)","tel":"02-381-9985","addr":"경기도 고양시 덕양구 화전동 849-12번지","category":""}]},{"lat":"37.612724116","long":"126.86484254","items":[{"name":"장어대장화전점/주식회사화전푸드(지점_화","tel":"02-3159-1198","addr":"경기도 고양시 덕양구 화전동 469-2번지","category":"일반휴게음식 - 일반한식"}]},{"lat":"37.605528924","long":"126.86795882","items":[{"name":"전호연","tel":"","addr":"경기도 고양시 덕양구 화전동 517-2번지","category":""},{"name":"화전토종순대","tel":"02-3158-2020","addr":"경기도 고양시 덕양구 화전동 517-2번지","category":""},{"name":"화전토종순대","tel":"02-3158-2020","addr":"경기도 고양시 덕양구 화전동 517-2번지","category":"일반휴게음식 - 일반한식"}]},{"lat":"37.609777083","long":"126.86412317","items":[{"name":"정욱유통","tel":"02-6080-7487","addr":"경기도 고양시 덕양구 화전동 762번지","category":""}]},{"lat":"37.614688772","long":"126.87325423","items":[{"name":"제이(J)풋살장","tel":"02-3158-1733","addr":"경기도 고양시 덕양구 화전동 427-1번지","category":"레저업소 - 기타레져업소"}]},{"lat":"37.61452973","long":"126.86801052","items":[{"name":"제이시스템에어컨","tel":"","addr":"경기도 고양시 덕양구 화전동 454-28번지","category":"용역 서비스 - 기타용역서비스"},{"name":"제이시스템에어컨","tel":"","addr":"경기도 고양시 덕양구 화전동 454-28번지","category":""}]},{"lat":"37.602638431","long":"126.86940223","items":[{"name":"제일건축","tel":"02-3158-5172","addr":"경기도 고양시 덕양구 화전동","category":"용역 서비스 - 기타용역서비스"},{"name":"제일건축","tel":"02-3158-5172","addr":"경기도 고양시 덕양구 화전동 575-5","category":""}]},{"lat":"37.614001763","long":"126.87120541","items":[{"name":"종점건재","tel":"02-384-9489","addr":"경기도 고양시 덕양구 화전동 825-58번지","category":""},{"name":"종점건재","tel":"02-384-9489","addr":"경기도 고양시 덕양구 화전동 825-58번지","category":"건축자재 - 목재·석재·철물"}]},{"lat":"37.601918085","long":"126.86978854","items":[{"name":"주먹고기","tel":"02-3158-5988","addr":"경기도 고양시 덕양구 화전동 203-96번지","category":""}]},{"lat":"37.612336074","long":"126.86431095","items":[{"name":"주식회사 뚝방한식부페","tel":"02-3158-1188","addr":"경기도 고양시 덕양구 화전동 772-1번지","category":""},{"name":"주식회사 뚝방한식부페","tel":"02-3158-1188","addr":"경기도 고양시 덕양구 화전동 772-1번지","category":"일반휴게음식 - 일반한식"}]},{"lat":"37.607361168","long":"126.8708434","items":[{"name":"주식회사 명장용호실업","tel":"031-906-6661","addr":"경기도 고양시 덕양구 화전동 516-1번지","category":"주방용구 - 주방용구"},{"name":"주식회사 명장용호실업","tel":"031-906-6661","addr":"경기도 고양시 덕양구 화전동 516-1번지","category":""}]},{"lat":"37.611692953","long":"126.86914821","items":[{"name":"주식회사 이후엘티에스","tel":"02-3159-9697","addr":"경기도 고양시 덕양구 화전동 487-3번지","category":""},{"name":"주식회사 이후엘티에스","tel":"02-3159-9697","addr":"경기도 고양시 덕양구 화전동 487-3번지","category":"레저업소 - 기타레져업소"}]},{"lat":"37.597168485","long":"126.87667035","items":[{"name":"주식회사세호","tel":"02-3159-8272","addr":"경기도 고양시 덕양구 화전동 169-48번지","category":""},{"name":"주식회사세호","tel":"02-3159-8272","addr":"경기도 고양시 덕양구 화전동 169-48번지","category":"건축자재 - 기타건축자재"}]},{"lat":"37.612057529","long":"126.86495703","items":[{"name":"주식회사우친각","tel":"02-3159-1199","addr":"경기도 고양시 덕양구 화전동","category":"레저업소 - 기타레져업소"},{"name":"주식회사우친각","tel":"02-3159-1199","addr":"경기도 고양시 덕양구 화전동 469-3번지","category":""}]},{"lat":"37.61283148","long":"126.87209089","items":[{"name":"준희네유통집","tel":"02-3158-3983","addr":"경기도 고양시 덕양구 화전동 381-5번지","category":""}]},{"lat":"37.602308513","long":"126.87248302","items":[{"name":"지스토리","tel":"","addr":"경기도 고양시 덕양구 화전동 203-9번지","category":"신변잡화 - 기타잡화"},{"name":"지스토리","tel":"","addr":"경기도 고양시 덕양구 화전동 203-9번지","category":""}]},{"lat":"37.604476163","long":"126.86917246","items":[{"name":"지에이테크","tel":"02-3159-0555","addr":"경기도 고양시 덕양구 화전동 558-27번지","category":""}]},{"lat":"37.607863801","long":"126.86914374","items":[{"name":"진목재","tel":"02-358-3078","addr":"경기도 고양시 덕양구 화전동 512-14번지","category":""},{"name":"진목재","tel":"02-358-3078","addr":"경기도 고양시 덕양구 화전동 512-14번지","category":"회원제형태 - 기타4"}]},{"lat":"37.604611155","long":"126.86903632","items":[{"name":"집밥애.컵웨이","tel":"031-915-1096","addr":"경기도 고양시 덕양구 화전동 558-2번지","category":""},{"name":"집밥애.컵웨이","tel":"02-3158-1026","addr":"경기도 고양시 덕양구 화전동 558-2번지","category":"일반휴게음식 - 일반한식"}]},{"lat":"37.602666303","long":"126.87014959","items":[{"name":"창대데코","tel":"02-402-8503","addr":"경기도 고양시 덕양구 화전동 576-14번지","category":"직물 - 카페트,커튼,천막,지물"},{"name":"창대데코","tel":"02-402-8503","addr":"경기도 고양시 덕양구 화전동 576-14번지","category":""}]},{"lat":"37.600469897","long":"126.87192003","items":[{"name":"천지해","tel":"02-3159-9998","addr":"경기도 고양시 덕양구 화전동 219-15번지","category":"일반휴게음식 - 일반한식"},{"name":"천지해","tel":"02-3159-9998","addr":"경기도 고양시 덕양구 화전동 219-15번지","category":""}]},{"lat":"37.599310413","long":"126.87444727","items":[{"name":"청기와추어탕","tel":"02-3158-0509","addr":"경기도 고양시 덕양구 화전동 230-8번지","category":"일반휴게음식 - 일반한식"},{"name":"청기와추어탕","tel":"02-3158-0509","addr":"경기도 고양시 덕양구 화전동 230-8번지","category":""}]},{"lat":"37.613966367","long":"126.8717831","items":[{"name":"카이젠모터스","tel":"02-3158-3519","addr":"경기도 고양시 덕양구 화전동 423-5번지","category":""},{"name":"카이젠모터스","tel":"02-3158-3519","addr":"경기도 고양시 덕양구 화전동 423-5번지","category":"자동차정비 유지 - 자동차부품"}]},{"lat":"37.598419544","long":"126.86737151","items":[{"name":"캠브리지렌탈","tel":"02-3143-4103","addr":"경기도 고양시 덕양구 화전동 662번지","category":"의류 - 정장"},{"name":"캠브리지렌탈","tel":"02-3143-4103","addr":"경기도 고양시 덕양구 화전동 662번지","category":""}]},{"lat":"37.59924665","long":"126.86581865","items":[{"name":"캠퍼스당구장","tel":"02-3158-1628","addr":"경기도 고양시 덕양구 화전동","category":"레저업소 - 당 구 장"},{"name":"캠퍼스당구장","tel":"02-3158-1628","addr":"경기도 고양시 덕양구 화전동 645-2번지","category":""}]},{"lat":"37.601774579","long":"126.87036633","items":[{"name":"커피보노","tel":"070-7569-7307","addr":"경기도 고양시 덕양구 화전동 576-29번지","category":""},{"name":"희망미용실","tel":"02-3158-5176","addr":"경기도 고양시 덕양구 화전동 576-29번지","category":""},{"name":"희망미용실","tel":"02-3158-5176","addr":"경기도 고양시 덕양구 화전동 576-29번지","category":"보건위생 - 미용원"}]},{"lat":"37.614305081","long":"126.86853192","items":[{"name":"코림&코린","tel":"031-359-5506","addr":"경기도 고양시 덕양구 화전동","category":"용역 서비스 - 종합용역"},{"name":"코림&코린","tel":"031-359-5506","addr":"경기도 고양시 덕양구 화전동 454-16","category":""}]},{"lat":"37.599809454","long":"126.87770769","items":[{"name":"코사마트(새마을점)","tel":"02-3158-1253","addr":"경기도 고양시 덕양구 화전동 159-6번지","category":""},{"name":"코사마트(새마을점)","tel":"02-3158-1253","addr":"경기도 고양시 덕양구 화전동 159-6번지","category":"유통업 영리 - 슈퍼마켓"}]},{"lat":"37.598579956","long":"126.87383705","items":[{"name":"크로스핏무도레이크파크","tel":"031-907-5925","addr":"경기도 고양시 덕양구 화전동 175-1번지","category":""},{"name":"크로스핏무도레이크파크","tel":"031-907-5925","addr":"경기도 고양시 덕양구 화전동 175-1번지","category":"레저업소 - 헬스클럽"}]},{"lat":"37.613805394","long":"126.87287068","items":[{"name":"타이어   마트","tel":"02-3158-1258","addr":"경기도 고양시 덕양구 화전동 431-4번지","category":"자동차정비 유지 - 자동차시트·타이어"},{"name":"타이어 李마트","tel":"02-3158-1258","addr":"경기도 고양시 덕양구 화전동 431-4번지","category":""}]},{"lat":"37.602109004","long":"126.87131697","items":[{"name":"타이어프로항공대점","tel":"02-790-5556","addr":"경기도 고양시 덕양구 화전동 203-165번지","category":""}]},{"lat":"37.604251176","long":"126.86939935","items":[{"name":"티스테이션수색로점","tel":"031-1666-3117","addr":"경기도 고양시 덕양구 화전동 558-35번지","category":""}]},{"lat":"37.603781847","long":"126.86867542","items":[{"name":"티엔케이","tel":"02-3158-5716","addr":"경기도 고양시 덕양구 화전동 557-6번지","category":""},{"name":"티엔케이","tel":"02-3158-5716","addr":"경기도 고양시 덕양구 화전동 557-6번지","category":"건축자재 - 기타건축자재"}]},{"lat":"37.601387604","long":"126.87076336","items":[{"name":"파티","tel":"02-3159-8259","addr":"경기도 고양시 덕양구 화전동 203-69번지","category":""}]},{"lat":"37.607334977","long":"126.86373133","items":[{"name":"풍년돈까스","tel":"031-3159-9366","addr":"경기도 고양시 덕양구 화전동 738-5번지","category":""},{"name":"풍년돈까스","tel":"031-3159-9366","addr":"경기도 고양시 덕양구 화전동 738-5번지","category":"일반휴게음식 - 스넥"}]},{"lat":"37.613474343","long":"126.86692513","items":[{"name":"풍류커스텀앤바이크","tel":"02-3159-1464","addr":"경기도 고양시 덕양구 화전동 455-31번지","category":""}]},{"lat":"37.602001253","long":"126.87164556","items":[{"name":"플러스","tel":"02-3158-3401","addr":"경기도 고양시 덕양구 화전동 203-35번지","category":""}]},{"lat":"37.613137559","long":"126.87186384","items":[{"name":"피자코리아","tel":"02-3158-3060","addr":"경기도 고양시 덕양구 화전동 411-11","category":""}]},{"lat":"37.602027233","long":"126.87070561","items":[{"name":"하나산업","tel":"02-3159-8091","addr":"경기도 고양시 덕양구 화전동 576-23번지","category":"주방용구 - 주방용구"},{"name":"하나산업","tel":"02-3159-8091","addr":"경기도 고양시 덕양구 화전동 576-23번지","category":""}]},{"lat":"37.610082021","long":"126.87075931","items":[{"name":"한국항공대AMP10기원우회","tel":"","addr":"경기도 고양시 덕양구 화전동 364-3번지","category":"기타 - 비영리/비대상"},{"name":"한국항공대AMP10기원우회","tel":"","addr":"경기도 고양시 덕양구 화전동 364-3번지","category":""}]},{"lat":"37.601416172","long":"126.87214485","items":[{"name":"함양효자백정토종한우직거래","tel":"02-3158-4464","addr":"경기도 고양시 덕양구 화전동 203-179번지","category":""},{"name":"함양효자식당","tel":"02-3158-4464","addr":"경기도 고양시 덕양구 화전동 203-179번지","category":""}]},{"lat":"37.601306047","long":"126.87034451","items":[{"name":"항공반점","tel":"02-3158-5582","addr":"경기도 고양시 덕양구 화전동 203-87번지","category":""},{"name":"항공반점","tel":"02-3158-5582","addr":"경기도 고양시 덕양구 화전동 203-87번지","category":"일반휴게음식 - 중국식"}]},{"lat":"37.600607312","long":"126.87398076","items":[{"name":"행복한나눔 화전점","tel":"02-2085-8234","addr":"경기도 고양시 덕양구 화전동 227-11번지","category":"의류 - 정장"}]},{"lat":"37.610386951","long":"126.86951296","items":[{"name":"협성산업사","tel":"02-3158-6658","addr":"경기도 고양시 덕양구 화전동 502-6번지","category":""},{"name":"협성산업사","tel":"02-3158-6658","addr":"경기도 고양시 덕양구 화전동 502-6번지","category":"용역 서비스 - 기타용역서비스"}]},{"lat":"37.600469217","long":"126.87130854","items":[{"name":"화전건재","tel":"02-3158-5178","addr":"경기도 고양시 덕양구 화전동","category":"건축자재 - 기타건축자재"},{"name":"화전건재","tel":"02-3158-5178","addr":"경기도 고양시 덕양구 화전동 223-12번지","category":""}]},{"lat":"37.601387071","long":"126.87028775","items":[{"name":"화전농약농자재","tel":"02-3158-3800","addr":"경기도 고양시 덕양구 화전동","category":"농업 - 비료,사료,종자"},{"name":"화전농약농자재","tel":"02-3158-3800","addr":"경기도 고양시 덕양구 화전동 203-88,89","category":""}]},{"lat":"37.612417626","long":"126.8647072","items":[{"name":"화전드림풋살장","tel":"02-3159-1199","addr":"경기도 고양시 덕양구 화전동 771번지","category":""},{"name":"화전드림풋살장","tel":"02-3159-1199","addr":"경기도 고양시 덕양구 화전동 771번지","category":"레저업소 - 기타레져업소"}]},{"lat":"37.600802186","long":"126.8709569","items":[{"name":"화전문구","tel":"02-3158-3746","addr":"경기도 고양시 덕양구 화전동 203-140","category":""},{"name":"화전문구","tel":"02-3158-3746","addr":"경기도 고양시 덕양구 화전동","category":"서적문구 - 문구용품"}]},{"lat":"37.60260874","long":"126.86706948","items":[{"name":"화전북카페","tel":"031-1544-7788","addr":"경기도 고양시 덕양구 화전동 595","category":""},{"name":"화전북카페","tel":"","addr":"경기도 고양시 덕양구 화전동","category":"일반휴게음식 - 서양음식"}]},{"lat":"37.600446738","long":"126.86736783","items":[{"name":"화전북카페","tel":"","addr":"경기도 고양시 덕양구 화전동 634번지","category":""}]},{"lat":"37.600087683","long":"126.8766994","items":[{"name":"화전분재예술원","tel":"02-3158-5678","addr":"경기도 고양시 덕양구 화전동 233-1번지","category":"일반휴게음식 - 일반한식"},{"name":"화전분재예술원","tel":"02-3158-5678","addr":"경기도 고양시 덕양구 화전동 233-1번지","category":""},{"name":"화전분재원","tel":"02-3158-5678","addr":"경기도 고양시 덕양구 화전동 233-1번지","category":"문화.취미 - 화원"},{"name":"화전분재원","tel":"02-3158-5678","addr":"경기도 고양시 덕양구 화전동 233-1번지","category":""}]},{"lat":"37.609252808","long":"126.87047764","items":[{"name":"화전상사","tel":"031-309-3400","addr":"경기도 고양시 덕양구 화전동 305-3번지","category":"자동차정비 유지 - 자동차부품"},{"name":"화전상사","tel":"031-309-3400","addr":"경기도 고양시 덕양구 화전동 305-3번지","category":""}]},{"lat":"37.602557432","long":"126.86948165","items":[{"name":"화전설비","tel":"","addr":"경기도 고양시 덕양구 화전동 575-31번지","category":"용역 서비스 - 기타용역서비스"},{"name":"화전설비","tel":"","addr":"경기도 고양시 덕양구 화전동 575-31번지","category":""}]},{"lat":"37.602081038","long":"126.87047903","items":[{"name":"화전여관","tel":"031-3159-7190","addr":"경기도 고양시 덕양구 화전동 576-22번지","category":""}]},{"lat":"37.606835776","long":"126.86834151","items":[{"name":"화전풍천장어","tel":"02-3158-0089","addr":"경기도 고양시 덕양구 화전동 517-14번지","category":""}]},{"lat":"37.610639977","long":"126.87018072","items":[{"name":"화정대리점","tel":"070-2582-8446","addr":"경기도 고양시 덕양구 화전동 501-1번지","category":""},{"name":"화정대리점","tel":"070-2582-8446","addr":"경기도 고양시 덕양구 화전동 501-1번지","category":"유통업 영리 - 기타유통업"}]},{"lat":"37.606439541","long":"126.8685121","items":[{"name":"황금꽃돼지","tel":"031-485-0423","addr":"경기도 고양시 덕양구 화전동 562-65번지","category":""}]},{"lat":"37.599587718","long":"126.87262365","items":[{"name":"황소게장","tel":"02-3158-5233","addr":"경기도 고양시 덕양구 화전동 226-26번지","category":""}]},{"lat":"37.60922525","long":"126.86223287","items":[{"name":"흥진공업사","tel":"02-3158-5842","addr":"경기도 고양시 덕양구 화전동 768-12번지","category":""},{"name":"흥진공업사","tel":"02-3158-5842","addr":"경기도 고양시 덕양구 화전동 768-12번지","category":"자동차정비 유지 - 자동차정비"}]}]