[{"lat":"37.060947315","long":"126.55888509","items":[{"name":"국화도 수산","tel":"031-433-4305","addr":"경기도 화성시 우정읍 국화리 120번지","category":"음료식품 - 농·축·수산품"},{"name":"국화리 어촌계","tel":"031-356-9940","addr":"경기도 화성시 우정읍 국화리 120번지","category":"음료식품 - 농·축·수산품"},{"name":"국화리 어촌계","tel":"031-357-7311","addr":"경기도 화성시 우정읍 국화리 120번지 어촌계","category":"음료식품 - 농·축·수산품"},{"name":"국화리 어촌계","tel":"031-357-7311","addr":"경기도 화성시 우정읍 국화리 120번지","category":"레저업소 - 기타레져업소"},{"name":"국화리어촌계","tel":"031-356-9940","addr":"경기도 화성시 우정읍 국화리 120번지","category":"레저업소 - 기타레져업소"}]},{"lat":"37.061781779","long":"126.55794703","items":[{"name":"국화리도선운영위원회","tel":"031-356-6642","addr":"경기도 화성시 우정읍 국화리 13","category":"여행 - 여객선"},{"name":"섬마을하우스","tel":"031-356-6642","addr":"경기도 화성시 우정읍 국화리 13번지","category":"숙박업 - 여관/기타숙박업"}]},{"lat":"37.061502965","long":"126.55808358","items":[{"name":"국화식당","tel":"","addr":"경기도 화성시 우정읍 국화리 16번지","category":"일반휴게음식 - 일반한식"},{"name":"연대휘상수산 유한회사(영업소)","tel":"","addr":"경기도 화성시 우정읍 국화리 16번지","category":"음료식품 - 농·축·수산품"}]},{"lat":"37.062256922","long":"126.55730338","items":[{"name":"노을터펜션","tel":"031-356-6231","addr":"경기도 화성시 우정읍 국화리 11-5번지","category":"숙박업 - 여관/기타숙박업"}]},{"lat":"37.06047715","long":"126.55605456","items":[{"name":"동진수산물","tel":"031-357-2169","addr":"경기도 화성시 우정읍 국화리 83","category":"음료식품 - 농·축·수산품"}]},{"lat":"37.06267089","long":"126.55716604","items":[{"name":"바다펜션","tel":"031-357-0748","addr":"경기도 화성시 우정읍 국화리 7-3번지","category":"음료식품 - 기타음료식품"}]},{"lat":"37.061529279","long":"126.55789229","items":[{"name":"삼양펜션","tel":"031-353-0406","addr":"경기도 화성시 우정읍 국화리 17","category":"숙박업 - 여관/기타숙박업"}]},{"lat":"37.061446203","long":"126.55736434","items":[{"name":"선장네마트","tel":"031-355-8092","addr":"경기도 화성시 우정읍 국화리 19번지","category":"유통업 영리 - 슈퍼마켓"}]},{"lat":"37.06208657","long":"126.55752925","items":[{"name":"하와이마트","tel":"031-355-0882","addr":"경기도 화성시 우정읍 국화리 11-1번지","category":"유통업 영리 - 슈퍼마켓"}]}]