[{"lat":"37.941693984","long":"127.48652588","items":[{"name":"67빌리지","tel":"","addr":"경기도 가평군 북면 도대리 284-16번지","category":"음료식품 - 농·축·수산품"}]},{"lat":"37.955830903","long":"127.47280539","items":[{"name":"가평 베이스캠프 펜션","tel":"","addr":"경기도 가평군 북면 도대리 336-62번지","category":"숙박업 - 여관/기타숙박업"}]},{"lat":"37.952465168","long":"127.47637931","items":[{"name":"가평 하이랜드","tel":"031-3524-7013","addr":"경기도 가평군 북면 도대리 319-17번지","category":"숙박업 - 여관/기타숙박업"},{"name":"가평하이랜드호텔","tel":"031-581-2256","addr":"경기도 가평군 북면 도대리 319-17번지","category":"숙박업 - 여관/기타숙박업"},{"name":"화악산여행사","tel":"031-581-5930","addr":"경기도 가평군 북면 도대리 319-17번지","category":"여행 - 관광여행"}]},{"lat":"37.954021834","long":"127.47685579","items":[{"name":"가평미즈베베키풀빌라","tel":"","addr":"경기도 가평군 북면 도대리 324-1번지","category":"숙박업 - 여관/기타숙박업"}]},{"lat":"37.954717274","long":"127.47865799","items":[{"name":"가평에프키즈풀빌라","tel":"","addr":"경기도 가평군 북면 도대리 324-43번지","category":"숙박업 - 여관/기타숙박업"}]},{"lat":"37.964299695","long":"127.46594059","items":[{"name":"가평파라디소","tel":"031-581-6660","addr":"경기도 가평군 북면 도대리 493-2번지","category":"숙박업 - 여관/기타숙박업"}]},{"lat":"37.935886883","long":"127.48996863","items":[{"name":"가평하늘정원","tel":"031-582-9612","addr":"경기도 가평군 북면 도대리 234-1번지","category":"숙박업 - 여관/기타숙박업"}]},{"lat":"37.968658692","long":"127.45939021","items":[{"name":"거림내쉼터","tel":"031-111-1111","addr":"경기도 가평군 북면 도대리 522번지 가동","category":"숙박업 - 여관/기타숙박업"}]},{"lat":"37.952801381","long":"127.47566466","items":[{"name":"계곡풍경","tel":"031-582-9317","addr":"경기도 가평군 북면 도대리 319-5","category":"숙박업 - 여관/기타숙박업"}]},{"lat":"37.959436471","long":"127.47232769","items":[{"name":"관청슈퍼","tel":"031-581-5521","addr":"경기도 가평군 북면 도대리 393-2번지","category":"유통업 영리 - 슈퍼마켓"}]},{"lat":"37.949748383","long":"127.4798547","items":[{"name":"너나드리민박","tel":"031-582-9787","addr":"경기도 가평군 북면 도대리 306-6번지","category":"숙박업 - 여관/기타숙박업"}]},{"lat":"37.942694598","long":"127.49291448","items":[{"name":"도솔천사회","tel":"031-582-6186","addr":"경기도 가평군 북면 도대리 279-3","category":"기타 - 비영리/대상"}]},{"lat":"37.954636608","long":"127.47855507","items":[{"name":"라무리조트 E","tel":"","addr":"경기도 가평군 북면 도대리 324-42번지","category":"숙박업 - 여관/기타숙박업"}]},{"lat":"37.954546979","long":"127.47844071","items":[{"name":"라무리조트4","tel":"03-100-0000","addr":"경기도 가평군 북면 도대리 324-29번지","category":"숙박업 - 여관/기타숙박업"}]},{"lat":"37.954305669","long":"127.47796128","items":[{"name":"라무캠핑장","tel":"","addr":"경기도 가평군 북면 도대리 324-9번지","category":"숙박업 - 여관/기타숙박업"}]},{"lat":"37.966108612","long":"127.46183246","items":[{"name":"루펜션","tel":"031-582-2509","addr":"경기도 가평군 북면 도대리 475-2번지","category":"숙박업 - 여관/기타숙박업"}]},{"lat":"37.96446638","long":"127.4670796","items":[{"name":"리치하우스","tel":"031-582-6555","addr":"경기도 가평군 북면 도대리 492-8","category":"숙박업 - 여관/기타숙박업"}]},{"lat":"37.964495471","long":"127.46655632","items":[{"name":"리치하우스","tel":"031-582-6555","addr":"경기도 가평군 북면 도대리 491번지","category":"숙박업 - 여관/기타숙박업"}]},{"lat":"37.951909892","long":"127.47779794","items":[{"name":"멘토타운연수원","tel":"031-582-4564","addr":"경기도 가평군 북면 도대리 316-1번지","category":"용역 서비스 - 사무서비스"}]},{"lat":"37.967965535","long":"127.45924935","items":[{"name":"명지산 패밀리 펜션","tel":"070-8616-2223","addr":"경기도 가평군 북면 도대리 530-3번지 1층","category":"숙박업 - 여관/기타숙박업"}]},{"lat":"37.95371848","long":"127.47835573","items":[{"name":"명지산숯가마","tel":"031-582-6801","addr":"경기도 가평군 북면 도대리 311-16번지","category":"연료판매점 - 기타연료"}]},{"lat":"37.935775644","long":"127.488546","items":[{"name":"명지산아래촌","tel":"031-582-0506","addr":"경기도 가평군 북면 도대리 239-1번지","category":"일반휴게음식 - 일반한식"}]},{"lat":"37.919528569","long":"127.49588822","items":[{"name":"미궁카페","tel":"031-589-7628","addr":"경기도 가평군 북면 도대리 63-4번지 외1필지","category":"일반휴게음식 - 서양음식"}]},{"lat":"37.917358173","long":"127.49569178","items":[{"name":"미리내 매점","tel":"031-581-3717","addr":"경기도 가평군 북면 도대리 67-3번지","category":"음료식품 - 기타음료식품"}]},{"lat":"37.950191388","long":"127.47947073","items":[{"name":"밤비니펜션","tel":"","addr":"경기도 가평군 북면 도대리 306-3번지","category":"숙박업 - 여관/기타숙박업"}]},{"lat":"37.954047164","long":"127.47727694","items":[{"name":"보니또","tel":"031-581-7885","addr":"경기도 가평군 북면 도대리 324-5번지","category":"숙박업 - 여관/기타숙박업"}]},{"lat":"37.967549181","long":"127.4597475","items":[{"name":"산수식당","tel":"031-581-7968","addr":"경기도 가평군 북면 도대리 532-1번지","category":"일반휴게음식 - 일반한식"},{"name":"산수펜션","tel":"031-581-7968","addr":"경기도 가평군 북면 도대리 532-1번지","category":"숙박업 - 여관/기타숙박업"}]},{"lat":"37.956939591","long":"127.47266453","items":[{"name":"산이슬","tel":"031-581-8254","addr":"경기도 가평군 북면 도대리 389번지","category":"음료식품 - 기타음료식품"}]},{"lat":"37.959744453","long":"127.47190864","items":[{"name":"세븐일레븐가평도대리점","tel":"031-1577-0711","addr":"경기도 가평군 북면 도대리 399-1번지","category":"유통업 영리 - 편 의 점"}]},{"lat":"37.952991973","long":"127.4775546","items":[{"name":"숯가마식당","tel":"031-582-6801","addr":"경기도 가평군 북면 도대리 320-10번지","category":"일반휴게음식 - 일반한식"}]},{"lat":"37.9548337","long":"127.47882942","items":[{"name":"스위트 아이 풀빌라","tel":"","addr":"경기도 가평군 북면 도대리 324-46번지","category":"숙박업 - 여관/기타숙박업"}]},{"lat":"37.960272373","long":"127.4773056","items":[{"name":"스토리(story)","tel":"031-581-7171","addr":"경기도 가평군 북면 도대리 436-4번지 가동","category":"숙박업 - 여관/기타숙박업"}]},{"lat":"37.911365002","long":"127.49402569","items":[{"name":"신화건설","tel":"031-582-8679","addr":"경기도 가평군 북면 도대리 74-11번지","category":"건축자재 - 인테리어전문"},{"name":"한솔농원","tel":"031-000-0000","addr":"경기도 가평군 북면 도대리 74-11번지","category":"일반휴게음식 - 일반한식"}]},{"lat":"37.935827631","long":"127.48904685","items":[{"name":"안성집","tel":"031-582-9612","addr":"경기도 가평군 북면 도대리 240-13번지 1층","category":"일반휴게음식 - 일반한식"},{"name":"예스25","tel":"031-582-9612","addr":"경기도 가평군 북면 도대리 240-13번지","category":"음료식품 - 정육점"},{"name":"예스25","tel":"031-582-9612","addr":"경기도 가평군 북면 도대리 240-13번지","category":"음료식품 - 기타음료식품"},{"name":"인천하우스","tel":"031-582-7895","addr":"경기도 가평군 북면 도대리 240-13번지","category":"숙박업 - 여관/기타숙박업"}]},{"lat":"37.954272066","long":"127.47735803","items":[{"name":"안젤로펜션","tel":"031-581-7508","addr":"경기도 가평군 북면 도대리 324-14번지","category":"숙박업 - 여관/기타숙박업"}]},{"lat":"37.968132897","long":"127.45790753","items":[{"name":"에비뉴펜션","tel":"031-582-0497","addr":"경기도 가평군 북면 도대리 526-2번지","category":"숙박업 - 여관/기타숙박업"}]},{"lat":"37.954496647","long":"127.47751877","items":[{"name":"엘사","tel":"031-582-0304","addr":"경기도 가평군 북면 도대리 328-1번지","category":"숙박업 - 여관/기타숙박업"}]},{"lat":"37.903005647","long":"127.5023044","items":[{"name":"연인산온천랜드 주식회사","tel":"031-581-8842","addr":"경기도 가평군 북면 도대리 70-111번지","category":"숙박업 - 여관/기타숙박업"}]},{"lat":"37.965439203","long":"127.46483254","items":[{"name":"용소폭포유원지 (매점)","tel":"","addr":"경기도 가평군 북면 도대리 500번지","category":"음료식품 - 기타음료식품"}]},{"lat":"37.96798959","long":"127.45769043","items":[{"name":"우리집펜션유원지","tel":"031-581-9959","addr":"경기도 가평군 북면 도대리 527번지","category":"숙박업 - 여관/기타숙박업"}]},{"lat":"37.935553082","long":"127.49008017","items":[{"name":"인천하우스","tel":"031-582-7895","addr":"경기도 가평군 북면 도대리 234-8번지","category":"레져용품 - 스포츠·레져용품"},{"name":"인천하우스","tel":"031-582-7895","addr":"경기도 가평군 북면 도대리 234-8번지","category":"음료식품 - 기타음료식품"}]},{"lat":"37.964242818","long":"127.46665715","items":[{"name":"자연속의 휴식공간","tel":"031-582-7393","addr":"경기도 가평군 북면 도대리 492-6번지","category":"숙박업 - 여관/기타숙박업"}]},{"lat":"37.95171841","long":"127.48280285","items":[{"name":"제스밸리펜션","tel":"070-4922-1261","addr":"경기도 가평군 북면 도대리 310-24번지","category":"숙박업 - 여관/기타숙박업"}]},{"lat":"37.958075215","long":"127.4725466","items":[{"name":"중봉상회","tel":"031-581-1881","addr":"경기도 가평군 북면 도대리 391번지","category":"음료식품 - 기타음료식품"}]},{"lat":"37.960110809","long":"127.47715664","items":[{"name":"펜션 띠아모","tel":"","addr":"경기도 가평군 북면 도대리 436번지 가동","category":"숙박업 - 여관/기타숙박업"}]},{"lat":"37.956444321","long":"127.4748574","items":[{"name":"프리마 베라","tel":"031-582-2819","addr":"경기도 가평군 북면 도대리 375번지","category":"숙박업 - 여관/기타숙박업"}]},{"lat":"37.921165147","long":"127.49662701","items":[{"name":"필그림하우스","tel":"","addr":"경기도 가평군 북면 도대리 58-3번지","category":"음료식품 - 기타음료식품"}]},{"lat":"37.934579719","long":"127.47693568","items":[{"name":"하늘소리","tel":"031-582-0310","addr":"경기도 가평군 북면 도대리 249-3번지","category":"일반휴게음식 - 서양음식"}]},{"lat":"37.953415209","long":"127.47760283","items":[{"name":"하야타펜션","tel":"031-581-3005","addr":"경기도 가평군 북면 도대리 324-13번지","category":"숙박업 - 여관/기타숙박업"}]},{"lat":"37.940747812","long":"127.48657656","items":[{"name":"해누리펜션","tel":"031-582-1481","addr":"경기도 가평군 북면 도대리 283번지","category":"숙박업 - 여관/기타숙박업"}]},{"lat":"37.95366216","long":"127.47444137","items":[{"name":"해바라기","tel":"031-581-1881","addr":"경기도 가평군 북면 도대리 336-20번지","category":"숙박업 - 여관/기타숙박업"}]},{"lat":"37.926661963","long":"127.49202328","items":[{"name":"호수유원지","tel":"031-582-1589","addr":"경기도 가평군 북면 도대리 198번지 2동 1층","category":"일반휴게음식 - 일반한식"}]},{"lat":"37.959742229","long":"127.47246619","items":[{"name":"화명쉼터","tel":"031-582-9901","addr":"경기도 가평군 북면 도대리 393-1번지","category":"일반휴게음식 - 일반한식"}]},{"lat":"37.946472323","long":"127.48126699","items":[{"name":"화산여행사","tel":"031-581-5930","addr":"경기도 가평군 북면 도대리 산73-1번지","category":"여행 - 관광여행"}]},{"lat":"37.947994085","long":"127.47924037","items":[{"name":"휴림","tel":"031-581-9100","addr":"경기도 가평군 북면 도대리 301-1번지","category":"숙박업 - 여관/기타숙박업"}]}]