[{"lat":"37.39358551","long":"126.91209919","items":[{"name":"(주)마당빗자루","tel":"031-427-1594","addr":"경기도 안양시 만안구 병목안로","category":"용역 서비스 - 종합용역"}]},{"lat":"37.39986222","long":"126.91983912","items":[{"name":"AB텔레콤","tel":"031-465-9226","addr":"경기도 안양시 만안구 병목안로","category":"수리서비스 - 사무·통신기기수리"}]},{"lat":"37.39352176","long":"126.91121843","items":[{"name":"벨리타 코스메틱","tel":"031-444-6235","addr":"경기도 안양시 만안구 병목안로","category":"회원제형태 - 기타1"}]},{"lat":"37.392051845","long":"126.90959409","items":[{"name":"보경미용실","tel":"031-465-8884","addr":"경기도 안양시 만안구 병목안로","category":"보건위생 - 미용원"}]},{"lat":"37.381606481","long":"126.90628748","items":[{"name":"수복집","tel":"031-441-2469","addr":"경기도 안양시 만안구 병목안로","category":"일반휴게음식 - 일반한식"}]},{"lat":"37.392331202","long":"126.90965021","items":[{"name":"승민당구장","tel":"031-8033-9887","addr":"경기도 안양시 만안구 병목안로","category":"레저업소 - 당 구 장"}]},{"lat":"37.394912252","long":"126.91509023","items":[{"name":"신흥정보통신","tel":"070-8286-8368","addr":"경기도 안양시 만안구 병목안로","category":"회원제형태 - 기타1"}]},{"lat":"37.38533644","long":"126.9060117","items":[{"name":"엠31","tel":"031-341-0118","addr":"경기도 안양시 만안구 병목안로","category":"일반휴게음식 - 서양음식"}]},{"lat":"37.390411741","long":"126.90925735","items":[{"name":"여성시대대리운전","tel":"031-1566-6109","addr":"경기도 안양시 만안구 병목안로","category":"보건위생 - 기타대인서비스"}]},{"lat":"37.393025041","long":"126.9097284","items":[{"name":"와유뽀차","tel":"031-441-0995","addr":"경기도 안양시 만안구 병목안로","category":"일반휴게음식 - 일반한식"}]},{"lat":"37.391555906","long":"126.90910913","items":[{"name":"왕창과일야채","tel":"031-464-0371","addr":"경기도 안양시 만안구 병목안로","category":"회원제형태 - 기타1"}]},{"lat":"37.392691739","long":"126.90981915","items":[{"name":"태후사랑","tel":"031-449-9989","addr":"경기도 안양시 만안구 병목안로","category":"보건위생 - 미용재료"},{"name":"태후사랑","tel":"031-449-9989","addr":"경기도 안양시 만안구 병목안로","category":"보건위생 - 미용재료"}]},{"lat":"37.394306654","long":"126.91253874","items":[{"name":"행복한강아지","tel":"031-465-0057","addr":"경기도 안양시 만안구 병목안로","category":"문화.취미 - 애완동물"}]},{"lat":"37.392890067","long":"126.90995442","items":[{"name":"헤어일번가","tel":"031-464-1576","addr":"경기도 안양시 만안구 병목안로","category":"보건위생 - 미용원"}]},{"lat":"37.392998365","long":"126.91018014","items":[{"name":"화니체육교실퍼니이벤트","tel":"031-445-1005","addr":"경기도 안양시 만안구 병목안로","category":"용역 서비스 - 사무서비스"}]}]