[{"lat":"37.202548394","long":"126.76689564","items":[{"name":"124번가","tel":"031-366-8515","addr":"경기도 화성시 마도면 슬항리 220-124번지","category":"일반휴게음식 - 서양음식"}]},{"lat":"37.207548981","long":"126.76681248","items":[{"name":"GS25마도슬항점","tel":"","addr":"경기도 화성시 마도면 슬항리 220-134번지","category":"유통업 영리 - 편 의 점"},{"name":"원강종합상사","tel":"031-355-1258","addr":"경기도 화성시 마도면 슬항리 220-134번지","category":"의류 - 기타의류"}]},{"lat":"37.207522376","long":"126.7670266","items":[{"name":"경기유화","tel":"031-356-5995","addr":"경기도 화성시 마도면 슬항리 220-135번지","category":"신변잡화 - 기타잡화"},{"name":"행복한 밥집","tel":"031-355-8787","addr":"경기도 화성시 마도면 슬항리 220-135번지","category":"일반휴게음식 - 일반한식"}]},{"lat":"37.208632876","long":"126.7636436","items":[{"name":"경기차 유리","tel":"031-356-2317","addr":"경기도 화성시 마도면 슬항리 203-16","category":"자동차정비 유지 - 자동차부품"},{"name":"대동종합농기계","tel":"031-29-7997","addr":"경기도 화성시 마도면 슬항리 203-16번지","category":"농업 - 농기계"},{"name":"행복이불커텐","tel":"031-351-0853","addr":"경기도 화성시 마도면 슬항리 203-16번지","category":"직물 - 침구·수예점"}]},{"lat":"37.207853058","long":"126.76567377","items":[{"name":"나우시스템 공조","tel":"","addr":"경기도 화성시 마도면 슬항리 220-3번지","category":"전기제품 - 냉열기기"},{"name":"마도주유소","tel":"031-356-2030","addr":"경기도 화성시 마도면 슬항리 220-3번지","category":"연료판매점 - SK주유소"}]},{"lat":"37.210548183","long":"126.75302551","items":[{"name":"대한천막기업","tel":"031-357-7752","addr":"경기도 화성시 마도면 슬항리 1-13번지","category":"직물 - 카페트,커튼,천막,지물"}]},{"lat":"37.210045076","long":"126.76244501","items":[{"name":"마도IC주유소","tel":"031-356-9880","addr":"경기도 화성시 마도면 슬항리 214-7번지","category":"연료판매점 - SK주유소"},{"name":"마도세차장","tel":"","addr":"경기도 화성시 마도면 슬항리 214-7번지","category":"자동차정비 유지 - 세차장"},{"name":"커피타임","tel":"031-356-9880","addr":"경기도 화성시 마도면 슬항리 214-7번지 1층","category":"일반휴게음식 - 서양음식"}]},{"lat":"37.208183929","long":"126.76442231","items":[{"name":"마도공업사","tel":"031-356-8781","addr":"경기도 화성시 마도면 슬항리 219-3번지","category":"건축자재 - 기타건축자재"},{"name":"엘종합모터","tel":"031-357-4827","addr":"경기도 화성시 마도면 슬항리 219-3","category":"기타 - 기타 전문점"}]},{"lat":"37.208850804","long":"126.76447653","items":[{"name":"마도대형정비","tel":"031-357-8441","addr":"경기도 화성시 마도면 슬항리 214-39번지","category":"자동차정비 유지 - 자동차정비"}]},{"lat":"37.209461551","long":"126.7635058","items":[{"name":"마도유압호스","tel":"031-356-2636","addr":"경기도 화성시 마도면 슬항리 214-20번지 101호","category":"건축자재 - 기타건축자재"},{"name":"예성철거기획","tel":"031-354-0635","addr":"경기도 화성시 마도면 슬항리 214-20번지 102호","category":"건축자재 - 기타건축자재"}]},{"lat":"37.208716307","long":"126.76480365","items":[{"name":"마도현대서비스","tel":"031-356-6108","addr":"경기도 화성시 마도면 슬항리 215-4","category":"자동차정비 유지 - 자동차정비"},{"name":"주식회사 지구촌냉열","tel":"031-357-9578","addr":"경기도 화성시 마도면 슬항리 215-4번지","category":"전기제품 - 냉열기기"}]},{"lat":"37.201071544","long":"126.76283392","items":[{"name":"물과함께","tel":"02-2060-8441","addr":"경기도 화성시 마도면 슬항리 470-1번지","category":"건축자재 - 보일러·펌프·샷시"}]},{"lat":"37.210933005","long":"126.75178504","items":[{"name":"미소주유소","tel":"070-4312-5189","addr":"경기도 화성시 마도면 슬항리 4-1번지","category":"연료판매점 - 현대정유(오일뱅크)"}]},{"lat":"37.209048123","long":"126.7640253","items":[{"name":"아트하우스","tel":"031-356-7841","addr":"경기도 화성시 마도면 슬항리 203-1번지","category":"건축자재 - 보일러·펌프·샷시"}]},{"lat":"37.203049526","long":"126.76517064","items":[{"name":"연꽃조명","tel":"031-455-9589","addr":"경기도 화성시 마도면 슬항리 220-148번지","category":"건축자재 - 조명기구"}]},{"lat":"37.199849089","long":"126.75986414","items":[{"name":"올네이션경기화성서부지사","tel":"","addr":"경기도 화성시 마도면 슬항리 405-1번지","category":"보건위생 - 화장품"}]},{"lat":"37.21035035","long":"126.76191457","items":[{"name":"원타이어","tel":"031-682-0801","addr":"경기도 화성시 마도면 슬항리 214-8","category":"자동차정비 유지 - 자동차시트·타이어"}]},{"lat":"37.200932333","long":"126.76084064","items":[{"name":"자연향기어린이집[아이행복]","tel":"031-357-7633","addr":"경기도 화성시 마도면 슬항리 457-1번지","category":"학원 - 유아원"}]},{"lat":"37.209263939","long":"126.76381058","items":[{"name":"주식회사 반우금속코리아","tel":"031-357-0676","addr":"경기도 화성시 마도면 슬항리 216-1번지","category":"기타 - 기계공구"},{"name":"큰손식당","tel":"031-356-6009","addr":"경기도 화성시 마도면 슬항리 216-1번지 101동 102호","category":"일반휴게음식 - 일반한식"}]},{"lat":"37.203384419","long":"126.7659243","items":[{"name":"주식회사 화성신진중장비전문학원","tel":"031-235-3131","addr":"경기도 화성시 마도면 슬항리 220-119번지","category":"학원 - 기능학원"}]},{"lat":"37.20968608","long":"126.7631446","items":[{"name":"파인애플","tel":"031-366-9697","addr":"경기도 화성시 마도면 슬항리 214-24번지 104호","category":"용역 서비스 - 종합용역"},{"name":"한성볼트고무","tel":"02-2635-1641","addr":"경기도 화성시 마도면 슬항리 214-24번지","category":"기타 - 기계공구"}]},{"lat":"37.20968274","long":"126.76149987","items":[{"name":"화성인삼","tel":"031-357-2356","addr":"경기도 화성시 마도면 슬항리 205-4번지 1층","category":"건강식품 - 인삼제품"},{"name":"화성인삼영농조합법인","tel":"031-357-2356","addr":"경기도 화성시 마도면 슬항리 205-4번지","category":"건강식품 - 홍삼제품"}]}]