[{"lat":"36.987463415","long":"126.9726217","items":[{"name":"20시 편의점","tel":"031-681-9046","addr":"경기도 평택시 오성면 당거리 398-12번지","category":"음료식품 - 기타음료식품"},{"name":"강나루가든","tel":"031-684-7302","addr":"경기도 평택시 오성면 당거리 398-12번지","category":"일반휴게음식 - 일반한식"}]},{"lat":"36.989852402","long":"126.97751827","items":[{"name":"강변매운탕","tel":"031-681-3391","addr":"경기도 평택시 오성면 당거리 283-2","category":"일반휴게음식 - 일반한식"}]},{"lat":"36.988854902","long":"127.00518471","items":[{"name":"동호네","tel":"031-682-5639","addr":"경기도 평택시 오성면 당거리 11-8","category":"음료식품 - 농·축·수산품"}]},{"lat":"36.992961823","long":"126.98117929","items":[{"name":"리버타워4층 투썸플레이스","tel":"031-684-2277","addr":"경기도 평택시 오성면 당거리 253번지","category":"일반휴게음식 - 서양음식"}]},{"lat":"36.988879094","long":"126.97682216","items":[{"name":"베이크오르","tel":"","addr":"경기도 평택시 오성면 당거리 368-3번지","category":"음료식품 - 기타음료식품"},{"name":"카페오르","tel":"031-681-8149","addr":"경기도 평택시 오성면 당거리 368-3번지","category":"음식점 - 일반"},{"name":"카페오르 (CAFE OR)","tel":"031-681-5657","addr":"경기도 평택시 오성면 당거리 368-3번지","category":"일반휴게음식 - 일반한식"}]},{"lat":"36.989053122","long":"127.00586991","items":[{"name":"사랑요양원","tel":"031-684-6250","addr":"경기도 평택시 오성면 당거리 11-3번지","category":"서비스업 - 병원"}]},{"lat":"36.993268218","long":"126.9813477","items":[{"name":"소담촌","tel":"","addr":"경기도 평택시 오성면 당거리 251-2번지","category":"일반휴게음식 - 일반한식"}]},{"lat":"36.9897711","long":"126.97657474","items":[{"name":"조은창호","tel":"031-658-2532","addr":"경기도 평택시 오성면 당거리 293번지","category":"건축자재 - 기타건축자재"},{"name":"평택장어","tel":"031-111-1111","addr":"경기도 평택시 오성면 당거리 293번지 가동 1층","category":"일반휴게음식 - 일반한식"}]},{"lat":"36.990107399","long":"127.00473543","items":[{"name":"투휠스쉼터 (도농교류)","tel":"031-000-0000","addr":"경기도 평택시 오성면 당거리 530-5번지","category":"음료식품 - 미곡상"},{"name":"투휠스쉼터(도농교류)","tel":"","addr":"경기도 평택시 오성면 당거리 530-5번지","category":"소매업 - 화원"}]},{"lat":"36.990717358","long":"126.97718099","items":[{"name":"행복한만찬앤뮤즈","tel":"031-734-4500","addr":"경기도 평택시 오성면 당거리 501-50번지","category":"일반휴게음식 - 일반한식"}]}]