[{"lat":"37.777210979","long":"127.46411286","items":[{"name":"(재)에덴스포츠타운","tel":"031-585-7044","addr":"경기도 가평군 청평면 상천리 277번지 외","category":"레저업소 - 기타레져업소"},{"name":"에덴스포츠텔사우나","tel":"031-581-4600","addr":"경기도 가평군 청평면 상천리 277번지","category":"보건위생 - 사우나"}]},{"lat":"37.769821392","long":"127.44580534","items":[{"name":"(주) 카브루 상천브루어리","tel":"070-8787-3211","addr":"경기도 가평군 청평면 상천리 1112-2번지","category":"일반휴게음식 - 주점"}]},{"lat":"37.764352911","long":"127.44333272","items":[{"name":"(주)서울주유소","tel":"031-584-5060","addr":"경기도 가평군 청평면 상천리 1152-5번지","category":"연료판매점 - SK주유소"}]},{"lat":"37.776266058","long":"127.46153039","items":[{"name":"Fly to the Sky (매점)","tel":"031-000-0000","addr":"경기도 가평군 청평면 상천리 296-7번지 5층","category":"음료식품 - 기타음료식품"},{"name":"가평한우정육식당","tel":"031-585-9289","addr":"경기도 가평군 청평면 상천리 296-7번지 1층","category":"일반휴게음식 - 일반한식"},{"name":"미래인재교육","tel":"031-585-9399","addr":"경기도 가평군 청평면 상천리 296-7번지","category":"학원 - 보습학원"},{"name":"상천신경과의원","tel":"031-585-8542","addr":"경기도 가평군 청평면 상천리 296-7번지","category":"의원 - 의원"},{"name":"우리들고시학원","tel":"031-584-3434","addr":"경기도 가평군 청평면 상천리 296-7번지 4층","category":"학원 - 보습학원"},{"name":"주식회사청평비상에듀","tel":"031-1644-9399","addr":"경기도 가평군 청평면 상천리 296-7번지","category":"학원 - 보습학원"}]},{"lat":"37.787351349","long":"127.46289306","items":[{"name":"GS25가평산천휴게소점","tel":"","addr":"경기도 가평군 청평면 상천리 142-1번지","category":"유통업 영리 - 편 의 점"},{"name":"늘푸른원 농산물","tel":"031-581-0291","addr":"경기도 가평군 청평면 상천리 142-1번지","category":"음료식품 - 기타음료식품"},{"name":"상천스넥","tel":"031-582-8950","addr":"경기도 가평군 청평면 상천리 142-1번지","category":"음료식품 - 기타음료식품"}]},{"lat":"37.766986035","long":"127.44750216","items":[{"name":"GS25청평하나점","tel":"","addr":"경기도 가평군 청평면 상천리 1134번지","category":"유통업 영리 - 편 의 점"},{"name":"가평연합건기","tel":"031-584-4280","addr":"경기도 가평군 청평면 상천리 1134","category":"기타 - 기계공구"},{"name":"가평연합건기주식회사","tel":"031-585-7422","addr":"경기도 가평군 청평면 상천리 1134","category":"기타 - 기계공구"},{"name":"강호중기","tel":"031-585-0555","addr":"경기도 가평군 청평면 상천리 1134","category":"기타 - 기계공구"},{"name":"마라우동","tel":"","addr":"경기도 가평군 청평면 상천리 1134번지","category":"일반휴게음식 - 일반한식"},{"name":"쁘띠아미","tel":"","addr":"경기도 가평군 청평면 상천리 1134번지 1층","category":"음료식품 - 제과점"},{"name":"솥밥 양평해장국","tel":"070-8806-0828","addr":"경기도 가평군 청평면 상천리 1134번지 가평한우곰탕 A동 1층","category":"일반휴게음식 - 일반한식"}]},{"lat":"37.768625804","long":"127.47302563","items":[{"name":"HIM&I(힘앤아이)","tel":"031-284-8665","addr":"경기도 가평군 청평면 상천리 1502-9번지","category":"일반휴게음식 - 서양음식"}]},{"lat":"37.768106119","long":"127.46317106","items":[{"name":"가온길","tel":"031-584-9494","addr":"경기도 가평군 청평면 상천리 1461-4","category":"일반휴게음식 - 일반한식"}]},{"lat":"37.76343816","long":"127.44220378","items":[{"name":"가평 대박 주유소","tel":"031-584-5155","addr":"경기도 가평군 청평면 상천리 1157-3번지","category":"연료판매점 - 쌍용S-OIL"}]},{"lat":"37.740796704","long":"127.42006015","items":[{"name":"가평 사랑의 요양원","tel":"031-582-8463","addr":"경기도 가평군 청평면 상천리 228번지","category":"기타의료기관 - 기타의료기관 및 기타"},{"name":"롯데칠성 가평대리점","tel":"","addr":"경기도 가평군 청평면 상천리 228번지","category":"음료식품 - 기타음료식품"}]},{"lat":"37.779652875","long":"127.46402587","items":[{"name":"가평계량소","tel":"031-111-1111","addr":"경기도 가평군 청평면 상천리 205","category":"용역 서비스 - 사무서비스"},{"name":"샘말식당","tel":"031-582-7958","addr":"경기도 가평군 청평면 상천리 205번지","category":"일반휴게음식 - 일반한식"}]},{"lat":"37.790072449","long":"127.43669637","items":[{"name":"가평달빛마을","tel":"031-585-5440","addr":"경기도 가평군 청평면 상천리 701-4번지","category":"숙박업 - 여관/기타숙박업"}]},{"lat":"37.75787747","long":"127.43539622","items":[{"name":"가평대박주유소","tel":"","addr":"경기도 가평군 청평면 상천리 1157-3번지","category":"연료판매점 - 주유소"},{"name":"빗고개청국장","tel":"031-582-7631","addr":"경기도 가평군 청평면 상천리 148-4번지","category":"일반휴게음식 - 일반한식"},{"name":"서울주유소","tel":"031-584-4171","addr":"경기도 가평군 청평면 상천리 1152-5번지","category":"연료판매점 - SK주유소"},{"name":"주식회사 우리컴퍼니","tel":"","addr":"경기도 가평군 청평면 상천리 1136번지","category":"-"}]},{"lat":"37.76812572","long":"127.47641594","items":[{"name":"가평숲속의호수펜션","tel":"031-584-6642","addr":"경기도 가평군 청평면 상천리 1507-7번지","category":"숙박업 - 여관/기타숙박업"},{"name":"여우사이","tel":"031-584-6642","addr":"경기도 가평군 청평면 상천리 1507-7번지","category":"일반휴게음식 - 일반한식"}]},{"lat":"37.76604609","long":"127.44589631","items":[{"name":"가평연새장례식장","tel":"031-581-4444","addr":"경기도 가평군 청평면 상천리 1148-3번지","category":"용역 서비스 - 가례서비스업"}]},{"lat":"37.778516313","long":"127.43589102","items":[{"name":"가평이한별장","tel":"031-585-3190","addr":"경기도 가평군 청평면 상천리 1076-10번지","category":"숙박업 - 여관/기타숙박업"}]},{"lat":"37.779821116","long":"127.4647761","items":[{"name":"가평잣한과&에덴떡집","tel":"031-582-7010","addr":"경기도 가평군 청평면 상천리 253-8번지","category":"음료식품 - 제과점"},{"name":"봉녀수제비","tel":"031-581-3373","addr":"경기도 가평군 청평면 상천리 253-8번지 1층","category":"일반휴게음식 - 일반한식"}]},{"lat":"37.778209582","long":"127.43600274","items":[{"name":"가평패밀리","tel":"031-585-5440","addr":"경기도 가평군 청평면 상천리 1076-2번지","category":"숙박업 - 여관/기타숙박업"}]},{"lat":"37.751186696","long":"127.47222312","items":[{"name":"갤러리매점","tel":"031-582-9123","addr":"경기도 가평군 청평면 상천리 산396-6번지","category":"음료식품 - 기타음료식품"},{"name":"상천4리새마을회","tel":"","addr":"경기도 가평군 청평면 상천리 산396-6번지","category":"음료식품 - 기타음료식품"}]},{"lat":"37.77170859","long":"127.45183207","items":[{"name":"굿윌스토어 청평점","tel":"031-584-9197","addr":"경기도 가평군 청평면 상천리 1722-6번지 1층","category":"신변잡화 - 기타잡화"},{"name":"캠토리","tel":"031-581-3808","addr":"경기도 가평군 청평면 상천리 1722-6번지","category":"레져용품 - 스포츠·레져용품"}]},{"lat":"37.773771029","long":"127.45672516","items":[{"name":"금수강산 막국수 숯불닭갈비","tel":"031-585-5800","addr":"경기도 가평군 청평면 상천리 379-4번지 1층","category":"일반휴게음식 - 일반한식"}]},{"lat":"37.765073843","long":"127.48252491","items":[{"name":"꽃담소","tel":"031-585-0004","addr":"경기도 가평군 청평면 상천리 1516-2번지","category":"일반휴게음식 - 일반한식"},{"name":"화이트펜션","tel":"031-585-0004","addr":"경기도 가평군 청평면 상천리 1516-2번지 화이트펜션","category":"숙박업 - 여관/기타숙박업"}]},{"lat":"37.781683127","long":"127.46552553","items":[{"name":"남이섬주유소","tel":"031-581-5151","addr":"경기도 가평군 청평면 상천리 174-2번지","category":"연료판매점 - 쌍용S-OIL"},{"name":"남이섬주유소","tel":"031-581-5151","addr":"경기도 가평군 청평면 상천리 174-2번지","category":"연료판매점 - 쌍용S-OIL"}]},{"lat":"37.768962015","long":"127.4585344","items":[{"name":"농업회사법인상천4리마을기업 주식회사","tel":"031-000-0000","addr":"경기도 가평군 청평면 상천리 1354-2번지","category":"음료식품 - 기타음료식품"},{"name":"농업회사법인상천4리마을기업 주식회사","tel":"031-000-0000","addr":"경기도 가평군 청평면 상천리 1354-2번지","category":"음료식품 - 기타음료식품"}]},{"lat":"37.785046163","long":"127.43397657","items":[{"name":"농업회사법인주식회사한울","tel":"031-584-3240","addr":"경기도 가평군 청평면 상천리 638-1번지","category":"음료식품 - 농·축·수산품"}]},{"lat":"37.768713026","long":"127.44825022","items":[{"name":"니들아트하우스 아트십자수","tel":"031-584-5877","addr":"경기도 가평군 청평면 상천리 1275-21번지 아트십자수","category":"직물 - 침구·수예점"}]},{"lat":"37.789401973","long":"127.43033496","items":[{"name":"다온도예","tel":"031-585-9947","addr":"경기도 가평군 청평면 상천리 929","category":"주방용구 - 주방용식기"}]},{"lat":"37.768877362","long":"127.4640838","items":[{"name":"달과6펜스","tel":"070-4124-2577","addr":"경기도 가평군 청평면 상천리 1451번지","category":"학원 - 기타 교육기관"},{"name":"달과6펜스","tel":"031-584-6916","addr":"경기도 가평군 청평면 상천리 1451번지","category":"일반휴게음식 - 일반한식"}]},{"lat":"37.768463471","long":"127.46394503","items":[{"name":"달과6펜스","tel":"070-4124-2577","addr":"경기도 가평군 청평면 상천리 1454-2","category":"유통업 영리 - 슈퍼마켓"}]},{"lat":"37.764354226","long":"127.44538687","items":[{"name":"대동공업사","tel":"031-584-1209","addr":"경기도 가평군 청평면 상천리 1140-9번지","category":"수리서비스 - 기타수리서비스"}]},{"lat":"37.768074989","long":"127.48005877","items":[{"name":"더포레펜션","tel":"","addr":"경기도 가평군 청평면 상천리 1513-8번지","category":"숙박업 - 여관/기타숙박업"}]},{"lat":"37.761574526","long":"127.48342153","items":[{"name":"돌쇠네","tel":"031-584-5382","addr":"경기도 가평군 청평면 상천리 1524번지 꽃피는산골","category":"일반휴게음식 - 일반한식"},{"name":"맛객돌쇠네","tel":"031-584-5382","addr":"경기도 가평군 청평면 상천리 1524번지","category":"일반휴게음식 - 일반한식"}]},{"lat":"37.797153864","long":"127.43669236","items":[{"name":"드림","tel":"","addr":"경기도 가평군 청평면 상천리 798-9번지","category":"숙박업 - 여관/기타숙박업"}]},{"lat":"37.779235072","long":"127.46488596","items":[{"name":"또래오래","tel":"031-581-1477","addr":"경기도 가평군 청평면 상천리 258번지","category":"일반휴게음식 - 스넥"},{"name":"또래오래","tel":"031-581-1477","addr":"경기도 가평군 청평면 상천리 258번지","category":"일반휴게음식 - 스넥"},{"name":"인정세탁소","tel":"031-581-7090","addr":"경기도 가평군 청평면 상천리 258번지 허니문웨딩홀 1층 3호","category":"수리서비스 - 세탁소"},{"name":"허니문예식장","tel":"031-581-8007","addr":"경기도 가평군 청평면 상천리 258번지","category":"용역 서비스 - 혼례서비스"}]},{"lat":"37.782574139","long":"127.43491575","items":[{"name":"뜰","tel":"031-584-0106","addr":"경기도 가평군 청평면 상천리 647-3번지 B동 1층","category":"일반휴게음식 - 일반한식"}]},{"lat":"37.764958863","long":"127.449896","items":[{"name":"라일락","tel":"031-584-1952","addr":"경기도 가평군 청평면 상천리 1217-8번지","category":"숙박업 - 여관/기타숙박업"}]},{"lat":"37.774294213","long":"127.46352723","items":[{"name":"만남의 광장 매점","tel":"031-584-2647","addr":"경기도 가평군 청평면 상천리 304-4","category":"음료식품 - 기타음료식품"}]},{"lat":"37.766404796","long":"127.44634107","items":[{"name":"맛드림밥상","tel":"031-584-1459","addr":"경기도 가평군 청평면 상천리 1148-1번지 1층","category":"일반휴게음식 - 일반한식"},{"name":"맛드림푸드","tel":"031-581-7662","addr":"경기도 가평군 청평면 상천리 1148-1번지","category":"음료식품 - 기타음료식품"}]},{"lat":"37.764575819","long":"127.45111937","items":[{"name":"메이플","tel":"031-584-1952","addr":"경기도 가평군 청평면 상천리 1217-18","category":"숙박업 - 여관/기타숙박업"}]},{"lat":"37.788958617","long":"127.46197211","items":[{"name":"무지골산토종닭","tel":"031-581-4318","addr":"경기도 가평군 청평면 상천리 138-1","category":"일반휴게음식 - 일반한식"}]},{"lat":"37.775157201","long":"127.45938965","items":[{"name":"문화탐방","tel":"031-585-3789","addr":"경기도 가평군 청평면 상천리 401-1번지","category":"일반휴게음식 - 칵테일바"},{"name":"퍼피데이","tel":"031-585-5808","addr":"경기도 가평군 청평면 상천리 401-1번지 1층","category":"일반휴게음식 - 서양음식"}]},{"lat":"37.773543349","long":"127.45735939","items":[{"name":"미스고기 가평점","tel":"031-585-9295","addr":"경기도 가평군 청평면 상천리 369-4번지","category":"음료식품 - 정육점"},{"name":"서진","tel":"031-585-3191","addr":"경기도 가평군 청평면 상천리 3번지","category":"레져용품 - 스포츠·레져용품"},{"name":"씨유가평상천점","tel":"031-584-4233","addr":"경기도 가평군 청평면 상천리 369-4번지","category":"유통업 영리 - 편 의 점"},{"name":"호명주유소","tel":"031-585-4434","addr":"경기도 가평군 청평면 상천리 369-4번지","category":"연료판매점 - 쌍용S-OIL"}]},{"lat":"37.762765823","long":"127.48291855","items":[{"name":"벨리타","tel":"031-584-1126","addr":"경기도 가평군 청평면 상천리 1519-11번지 아름다운숲속풍경 A동","category":"숙박업 - 여관/기타숙박업"},{"name":"빵굽는 카페","tel":"031-111-1111","addr":"경기도 가평군 청평면 상천리 1519-11번지 아름다운숲속풍경 D동","category":"일반휴게음식 - 서양음식"}]},{"lat":"37.788650487","long":"127.46703344","items":[{"name":"별바우목장 태양광발전소","tel":"031-584-1815","addr":"경기도 가평군 청평면 상천리 115-5번지","category":"유통업 영리 - 기타유통업"}]},{"lat":"37.768573197","long":"127.47266212","items":[{"name":"별이빛나는호수","tel":"031-584-8665","addr":"경기도 가평군 청평면 상천리 1501-4","category":"숙박업 - 여관/기타숙박업"}]},{"lat":"37.766042845","long":"127.44675882","items":[{"name":"본 광고기획","tel":"031-585-1005","addr":"경기도 가평군 청평면 상천리 1139-1번지","category":"건축자재 - 인테리어전문"}]},{"lat":"37.770597122","long":"127.45269929","items":[{"name":"불기골산양삼","tel":"031-585-9389","addr":"경기도 가평군 청평면 상천리 1269-10번지 B동 2층(1269-11)","category":"건강식품 - 인삼제품"}]},{"lat":"37.782430356","long":"127.46566641","items":[{"name":"브라운모텔","tel":"031-581-9393","addr":"경기도 가평군 청평면 상천리 174-5번지","category":"숙박업 - 여관/기타숙박업"}]},{"lat":"37.765708867","long":"127.44931036","items":[{"name":"비오팜","tel":"031-000-0000","addr":"경기도 가평군 청평면 상천리 1226-5번지","category":"음료식품 - 농·축·수산품"}]},{"lat":"37.762105977","long":"127.48344767","items":[{"name":"산마루가든","tel":"031-585-8989","addr":"경기도 가평군 청평면 상천리 1522-1번지","category":"일반휴게음식 - 일반한식"},{"name":"산마루가든","tel":"031-585-8989","addr":"경기도 가평군 청평면 상천리 1522-1번지","category":"일반휴게음식 - 일반한식"}]},{"lat":"37.77434849","long":"127.46347081","items":[{"name":"산토리니","tel":"031-584-6998","addr":"경기도 가평군 청평면 상천리 305-2번지","category":"일반휴게음식 - 일반한식"}]},{"lat":"37.769131698","long":"127.45892133","items":[{"name":"상천상회","tel":"031-584-0823","addr":"경기도 가평군 청평면 상천리 1354-5번지","category":"음료식품 - 기타음료식품"},{"name":"호명산자연학교 ","tel":"031-585-8026","addr":"경기도 가평군 청평면 상천리 1524","category":"학원 - 기타 교육기관"}]},{"lat":"37.770658626","long":"127.45310825","items":[{"name":"상천슈퍼","tel":"031-584-1932","addr":"경기도 가평군 청평면 상천리 1265-3번지","category":"유통업 영리 - 슈퍼마켓"}]},{"lat":"37.778210068","long":"127.46435744","items":[{"name":"상천스넥","tel":"031-582-7575","addr":"경기도 가평군 청평면 상천리 257-4번지","category":"일반휴게음식 - 스넥"},{"name":"에덴농산물센터","tel":"031-582-7090","addr":"경기도 가평군 청평면 상천리 257-4번지","category":"음료식품 - 농·축·수산품"},{"name":"에덴커피코너","tel":"031-581-0575","addr":"경기도 가평군 청평면 상천리 257-4번지","category":"일반휴게음식 - 서양음식"},{"name":"장미식당","tel":"031-582-7173","addr":"경기도 가평군 청평면 상천리 257-4","category":"일반휴게음식 - 일반한식"}]},{"lat":"37.76327077","long":"127.44600459","items":[{"name":"상천정미소","tel":"031-585-4213","addr":"경기도 가평군 청평면 상천리 1171-9","category":"음료식품 - 미곡상"},{"name":"포도나무365","tel":"070-7767-1248","addr":"경기도 가평군 청평면 상천리 1171-9번지","category":"유통업 영리 - 기타유통업"}]},{"lat":"37.770602575","long":"127.45597941","items":[{"name":"상천초등학교","tel":"031-585-1366","addr":"경기도 가평군 청평면 상천리 1299-4번지 상천초등학교","category":"학원 - 초중고교육기관"}]},{"lat":"37.762327724","long":"127.44039279","items":[{"name":"상천편의점","tel":"031-584-3590","addr":"경기도 가평군 청평면 상천리 1156-4번지 1동 3호","category":"유통업 영리 - 슈퍼마켓"},{"name":"세븐일레븐가평상천대로점","tel":"","addr":"경기도 가평군 청평면 상천리 1156-4번지 1동3호","category":"유통업 영리 - 편 의 점"},{"name":"소담밥집","tel":"031-584-5440","addr":"경기도 가평군 청평면 상천리 1156-4번지","category":"일반휴게음식 - 일반한식"},{"name":"유명해물칼국수","tel":"031-585-7477","addr":"경기도 가평군 청평면 상천리 1156-4번지 1층 1호","category":"일반휴게음식 - 일반한식"},{"name":"팜독","tel":"070-8733-2582","addr":"경기도 가평군 청평면 상천리 1156-4번지","category":"문화.취미 - 애완동물"},{"name":"하나농원","tel":"031-535-4571","addr":"경기도 가평군 청평면 상천리 1156-4번지 C동 1호","category":"음료식품 - 농·축·수산품"}]},{"lat":"37.789429875","long":"127.43503513","items":[{"name":"샘물향기","tel":"031-585-9955","addr":"경기도 가평군 청평면 상천리 721-4번지","category":"숙박업 - 여관/기타숙박업"}]},{"lat":"37.784762826","long":"127.46361489","items":[{"name":"수경농원","tel":"031-585-8720","addr":"경기도 가평군 청평면 상천리 187-1","category":"문화.취미 - 화원"},{"name":"은하수다육","tel":"031-585-8720","addr":"경기도 가평군 청평면 상천리 187-1번지","category":"문화.취미 - 화원"},{"name":"한지공예 예다움","tel":"031-582-7760","addr":"경기도 가평군 청평면 상천리 187-1번지 한지공예 예다움","category":"문화.취미 - 문화취미기타"}]},{"lat":"37.79118019","long":"127.4318892","items":[{"name":"수리봉매점","tel":"031-584-2995","addr":"경기도 가평군 청평면 상천리 971-1번지","category":"음료식품 - 기타음료식품"}]},{"lat":"37.779236135","long":"127.43614494","items":[{"name":"수리재공인중개사사무소","tel":"031-585-5440","addr":"경기도 가평군 청평면 상천리 1070-3번지","category":"용역 서비스 - 부동산 중개·임대"},{"name":"수리제미니편의점","tel":"031-585-5440","addr":"경기도 가평군 청평면 상천리 1070-3번지","category":"유통업 영리 - 편 의 점"}]},{"lat":"37.776291906","long":"127.4641412","items":[{"name":"수림","tel":"031-84-0111","addr":"경기도 가평군 청평면 상천리 303-1번지","category":"일반휴게음식 - 일반한식"}]},{"lat":"37.791015228","long":"127.465947","items":[{"name":"숲향","tel":"031-581-8346","addr":"경기도 가평군 청평면 상천리 129번지","category":"숙박업 - 여관/기타숙박업"},{"name":"현우중기","tel":"031-581-8346","addr":"경기도 가평군 청평면 상천리 129번지","category":"기타 - 기계공구"}]},{"lat":"37.79054221","long":"127.43389497","items":[{"name":"시간이멈춘마을","tel":"031-585-4896","addr":"경기도 가평군 청평면 상천리 715-5번지","category":"숙박업 - 여관/기타숙박업"}]},{"lat":"37.788240546","long":"127.45428203","items":[{"name":"실로암써니힐펜션3","tel":"","addr":"경기도 가평군 청평면 상천리 510번지","category":"숙박업 - 여관/기타숙박업"}]},{"lat":"37.769348366","long":"127.4703063","items":[{"name":"써니싸이드펜션","tel":"031-000-0000","addr":"경기도 가평군 청평면 상천리 1497-1번지","category":"숙박업 - 여관/기타숙박업"}]},{"lat":"37.781048343","long":"127.46885888","items":[{"name":"써니힐펜션","tel":"031-584-0501","addr":"경기도 가평군 청평면 상천리 53-5번지","category":"숙박업 - 여관/기타숙박업"}]},{"lat":"37.787986605","long":"127.42809037","items":[{"name":"아가타","tel":"070-8833-4264","addr":"경기도 가평군 청평면 상천리 1017-2외 9필지","category":"회원제형태 - 레져업소"}]},{"lat":"37.778993425","long":"127.46447582","items":[{"name":"에덴주유소","tel":"031-581-3700","addr":"경기도 가평군 청평면 상천리 256-5번지","category":"연료판매점 - SK주유소"}]},{"lat":"37.777180483","long":"127.46499803","items":[{"name":"에덴파크모텔","tel":"031-581-7400","addr":"경기도 가평군 청평면 상천리 275-2번지","category":"숙박업 - 여관/기타숙박업"}]},{"lat":"37.765215788","long":"127.44627722","items":[{"name":"엠팩토리","tel":"031-000-0000","addr":"경기도 가평군 청평면 상천리 1140-2번지","category":"가구 - 일반가구"},{"name":"집과정원","tel":"031-585-2686","addr":"경기도 가평군 청평면 상천리 1140-2번지","category":"신변잡화 - 기타잡화"}]},{"lat":"37.780686987","long":"127.46910634","items":[{"name":"올리브","tel":"070-1111-1111","addr":"경기도 가평군 청평면 상천리 53-7번지","category":"숙박업 - 여관/기타숙박업"}]},{"lat":"37.767880565","long":"127.46555303","items":[{"name":"올리브펜션","tel":"070-7553-2293","addr":"경기도 가평군 청평면 상천리 1471번지","category":"숙박업 - 여관/기타숙박업"}]},{"lat":"37.767963251","long":"127.46514496","items":[{"name":"올리브펜션","tel":"070-4152-0352","addr":"경기도 가평군 청평면 상천리 1470-1,3","category":"숙박업 - 여관/기타숙박업"}]},{"lat":"37.763128454","long":"127.48236481","items":[{"name":"옹달샘농원","tel":"031-000-0000","addr":"경기도 가평군 청평면 상천리 1518-2번지","category":"음료식품 - 농·축·수산품"}]},{"lat":"37.793598255","long":"127.43091544","items":[{"name":"옹심이 칼국수","tel":"","addr":"경기도 가평군 청평면 상천리 874번지 1층","category":"일반휴게음식 - 일반한식"}]},{"lat":"37.763689531","long":"127.44244359","items":[{"name":"우드빌편의점","tel":"031-585-2810","addr":"경기도 가평군 청평면 상천리 1151-59번지","category":"유통업 영리 - 편 의 점"}]},{"lat":"37.780098977","long":"127.46514107","items":[{"name":"우리동네중고","tel":"","addr":"경기도 가평군 청평면 상천리 253-5번지","category":"전기제품 - 가전제품"}]},{"lat":"37.766042118","long":"127.44695175","items":[{"name":"우성우드","tel":"031-585-3233","addr":"경기도 가평군 청평면 상천리 1137번지","category":"건축자재 - 목재·석재·철물"}]},{"lat":"37.768438615","long":"127.47025518","items":[{"name":"인투메이드","tel":"02-111-1111","addr":"경기도 가평군 청평면 상천리 1494번지 1층","category":"용역 서비스 - 사무서비스"}]},{"lat":"37.764764833","long":"127.44400475","items":[{"name":"자스로","tel":"031-581-8222","addr":"경기도 가평군 청평면 상천리 1151-53번지","category":"음료식품 - 기타음료식품"}]},{"lat":"37.76568827","long":"127.48208626","items":[{"name":"장수촌","tel":"031-585-1868","addr":"경기도 가평군 청평면 상천리 1516-1번지","category":"일반휴게음식 - 일반한식"}]},{"lat":"37.779962101","long":"127.46558291","items":[{"name":"제일자동차유리","tel":"031-581-7754","addr":"경기도 가평군 청평면 상천리 259번지","category":"자동차정비 유지 - 자동차부품"}]},{"lat":"37.7730163","long":"127.45852523","items":[{"name":"제일종합산업주식회사","tel":"031-585-3220","addr":"경기도 가평군 청평면 상천리 364","category":"자동차정비 유지 - 가타자동차서비스"}]},{"lat":"37.767632374","long":"127.45756155","items":[{"name":"주모맘대로","tel":"031-585-9439","addr":"경기도 가평군 청평면 상천리 1328-6번지","category":"일반휴게음식 - 일반한식"}]},{"lat":"37.781992577","long":"127.48497262","items":[{"name":"주식회사 꿈의동산","tel":"031-585-0025","addr":"경기도 가평군 청평면 상천리 3번지","category":"레저업소 - 종합레져타운"},{"name":"주식회사꿈의동산","tel":"031-585-0025","addr":"경기도 가평군 청평면 상천리 3번지","category":"레저업소 - 종합레져타운"}]},{"lat":"37.771932221","long":"127.45225338","items":[{"name":"주식회사한신환경기업","tel":"031-585-9677","addr":"경기도 가평군 청평면 상천리 1722-10번지","category":"기타 - 기타 전문점"}]},{"lat":"37.762438459","long":"127.44691886","items":[{"name":"철철이벽난로","tel":"031-584-7001","addr":"경기도 가평군 청평면 상천리 1187-2","category":"전기제품 - 냉열기기"}]},{"lat":"37.762017782","long":"127.44136694","items":[{"name":"청평민물장어","tel":"","addr":"경기도 가평군 청평면 상천리 1160-4번지(양어장내)","category":"음료식품 - 농·축·수산품"}]},{"lat":"37.76649134","long":"127.44728357","items":[{"name":"청평하나오일뱅크","tel":"031-585-1705","addr":"경기도 가평군 청평면 상천리 1136번지","category":"연료판매점 - 현대정유(오일뱅크)"},{"name":"청평하나오일뱅크","tel":"031-585-1705","addr":"경기도 가평군 청평면 상천리 1136번지","category":"연료판매점 - 현대정유(오일뱅크)"}]},{"lat":"37.775044594","long":"127.4628622","items":[{"name":"청평호수캠프","tel":"031-584-0108","addr":"경기도 가평군 청평면 상천리 308-5번지","category":"숙박업 - 여관/기타숙박업"}]},{"lat":"37.779103935","long":"127.46386355","items":[{"name":"초옥동해장국","tel":"031-582-7397","addr":"경기도 가평군 청평면 상천리 237-4번지","category":"일반휴게음식 - 일반한식"},{"name":"초옥동해장국","tel":"031-582-7397","addr":"경기도 가평군 청평면 상천리 237-4번지","category":"일반휴게음식 - 일반한식"}]},{"lat":"37.766921772","long":"127.44781956","items":[{"name":"카페 앤(Cafe Anne)","tel":"031-528-6263","addr":"경기도 가평군 청평면 상천리 1134번지 가평한우곰탕 A동","category":"일반휴게음식 - 서양음식"},{"name":"카페 앤(Cafe Anne)","tel":"031-528-6263","addr":"경기도 가평군 청평면 상천리 1134번지 가평한우곰탕 A동","category":"일반휴게음식 - 서양음식"}]},{"lat":"37.766186357","long":"127.44931323","items":[{"name":"크린시스템","tel":"031-585-7582","addr":"경기도 가평군 청평면 상천리 1226-4번지 101호","category":"용역 서비스 - 종합용역"}]},{"lat":"37.773516346","long":"127.46200147","items":[{"name":"평원산업","tel":"031-584-0023","addr":"경기도 가평군 청평면 상천리 321-2번지","category":"건축자재 - 건축용 요업제품"}]},{"lat":"37.775014987","long":"127.45888936","items":[{"name":"푸른조경","tel":"031-584-9777","addr":"경기도 가평군 청평면 상천리 402-1번지","category":"건축자재 - 인테리어전문"}]},{"lat":"37.781930342","long":"127.46680979","items":[{"name":"플로레","tel":"031-585-3453","addr":"경기도 가평군 청평면 상천리 68-1번지 A동 1층","category":"일반휴게음식 - 서양음식"}]},{"lat":"37.761827616","long":"127.4832189","items":[{"name":"하늘땅별땅","tel":"031-584-3384","addr":"경기도 가평군 청평면 상천리 1523번지","category":"일반휴게음식 - 일반한식"}]},{"lat":"37.77090663","long":"127.45422204","items":[{"name":"함지박","tel":"031-584-1098","addr":"경기도 가평군 청평면 상천리 1262-2번지 외1필지","category":"일반휴게음식 - 일반한식"},{"name":"협동조합 공감21","tel":"031-585-9789","addr":"경기도 가평군 청평면 상천리 1262-2번지","category":"음료식품 - 농·축·수산품"}]},{"lat":"37.774688061","long":"127.45955702","items":[{"name":"허니시티","tel":"031-584-6966","addr":"경기도 가평군 청평면 상천리 389-1번지","category":"일반휴게음식 - 일반한식"},{"name":"허니시티로스팅","tel":"031-584-6966","addr":"경기도 가평군 청평면 상천리 389-1번지","category":"음료식품 - 기타음료식품"}]},{"lat":"37.768047092","long":"127.46444182","items":[{"name":"헬리콥터","tel":"031-585-8060","addr":"경기도 가평군 청평면 상천리 1468-1번지","category":"일반휴게음식 - 서양음식"}]},{"lat":"37.768185851","long":"127.4494728","items":[{"name":"호명 농산물","tel":"031-584-1579","addr":"경기도 가평군 청평면 상천리 1275-12번지","category":"음료식품 - 농·축·수산품"}]},{"lat":"37.760600188","long":"127.48374433","items":[{"name":"호명산 부대찌개","tel":"031-584-1534","addr":"경기도 가평군 청평면 상천리 1523-10번지 1층","category":"일반휴게음식 - 일반한식"}]},{"lat":"37.761382971","long":"127.48399906","items":[{"name":"호명산 철판 닭갈비","tel":"031-582-3009","addr":"경기도 가평군 청평면 상천리 1523-4번지 1층","category":"일반휴게음식 - 일반한식"}]},{"lat":"37.769074474","long":"127.46894263","items":[{"name":"호명산밸리","tel":"031-585-6506","addr":"경기도 가평군 청평면 상천리 1482-3 14/3","category":"숙박업 - 여관/기타숙박업"}]},{"lat":"37.768717031","long":"127.47947272","items":[{"name":"호명펜션","tel":"031-584-2474","addr":"경기도 가평군 청평면 상천리 1513-1","category":"숙박업 - 여관/기타숙박업"}]},{"lat":"37.768653384","long":"127.47738401","items":[{"name":"호수위에하얀집","tel":"031-585-5080","addr":"경기도 가평군 청평면 상천리 1507-1번지","category":"숙박업 - 여관/기타숙박업"}]},{"lat":"37.762324012","long":"127.44139144","items":[{"name":"효남수산(수산물직판장)","tel":"031-1577-3978","addr":"경기도 가평군 청평면 상천리 1158-10번지 외10필지","category":"음료식품 - 농·축·수산품"}]},{"lat":"37.761961994","long":"127.4418319","items":[{"name":"효남수산직판장(회)","tel":"031-584-4928","addr":"경기도 가평군 청평면 상천리 1162번지","category":"음료식품 - 농·축·수산품"}]},{"lat":"37.761685368","long":"127.44111531","items":[{"name":"효남편의점","tel":"000-1577-3978","addr":"경기도 가평군 청평면 상천리 1164-1번지","category":"음료식품 - 기타음료식품"}]},{"lat":"37.760770206","long":"127.48402914","items":[{"name":"휴구 일공 (HUE910)","tel":"","addr":"경기도 가평군 청평면 상천리 1523-5번지","category":"일반휴게음식 - 서양음식"},{"name":"휴구일공","tel":"031-548-4546","addr":"경기도 가평군 청평면 상천리 1523-5번지 외1필지","category":"일반휴게음식 - 일반한식"}]}]