[{"lat":"37.860692755","long":"126.81777895","items":[{"name":"(주)내츄럴코리아","tel":"031-953-2841","addr":"경기도 파주시 문산읍 선유리 1373-17번지","category":"보건위생 - 화장품"}]},{"lat":"37.860054504","long":"126.78687164","items":[{"name":"(주)디지털삼성 문산지점","tel":"032-953-3366","addr":"경기도 파주시 문산읍 선유리 950-47번지","category":"전기제품 - 가전제품"},{"name":"투썸플레이스 파주문산점","tel":"031-954-7755","addr":"경기도 파주시 문산읍 선유리 950-47번지","category":"일반휴게음식 - 서양음식"}]},{"lat":"37.856963412","long":"126.79642566","items":[{"name":"(주)라온","tel":"031-954-2000","addr":"경기도 파주시 문산읍 선유리 613-1번지","category":"회원제형태 - 레져업소"},{"name":"선유스크린골프/주식회사 수","tel":"031-954-2000","addr":"경기도 파주시 문산읍 선유리 613-1번지","category":"레저업소 - 스크린골프"}]},{"lat":"37.860523697","long":"126.78725663","items":[{"name":"(주)부일렌트카 문산지점","tel":"031-953-2250","addr":"경기도 파주시 문산읍 선유리 950-18번지 2층","category":"여행 - 렌터카"},{"name":"김태수세무회계사무소","tel":"031-954-0051","addr":"경기도 파주시 문산읍 선유리 950-18번지","category":"용역 서비스 - 법률회계서비스(개인)"},{"name":"꽃피는 방앗간","tel":"031-111-1111","addr":"경기도 파주시 문산읍 선유리 950-18번지","category":"음료식품 - 제과점"},{"name":"삼거리부대찌게","tel":"031-952-3431","addr":"경기도 파주시 문산읍 선유리 950-18번지","category":"일반휴게음식 - 일반한식"},{"name":"십자약국","tel":"031-952-9042","addr":"경기도 파주시 문산읍 선유리 950-18번지","category":"약국 - 약국"}]},{"lat":"37.860551598","long":"126.78773383","items":[{"name":"(주)썬 렌트카","tel":"031-954-4114","addr":"경기도 파주시 문산읍 선유리 951-6","category":"여행 - 렌터카"},{"name":"캔들공방 취향","tel":"070-8956-1667","addr":"경기도 파주시 문산읍 선유리 951-6번지","category":"신변잡화 - 기타잡화"},{"name":"커피꼴랑 문산 세거리점","tel":"02-1577-0000","addr":"경기도 파주시 문산읍 선유리 951-6번지","category":"일반휴게음식 - 서양음식"}]},{"lat":"37.856691162","long":"126.79025628","items":[{"name":"(주)아누토스문산지점","tel":"031-760-8498","addr":"경기도 파주시 문산읍 선유리 1402번지","category":"음료식품 - 기타음료식품"},{"name":"문산읍주민자치위원회","tel":"031-940-8001","addr":"경기도 파주시 문산읍 선유리 1402번지","category":"문화.취미 - 문화취미기타"},{"name":"문산행복센터어린이집[아이행복]","tel":"031-954-2090","addr":"경기도 파주시 문산읍 선유리 1402번지","category":"학원 - 유아원"},{"name":"파주시문산종합사회복지관","tel":"031-934-2000","addr":"경기도 파주시 문산읍 선유리 1402번지","category":"학원 - 기타 교육기관"}]},{"lat":"37.859216221","long":"126.78664682","items":[{"name":"(주)에스이경영연구원","tel":"070-8227-0979","addr":"경기도 파주시 문산읍 선유리 955-12","category":"회원제형태 - 기타4"},{"name":"영전자","tel":"031-952-4490","addr":"경기도 파주시 문산읍 선유리 955-12번지","category":"전기제품 - 가전제품"},{"name":"일산원조갈비","tel":"031-954-0008","addr":"경기도 파주시 문산읍 선유리 955-12번지","category":"일반휴게음식 - 일반한식"}]},{"lat":"37.866547165","long":"126.80034242","items":[{"name":"59쌀피자","tel":"031-952-5949","addr":"경기도 파주시 문산읍 선유리 1394번지 휴먼시아","category":"일반휴게음식 - 서양음식"},{"name":"경희대튼튼태권도","tel":"031-952-9888","addr":"경기도 파주시 문산읍 선유리 1394번지 휴먼시아","category":"학원 - 예·체능계학원"},{"name":"빅아이스크림 할인점","tel":"031-952-7001","addr":"경기도 파주시 문산읍 선유리 1394번지 휴먼시아","category":"음료식품 - 기타음료식품"},{"name":"선유세탁","tel":"031-952-1580","addr":"경기도 파주시 문산읍 선유리 1394번지 휴먼시아","category":"수리서비스 - 세탁소"},{"name":"이룸수학뮤엠영어학원","tel":"031-953-0504","addr":"경기도 파주시 문산읍 선유리 1394번지 휴먼시아","category":"회원제형태 - 학원"},{"name":"카페쥬","tel":"070-4220-5930","addr":"경기도 파주시 문산읍 선유리 1394번지 휴먼시아","category":"일반휴게음식 - 서양음식"},{"name":"파란문구","tel":"","addr":"경기도 파주시 문산읍 선유리 1394번지 휴먼시아","category":"서적문구 - 문구용품"},{"name":"페리카나 선유점","tel":"031-953-9247","addr":"경기도 파주시 문산읍 선유리 1394번지 휴먼시아 상가동 106호","category":"일반휴게음식 - 스넥"},{"name":"해피하우스","tel":"031-953-3435","addr":"경기도 파주시 문산읍 선유리 1394번지 휴먼시아","category":"일반휴게음식 - 스넥"},{"name":"휴먼피아노 교습소","tel":"031-953-5387","addr":"경기도 파주시 문산읍 선유리 1394번지 휴먼시아","category":"학원 - 예·체능계학원"}]},{"lat":"37.865022854","long":"126.80461959","items":[{"name":"ACT SK 선유","tel":"031-947-1182","addr":"경기도 파주시 문산읍 선유리 447-15번지","category":"사무통신 - 통신기기"},{"name":"깡쿤","tel":"031-954-1391","addr":"경기도 파주시 문산읍 선유리 447-15번지","category":"일반휴게음식 - 일반한식"},{"name":"마을회관","tel":"02-0000-0000","addr":"경기도 파주시 문산읍 선유리 447-15번지","category":"일반휴게음식 - 일반한식"}]},{"lat":"37.857832866","long":"126.7939006","items":[{"name":"DMZ 길라잡이","tel":"031-953-2738","addr":"경기도 파주시 문산읍 선유리 666-15번지","category":"여행 - 관광여행"},{"name":"미래JOB센터","tel":"031-953-8882","addr":"경기도 파주시 문산읍 선유리 666-15번지","category":"건축자재 - 인테리어전문"}]},{"lat":"37.860054405","long":"126.79687158","items":[{"name":"GS25선유행복점","tel":"","addr":"경기도 파주시 문산읍 선유리 724-20번지","category":"유통업 영리 - 편 의 점"},{"name":"잉글리쉬무무에이스학원","tel":"031-952-1007","addr":"경기도 파주시 문산읍 선유리 724-20번지","category":"학원 - 외국어학원"}]},{"lat":"37.861136392","long":"126.78728894","items":[{"name":"GS25파주미래점","tel":"","addr":"경기도 파주시 문산읍 선유리 943-17번지","category":"유통업 영리 - 편 의 점"},{"name":"레드카페","tel":"031-953-1052","addr":"경기도 파주시 문산읍 선유리 943-17번지","category":"일반휴게음식 - 서양음식"},{"name":"술퍼마켓","tel":"031-954-0440","addr":"경기도 파주시 문산읍 선유리 943-17번지","category":"일반휴게음식 - 일반한식"}]},{"lat":"37.865664481","long":"126.8057884","items":[{"name":"GS25파주선유점","tel":"","addr":"경기도 파주시 문산읍 선유리 430-63번지","category":"유통업 영리 - 편 의 점"}]},{"lat":"37.864376135","long":"126.80047337","items":[{"name":"H.S냉난방","tel":"031-000-0000","addr":"경기도 파주시 문산읍 선유리 1358번지 휴먼시아","category":"수리서비스 - 가정용품수리"}]},{"lat":"37.859746475","long":"126.79595199","items":[{"name":"JS학원","tel":"031-953-5552","addr":"경기도 파주시 문산읍 선유리 1356번지 양우내안애아파트","category":"학원 - 보습학원"},{"name":"티바두마리치킨","tel":"031-954-3459","addr":"경기도 파주시 문산읍 선유리 1356번지 양우내안애아파트","category":"일반휴게음식 - 스넥"}]},{"lat":"37.860965714","long":"126.78756217","items":[{"name":"LED총판","tel":"031-953-2260","addr":"경기도 파주시 문산읍 선유리 943-22번지","category":"건축자재 - 조명기구"},{"name":"연풍분식","tel":"031-952-7282","addr":"경기도 파주시 문산읍 선유리 943-22, -18","category":"일반휴게음식 - 스넥"}]},{"lat":"37.859413925","long":"126.78637352","items":[{"name":"M모텔","tel":"031-953-3210","addr":"경기도 파주시 문산읍 선유리 950-85번지","category":"숙박업 - 여관/기타숙박업"}]},{"lat":"37.868521394","long":"126.80103028","items":[{"name":"SKY어린이집[아이행복]","tel":"031-954-0790","addr":"경기도 파주시 문산읍 선유리 809-5번지","category":"학원 - 유아원"}]},{"lat":"37.864023573","long":"126.78958746","items":[{"name":"SM헤어","tel":"031-954-1358","addr":"경기도 파주시 문산읍 선유리 688-7번지 문산어울림","category":"보건위생 - 미용원"},{"name":"달콤브레드","tel":"031-1111-1111","addr":"경기도 파주시 문산읍 선유리 688-7번지 문산어울림","category":"음료식품 - 제과점"},{"name":"더드림치킨","tel":"","addr":"경기도 파주시 문산읍 선유리 688-7번지 문산어울림","category":"일반휴게음식 - 주점"},{"name":"리틀어울림어린이집[아이행복]","tel":"031-953-0095","addr":"경기도 파주시 문산읍 선유리 688-7번지 문산어울림","category":"학원 - 유아원"},{"name":"어울림24셀프빨래방","tel":"02-0000-0000","addr":"경기도 파주시 문산읍 선유리 688-7번지 문산어울림","category":"수리서비스 - 세탁소"},{"name":"어울림어린이집[아이행복]","tel":"031-952-0096","addr":"경기도 파주시 문산읍 선유리 688-7번지 문산어울림","category":"학원 - 유아원"},{"name":"이층커피","tel":"031-000-0000","addr":"경기도 파주시 문산읍 선유리 688-7번지 문산어울림","category":"일반휴게음식 - 서양음식"}]},{"lat":"37.858304684","long":"126.79578557","items":[{"name":"Self King","tel":"","addr":"경기도 파주시 문산읍 선유리 673-2번지","category":"자동차정비 유지 - 세차장"}]},{"lat":"37.863795906","long":"126.79837259","items":[{"name":"The Ave. coffee(더에브커피)","tel":"031-952-6218","addr":"경기도 파주시 문산읍 선유리 776-11번지 1층","category":"일반휴게음식 - 서양음식"},{"name":"드림음악학원","tel":"031-948-8258","addr":"경기도 파주시 문산읍 선유리 776-11번지","category":"학원 - 예·체능계학원"},{"name":"오땡큐","tel":"031-954-5830","addr":"경기도 파주시 문산읍 선유리 776-11번지","category":"보건위생 - 미용원"},{"name":"위드학원","tel":"031-953-1081","addr":"경기도 파주시 문산읍 선유리 776-11번지","category":"회원제형태 - 학원"}]},{"lat":"37.858993877","long":"126.79322688","items":[{"name":"W골프아카데미","tel":"","addr":"경기도 파주시 문산읍 선유리 1350번지 두산위브","category":"레저업소 - 골프연습장"},{"name":"쿠키어린이집[아이행복]","tel":"070-7558-7568","addr":"경기도 파주시 문산읍 선유리 1350번지 두산위브","category":"학원 - 유아원"}]},{"lat":"37.862491602","long":"126.79955805","items":[{"name":"가마솥 병천순대","tel":"031-952-3223","addr":"경기도 파주시 문산읍 선유리 772번지","category":"일반휴게음식 - 일반한식"},{"name":"아이엠 유모차","tel":"","addr":"경기도 파주시 문산읍 선유리 772번지","category":"수리서비스 - 세탁소"}]},{"lat":"37.859550233","long":"126.78700947","items":[{"name":"가마애치킨","tel":"031-953-8003","addr":"경기도 파주시 문산읍 선유리 957-12번지","category":"일반휴게음식 - 스넥"},{"name":"공간 인테리어","tel":"031-953-8772","addr":"경기도 파주시 문산읍 선유리 957-12번지","category":"건축자재 - 인테리어전문"},{"name":"목포갈치조림","tel":"031-954-2737","addr":"경기도 파주시 문산읍 선유리 957-12번지","category":"일반휴게음식 - 일반한식"},{"name":"이버 (eeber)","tel":"031-954-6886","addr":"경기도 파주시 문산읍 선유리 957-12번지","category":"의류 - 정장"}]},{"lat":"37.863302127","long":"126.799374","items":[{"name":"가위앤바리깡","tel":"031-953-0901","addr":"경기도 파주시 문산읍 선유리 774-5번지","category":"보건위생 - 미용원"},{"name":"깡통뒷고기","tel":"031-952-9118","addr":"경기도 파주시 문산읍 선유리 774-5번지","category":"일반휴게음식 - 일반한식"},{"name":"미소라인","tel":"031-953-5518","addr":"경기도 파주시 문산읍 선유리 774-5번지","category":"보건위생 - 화장품"},{"name":"보따구 옷장","tel":"070-7543-4959","addr":"경기도 파주시 문산읍 선유리 774-5번지","category":"의류 - 정장"}]},{"lat":"37.865178589","long":"126.80083484","items":[{"name":"가위이야기 서울서부지사","tel":"070-7437-9586","addr":"경기도 파주시 문산읍 선유리 1358번지 휴먼시아","category":"보건위생 - 미용재료"},{"name":"메주꽃세상","tel":"","addr":"경기도 파주시 문산읍 선유리 1358번지 휴먼시아","category":"신변잡화 - 액세서리"},{"name":"파란설비","tel":"","addr":"경기도 파주시 문산읍 선유리 1358번지 휴먼시아","category":"건축자재 - 보일러·펌프·샷시"}]},{"lat":"37.865770263","long":"126.80440166","items":[{"name":"강남치과","tel":"031-952-2580","addr":"경기도 파주시 문산읍 선유리 420-1번지 50km마트 2층 203호","category":"의원 - 치과의원"},{"name":"기운찬한의원","tel":"031-953-7510","addr":"경기도 파주시 문산읍 선유리 420-1번지","category":"의원 - 한의원"},{"name":"문산 한울태권도장","tel":"031-953-8899","addr":"경기도 파주시 문산읍 선유리 420-1번지","category":"학원 - 예·체능계학원"},{"name":"서울가정의학과의원","tel":"031-937-8275","addr":"경기도 파주시 문산읍 선유리 420-1번지","category":"의원 - 의원"},{"name":"은광약국","tel":"031-947-7100","addr":"경기도 파주시 문산읍 선유리 420-1번지","category":"약국 - 약국"}]},{"lat":"37.861630027","long":"126.78626476","items":[{"name":"개코카오디오","tel":"031-953-0240","addr":"경기도 파주시 문산읍 선유리 947-2번지","category":"자동차정비 유지 - 카인테리어"},{"name":"골드도그(Gold dog)","tel":"031-954-0728","addr":"경기도 파주시 문산읍 선유리 947-2번지","category":"문화.취미 - 애완동물"},{"name":"엄마빨래터","tel":"031-952-8913","addr":"경기도 파주시 문산읍 선유리 947-2번지","category":"수리서비스 - 세탁소"},{"name":"오늘은돼지","tel":"031-954-6000","addr":"경기도 파주시 문산읍 선유리 947-2번지","category":"일반휴게음식 - 일반한식"}]},{"lat":"37.859158832","long":"126.78976056","items":[{"name":"고을감자탕","tel":"031-952-6544","addr":"경기도 파주시 문산읍 선유리 966-26번지","category":"일반휴게음식 - 일반한식"},{"name":"양평해장국","tel":"031-952-2110","addr":"경기도 파주시 문산읍 선유리 966-26번지","category":"일반휴게음식 - 일반한식"},{"name":"인애의 집밥","tel":"031-952-7529","addr":"경기도 파주시 문산읍 선유리 966-26번지","category":"일반휴게음식 - 일반한식"}]},{"lat":"37.86037961","long":"126.78729114","items":[{"name":"골드바디케어트레이닝센터","tel":"031-953-8953","addr":"경기도 파주시 문산읍 선유리 950-19번지","category":"보건위생 - 기타대인서비스"},{"name":"다모아힐링","tel":"031-952-3358","addr":"경기도 파주시 문산읍 선유리 950-19번지","category":"건강식품 - 기타건강식품"},{"name":"문산한의원","tel":"031-53-1778","addr":"경기도 파주시 문산읍 선유리 950-19번지","category":"의원 - 한의원"},{"name":"삼거리식당","tel":"031-952-3432","addr":"경기도 파주시 문산읍 선유리 950-19번지","category":"일반휴게음식 - 일반한식"}]},{"lat":"37.869077475","long":"126.79442572","items":[{"name":"공간811","tel":"","addr":"경기도 파주시 문산읍 선유리 811번지","category":"일반휴게음식 - 일반한식"}]},{"lat":"37.859549315","long":"126.78650948","items":[{"name":"공간페인트","tel":"031-954-2638","addr":"경기도 파주시 문산읍 선유리 950-95번지","category":"건축자재 - 페인트"},{"name":"머리헤어샵","tel":"031-957-4221","addr":"경기도 파주시 문산읍 선유리 950-95번지","category":"보건위생 - 미용원"}]},{"lat":"37.863410836","long":"126.80501028","items":[{"name":"공룡고기(문산점)","tel":"031-954-2220","addr":"경기도 파주시 문산읍 선유리 459-4번지","category":"일반휴게음식 - 일반한식"},{"name":"임부택 감자탕순대국","tel":"031-959-8172","addr":"경기도 파주시 문산읍 선유리 459-4번지","category":"일반휴게음식 - 일반한식"}]},{"lat":"37.861325067","long":"126.7870043","items":[{"name":"공순이빈대떡","tel":"031-953-7310","addr":"경기도 파주시 문산읍 선유리 943-5번지","category":"일반휴게음식 - 일반한식"}]},{"lat":"37.860271165","long":"126.79717779","items":[{"name":"곽만근갈비탕(문산점)","tel":"031-952-0006","addr":"경기도 파주시 문산읍 선유리 726-6번지","category":"일반휴게음식 - 일반한식"}]},{"lat":"37.865383322","long":"126.80467544","items":[{"name":"구구치킨선유점","tel":"031-953-9982","addr":"경기도 파주시 문산읍 선유리 433-10번지","category":"일반휴게음식 - 스넥"}]},{"lat":"37.858243077","long":"126.79153587","items":[{"name":"국제청소년로봇연맹 파주지부","tel":"031-952-3214","addr":"경기도 파주시 문산읍 선유리 664-27번지","category":"학원 - 기타 교육기관"}]},{"lat":"37.85927199","long":"126.79256701","items":[{"name":"굿모닝마트","tel":"031-952-8890","addr":"경기도 파주시 문산읍 선유리 1350번지 두산위브","category":"유통업 영리 - 슈퍼마켓"},{"name":"너에게마카롱","tel":"","addr":"경기도 파주시 문산읍 선유리 1350번지","category":"음료식품 - 기타음료식품"},{"name":"네일공방","tel":"02-1544-1731","addr":"경기도 파주시 문산읍 선유리 1350번지 두산위브","category":"보건위생 - 피부미용실"},{"name":"두산제일세탁소","tel":"031-954-6378","addr":"경기도 파주시 문산읍 선유리 1350 두산위브상가205호","category":"수리서비스 - 세탁소"},{"name":"배달삼겹갈통삼문산점","tel":"031-952-3354","addr":"경기도 파주시 문산읍 선유리 1350번지","category":"일반휴게음식 - 일반한식"},{"name":"선유리공인중개사사무소","tel":"031-953-3223","addr":"경기도 파주시 문산읍 선유리 1350 두산위브상가동 101","category":"용역 서비스 - 부동산 중개·임대"},{"name":"처갓집양념치킨","tel":"031-953-9233","addr":"경기도 파주시 문산읍 선유리 1350번지 두산위브 상가동 1층 104호","category":"일반휴게음식 - 스넥"},{"name":"커피앤피자","tel":"031-954-1133","addr":"경기도 파주시 문산읍 선유리 1350번지","category":"일반휴게음식 - 서양음식"},{"name":"헤어 프로포즈","tel":"031-953-0223","addr":"경기도 파주시 문산읍 선유리 1350번지 두산위브","category":"보건위생 - 미용원"}]},{"lat":"37.862081348","long":"126.80734343","items":[{"name":"그때 그집","tel":"031-954-0990","addr":"경기도 파주시 문산읍 선유리 1361-5번지","category":"일반휴게음식 - 일반한식"},{"name":"꼬기네","tel":"","addr":"경기도 파주시 문산읍 선유리 1361-5번지","category":"일반휴게음식 - 일반한식"},{"name":"카오스물류","tel":"070-4196-0272","addr":"경기도 파주시 문산읍 선유리 1361-5번지","category":"건강식품 - 기타건강식품"}]},{"lat":"37.867770197","long":"126.80431674","items":[{"name":"그린카쎈타","tel":"031-952-9222","addr":"경기도 파주시 문산읍 선유리 1408-1번지","category":"자동차정비 유지 - 자동차정비"}]},{"lat":"37.862852602","long":"126.7999207","items":[{"name":"글라스박스(Glass box)","tel":"031-954-0090","addr":"경기도 파주시 문산읍 선유리 772-7번지","category":"보건위생 - 안경"}]},{"lat":"37.866910645","long":"126.80751251","items":[{"name":"금빛헤어","tel":"031-953-1135","addr":"경기도 파주시 문산읍 선유리 264-3번지","category":"보건위생 - 미용원"}]},{"lat":"37.86629684","long":"126.80680953","items":[{"name":"기돈","tel":"031-953-5650","addr":"경기도 파주시 문산읍 선유리 430-25번지","category":"일반휴게음식 - 일반한식"}]},{"lat":"37.865940827","long":"126.80403754","items":[{"name":"김헤어센스","tel":"031-953-6659","addr":"경기도 파주시 문산읍 선유리 416-3번지","category":"보건위생 - 미용원"},{"name":"네네후라이드","tel":"031-953-1842","addr":"경기도 파주시 문산읍 선유리 416-3번지","category":"일반휴게음식 - 주점"},{"name":"선유축산물 도매센터","tel":"031-952-2777","addr":"경기도 파주시 문산읍 선유리 416-3번지","category":"음료식품 - 정육점"},{"name":"윤진수산","tel":"031-952-9285","addr":"경기도 파주시 문산읍 선유리 416-3번지","category":"일반휴게음식 - 일반한식"}]},{"lat":"37.85993599","long":"126.79613328","items":[{"name":"깨끗한 중고세상","tel":"031-000-0000","addr":"경기도 파주시 문산읍 선유리 1356번지 양우내안애아파트","category":"의류 - 기타의류"}]},{"lat":"37.865410484","long":"126.80475492","items":[{"name":"꽃뜨개방","tel":"","addr":"경기도 파주시 문산읍 선유리 433-9번지","category":"직물 - 침구·수예점"}]},{"lat":"37.860606825","long":"126.79850641","items":[{"name":"꿀꿀앤꽥꽥","tel":"031-953-3999","addr":"경기도 파주시 문산읍 선유리 743-1번지","category":"일반휴게음식 - 일반한식"},{"name":"무교동왕족발","tel":"031-953-1754","addr":"경기도 파주시 문산읍 선유리 743-1번지","category":"일반휴게음식 - 일반한식"},{"name":"비비큐(선유점)","tel":"031-953-8970","addr":"경기도 파주시 문산읍 선유리 743-1번지","category":"일반휴게음식 - 스넥"},{"name":"선유식당","tel":"031-953-0560","addr":"경기도 파주시 문산읍 선유리 743-1","category":"일반휴게음식 - 일반한식"},{"name":"장충동왕족발보쌈","tel":"031-000-0000","addr":"경기도 파주시 문산읍 선유리 743-1 가-5","category":"일반휴게음식 - 일반한식"}]},{"lat":"37.866348236","long":"126.79992248","items":[{"name":"나나우드","tel":"031-000-0000","addr":"경기도 파주시 문산읍 선유리 1394번지 휴먼시아","category":"가구 - 기타가구"}]},{"lat":"37.86121656","long":"126.7867887","items":[{"name":"나이스컷","tel":"031-953-6104","addr":"경기도 파주시 문산읍 선유리 945-7번지","category":"보건위생 - 미용원"},{"name":"박여사미락감자탕","tel":"031-954-1210","addr":"경기도 파주시 문산읍 선유리 945-7번지","category":"일반휴게음식 - 일반한식"}]},{"lat":"37.864128916","long":"126.78806435","items":[{"name":"노가리앤비어","tel":"031-953-1292","addr":"경기도 파주시 문산읍 선유리 896-1번지","category":"일반휴게음식 - 스넥"}]},{"lat":"37.86569621","long":"126.80323132","items":[{"name":"노블레스","tel":"031-952-3995","addr":"경기도 파주시 문산읍 선유리 1409번지 문산선유4단지","category":"일반휴게음식 - 일반한식"},{"name":"베리치킨(문산선유점)","tel":"031-952-9299","addr":"경기도 파주시 문산읍 선유리 1409번지 문산선유4단지","category":"일반휴게음식 - 스넥"},{"name":"제주뒷고기","tel":"031-111-1111","addr":"경기도 파주시 문산읍 선유리 1409번지 문산선유4단지","category":"일반휴게음식 - 일반한식"}]},{"lat":"37.862023314","long":"126.79967297","items":[{"name":"노영대의 양이바구","tel":"031-959-9898","addr":"경기도 파주시 문산읍 선유리 745-38번지","category":"일반휴게음식 - 일반한식"},{"name":"솜C네 작은공간(솜C네 캔들나라)","tel":"031-954-9858","addr":"경기도 파주시 문산읍 선유리 745-38번지","category":"문화.취미 - 문화취미기타"},{"name":"이태원참나무장작구이","tel":"","addr":"경기도 파주시 문산읍 선유리 745-38번지","category":"일반휴게음식 - 일반한식"},{"name":"현일카매니저","tel":"031-953-7676","addr":"경기도 파주시 문산읍 선유리 745-38번지","category":"자동차정비 유지 - 자동차시트·타이어"}]},{"lat":"37.864547605","long":"126.80064337","items":[{"name":"늘예솜피아노교습소","tel":"031-953-6888","addr":"경기도 파주시 문산읍 선유리 1358번지 휴먼시아","category":"회원제형태 - 학원"},{"name":"미니스톱문산본점","tel":"031-1577-9621","addr":"경기도 파주시 문산읍 선유리 1358번지 휴먼시아","category":"유통업 영리 - 편 의 점"},{"name":"본스치킨","tel":"031-952-5592","addr":"경기도 파주시 문산읍 선유리 1358번지 휴먼시아","category":"일반휴게음식 - 일반한식"},{"name":"선유2단지어린이집[아이행복]","tel":"031-953-7958","addr":"경기도 파주시 문산읍 선유리 1358번지 휴먼시아","category":"학원 - 유아원"},{"name":"쥬리코스메틱","tel":"031-952-2353","addr":"경기도 파주시 문산읍 선유리 1358번지 휴먼시아","category":"보건위생 - 화장품"},{"name":"피부앤바디살롱드보떼","tel":"031-953-5678","addr":"경기도 파주시 문산읍 선유리 1358번지 휴먼시아","category":"보건위생 - 화장품"}]},{"lat":"37.859828708","long":"126.78656548","items":[{"name":"늘푸른약국","tel":"031-953-8448","addr":"경기도 파주시 문산읍 선유리 950-11번지","category":"약국 - 약국"},{"name":"메디플러스 내과의원","tel":"031-950-9120","addr":"경기도 파주시 문산읍 선유리 950-11번지","category":"의원 - 의원"},{"name":"소망요양병원","tel":"031-952-8721","addr":"경기도 파주시 문산읍 선유리 950-11번지","category":"건강식품 - 기타건강식품"},{"name":"소망요양병원","tel":"031-954-8275","addr":"경기도 파주시 문산읍 선유리 950-11번지","category":"병원 - 병원"}]},{"lat":"37.858800396","long":"126.79589782","items":[{"name":"다온마켓","tel":"070-5214-0920","addr":"경기도 파주시 문산읍 선유리 675-4번지","category":"유통업 영리 - 편 의 점"}]},{"lat":"37.86577282","long":"126.80592449","items":[{"name":"닥스터하우스","tel":"031-953-9253","addr":"경기도 파주시 문산읍 선유리 430-61번지","category":"일반휴게음식 - 스넥"}]},{"lat":"37.86494154","long":"126.80448343","items":[{"name":"단추","tel":"070-8162-5464","addr":"경기도 파주시 문산읍 선유리 447-18번지","category":"의류 - 캐주얼의류"},{"name":"모두의모바일","tel":"031-952-9933","addr":"경기도 파주시 문산읍 선유리 447-18번지","category":"사무통신 - 통신기기"}]},{"lat":"37.865464636","long":"126.8048116","items":[{"name":"닭나라치킨","tel":"031-952-2655","addr":"경기도 파주시 문산읍 선유리 433-6번지","category":"일반휴게음식 - 스넥"},{"name":"조선야시장","tel":"","addr":"경기도 파주시 문산읍 선유리 433-6번지","category":"일반휴게음식 - 일반한식"}]},{"lat":"37.867911941","long":"126.80289576","items":[{"name":"닭사랑","tel":"031-957-2482","addr":"경기도 파주시 문산읍 선유리 1404번지 선유5단지 상가 102호","category":"일반휴게음식 - 일반한식"},{"name":"신명","tel":"031-954-1631","addr":"경기도 파주시 문산읍 선유리 1404번지 문산선유5단지휴먼시아","category":"보건위생 - 미용원"},{"name":"일오삼춘천닭갈비","tel":"031-954-1530","addr":"경기도 파주시 문산읍 선유리 1404번지 문산선유5단지휴먼시아","category":"일반휴게음식 - 일반한식"},{"name":"주공플러스마트","tel":"031-954-0026","addr":"경기도 파주시 문산읍 선유리 1404번지 문산선유5단지휴먼시아","category":"유통업 영리 - 슈퍼마켓"},{"name":"티아라피부관리실","tel":"031-953-3127","addr":"경기도 파주시 문산읍 선유리 1404번지 문산선유5단지휴먼시아","category":"보건위생 - 피부미용실"}]},{"lat":"37.865104167","long":"126.80475574","items":[{"name":"닭에는수제비지","tel":"031-954-3392","addr":"경기도 파주시 문산읍 선유리 447-12번지","category":"일반휴게음식 - 일반한식"},{"name":"우앤도니","tel":"031-952-8847","addr":"경기도 파주시 문산읍 선유리 447-12번지","category":"일반휴게음식 - 일반한식"}]},{"lat":"37.858272402","long":"126.79281984","items":[{"name":"대림타일PAJU","tel":"031-954-9990","addr":"경기도 파주시 문산읍 선유리 677-12번지","category":"건축자재 - 건축용 요업제품"}]},{"lat":"37.860720066","long":"126.78625606","items":[{"name":"대박나자!","tel":"","addr":"경기도 파주시 문산읍 선유리 950-93번지","category":"음료식품 - 기타음료식품"}]},{"lat":"37.865248641","long":"126.80494855","items":[{"name":"대박당구장","tel":"031-954-4621","addr":"경기도 파주시 문산읍 선유리 447-7번지","category":"레저업소 - 당 구 장"}]},{"lat":"37.866215586","long":"126.80670746","items":[{"name":"대박식당","tel":"031-953-5650","addr":"경기도 파주시 문산읍 선유리 430-32번지","category":"일반휴게음식 - 일반한식"}]},{"lat":"37.866522035","long":"126.8067862","items":[{"name":"대성유통","tel":"031-952-6992","addr":"경기도 파주시 문산읍 선유리 426-4번지","category":"건축자재 - 목재·석재·철물"}]},{"lat":"37.866937805","long":"126.80759199","items":[{"name":"대승불교금강종선화사","tel":"070-4134-7581","addr":"경기도 파주시 문산읍 선유리 264-12번지","category":"보건위생 - 기타대인서비스"}]},{"lat":"37.866134256","long":"126.80655994","items":[{"name":"대원장군","tel":"031-953-6006","addr":"경기도 파주시 문산읍 선유리 430-36번지","category":"일반휴게음식 - 일반한식"}]},{"lat":"37.858387226","long":"126.79153546","items":[{"name":"더맛나반점","tel":"031-953-5561","addr":"경기도 파주시 문산읍 선유리 663-11번지","category":"일반휴게음식 - 중국식"},{"name":"문산재활용","tel":"031-949-8975","addr":"경기도 파주시 문산읍 선유리 663-11","category":"전기제품 - 가전제품"},{"name":"아빠가구운닭","tel":"031-952-9209","addr":"경기도 파주시 문산읍 선유리 663-11번지","category":"일반휴게음식 - 일반한식"},{"name":"아이블럭","tel":"031-952-3214","addr":"경기도 파주시 문산읍 선유리 663-11번지","category":"서적문구 - 완구점"},{"name":"카페인","tel":"031-954-5562","addr":"경기도 파주시 문산읍 선유리 663-11번지","category":"일반휴게음식 - 서양음식"}]},{"lat":"37.864914838","long":"126.8046767","items":[{"name":"더스태리","tel":"031-954-3105","addr":"경기도 파주시 문산읍 선유리 447-16번지","category":"일반휴게음식 - 스넥"}]},{"lat":"37.859388292","long":"126.79720297","items":[{"name":"도기랑냥이랑 문산점","tel":"031-953-2225","addr":"경기도 파주시 문산읍 선유리 735-1번지","category":"문화.취미 - 애완동물"},{"name":"문산짜박이 김치찌개","tel":"031-954-2367","addr":"경기도 파주시 문산읍 선유리 735-1번지","category":"일반휴게음식 - 일반한식"},{"name":"오즈잉글리쉬어학원","tel":"031-952-0775","addr":"경기도 파주시 문산읍 선유리 735-1번지","category":"학원 - 보습학원"},{"name":"용인대 선유 청룡태권도","tel":"031-954-2573","addr":"경기도 파주시 문산읍 선유리 735-1번지","category":"학원 - 예·체능계학원"}]},{"lat":"37.858467616","long":"126.79114888","items":[{"name":"돈까스매니아","tel":"031-952-0033","addr":"경기도 파주시 문산읍 선유리 663-2번지","category":"일반휴게음식 - 서양음식"},{"name":"미셸WE스크린골프존","tel":"031-953-1817","addr":"경기도 파주시 문산읍 선유리 663-2번지","category":"레저업소 - 스크린골프"},{"name":"삼형제무한리필","tel":"031-953-2898","addr":"경기도 파주시 문산읍 선유리 663-2번지","category":"일반휴게음식 - 일반한식"},{"name":"유앤아이","tel":"031-953-1816","addr":"경기도 파주시 문산읍 선유리 663-2번지","category":"일반휴게음식 - 일반한식"},{"name":"파주닭국수문산점","tel":"031-952-5599","addr":"경기도 파주시 문산읍 선유리 663-2번지","category":"일반휴게음식 - 일반한식"}]},{"lat":"37.866828957","long":"126.80714905","items":[{"name":"돈돼지부속","tel":"","addr":"경기도 파주시 문산읍 선유리 409-4번지","category":"일반휴게음식 - 일반한식"},{"name":"복사리집","tel":"031-954-1428","addr":"경기도 파주시 문산읍 선유리 409-4번지","category":"일반휴게음식 - 일반한식"}]},{"lat":"37.865130027","long":"126.80406245","items":[{"name":"돈오야","tel":"031-954-1827","addr":"경기도 파주시 문산읍 선유리 434-3번지","category":"일반휴게음식 - 일반한식"}]},{"lat":"37.867662258","long":"126.80441931","items":[{"name":"동준유통","tel":"031-953-7242","addr":"경기도 파주시 문산읍 선유리 1408-10번지","category":"음료식품 - 정육점"}]},{"lat":"37.866413507","long":"126.80653647","items":[{"name":"드림노래연습장","tel":"031-953-1857","addr":"경기도 파주시 문산읍 선유리 426-5","category":"레저업소 - 노 래 방"},{"name":"로얄치킨호프","tel":"031-952-9979","addr":"경기도 파주시 문산읍 선유리 426-5번지","category":"일반휴게음식 - 주점"}]},{"lat":"37.858964317","long":"126.79689734","items":[{"name":"드림노인주간보호센터","tel":"031-952-4500","addr":"경기도 파주시 문산읍 선유리 737-1번지","category":"기타의료기관 - 기타의료기관 및 기타"},{"name":"문정세라믹","tel":"031-953-3805","addr":"경기도 파주시 문산읍 선유리 737-1번지","category":"건축자재 - 건축용 요업제품"},{"name":"봄날애","tel":"031-954-3882","addr":"경기도 파주시 문산읍 선유리 737-1번지","category":"보건위생 - 미용원"},{"name":"이란씨디자인","tel":"031-952-7531","addr":"경기도 파주시 문산읍 선유리 737-1번지","category":"용역 서비스 - 종합용역"}]},{"lat":"37.861442293","long":"126.78706077","items":[{"name":"등촌칼국수","tel":"031-953-7125","addr":"경기도 파주시 문산읍 선유리 944-1번지","category":"일반휴게음식 - 일반한식"}]},{"lat":"37.862133062","long":"126.78545645","items":[{"name":"디엠지(DMZ)부원흑염소","tel":"031-953-5015","addr":"경기도 파주시 문산읍 선유리 908-18번지","category":"일반휴게음식 - 일반한식"},{"name":"코코프렌즈","tel":"031-954-1345","addr":"경기도 파주시 문산읍 선유리 908-18번지","category":"신변잡화 - 기타잡화"}]},{"lat":"37.858352979","long":"126.79253553","items":[{"name":"디자인선","tel":"031-954-7774","addr":"경기도 파주시 문산읍 선유리 677-9","category":"용역 서비스 - 종합용역"},{"name":"문산그린베이퍼","tel":"070-4212-1145","addr":"경기도 파주시 문산읍 선유리 677-9번지","category":"기타 - 기타 전문점"}]},{"lat":"37.865131711","long":"126.8050625","items":[{"name":"딱조아PC방","tel":"070-4234-1681","addr":"경기도 파주시 문산읍 선유리 447-2번지","category":"레저업소 - 기타레져업소"}]},{"lat":"37.862135121","long":"126.80717283","items":[{"name":"땡큐푸드","tel":"031-952-7892","addr":"경기도 파주시 문산읍 선유리 1361-4번지","category":"일반휴게음식 - 일반한식"}]},{"lat":"37.859189402","long":"126.78676053","items":[{"name":"떠오르는집","tel":"","addr":"경기도 파주시 문산읍 선유리 955-7번지","category":"일반휴게음식 - 일반한식"},{"name":"형제장어불고기","tel":"","addr":"경기도 파주시 문산읍 선유리 955-7번지","category":"일반휴게음식 - 일반한식"}]},{"lat":"37.865962529","long":"126.80623082","items":[{"name":"떡뽀이","tel":"031-952-5515","addr":"경기도 파주시 문산읍 선유리 430-44번지","category":"일반휴게음식 - 스넥"},{"name":"머시마 회 해물포차","tel":"031-952-1346","addr":"경기도 파주시 문산읍 선유리 430-44번지","category":"일반휴게음식 - 일식·회집"}]},{"lat":"37.865826971","long":"126.80598117","items":[{"name":"뚱이네 닭칼국수","tel":"031-953-3942","addr":"경기도 파주시 문산읍 선유리 430-60번지","category":"일반휴게음식 - 일반한식"}]},{"lat":"37.860802736","long":"126.78711946","items":[{"name":"라이브 모나코","tel":"031-953-7080","addr":"경기도 파주시 문산읍 선유리 951-4번지","category":"일반휴게음식 - 주점"},{"name":"루나헤어","tel":"031-949-3979","addr":"경기도 파주시 문산읍 선유리 951-4번지","category":"보건위생 - 미용원"},{"name":"식도락","tel":"031-954-0024","addr":"경기도 파주시 문산읍 선유리 951-4번지","category":"일반휴게음식 - 일반한식"},{"name":"용인대문산유도체육관","tel":"031-952-5326","addr":"경기도 파주시 문산읍 선유리 951-4번지","category":"학원 - 예·체능계학원"},{"name":"의정부 부대찌개","tel":"031-953-7710","addr":"경기도 파주시 문산읍 선유리 951-4번지","category":"일반휴게음식 - 일반한식"},{"name":"조이치킨","tel":"031-952-9266","addr":"경기도 파주시 문산읍 선유리 951-4번지 1층 102호","category":"일반휴게음식 - 스넥"},{"name":"참한돈","tel":"031-953-2140","addr":"경기도 파주시 문산읍 선유리 951-4번지","category":"음료식품 - 정육점"},{"name":"클릭컴퓨터학원","tel":"031-953-8700","addr":"경기도 파주시 문산읍 선유리 951-4번지","category":"학원 - 컴퓨터학원"}]},{"lat":"37.861325172","long":"126.78706111","items":[{"name":"라피네헤어","tel":"031-954-2581","addr":"경기도 파주시 문산읍 선유리 943-4번지","category":"보건위생 - 미용원"}]},{"lat":"37.861441025","long":"126.80694739","items":[{"name":"리앤푸드코트","tel":"031-953-9226","addr":"경기도 파주시 문산읍 선유리 1365-3","category":"일반휴게음식 - 일반한식"},{"name":"크레인피씨(PC)파주문산점","tel":"","addr":"경기도 파주시 문산읍 선유리 1365-3번지","category":"레저업소 - 기타레져업소"}]},{"lat":"37.862465734","long":"126.78509183","items":[{"name":"막창일번지","tel":"02-1111-1111","addr":"경기도 파주시 문산읍 선유리 948-1번지","category":"일반휴게음식 - 일반한식"},{"name":"피쉬앤크랩","tel":"031-953-0345","addr":"경기도 파주시 문산읍 선유리 948-1번지","category":"일반휴게음식 - 일반한식"}]},{"lat":"37.8672276","long":"126.80311354","items":[{"name":"맘보유통","tel":"031-939-3374","addr":"경기도 파주시 문산읍 선유리 1404번지 문산선유5단지휴먼시아","category":"신변잡화 - 기타잡화"},{"name":"핑크린","tel":"070-7690-8515","addr":"경기도 파주시 문산읍 선유리 1404번지 문산선유5단지휴먼시아","category":"회원제형태 - 기타1"}]},{"lat":"37.875187814","long":"126.80605855","items":[{"name":"맘스쿡주식회사","tel":"031-944-3459","addr":"경기도 파주시 문산읍 선유리 314-1번지","category":"음료식품 - 기타음료식품"}]},{"lat":"37.87060857","long":"126.78912523","items":[{"name":"문산골프샵","tel":"031-952-0801","addr":"경기도 파주시 문산읍 선유리 869-3번지","category":"레져용품 - 골프용품 전문점"},{"name":"문산골프연습장","tel":"031-952-0801","addr":"경기도 파주시 문산읍 선유리 869-3번지","category":"레저업소 - 골프연습장"}]},{"lat":"37.862547532","long":"126.78547796","items":[{"name":"문산대박종합사료","tel":"070-4178-3516","addr":"경기도 파주시 문산읍 선유리 948-31번지","category":"문화.취미 - 애완동물"}]},{"lat":"37.865327253","long":"126.79823199","items":[{"name":"문산동초등학교병설유치원[아이행복]","tel":"031-952-0276","addr":"경기도 파주시 문산읍 선유리 788-1번지","category":"학원 - 유치원"}]},{"lat":"37.859359158","long":"126.78598732","items":[{"name":"문산여관","tel":"031-952-0249","addr":"경기도 파주시 문산읍 선유리 950-74","category":"숙박업 - 여관/기타숙박업"}]},{"lat":"37.859270944","long":"126.78701029","items":[{"name":"문산우리갈비","tel":"031-953-7418","addr":"경기도 파주시 문산읍 선유리 955-44번지","category":"일반휴게음식 - 일반한식"}]},{"lat":"37.86607927","long":"126.80600322","items":[{"name":"문산유리샷시","tel":"031-952-3047","addr":"경기도 파주시 문산읍 선유리 423-5번지","category":"회원제형태 - 기타4"}]},{"lat":"37.861019313","long":"126.78731201","items":[{"name":"문산족발","tel":"031-952-1033","addr":"경기도 파주시 문산읍 선유리 943-24번지","category":"일반휴게음식 - 일반한식"}]},{"lat":"37.872462092","long":"126.80853211","items":[{"name":"문산중앙유치원","tel":"031-952-9102","addr":"경기도 파주시 문산읍 선유리 297-10","category":"학원 - 유치원"},{"name":"문산중앙유치원[아이행복]","tel":"031-953-2323","addr":"경기도 파주시 문산읍 선유리 297-10번지","category":"학원 - 유치원"}]},{"lat":"37.85926988","long":"126.78643075","items":[{"name":"문산중앙의료기","tel":"031-953-4501","addr":"경기도 파주시 문산읍 선유리 955-21번지","category":"보건위생 - 의료용품"}]},{"lat":"37.858996706","long":"126.78978376","items":[{"name":"문산토종순대국","tel":"031-954-3221","addr":"경기도 파주시 문산읍 선유리 966-38번지 외5필지","category":"일반휴게음식 - 일반한식"},{"name":"옛날생고기김치찌개","tel":"031-952-9070","addr":"경기도 파주시 문산읍 선유리 966-38번지","category":"일반휴게음식 - 일반한식"}]},{"lat":"37.858801851","long":"126.79672734","items":[{"name":"문산파워점핑클럽","tel":"","addr":"경기도 파주시 문산읍 선유리 738번지","category":"건강식품 - 기타건강식품"},{"name":"유장군솥뚜껑삼겹살 선유점","tel":"031-953-0980","addr":"경기도 파주시 문산읍 선유리 738번지","category":"일반휴게음식 - 일반한식"},{"name":"윤건설중기","tel":"031-926-2790","addr":"경기도 파주시 문산읍 선유리 738번지","category":"기타 - 기계공구"}]},{"lat":"37.860939247","long":"126.78786906","items":[{"name":"문산현대모터스","tel":"031-953-2637","addr":"경기도 파주시 문산읍 선유리 942번지","category":"자동차정비 유지 - 자동차정비"}]},{"lat":"37.866938502","long":"126.80801248","items":[{"name":"미성휀스건설","tel":"031-957-3088","addr":"경기도 파주시 문산읍 선유리 262-4","category":"건축자재 - 기타건축자재"}]},{"lat":"37.858006564","long":"126.79027523","items":[{"name":"미커튼","tel":"070-7872-0123","addr":"경기도 파주시 문산읍 선유리 1357번지 진흥소슬마을","category":"직물 - 카페트,커튼,천막,지물"},{"name":"소슬어린이집[아이행복]","tel":"031-954-0566","addr":"경기도 파주시 문산읍 선유리 1357번지 진흥소슬마을","category":"학원 - 유아원"},{"name":"아이린어린이집[아이행복]","tel":"031-953-0029","addr":"경기도 파주시 문산읍 선유리 1357번지 진흥소슬마을","category":"학원 - 유아원"},{"name":"요리F&B","tel":"","addr":"경기도 파주시 문산읍 선유리 1357번지 진흥소슬마을","category":"주방용구 - 주방용구"}]},{"lat":"37.86001903","long":"126.78717856","items":[{"name":"믹스 앤 매치","tel":"031-953-6559","addr":"경기도 파주시 문산읍 선유리 953-8번지","category":"의류 - 정장"},{"name":"우리동네미술학원","tel":"031-953-0250","addr":"경기도 파주시 문산읍 선유리 953-8번지","category":"학원 - 예·체능계학원"}]},{"lat":"37.866025727","long":"126.80631021","items":[{"name":"민들레꽃방","tel":"031-953-0059","addr":"경기도 파주시 문산읍 선유리 430-43","category":"문화.취미 - 화원"}]},{"lat":"37.859296636","long":"126.78628295","items":[{"name":"바로그집","tel":"031-953-5359","addr":"경기도 파주시 문산읍 선유리 955-4번지","category":"일반휴게음식 - 일반한식"}]},{"lat":"37.862106432","long":"126.78567244","items":[{"name":"박현숙헤어샵","tel":"031-952-0282","addr":"경기도 파주시 문산읍 선유리 907-2번지","category":"보건위생 - 미용원"},{"name":"새로운맛분식","tel":"031-000-0000","addr":"경기도 파주시 문산읍 선유리 907-2번지","category":"일반휴게음식 - 스넥"},{"name":"양평옛날경양식돈까스","tel":"031-000-0000","addr":"경기도 파주시 문산읍 선유리 907-2번지","category":"일반휴게음식 - 일반한식"},{"name":"찬돌E넷","tel":"031-953-7266","addr":"경기도 파주시 문산읍 선유리 907-2번지","category":"사무통신 - 컴퓨터"}]},{"lat":"37.866357035","long":"126.80509332","items":[{"name":"반미샌드위치","tel":"031-954-0432","addr":"경기도 파주시 문산읍 선유리 419-4번지","category":"일반휴게음식 - 서양음식"},{"name":"오족","tel":"031-954-0762","addr":"경기도 파주시 문산읍 선유리 419-4번지","category":"일반휴게음식 - 일반한식"},{"name":"제이(J)에벤에셀음악학원","tel":"031-953-7751","addr":"경기도 파주시 문산읍 선유리 419-4번지","category":"학원 - 예·체능계학원"},{"name":"코앤센(코&센)","tel":"031-953-3777","addr":"경기도 파주시 문산읍 선유리 419-4번지","category":"일반휴게음식 - 서양음식"}]},{"lat":"37.860999152","long":"126.80669856","items":[{"name":"백년이웃공인중개사사무소","tel":"031-953-2080","addr":"경기도 파주시 문산읍 선유리 1365-6번지","category":"용역 서비스 - 부동산 중개·임대"}]},{"lat":"37.860136088","long":"126.78714413","items":[{"name":"베트남쌀국수","tel":"031-952-9339","addr":"경기도 파주시 문산읍 선유리 952-8번지","category":"일반휴게음식 - 서양음식"}]},{"lat":"37.859080831","long":"126.78651085","items":[{"name":"별네일","tel":"","addr":"경기도 파주시 문산읍 선유리 955-13번지","category":"보건위생 - 피부미용실"},{"name":"수건나라","tel":"031-953-4966","addr":"경기도 파주시 문산읍 선유리 955-13번지","category":"신변잡화 - 기타잡화"}]},{"lat":"37.85921572","long":"126.7863741","items":[{"name":"복미용실","tel":"031-954-0038","addr":"경기도 파주시 문산읍 선유리 955-22","category":"보건위생 - 미용원"}]},{"lat":"37.864136266","long":"126.8024514","items":[{"name":"북경반점","tel":"031-954-3788","addr":"경기도 파주시 문산읍 선유리 438-7번지","category":"일반휴게음식 - 중국식"}]},{"lat":"37.86609123","long":"126.80241201","items":[{"name":"비데스토어","tel":"032-681-8640","addr":"경기도 파주시 문산읍 선유리 1409번지 문산선유4단지","category":"전기제품 - 기타전기제품"},{"name":"토리맘어린이집[아이행복]","tel":"031-952-3285","addr":"경기도 파주시 문산읍 선유리 1409번지 문산선유4단지","category":"학원 - 유아원"}]},{"lat":"37.864184489","long":"126.79905337","items":[{"name":"비에스(BS)시스템","tel":"","addr":"경기도 파주시 문산읍 선유리 1358번지 휴먼시아","category":"수리서비스 - 가정용품수리"},{"name":"조은세상","tel":"","addr":"경기도 파주시 문산읍 선유리 1358번지 휴먼시아","category":"주방용구 - 주방용구"}]},{"lat":"37.864528041","long":"126.79974565","items":[{"name":"빛소","tel":"","addr":"경기도 파주시 문산읍 선유리 1358번지 휴먼시아","category":"수리서비스 - 가정용품수리"}]},{"lat":"37.860019633","long":"126.7875081","items":[{"name":"삼거리열쇠","tel":"031-952-1304","addr":"경기도 파주시 문산읍 선유리 957-40번지","category":"건축자재 - 목재·석재·철물"}]},{"lat":"37.865490879","long":"126.80434559","items":[{"name":"삼겹과곱창","tel":"031-953-5008","addr":"경기도 파주시 문산읍 선유리 433-8번지","category":"일반휴게음식 - 일반한식"},{"name":"우리분식","tel":"031-952-8883","addr":"경기도 파주시 문산읍 선유리 433-8번지","category":"일반휴게음식 - 일반한식"}]},{"lat":"37.864802433","long":"126.80214276","items":[{"name":"생각나무공부방","tel":"070-7574-0623","addr":"경기도 파주시 문산읍 선유리 1358번지 휴먼시아","category":"회원제형태 - 학원"}]},{"lat":"37.860411024","long":"126.78970014","items":[{"name":"서부부속","tel":"031-952-2561","addr":"경기도 파주시 문산읍 선유리 966-1번지","category":"자동차정비 유지 - 자동차부품"}]},{"lat":"37.860803339","long":"126.787449","items":[{"name":"서울의원","tel":"031-952-3375","addr":"경기도 파주시 문산읍 선유리 951-2번지","category":"의원 - 의원"}]},{"lat":"37.872101213","long":"126.80822619","items":[{"name":"선영유통","tel":"031-953-6657","addr":"경기도 파주시 문산읍 선유리 297-11","category":"음료식품 - 기타음료식품"}]},{"lat":"37.868524554","long":"126.80825833","items":[{"name":"선유 세차장","tel":"031-953-4644","addr":"경기도 파주시 문산읍 선유리 271-3번지","category":"자동차정비 유지 - 세차장"}]},{"lat":"37.865970645","long":"126.80569667","items":[{"name":"선유건강원","tel":"031-952-6715","addr":"경기도 파주시 문산읍 선유리 423-8","category":"건강식품 - 기타건강식품"},{"name":"탈랜트미용실","tel":"031-954-3544","addr":"경기도 파주시 문산읍 선유리 423-8번지","category":"보건위생 - 미용원"}]},{"lat":"37.86540922","long":"126.80400487","items":[{"name":"선유닭갈비","tel":"031-952-4333","addr":"경기도 파주시 문산읍 선유리 420-3번지","category":"일반휴게음식 - 일반한식"}]},{"lat":"37.865355816","long":"126.80439141","items":[{"name":"선유리옛날통닭","tel":"031-952-0992","addr":"경기도 파주시 문산읍 선유리 433-22번지","category":"일반휴게음식 - 일반한식"},{"name":"선유정보기술","tel":"031-953-6163","addr":"경기도 파주시 문산읍 선유리 433-22번지","category":"사무통신 - 컴퓨터"}]},{"lat":"37.86719048","long":"126.80784134","items":[{"name":"선유세차장","tel":"","addr":"경기도 파주시 문산읍 선유리 265-1번지","category":"자동차정비 유지 - 세차장"}]},{"lat":"37.865356199","long":"126.80461869","items":[{"name":"선유애견","tel":"031-954-0199","addr":"경기도 파주시 문산읍 선유리 433-11번지","category":"문화.취미 - 애완동물"}]},{"lat":"37.866351274","long":"126.80703667","items":[{"name":"선유찌개나라","tel":"","addr":"경기도 파주시 문산읍 선유리 430-7번지","category":"일반휴게음식 - 일반한식"}]},{"lat":"37.865328979","long":"126.80450512","items":[{"name":"선유피씨방","tel":"","addr":"경기도 파주시 문산읍 선유리 433-13번지","category":"레저업소 - 기타레져업소"}]},{"lat":"37.860186033","long":"126.80533708","items":[{"name":"선유힐마트","tel":"031-954-8822","addr":"경기도 파주시 문산읍 선유리 1368-8","category":"유통업 영리 - 슈퍼마켓"}]},{"lat":"37.859134427","long":"126.7862607","items":[{"name":"설레는네일","tel":"031-953-0048","addr":"경기도 파주시 문산읍 선유리 955-17번지","category":"보건위생 - 피부미용실"},{"name":"파샤","tel":"031-954-4111","addr":"경기도 파주시 문산읍 선유리 955-17","category":"일반휴게음식 - 주점"}]},{"lat":"37.861386383","long":"126.80659526","items":[{"name":"세븐일레븐문산선유2호점","tel":"","addr":"경기도 파주시 문산읍 선유리 1364-5번지 1층","category":"유통업 영리 - 편 의 점"},{"name":"폭스25시","tel":"031-952-2523","addr":"경기도 파주시 문산읍 선유리 1364-5번지 1층","category":"유통업 영리 - 편 의 점"}]},{"lat":"37.862799331","long":"126.78522721","items":[{"name":"세븐일레븐문산선유본점","tel":"031-1577-0711","addr":"경기도 파주시 문산읍 선유리 904번지","category":"유통업 영리 - 편 의 점"}]},{"lat":"37.861277189","long":"126.80594782","items":[{"name":"세븐일레븐문산선유점","tel":"","addr":"경기도 파주시 문산읍 선유리 1363-6","category":"유통업 영리 - 편 의 점"}]},{"lat":"37.86473204","long":"126.80313164","items":[{"name":"셀파교실","tel":"031-954-0950","addr":"경기도 파주시 문산읍 선유리 1409번지 문산선유4단지","category":"회원제형태 - 학원"}]},{"lat":"37.857967461","long":"126.79359341","items":[{"name":"소담치킨","tel":"031-953-6366","addr":"경기도 파주시 문산읍 선유리 666-9번지","category":"일반휴게음식 - 스넥"}]},{"lat":"37.859276056","long":"126.78981704","items":[{"name":"소문난부대찌개","tel":"031-954-0576","addr":"경기도 파주시 문산읍 선유리 966-42","category":"일반휴게음식 - 일반한식"}]},{"lat":"37.866747174","long":"126.80672878","items":[{"name":"수정크린크린빨래방","tel":"031-953-7882","addr":"경기도 파주시 문산읍 선유리 409-29번지","category":"수리서비스 - 세탁소"}]},{"lat":"37.85927084","long":"126.78695347","items":[{"name":"시골집","tel":"031-953-5777","addr":"경기도 파주시 문산읍 선유리 955-20번지","category":"일반휴게음식 - 일반한식"}]},{"lat":"37.865626844","long":"126.79954943","items":[{"name":"시원공조","tel":"","addr":"경기도 파주시 문산읍 선유리 1394번지 휴먼시아","category":"용역 서비스 - 기타용역서비스"}]},{"lat":"37.866079935","long":"126.80640098","items":[{"name":"신동아문구","tel":"02-3472-7475","addr":"경기도 파주시 문산읍 선유리 430-42번지","category":"서적문구 - 기타서적문구"}]},{"lat":"37.859801846","long":"126.79670183","items":[{"name":"신성에이컨 프라자","tel":"031-953-8280","addr":"경기도 파주시 문산읍 선유리 725-24번지","category":"전기제품 - 냉열기기"},{"name":"신성창호인테리어","tel":"031-953-2938","addr":"경기도 파주시 문산읍 선유리 725-24","category":"건축자재 - 인테리어전문"},{"name":"초이마루","tel":"031-952-1132","addr":"경기도 파주시 문산읍 선유리 725-24번지","category":"일반휴게음식 - 일반한식"}]},{"lat":"37.859053092","long":"126.78612458","items":[{"name":"신전떡볶이","tel":"031-953-2228","addr":"경기도 파주시 문산읍 선유리 955-24번지","category":"일반휴게음식 - 스넥"}]},{"lat":"37.862690493","long":"126.79995524","items":[{"name":"신통치킨문산선유점","tel":"031-952-0996","addr":"경기도 파주시 문산읍 선유리 772-15번지","category":"일반휴게음식 - 일반한식"},{"name":"아구가좋아","tel":"031-954-9922","addr":"경기도 파주시 문산읍 선유리 772-15번지","category":"일반휴게음식 - 일반한식"},{"name":"행복한고기집","tel":"031-953-9282","addr":"경기도 파주시 문산읍 선유리 772-15번지","category":"음료식품 - 정육점"},{"name":"행복한식당","tel":"031-953-9282","addr":"경기도 파주시 문산읍 선유리 772-15번지","category":"일반휴게음식 - 일반한식"}]},{"lat":"37.865329133","long":"126.80459604","items":[{"name":"썬24시편의점","tel":"031-952-8062","addr":"경기도 파주시 문산읍 선유리 433-12번지","category":"유통업 영리 - 편 의 점"}]},{"lat":"37.859802243","long":"126.78687238","items":[{"name":"씨티 공인중개사사무소","tel":"031-952-3335","addr":"경기도 파주시 문산읍 선유리 953-4번지","category":"용역 서비스 - 부동산 중개·임대"},{"name":"이화모텔","tel":"031-952-1510","addr":"경기도 파주시 문산읍 선유리 953-4번지","category":"숙박업 - 여관/기타숙박업"}]},{"lat":"37.861271574","long":"126.78731127","items":[{"name":"아담장여관","tel":"","addr":"경기도 파주시 문산읍 선유리 943-3번지","category":"숙박업 - 여관/기타숙박업"}]},{"lat":"37.861414347","long":"126.78656085","items":[{"name":"아디닭스","tel":"031-952-5399","addr":"경기도 파주시 문산읍 선유리 945-6번지","category":"일반휴게음식 - 스넥"},{"name":"아디닭스","tel":"031-952-5399","addr":"경기도 파주시 문산읍 선유리 945-6번지","category":"일반휴게음식 - 스넥"},{"name":"전라도식당","tel":"031-952-8393","addr":"경기도 파주시 문산읍 선유리 945-6","category":"일반휴게음식 - 일반한식"}]},{"lat":"37.868317958","long":"126.80324698","items":[{"name":"아띠어린이집","tel":"031-953-1110","addr":"경기도 파주시 문산읍 선유리 1404 휴먼시아5단지505동","category":"학원 - 유아원"}]},{"lat":"37.86624178","long":"126.80620735","items":[{"name":"아리랑포차","tel":"031-9553-1885","addr":"경기도 파주시 문산읍 선유리 425-7번지 경수네포장마차 1호","category":"일반휴게음식 - 일반한식"}]},{"lat":"37.859054709","long":"126.79706754","items":[{"name":"아이신나","tel":"031-954-8215","addr":"경기도 파주시 문산읍 선유리 738-7번지","category":"레저업소 - 기타레져업소"},{"name":"유리피아노학원","tel":"031-952-0234","addr":"경기도 파주시 문산읍 선유리 738-7번지","category":"학원 - 예·체능계학원"}]},{"lat":"37.866883428","long":"126.80739893","items":[{"name":"악마화닭발","tel":"031-952-9990","addr":"경기도 파주시 문산읍 선유리 264-6번지","category":"일반휴게음식 - 일반한식"}]},{"lat":"37.861970941","long":"126.80065041","items":[{"name":"애니카랜드문산점","tel":"031-954-0951","addr":"경기도 파주시 문산읍 선유리 767-3","category":"자동차정비 유지 - 자동차정비"}]},{"lat":"37.867935455","long":"126.80615739","items":[{"name":"애드공조","tel":"031-954-1082","addr":"경기도 파주시 문산읍 선유리 397-4번지 모인연립","category":"용역 서비스 - 기타용역서비스"}]},{"lat":"37.858073934","long":"126.79267268","items":[{"name":"양자강","tel":"031-953-9931","addr":"경기도 파주시 문산읍 선유리 664-5번지","category":"일반휴게음식 - 중국식"},{"name":"자유로천막사","tel":"031-952-0500","addr":"경기도 파주시 문산읍 선유리 664-5","category":"직물 - 카페트,커튼,천막,지물"}]},{"lat":"37.866080995","long":"126.80703739","items":[{"name":"에이스프라자","tel":"070-7794-4082","addr":"경기도 파주시 문산읍 선유리 430-11번지","category":"전기제품 - 냉열기기"}]},{"lat":"37.865581986","long":"126.80494766","items":[{"name":"엔젤클럽","tel":"031-952-1518","addr":"경기도 파주시 문산읍 선유리 433-1번지","category":"일반휴게음식 - 일반한식"}]},{"lat":"37.858217189","long":"126.79217229","items":[{"name":"엘씨자동차운전전문학원","tel":"031-952-6400","addr":"경기도 파주시 문산읍 선유리 664-10번지","category":"회원제형태 - 학원"}]},{"lat":"37.861020746","long":"126.7880961","items":[{"name":"엠에스인테리어","tel":"031-953-5445","addr":"경기도 파주시 문산읍 선유리 942-1번지","category":"건축자재 - 인테리어전문"},{"name":"예뜨락화원","tel":"031-953-5445","addr":"경기도 파주시 문산읍 선유리 942-1","category":"문화.취미 - 화원"}]},{"lat":"37.87235658","long":"126.78923384","items":[{"name":"여우골옻닭","tel":"","addr":"경기도 파주시 문산읍 선유리 859-6번지","category":"일반휴게음식 - 일반한식"}]},{"lat":"37.858908839","long":"126.78606818","items":[{"name":"여우비","tel":"031-952-2977","addr":"경기도 파주시 문산읍 선유리 955-28번지","category":"일반휴게음식 - 주점"},{"name":"정관장홍삼문산점","tel":"031-954-2304","addr":"경기도 파주시 문산읍 선유리 955-28 제1호","category":"건강식품 - 홍삼제품"}]},{"lat":"37.85941551","long":"126.78723714","items":[{"name":"영봉타이루","tel":"031-953-0585","addr":"경기도 파주시 문산읍 선유리 957-28번지","category":"건축자재 - 건축용 요업제품"}]},{"lat":"37.875160938","long":"126.80614954","items":[{"name":"예향힐링카페/행복한예향교회","tel":"031-953-1114","addr":"경기도 파주시 문산읍 선유리 314-1번지","category":"일반휴게음식 - 서양음식"}]},{"lat":"37.865077044","long":"126.80469899","items":[{"name":"옛날장터치킨","tel":"031-954-1488","addr":"경기도 파주시 문산읍 선유리 447-13번지","category":"일반휴게음식 - 스넥"},{"name":"쥬벨","tel":"031-953-5935","addr":"경기도 파주시 문산읍 선유리 447-13번지","category":"일반휴게음식 - 서양음식"},{"name":"킹포스","tel":"031-953-5023","addr":"경기도 파주시 문산읍 선유리 447-13번지","category":"일반휴게음식 - 일반한식"}]},{"lat":"37.861471108","long":"126.78803797","items":[{"name":"옥건재","tel":"031-954-0166","addr":"경기도 파주시 문산읍 선유리 944-3번지","category":"건축자재 - 기타건축자재"}]},{"lat":"37.866860773","long":"126.80462603","items":[{"name":"온누리냉동","tel":"031-953-0334","addr":"경기도 파주시 문산읍 선유리 418번지 주공아파트","category":"회원제형태 - 기타4"}]},{"lat":"37.875912224","long":"126.80826162","items":[{"name":"올리브빈","tel":"031-953-0992","addr":"경기도 파주시 문산읍 선유리 306-8번지","category":"일반휴게음식 - 일반한식"},{"name":"크린빨래방","tel":"031-953-7982","addr":"경기도 파주시 문산읍 선유리 306-8번지 1층","category":"수리서비스 - 세탁소"}]},{"lat":"37.861242082","long":"126.80650473","items":[{"name":"우리 원룸 관리","tel":"","addr":"경기도 파주시 문산읍 선유리 1364-6번지","category":"용역 서비스 - 종합용역"}]},{"lat":"37.858660633","long":"126.79328464","items":[{"name":"운정몰탈","tel":"","addr":"경기도 파주시 문산읍 선유리 1350번지 두산위브","category":"보건위생 - 화장품"}]},{"lat":"37.862637044","long":"126.79009147","items":[{"name":"월드자동차매매상사","tel":"031-953-3100","addr":"경기도 파주시 문산읍 선유리 688-4번지","category":"자동차판매 - 중고자동차판매"}]},{"lat":"37.861467839","long":"126.78625387","items":[{"name":"유림C&H","tel":"031-978-9737","addr":"경기도 파주시 문산읍 선유리 950-1","category":"전기제품 - 냉열기기"}]},{"lat":"37.861103362","long":"126.79909595","items":[{"name":"유진 자동차 중고부품","tel":"031-952-9222","addr":"경기도 파주시 문산읍 선유리 751-6","category":"자동차정비 유지 - 자동차부품"}]},{"lat":"37.862824535","long":"126.79931849","items":[{"name":"이(e)해법솔루션학원","tel":"","addr":"경기도 파주시 문산읍 선유리 779-11번지","category":"학원 - 보습학원"}]},{"lat":"37.865328232","long":"126.80406191","items":[{"name":"이모네","tel":"031-952-2113","addr":"경기도 파주시 문산읍 선유리 434-1번지","category":"일반휴게음식 - 일반한식"}]},{"lat":"37.86202627","long":"126.78617269","items":[{"name":"이태원참나무장작구이 3호점","tel":"031-952-6777","addr":"경기도 파주시 문산읍 선유리 907-9번지","category":"일반휴게음식 - 일반한식"}]},{"lat":"37.860740939","long":"126.78781282","items":[{"name":"임진강매운탕칼국수","tel":"031-953-0031","addr":"경기도 파주시 문산읍 선유리 942-4.","category":"일반휴게음식 - 일반한식"}]},{"lat":"37.864687494","long":"126.78806273","items":[{"name":"임진자동차부분정비공업사","tel":"031-953-4560","addr":"경기도 파주시 문산읍 선유리 892-20번지","category":"자동차정비 유지 - 자동차정비"}]},{"lat":"37.861407067","long":"126.78750406","items":[{"name":"자유슈퍼","tel":"031-952-3143","addr":"경기도 파주시 문산읍 선유리 944-11번지","category":"유통업 영리 - 슈퍼마켓"},{"name":"짜이요","tel":"031-953-3325","addr":"경기도 파주시 문산읍 선유리 944-11번지","category":"일반휴게음식 - 중국식"}]},{"lat":"37.861495953","long":"126.7868447","items":[{"name":"장단촌","tel":"031-952-2932","addr":"경기도 파주시 문산읍 선유리 945-2번지","category":"일반휴게음식 - 일반한식"},{"name":"춘자네 생선구이","tel":"031-954-1999","addr":"경기도 파주시 문산읍 선유리 945-2번지","category":"일반휴게음식 - 일반한식"}]},{"lat":"37.866187762","long":"126.80623022","items":[{"name":"장수홍삼건강원","tel":"031-954-8824","addr":"경기도 파주시 문산읍 선유리 425-4번지","category":"건강식품 - 기타건강식품"}]},{"lat":"37.858196518","long":"126.79069512","items":[{"name":"잰둥이어린이집[아이행복]","tel":"031-952-7142","addr":"경기도 파주시 문산읍 선유리 1357번지 진흥소슬마을","category":"학원 - 유아원"},{"name":"한글로영어파주지사","tel":"031-111-1111","addr":"경기도 파주시 문산읍 선유리 1357번지 진흥소슬마을","category":"서적문구 - 기타서적문구"}]},{"lat":"37.867267682","long":"126.80551138","items":[{"name":"전진타운 어린이집[아이행복]","tel":"031-952-5001","addr":"경기도 파주시 문산읍 선유리 1398번지 선유전진타운","category":"학원 - 유아원"}]},{"lat":"37.861018751","long":"126.78700519","items":[{"name":"전통의 옛날통닭","tel":"031-953-6259","addr":"경기도 파주시 문산읍 선유리 951-1번지","category":"일반휴게음식 - 일반한식"}]},{"lat":"37.86140899","long":"126.79869738","items":[{"name":"정가네왕족발보쌈","tel":"031-953-1011","addr":"경기도 파주시 문산읍 선유리 731-1번지","category":"일반휴게음식 - 일반한식"}]},{"lat":"37.862434897","long":"126.78792154","items":[{"name":"정미식당","tel":"031-952-1892","addr":"경기도 파주시 문산읍 선유리 901-9번지","category":"일반휴게음식 - 일반한식"}]},{"lat":"37.862299861","long":"126.78797875","items":[{"name":"정미식당2","tel":"031-952-1892","addr":"경기도 파주시 문산읍 선유리 901-10번지","category":"일반휴게음식 - 일반한식"}]},{"lat":"37.860103976","long":"126.80475776","items":[{"name":"제이엠모터스(JM모터스)","tel":"031-952-6717","addr":"경기도 파주시 문산읍 선유리 1370번지","category":"자동차정비 유지 - 자동차정비"}]},{"lat":"37.866685487","long":"126.80755856","items":[{"name":"제일전장","tel":"031-957-7375","addr":"경기도 파주시 문산읍 선유리 260-5번지","category":"자동차정비 유지 - 자동차부품"}]},{"lat":"37.861684689","long":"126.78659415","items":[{"name":"조은 인테리어","tel":"031-953-0144","addr":"경기도 파주시 문산읍 선유리 945-1번지","category":"건축자재 - 인테리어전문"}]},{"lat":"37.863299741","long":"126.81417002","items":[{"name":"주식회사 케이아트스튜디오","tel":"031-8035-7086","addr":"경기도 파주시 문산읍 선유리 1373-10번지","category":"음료식품 - 기타음료식품"}]},{"lat":"37.862332494","long":"126.8066723","items":[{"name":"주식회사 형제농산","tel":"","addr":"경기도 파주시 문산읍 선유리 1361-1번지","category":"음료식품 - 농·축·수산품"}]},{"lat":"37.859938445","long":"126.78745152","items":[{"name":"죽이야기 파주문산점","tel":"031-952-6636","addr":"경기도 파주시 문산읍 선유리 957-41번지","category":"일반휴게음식 - 일반한식"},{"name":"파노라마치킨체인점","tel":"031-952-1456","addr":"경기도 파주시 문산읍 선유리 957-41","category":"일반휴게음식 - 주점"},{"name":"한경수미용실","tel":"031-953-0428","addr":"경기도 파주시 문산읍 선유리 957-41번지","category":"보건위생 - 미용원"}]},{"lat":"37.861304825","long":"126.80631138","items":[{"name":"지파이하우스","tel":"031-953-7891","addr":"경기도 파주시 문산읍 선유리 1364-9번지","category":"일반휴게음식 - 일반한식"}]},{"lat":"37.86157689","long":"126.78676492","items":[{"name":"진모터스","tel":"031-953-4933","addr":"경기도 파주시 문산읍 선유리 945-4","category":"자동차정비 유지 - 자동차정비"}]},{"lat":"37.865465571","long":"126.80536845","items":[{"name":"진짜루","tel":"031-954-9995","addr":"경기도 파주시 문산읍 선유리 430-69번지","category":"일반휴게음식 - 일반한식"}]},{"lat":"37.857936518","long":"126.79647976","items":[{"name":"진흥공업사","tel":"031-952-2373","addr":"경기도 파주시 문산읍 선유리 672-1번지","category":"자동차정비 유지 - 자동차정비"}]},{"lat":"37.861079782","long":"126.80642562","items":[{"name":"참마루감자탕앤생고기","tel":"031-952-8647","addr":"경기도 파주시 문산읍 선유리 1364-7번지","category":"일반휴게음식 - 일반한식"}]},{"lat":"37.862940288","long":"126.78839736","items":[{"name":"천보주택","tel":"031-953-0077","addr":"경기도 파주시 문산읍 선유리 912번지","category":"용역 서비스 - 기타용역서비스"}]},{"lat":"37.857967158","long":"126.79342296","items":[{"name":"천송이꽃방","tel":"031-953-5474","addr":"경기도 파주시 문산읍 선유리 666-10번지","category":"문화.취미 - 화원"}]},{"lat":"37.858854615","long":"126.78597743","items":[{"name":"천하곱창 숯불갈비","tel":"031-942-8185","addr":"경기도 파주시 문산읍 선유리 955-19번지","category":"일반휴게음식 - 일반한식"}]},{"lat":"37.86108167","long":"126.78692546","items":[{"name":"청송","tel":"031-952-2990","addr":"경기도 파주시 문산읍 선유리 951-3번지","category":"일반휴게음식 - 일반한식"}]},{"lat":"37.866657364","long":"126.80689949","items":[{"name":"충현사","tel":"031-952-7848","addr":"경기도 파주시 문산읍 선유리 409-31","category":"수리서비스 - 세탁소"}]},{"lat":"37.865943463","long":"126.80029862","items":[{"name":"캔버스","tel":"070-7570-5239","addr":"경기도 파주시 문산읍 선유리 1394번지 휴먼시아","category":"건축자재 - 인테리어전문"}]},{"lat":"37.865854094","long":"126.80603792","items":[{"name":"커트랑퍼머랑","tel":"031-953-0112","addr":"경기도 파주시 문산읍 선유리 430-59번지","category":"보건위생 - 미용원"}]},{"lat":"37.864942286","long":"126.80492664","items":[{"name":"크린마스타","tel":"031-939-7171","addr":"경기도 파주시 문산읍 선유리 447-11번지","category":"용역 서비스 - 기타용역서비스"}]},{"lat":"37.85980316","long":"126.78737237","items":[{"name":"터줏대감2호점","tel":"031-954-5959","addr":"경기도 파주시 문산읍 선유리 957-13번지","category":"일반휴게음식 - 일반한식"},{"name":"활어회 2호점 직판장","tel":"031-954-5959","addr":"경기도 파주시 문산읍 선유리 957-13번지","category":"음료식품 - 농·축·수산품"}]},{"lat":"37.865247282","long":"126.80414168","items":[{"name":"테이크(take)5선유점","tel":"031-952-0050","addr":"경기도 파주시 문산읍 선유리 434-9","category":"일반휴게음식 - 스넥"}]},{"lat":"37.860939499","long":"126.79811912","items":[{"name":"파주된장국밥","tel":"031-852-2001","addr":"경기도 파주시 문산읍 선유리 727-5번지","category":"일반휴게음식 - 일반한식"}]},{"lat":"37.864824061","long":"126.78884647","items":[{"name":"파주시어촌계문산직판장","tel":"031-945-5100","addr":"경기도 파주시 문산읍 선유리 919-3번지","category":"일반휴게음식 - 일반한식"},{"name":"파주어촌계양어장","tel":"031-954-5100","addr":"경기도 파주시 문산읍 선유리 919-3번지","category":"음료식품 - 농·축·수산품"}]},{"lat":"37.866106393","long":"126.80605997","items":[{"name":"파주유리","tel":"031-952-2335","addr":"경기도 파주시 문산읍 선유리 425-6 외2필지","category":"건축자재 - 유리"}]},{"lat":"37.865519722","long":"126.80542513","items":[{"name":"파티하우스 예람","tel":"031-111-1111","addr":"경기도 파주시 문산읍 선유리 430-68번지","category":"일반휴게음식 - 일반한식"}]},{"lat":"37.861856706","long":"126.79711657","items":[{"name":"평화누리자전거","tel":"031-971-0725","addr":"경기도 파주시 문산읍 선유리 800-7번지 라인빌라","category":"레져용품 - 스포츠·레져용품"}]},{"lat":"37.862464962","long":"126.78959195","items":[{"name":"프라임한신어린이집[아이행복]","tel":"031-954-2111","addr":"경기도 파주시 문산읍 선유리 935-1번지","category":"학원 - 유아원"}]},{"lat":"37.864270883","long":"126.8021442","items":[{"name":"하~(HHA FP)센터","tel":"031-953-2016","addr":"경기도 파주시 문산읍 선유리 438-1번지","category":"레저업소 - 기타레져업소"}]},{"lat":"37.869850714","long":"126.80393611","items":[{"name":"하늘소리서점","tel":"031-949-6690","addr":"경기도 파주시 문산읍 선유리 397-1번지 청산빌라","category":"서적문구 - 일반서적"}]},{"lat":"37.863831568","long":"126.78804249","items":[{"name":"하랑 종합 건축","tel":"","addr":"경기도 파주시 문산읍 선유리 896-2번지","category":"건축자재 - 인테리어전문"}]},{"lat":"37.859713123","long":"126.79748616","items":[{"name":"학이유치원","tel":"031-954-1114","addr":"경기도 파주시 문산읍 선유리 735-5번지","category":"학원 - 유치원"}]},{"lat":"37.861191612","long":"126.78792515","items":[{"name":"한진보일러","tel":"031-952-9059","addr":"경기도 파주시 문산읍 선유리 941-1번지","category":"회원제형태 - 기타4"}]},{"lat":"37.859859485","long":"126.79875847","items":[{"name":"해법중국어","tel":"031-952-3832","addr":"경기도 파주시 문산읍 선유리 750-3번지 우정빌라","category":"회원제형태 - 학원"}]},{"lat":"37.859942515","long":"126.80517864","items":[{"name":"해피식당","tel":"031-953-6673","addr":"경기도 파주시 문산읍 선유리 1370-3번지","category":"일반휴게음식 - 일반한식"}]},{"lat":"37.867046049","long":"126.80767125","items":[{"name":"행복한 사람들","tel":"031-953-9612","addr":"경기도 파주시 문산읍 선유리 264-1번지","category":"가구 - 일반가구"}]},{"lat":"37.861746756","long":"126.8065943","items":[{"name":"헤이리(HeyLEE)","tel":"000-0000-0000","addr":"경기도 파주시 문산읍 선유리 1364-12번지","category":"문화.취미 - 문화취미기타"}]},{"lat":"37.866161435","long":"126.80665078","items":[{"name":"현미용실","tel":"031-953-5180","addr":"경기도 파주시 문산읍 선유리 430-33","category":"보건위생 - 미용원"}]},{"lat":"37.861353281","long":"126.78765195","items":[{"name":"형제보일러","tel":"031-953-3976","addr":"경기도 파주시 문산읍 선유리 944-2번지","category":"건축자재 - 보일러·펌프·샷시"}]},{"lat":"37.860911451","long":"126.78744869","items":[{"name":"호선약국","tel":"031-953-7249","addr":"경기도 파주시 문산읍 선유리 943-26번지","category":"약국 - 약국"}]},{"lat":"37.860046723","long":"126.78754211","items":[{"name":"홈인테리어","tel":"031-953-0166","addr":"경기도 파주시 문산읍 선유리 957-6","category":"건축자재 - 인테리어전문"}]}]