[{"lat":"37.215968476","long":"127.07858003","items":[{"name":"(주)마미스케어컴퍼니 동탄제일지점","tel":"02-2652-5007","addr":"경기도 화성시 석우동 42-4번지 5층","category":"보건위생 - 피부미용실"},{"name":"동탄제일어린이집[아이행복]","tel":"031-8015-9910","addr":"경기도 화성시 석우동 42-4번지","category":"학원 - 유아원"},{"name":"동탄제일프리미엄산후조리원","tel":"031-266-3535","addr":"경기도 화성시 석우동 42-4번지 5,6,7층","category":"기타의료기관 - 산후조리원"}]},{"lat":"37.218131442","long":"127.07782733","items":[{"name":"(주)상창","tel":"031-8003-8686","addr":"경기도 화성시 석우동 31-2번지 디지털스테이션 215호","category":"일반휴게음식 - 중국식"},{"name":"(주)시네포엠/한우정","tel":"031-8003-4363","addr":"경기도 화성시 석우동 31-2번지 디지털스테이션 204호","category":"일반휴게음식 - 일반한식"},{"name":"(주)해오름한식","tel":"031-613-0421","addr":"경기도 화성시 석우동 31-2번지 디지털스테이션 209, 210, 211호","category":"일반휴게음식 - 일반한식"},{"name":"경희왕림한의원","tel":"031-613-0449","addr":"경기도 화성시 석우동 31-2번지 디지털스테이션 413호","category":"의원 - 한의원"},{"name":"더맨","tel":"031-613-3839","addr":"경기도 화성시 석우동 31-2번지 디지털스테이션 1층 105호","category":"보건위생 - 미용원"},{"name":"디지털 노래연습장","tel":"031-8003-6535","addr":"경기도 화성시 석우동 31-2번지 디지털스테이션 411호","category":"레저업소 - 노 래 방"},{"name":"디지털스테이션관리단","tel":"031-205-5803","addr":"경기도 화성시 석우동 31-2번지","category":"자동차정비 유지 - 주차장"},{"name":"마뉴 (MANU Studio)","tel":"031-000-0000","addr":"경기도 화성시 석우동 31-2번지 디지털스테이션 7층 702호","category":"광학제품 - 사진관"},{"name":"마조치킨","tel":"031-8003-9294","addr":"경기도 화성시 석우동 31-2번지 디지털스테이션 1층 124~127호","category":"일반휴게음식 - 스넥"},{"name":"문어스토리해천 삼성반도체점","tel":"031-613-6152","addr":"경기도 화성시 석우동 31-2번지 디지털스테이션 112호","category":"일반휴게음식 - 일반한식"},{"name":"미소야","tel":"031-613-6634","addr":"경기도 화성시 석우동 31-2번지 디지털스테이션 1층 124호","category":"일반휴게음식 - 일식·회집"},{"name":"본도시락 동탄반도체점","tel":"031-613-4868","addr":"경기도 화성시 석우동 31-2번지 디지털스테이션 1131호","category":"일반휴게음식 - 일반한식"},{"name":"불닭발땡초동대문엽기떡볶이 석우동지점","tel":"031-613-8594","addr":"경기도 화성시 석우동 31-2번지 디지털스테이션 1층 107호","category":"일반휴게음식 - 일반한식"},{"name":"비어첸 석우점","tel":"031-8058-0007","addr":"경기도 화성시 석우동 31-2번지 디지털스테이션 1층 110,111호","category":"일반휴게음식 - 일반한식"},{"name":"빽다방 동탄석우점","tel":"031-8003-3134","addr":"경기도 화성시 석우동 31-2번지 디지털스테이션 108호","category":"일반휴게음식 - 일반한식"},{"name":"삼성드림치과의원","tel":"031-8003-2838","addr":"경기도 화성시 석우동 31-2번지 디지털스테이션 205호 삼성드림치과의원","category":"의원 - 치과의원"},{"name":"삼성디지털 노래연습장","tel":"031-8003-6535","addr":"경기도 화성시 석우동 31-2번지 디지털스테이션 412호","category":"레저업소 - 노 래 방"},{"name":"삼성할인마트","tel":"031-8015-4825","addr":"경기도 화성시 석우동 31-2번지 102 , 디지털스테이션102호~103호","category":"유통업 영리 - 슈퍼마켓"},{"name":"소문","tel":"031-8003-9024","addr":"경기도 화성시 석우동 31-2번지 119~120호","category":"일반휴게음식 - 일반한식"},{"name":"스타당구클럽","tel":"031-000-0000","addr":"경기도 화성시 석우동 31-2번지 디지털스테이션 4층 415호 416호","category":"레저업소 - 당 구 장"},{"name":"엉클족","tel":"02-1899-1412","addr":"경기도 화성시 석우동 31-2번지 디지털스테이션 118호","category":"일반휴게음식 - 일반한식"},{"name":"엔알디안경","tel":"031-8015-0625","addr":"경기도 화성시 석우동 31-2번지 디지털스테이션 1층 128호","category":"보건위생 - 안경"},{"name":"엘엠아이","tel":"031-8003-9690","addr":"경기도 화성시 석우동 31-2 디지털스테이션409,509,510호","category":"서적문구 - 과학기자재"},{"name":"육담","tel":"031-8003-8892","addr":"경기도 화성시 석우동 31-2번지 디지털스테이션 206동 207호","category":"일반휴게음식 - 일반한식"},{"name":"이삭토스트&커피","tel":"031-8015-1918","addr":"경기도 화성시 석우동 31-2번지 디지털스테이션 114호","category":"일반휴게음식 - 스넥"},{"name":"장수밥상","tel":"031-8003-9618","addr":"경기도 화성시 석우동 31-2번지 디지털스테이션 208호","category":"일반휴게음식 - 일반한식"},{"name":"주식회사 사진관봄날애","tel":"070-8970-4016","addr":"경기도 화성시 석우동 31-2번지 7층 701-1호","category":"광학제품 - 사진관"},{"name":"쥴리","tel":"","addr":"경기도 화성시 석우동 31-2번지 디지털스테이션 1층 113호","category":"기타 - 기타 전문점"},{"name":"쪽찌 석우점","tel":"031-1111-1111","addr":"경기도 화성시 석우동 31-2번지 122,123","category":"일반휴게음식 - 일반한식"},{"name":"청정회수산","tel":"031-8003-8834","addr":"경기도 화성시 석우동 31-2디지털스테이션209호~211호","category":"일반휴게음식 - 일반한식"},{"name":"커피짐마","tel":"031-8003-9099","addr":"경기도 화성시 석우동 31-2 디지털스테이션 119~120","category":"일반휴게음식 - 서양음식"},{"name":"컴포즈","tel":"031-919-3466","addr":"경기도 화성시 석우동 31-2번지 디지털스테이션 109호","category":"일반휴게음식 - 서양음식"},{"name":"토담골","tel":"031-613-6907","addr":"경기도 화성시 석우동 31-2번지 디지털스테이션 2층 201,202호","category":"일반휴게음식 - 일반한식"},{"name":"통큰칼국수칼짜장","tel":"031-613-5260","addr":"경기도 화성시 석우동 31-2번지 디지털스테이션 1층 129호","category":"일반휴게음식 - 일반한식"},{"name":"하늘애","tel":"031-8003-1771","addr":"경기도 화성시 석우동 31-2번지 디지털스테이션 701호","category":"일반휴게음식 - 일반한식"},{"name":"한솥도시락 삼성전자화성캠퍼스점","tel":"031-613-8255","addr":"경기도 화성시 석우동 31-2번지 디지털스테이션 1층 121호","category":"일반휴게음식 - 스넥"},{"name":"합자회사 리치안","tel":"","addr":"경기도 화성시 석우동 31-2번지 디지털스테이션 407호","category":"건축자재 - 부동산 분양"},{"name":"합자회사 리치안","tel":"031-8003-6400","addr":"경기도 화성시 석우동 31-2번지 디지털스테이션 407호","category":"건축자재 - 부동산 분양"},{"name":"황실미샤포톤","tel":"02-1111-1111","addr":"경기도 화성시 석우동 31-2번지 디지털스테이션 6층 602호","category":"보건위생 - 화장품"}]},{"lat":"37.214300856","long":"127.07967117","items":[{"name":"(주)짱죽 동탄점","tel":"031-613-8280","addr":"경기도 화성시 석우동 44번지 화성동탄이마트 2층","category":"일반휴게음식 - 일반한식"},{"name":"스무디킹 이마트동탄점","tel":"031-613-1113","addr":"경기도 화성시 석우동 44번지","category":"일반휴게음식 - 서양음식"},{"name":"포도나무약국","tel":"031-8003-2347","addr":"경기도 화성시 석우동 44번지 B1층","category":"약국 - 약국"},{"name":"황금희 에스테틱하우스","tel":"031-000-0000","addr":"경기도 화성시 석우동 44번지","category":"보건위생 - 피부미용실"}]},{"lat":"37.218491556","long":"127.07830088","items":[{"name":"(주)하늘푸드시스템","tel":"","addr":"경기도 화성시 석우동 32-5번지 115호 114호, 115호","category":"일반휴게음식 - 일반한식"},{"name":"김가네동탄석우동점","tel":"031-613-7655","addr":"경기도 화성시 석우동 32-5번지 세비앙오피스털 110호","category":"일반휴게음식 - 일반한식"},{"name":"깐부치킨","tel":"031-8003-4567","addr":"경기도 화성시 석우동 32-5번지 세비앙오피스텔 105,106호","category":"일반휴게음식 - 스넥"},{"name":"모리","tel":"031-8003-0993","addr":"경기도 화성시 석우동 32-5번지 세비앙오피스텔 204호","category":"일반휴게음식 - 일반한식"},{"name":"생활맥주 동탄점","tel":"031-613-7788","addr":"경기도 화성시 석우동 32-5번지 109호","category":"일반휴게음식 - 일반한식"},{"name":"샤넬","tel":"031-613-5730","addr":"경기도 화성시 석우동 32-5번지 세비앙오피스텔 2층 208호","category":"보건위생 - 미용재료"},{"name":"세븐일레븐동탄한림점","tel":"031-1577-0711","addr":"경기도 화성시 석우동 32-5번지 108호","category":"유통업 영리 - 편 의 점"},{"name":"우산속","tel":"031-8003-9454","addr":"경기도 화성시 석우동 32-5번지 세비앙오피스텔 206호","category":"일반휴게음식 - 주점"},{"name":"우주라이크커피 동탄한림대점","tel":"","addr":"경기도 화성시 석우동 32-5번지 1층 107호","category":"일반휴게음식 - 서양음식"},{"name":"카페코너","tel":"031-223-4423","addr":"경기도 화성시 석우동 32-5번지 1층 112호","category":"일반휴게음식 - 서양음식"},{"name":"햄많은부대찌개(LA)","tel":"","addr":"경기도 화성시 석우동 32-5번지 111호","category":"일반휴게음식 - 일반한식"},{"name":"화성석우점하남돼지","tel":"031-613-7072","addr":"경기도 화성시 석우동 32-5번지 세비앙오피스텔 101호 ,102,103호","category":"일반휴게음식 - 일반한식"},{"name":"화성시니어클럽 노노카페 푸드트럭4호점(동","tel":"031-8059-4349","addr":"경기도 화성시 석우동 32-5번지 동학산근린공원 내","category":"일반휴게음식 - 서양음식"}]},{"lat":"37.22482896","long":"127.07322551","items":[{"name":"1023수제햄부대찌게","tel":"031-8003-3667","addr":"경기도 화성시 석우동 3-1번지 알앤디스테이션 204호","category":"일반휴게음식 - 일반한식"},{"name":"GS25삼성DSR점","tel":"","addr":"경기도 화성시 석우동 3-1번지 RD스테이션 110호","category":"유통업 영리 - 편 의 점"},{"name":"기꾸초밥","tel":"031-613-0356","addr":"경기도 화성시 석우동 3-1번지 206호","category":"일반휴게음식 - 일식·회집"},{"name":"담소사골순대 동탄삼성점","tel":"031-8003-5821","addr":"경기도 화성시 석우동 3-1번지 121호","category":"일반휴게음식 - 일반한식"},{"name":"돈가스랑","tel":"031-613-1365","addr":"경기도 화성시 석우동 3-1번지 알앤디스테이션 113호","category":"일반휴게음식 - 일반한식"},{"name":"불티나김밥","tel":"031-613-2383","addr":"경기도 화성시 석우동 3-1번지 알앤디스테이션 107호","category":"일반휴게음식 - 스넥"},{"name":"시골여행","tel":"031-613-3051","addr":"경기도 화성시 석우동 3-1번지 202호","category":"일반휴게음식 - 일반한식"},{"name":"오피아어학원/주식회사 비와이즈컴퍼니","tel":"031-613-0581","addr":"경기도 화성시 석우동 3-1번지 313호","category":"학원 - 외국어학원"},{"name":"주식회사 새인네이처","tel":"070-4492-3946","addr":"경기도 화성시 석우동 3-1번지 301호","category":"유통업 영리 - 기타유통업"},{"name":"쥴리(Juuli)전자담배","tel":"","addr":"경기도 화성시 석우동 3-1번지 108호","category":"기타 - 기타 전문점"},{"name":"청년다방","tel":"031-8003-0813","addr":"경기도 화성시 석우동 3-1번지 화성동탄알앤디스테이션 207호","category":"일반휴게음식 - 서양음식"},{"name":"카페IMT동탄점","tel":"031-8055-7199","addr":"경기도 화성시 석우동 3-1번지 115호","category":"일반휴게음식 - 서양음식"},{"name":"커피베이동탄IT단지점","tel":"031-8015-5260","addr":"경기도 화성시 석우동 3-1번지 111호","category":"일반휴게음식 - 서양음식"},{"name":"퀴즈노스","tel":"031-8015-0953","addr":"경기도 화성시 석우동 3-1번지","category":"일반휴게음식 - 일반한식"},{"name":"휴PT스튜디오","tel":"031-613-3002","addr":"경기도 화성시 석우동 3-1번지 알앤디스테이션 201호","category":"레저업소 - 헬스클럽"}]},{"lat":"37.217275137","long":"127.07833347","items":[{"name":"333치과의원","tel":"031-8003-3336","addr":"경기도 화성시 석우동 31-6번지 석진파아란오피스텔 201호","category":"의원 - 치과의원"},{"name":"MR.코다리","tel":"031-8003-4411","addr":"경기도 화성시 석우동 31-6번지 115,116호","category":"일반휴게음식 - 일반한식"},{"name":"남도뒷고기","tel":"031-111-1111","addr":"경기도 화성시 석우동 31-6번지 석진파아란오피스텔 1층 103,103-1호","category":"일반휴게음식 - 일반한식"},{"name":"대성식당","tel":"031-613-4790","addr":"경기도 화성시 석우동 31-6번지 석진파아란오피스텔 107호","category":"일반휴게음식 - 일반한식"},{"name":"도토리 밥상","tel":"031-8003-4642","addr":"경기도 화성시 석우동 31-6번지 석진파아란오피스텔 1층 105호","category":"일반휴게음식 - 일반한식"},{"name":"메가엠지씨커피 동탄한림대병원점","tel":"070-1111-1111","addr":"경기도 화성시 석우동 31-6번지 석진 파아란,오피스텔 1층 104호 석우동","category":"일반휴게음식 - 서양음식"},{"name":"본죽 동탄한림대병원점","tel":"031-8003-6288","addr":"경기도 화성시 석우동 31-6번지 석진파아란오피스텔 1층 114호","category":"일반휴게음식 - 일반한식"},{"name":"석우당구클럽","tel":"031-613-5422","addr":"경기도 화성시 석우동 31-6번지 석진파아란오피스텔 204호","category":"레저업소 - 당 구 장"},{"name":"제노헤어","tel":"031-613-7794","addr":"경기도 화성시 석우동 31-6번지 석진파아란오피스텔 1층 101호","category":"보건위생 - 미용원"},{"name":"퍼주마 찌개백반","tel":"031-8003-0665","addr":"경기도 화성시 석우동 31-6번지 석진파아란오피스텔 1층 117호","category":"일반휴게음식 - 일반한식"},{"name":"해강상사","tel":"","addr":"경기도 화성시 석우동 31-6번지 석진파아란오피스텔 102호","category":"신변잡화 - 기타잡화"}]},{"lat":"37.217824358","long":"127.07897621","items":[{"name":"3일 소고기국밥","tel":"031-8077-9931","addr":"경기도 화성시 석우동 34-5번지 1층 108,109호","category":"일반휴게음식 - 일반한식"},{"name":"건우네 한식뷰페1","tel":"031-8003-0047","addr":"경기도 화성시 석우동 34-5번지 펠리스타 110호 석우동","category":"일반휴게음식 - 일반한식"},{"name":"건우네 한식뷰페2","tel":"031-8003-0047","addr":"경기도 화성시 석우동 34-5번지 펠리스타 113호","category":"일반휴게음식 - 일반한식"},{"name":"고니네제주오겹살","tel":"031-613-8832","addr":"경기도 화성시 석우동 34-5번지 펠리스타 105호","category":"일반휴게음식 - 일반한식"},{"name":"까치빈대떡","tel":"031-8003-7232","addr":"경기도 화성시 석우동 34-5번지 104호 펠리스타","category":"일반휴게음식 - 일반한식"},{"name":"낙지마당","tel":"031-613-2808","addr":"경기도 화성시 석우동 34-5번지 펠리스타 103호","category":"일반휴게음식 - 일반한식"},{"name":"명품스시앤참치","tel":"031-613-1012","addr":"경기도 화성시 석우동 34-5번지 118호,119호","category":"일반휴게음식 - 일식·회집"},{"name":"오뚝국밥","tel":"","addr":"경기도 화성시 석우동 34-5번지 펠리스타 1층 126호","category":"일반휴게음식 - 일반한식"},{"name":"오뚝포차","tel":"031-8766-8691","addr":"경기도 화성시 석우동 34-5번지 펠리스타 128호","category":"일반휴게음식 - 주점"},{"name":"왕꼼장어닭발","tel":"031-8009-2929","addr":"경기도 화성시 석우동 34-5번지 펠리스타 120호","category":"일반휴게음식 - 일반한식"},{"name":"우장창창","tel":"031-8015-2973","addr":"경기도 화성시 석우동 34-5번지 펠리스타129,129-1 석우동","category":"일반휴게음식 - 일반한식"},{"name":"일산칼국수닭면정","tel":"031-8015-3121","addr":"경기도 화성시 석우동 34-5번지 127호 펠리스타","category":"일반휴게음식 - 일반한식"},{"name":"치어스(석우점)","tel":"031-8015-0140","addr":"경기도 화성시 석우동 34-5번지 106-107호 펠리스타","category":"일반휴게음식 - 주점"},{"name":"한곱창","tel":"031-000-0000","addr":"경기도 화성시 석우동 34-5번지 펠리스타 116호, 117호","category":"일반휴게음식 - 일반한식"}]},{"lat":"37.217328737","long":"127.07905458","items":[{"name":"A.POP PC방","tel":"070-6312-8300","addr":"경기도 화성시 석우동 36-1번지 동탄삼성쉐르빌 지하 01호","category":"레저업소 - 기타레져업소"},{"name":"Coffee.1&더블샷","tel":"070-7723-7776","addr":"경기도 화성시 석우동 36-1번지 동탄삼성쉐르빌 101동 102호","category":"일반휴게음식 - 일반한식"},{"name":"가문의족발","tel":"031-613-1087","addr":"경기도 화성시 석우동 36-1번지 동탄삼성쉐르빌 120호","category":"일반휴게음식 - 일반한식"},{"name":"남대문안경","tel":"031-8003-5567","addr":"경기도 화성시 석우동 36-1번지 동탄삼성쉐르빌 113호","category":"보건위생 - 안경"},{"name":"동탄삼성쉐르빌관리단대표회의","tel":"","addr":"경기도 화성시 석우동 36-1번지 동탄삼성쉐르빌","category":"자동차정비 유지 - 주차장"},{"name":"동탄지성의료지","tel":"031-8003-8496","addr":"경기도 화성시 석우동 36-1번지 동탄삼성쉐르빌 102호","category":"보건위생 - 의료용품"},{"name":"라미","tel":"031-8003-2353","addr":"경기도 화성시 석우동 36-1번지 동탄삼성쉐르빌 133호","category":"일반휴게음식 - 주점"},{"name":"맘스케어","tel":"031-891-4798","addr":"경기도 화성시 석우동 36-1번지","category":"회원제형태 - 기타1"},{"name":"미소김밥","tel":"031-613-0071","addr":"경기도 화성시 석우동 36-1번지 동탄삼성쉐르빌 106호","category":"일반휴게음식 - 스넥"},{"name":"보돌미역 동탄1신도시점","tel":"031-8003-7768","addr":"경기도 화성시 석우동 36-1번지 동탄 삼성쉐르빌 103호,104호","category":"일반휴게음식 - 일반한식"},{"name":"북촌손만두 동탄한림대학병원점","tel":"031-8003-2288","addr":"경기도 화성시 석우동 36-1번지 동탄삼성쉐르빌 122동 124호","category":"일반휴게음식 - 일반한식"},{"name":"브라더한정식도시락 동탄점","tel":"","addr":"경기도 화성시 석우동 36-1번지 동탄삼성쉐르빌 121호","category":"일반휴게음식 - 일반한식"},{"name":"아이지에이 한림대병원점","tel":"031-8003-4521","addr":"경기도 화성시 석우동 36-1번지 동탄삼성쉐르빌36-2 석우동","category":"유통업 영리 - 슈퍼마켓"},{"name":"양파식당","tel":"031-613-2160","addr":"경기도 화성시 석우동 36-1번지 동탄삼성쉐르빌 125,126호","category":"일반휴게음식 - 일반한식"},{"name":"주식회사모노(Mono Co.Ltd)","tel":"031-613-0755","addr":"경기도 화성시 석우동 36-1번지 동탄삼성쉐르빌 914호","category":"용역 서비스 - 종합용역"},{"name":"탐앤탐스 동탄한림대성심병원점","tel":"031-613-7710","addr":"경기도 화성시 석우동 36-1번지 동탄삼성쉐르빌 117,118","category":"일반휴게음식 - 서양음식"},{"name":"한림의료기","tel":"031-8003-8496","addr":"경기도 화성시 석우동 36-1번지 동탄삼성쉐르빌 114호","category":"보건위생 - 의료용품"}]},{"lat":"37.223079717","long":"127.07527454","items":[{"name":"CRAZY GOLF(크레이지골프)","tel":"031-237-7111","addr":"경기도 화성시 석우동 16-4번지","category":"레져용품 - 골프용품 전문점"}]},{"lat":"37.218104018","long":"127.07844696","items":[{"name":"GALAXY노래연습장1","tel":"031-8003-4058","addr":"경기도 화성시 석우동 34-7번지 동탄엘리시아 상가 201호","category":"레저업소 - 노 래 방"},{"name":"더진국동탄석우점","tel":"031-613-9881","addr":"경기도 화성시 석우동 34-7번지 동탄엘리시아 103호","category":"일반휴게음식 - 일반한식"},{"name":"옹고집","tel":"031-613-4528","addr":"경기도 화성시 석우동 34-7번지 동탄엘리시아 101호","category":"일반휴게음식 - 일반한식"},{"name":"착한소곱창","tel":"","addr":"경기도 화성시 석우동 34-7번지 102호","category":"일반휴게음식 - 일반한식"}]},{"lat":"37.223854572","long":"127.07533162","items":[{"name":"GS25동탄IT점","tel":"02-2006-2485","addr":"경기도 화성시 석우동 13-7번지","category":"유통업 영리 - 편 의 점"}]},{"lat":"37.209742271","long":"127.0786414","items":[{"name":"GS25동탄대우점","tel":"02-2006-2485","addr":"경기도 화성시 석우동 49 동탄예당마을푸르지오@104호","category":"유통업 영리 - 편 의 점"},{"name":"대우세탁","tel":"031-613-3747","addr":"경기도 화성시 석우동 49 대우푸르지오상가102호","category":"수리서비스 - 세탁소"}]},{"lat":"37.218130244","long":"127.07969758","items":[{"name":"GS25동탄블루체점","tel":"","addr":"경기도 화성시 석우동 33-2번지 석진블루체오피스텔 101호","category":"유통업 영리 - 편 의 점"},{"name":"근일산업","tel":"","addr":"경기도 화성시 석우동 33-2번지 404호","category":"용역 서비스 - 기타용역서비스"},{"name":"남경꾼닭 호프","tel":"031-8003-6235","addr":"경기도 화성시 석우동 33-2번지 106호 107호","category":"일반휴게음식 - 주점"},{"name":"막창먹고 살찐아빠(피그파파)","tel":"070-8286-3700","addr":"경기도 화성시 석우동 33-2번지 석진블루체오피스텔 102호","category":"일반휴게음식 - 일반한식"},{"name":"산앤들","tel":"031-8003-5744","addr":"경기도 화성시 석우동 33-2번지 석진블루체오피스텔 104호","category":"일반휴게음식 - 일반한식"}]},{"lat":"37.216580287","long":"127.0799664","items":[{"name":"GS25동탄성심병원점","tel":"","addr":"경기도 화성시 석우동 40번지 B1층","category":"유통업 영리 - 편 의 점"},{"name":"마시야","tel":"031-8086-2967","addr":"경기도 화성시 석우동 40번지 한림대학교동탄성심병원 지하1층","category":"일반휴게음식 - 일반한식"},{"name":"반만말자","tel":"031-000-0000","addr":"경기도 화성시 석우동 40번지 한림대학교동탄성심병원 지하1층","category":"일반휴게음식 - 일반한식"},{"name":"서브마린","tel":"031-8086-2968","addr":"경기도 화성시 석우동 40번지 한림대학교동탄성심병원 지하1층","category":"일반휴게음식 - 서양음식"},{"name":"화성시니어클럽 노노카페 (동탄한림대병원","tel":"031-8059-4349","addr":"경기도 화성시 석우동 40번지 2층","category":"일반휴게음식 - 서양음식"}]},{"lat":"37.208221348","long":"127.07572222","items":[{"name":"GS25동탄예당점","tel":"","addr":"경기도 화성시 석우동 56번지 상가동 101, 102호","category":"유통업 영리 - 편 의 점"},{"name":"농민장터","tel":"031-8003-5052","addr":"경기도 화성시 석우동 56 신일유토빌상가101~106호","category":"유통업 영리 - 슈퍼마켓"},{"name":"뚜레쥬르 동탄예당마을(2)","tel":"031-8003-6582","addr":"경기도 화성시 석우동 56번지 단지상가 108호~109호","category":"음료식품 - 제과점"},{"name":"루시헤어 진","tel":"031-8003-7981","addr":"경기도 화성시 석우동 56번지 동탄예당마을신일유토빌 204,205호","category":"보건위생 - 미용원"},{"name":"신일유토빌입주자대표회의","tel":"031-8003-2201","addr":"경기도 화성시 석우동 56번지 동탄예당마을신일유토빌","category":"레저업소 - 헬스클럽"},{"name":"씨더기타교습소","tel":"031-8015-0189","addr":"경기도 화성시 석우동 56 동탄예당마을신일유토빌206","category":"회원제형태 - 학원"},{"name":"원색미술","tel":"031-613-9279","addr":"경기도 화성시 석우동 56동탄예당마을신일유토빌상가207호","category":"학원 - 예·체능계학원"},{"name":"유정어린이집","tel":"031-613-3833","addr":"경기도 화성시 석우동 56 신일유토빌관리동","category":"학원 - 유아원"},{"name":"유정어린이집[아이행복]","tel":"031-613-3833","addr":"경기도 화성시 석우동 56 신일유토빌관리동","category":"학원 - 유아원"}]},{"lat":"37.215914089","long":"127.07908696","items":[{"name":"GS25화성그루터기점","tel":"","addr":"경기도 화성시 석우동 41-5번지 1층 101-1호","category":"유통업 영리 - 편 의 점"},{"name":"동탄성심산후조리원","tel":"031-8015-9999","addr":"경기도 화성시 석우동 41-5번지 동탄성심프라자5,6,7층 석우동","category":"기타의료기관 - 산후조리원"},{"name":"동화안전기술원(주)","tel":"031-647-0705","addr":"경기도 화성시 석우동 41-5번지 동탄성심프라자4층 401-404,409-410호 석우동","category":"학원 - 기타 교육기관"},{"name":"동화안전기술원(주)","tel":"031-613-7973","addr":"경기도 화성시 석우동 41-5번지 동탄성심프라자4층 401-404,409-410호","category":"회원제형태 - 학원"},{"name":"동화안전기술원(주)","tel":"041-549-6701","addr":"경기도 화성시 석우동 41-5번지 4층 401-404호 409-410","category":"회원제형태 - 학원"},{"name":"성심티엠","tel":"031-613-2071","addr":"경기도 화성시 석우동 41-5번지 성심프라자 108-1호","category":"보건위생 - 의료용품"},{"name":"성심프라자약국","tel":"031-8015-5464","addr":"경기도 화성시 석우동 41-5번지 1층 108호","category":"약국 - 약국"},{"name":"주식회사더끌레르","tel":"031-8015-5664","addr":"경기도 화성시 석우동 41-5번지 성심프라자309호~310호 309호 석우동","category":"보건위생 - 화장품"},{"name":"죽이야기(동탄한림대점)","tel":"031-613-1010","addr":"경기도 화성시 석우동 41-5번지 성심프라자 102호","category":"일반휴게음식 - 일반한식"},{"name":"포아라","tel":"031-613-8042","addr":"경기도 화성시 석우동 41-5번지 성심프라자 203,204호","category":"일반휴게음식 - 일반한식"}]},{"lat":"37.218662487","long":"127.07871792","items":[{"name":"GS25화성석우점","tel":"","addr":"경기도 화성시 석우동 32-4번지 프리언스오피스텔 112호","category":"유통업 영리 - 편 의 점"},{"name":"동탄김치찌개","tel":"","addr":"경기도 화성시 석우동 32-4번지 프리언스오피스텔 116호 115호,116호","category":"일반휴게음식 - 일반한식"},{"name":"명품바디케어","tel":"031-8003-0230","addr":"경기도 화성시 석우동 32-4번지 프리언스오피스텔 상가 208호","category":"레저업소 - 헬스클럽"},{"name":"미소분식","tel":"031-000-0000","addr":"경기도 화성시 석우동 32-4번지 1층 108,109호","category":"일반휴게음식 - 일반한식"},{"name":"예당골순대국","tel":"031-8003-1216","addr":"경기도 화성시 석우동 32-4번지 1층 113,114호","category":"일반휴게음식 - 일반한식"},{"name":"옛날장터한식부페","tel":"031-8003-6251","addr":"경기도 화성시 석우동 32-4번지 프리언스오피스텔 1층 101-104호","category":"일반휴게음식 - 일반한식"},{"name":"전주남문토종피순대","tel":"031-8003-8899","addr":"경기도 화성시 석우동 32-4번지 프리언스오피스텔 105호","category":"일반휴게음식 - 일반한식"},{"name":"프리언스","tel":"031-613-1409","addr":"경기도 화성시 석우동 32-4번지 프리언스오피스텔 106호","category":"수리서비스 - 세탁소"},{"name":"하꼬야동탄삼성전자로점","tel":"031-8003-8385","addr":"경기도 화성시 석우동 32-4번지 프리언스오피스텔 110호 , 111호 상가","category":"일반휴게음식 - 일식·회집"},{"name":"한상가득","tel":"031-8003-6951","addr":"경기도 화성시 석우동 32-4번지 프리언스오피스텔 110,111호","category":"일반휴게음식 - 일반한식"}]},{"lat":"37.218436728","long":"127.07949509","items":[{"name":"dal.komm COFFEE(달콤커피)동탄석우점","tel":"070-5056-2800","addr":"경기도 화성시 석우동 33-1번지 동탄우미쁘띠린오피스텔 1층 111,112,113호","category":"일반휴게음식 - 서양음식"},{"name":"바로튀김 생생맥주 즐거운연가 석우","tel":"031-8015-0252","addr":"경기도 화성시 석우동 33-1번지 동탄우미쁘띠린오피스텔 107호","category":"일반휴게음식 - 스넥"},{"name":"이가네양갈비양꼬치","tel":"031-613-8668","addr":"경기도 화성시 석우동 33-1번지 동탄우미쁘띠린 1층 101호, 102호","category":"일반휴게음식 - 일반한식"},{"name":"찬누리식당","tel":"031-613-5401","addr":"경기도 화성시 석우동 33-1번지 동탄우미쁘띠린오피스텔 103,104,105,106호","category":"일반휴게음식 - 일반한식"},{"name":"한창돈마루","tel":"031-8015-5988","addr":"경기도 화성시 석우동 33-1번지 동탄우미쁘디린오피스텔 1층 104-106호","category":"일반휴게음식 - 일반한식"}]},{"lat":"37.22424212","long":"127.07516298","items":[{"name":"가미래감자탕","tel":"031-8003-3314","addr":"경기도 화성시 석우동 13-1번지 1층","category":"일반휴게음식 - 일반한식"}]},{"lat":"37.224746782","long":"127.07502825","items":[{"name":"가온트레이드","tel":"070-4922-1261","addr":"경기도 화성시 석우동 9-6번지 지하1층","category":"레져용품 - 스포츠·레져용품"},{"name":"성동관","tel":"031-376-7739","addr":"경기도 화성시 석우동 9-6번지","category":"일반휴게음식 - 일반한식"}]},{"lat":"37.224602348","long":"127.07546754","items":[{"name":"강릉교동짬뽕","tel":"031-8003-7720","addr":"경기도 화성시 석우동 10-1번지","category":"일반휴게음식 - 중국식"}]},{"lat":"37.222854216","long":"127.07566868","items":[{"name":"겟썸비어","tel":"031-111-1111","addr":"경기도 화성시 석우동 12-19번지 101호","category":"일반휴게음식 - 일반한식"}]},{"lat":"37.225297844","long":"127.07264003","items":[{"name":"고니네제주오겹살","tel":"031-613-0292","addr":"경기도 화성시 석우동 1-9번지 127,128호","category":"일반휴게음식 - 일반한식"},{"name":"고담","tel":"031-8003-4474","addr":"경기도 화성시 석우동 1-9번지 109-2호","category":"일반휴게음식 - 일반한식"},{"name":"골프존파크화성","tel":"031-8015-3838","addr":"경기도 화성시 석우동 1-9번지 한화캐슬동탄 10층 1007호-1013호","category":"레저업소 - 스크린골프"},{"name":"나무가들려주는이야기","tel":"031-8003-3016","addr":"경기도 화성시 석우동 1-9번지 132호","category":"일반휴게음식 - 서양음식"},{"name":"돈까스 리","tel":"031-613-8249","addr":"경기도 화성시 석우동 1-9번지 원희캐슬동탄 3층 309호","category":"일반휴게음식 - 일반한식"},{"name":"라스타 동탄IT","tel":"070-8862-3210","addr":"경기도 화성시 석우동 1-9번지 원희캐슬동탄 117호","category":"일반휴게음식 - 일반한식"},{"name":"리즈중국어학원","tel":"070-8880-4055","addr":"경기도 화성시 석우동 1-9번지 805호","category":"학원 - 외국어학원"},{"name":"맥주생각","tel":"031-613-0867","addr":"경기도 화성시 석우동 1-9번지 지하1층 B117,B118호","category":"일반휴게음식 - 주점"},{"name":"모두의부대찌개","tel":"031-8003-3689","addr":"경기도 화성시 석우동 1-9번지 13층 120호","category":"일반휴게음식 - 일반한식"},{"name":"미당","tel":"031-613-3265","addr":"경기도 화성시 석우동 1-9번지 119호","category":"일반휴게음식 - 서양음식"},{"name":"미스터베이글","tel":"","addr":"경기도 화성시 석우동 1-9번지 원희캐슬동탄 2층 205호","category":"일반휴게음식 - 서양음식"},{"name":"뱅카워시","tel":"031-8003-8137","addr":"경기도 화성시 석우동 1-9번지 원희캐슬동탄 지하 201호","category":"자동차정비 유지 - 세차장"},{"name":"산쪼메","tel":"070-8816-8188","addr":"경기도 화성시 석우동 1-9번지 222호","category":"일반휴게음식 - 일식·회집"},{"name":"수성궁곰탕","tel":"031-613-9458","addr":"경기도 화성시 석우동 1-9번지 215호","category":"일반휴게음식 - 일반한식"},{"name":"순남시래기 동탄IT점","tel":"031-8003-9595","addr":"경기도 화성시 석우동 1-9번지 201 ,202호","category":"일반휴게음식 - 일반한식"},{"name":"시원","tel":"070-8804-8089","addr":"경기도 화성시 석우동 1-9번지 연희캐슬동탄 501호","category":"보건위생 - 미용재료"},{"name":"신의주찹살순대동탄점","tel":"070-4107-0501","addr":"경기도 화성시 석우동 1-9번지 B112 B113호","category":"일반휴게음식 - 일반한식"},{"name":"썸노래연습장","tel":"031-613-1082","addr":"경기도 화성시 석우동 1-9번지 504,505호","category":"레저업소 - 노 래 방"},{"name":"씨유동탄캐슬점","tel":"031-613-7211","addr":"경기도 화성시 석우동 1-9번지 원희캐슬삼성 1층 101호","category":"유통업 영리 - 편 의 점"},{"name":"아르누보뷰티살롱","tel":"031-8015-5801","addr":"경기도 화성시 석우동 1-9번지 113호","category":"보건위생 - 미용원"},{"name":"아이소잉","tel":"","addr":"경기도 화성시 석우동 1-9번지 원희캐슬동탄 407호","category":"문화.취미 - 문화취미기타"},{"name":"알천 닭갈비","tel":"031-613-6029","addr":"경기도 화성시 석우동 1-9번지 221호","category":"일반휴게음식 - 일반한식"},{"name":"연부약선면가","tel":"031-613-8625","addr":"경기도 화성시 석우동 1-9번지 215호","category":"일반휴게음식 - 일식·회집"},{"name":"오성S&D(공시엔승 동탄점)","tel":"031-613-1266","addr":"경기도 화성시 석우동 1-9번지 310호 ,311호","category":"일반휴게음식 - 중국식"},{"name":"온더그릴","tel":"031-613-2930","addr":"경기도 화성시 석우동 1-9번지 원희캐슬동탄 지하1층 B116호","category":"일반휴게음식 - 일반한식"},{"name":"와바탭하우스 동탄IT단지점","tel":"031-8015-5822","addr":"경기도 화성시 석우동 1-9번지 302호 301호,302호","category":"일반휴게음식 - 주점"},{"name":"와이파이(Whypie)","tel":"031-613-3911","addr":"경기도 화성시 석우동 1-9번지 107호","category":"일반휴게음식 - 서양음식"},{"name":"유화","tel":"070-5022-4846","addr":"경기도 화성시 석우동 1-9번지 130호","category":"일반휴게음식 - 일식·회집"},{"name":"이스트동탄","tel":"","addr":"경기도 화성시 석우동 1-9번지 지하1층 B111호","category":"일반휴게음식 - 서양음식"},{"name":"일인자감자탕뼈해장국","tel":"031-613-1886","addr":"경기도 화성시 석우동 1-9번지 216호","category":"일반휴게음식 - 일반한식"},{"name":"일품양평해장국 화성IT점","tel":"031-8015-1708","addr":"경기도 화성시 석우동 1-9번지 지하1층 B119호","category":"일반휴게음식 - 일반한식"},{"name":"조앤최서울치과","tel":"031-613-4005","addr":"경기도 화성시 석우동 1-9번지 401-404호","category":"의원 - 치과의원"},{"name":"집밥","tel":"031-8003-0307","addr":"경기도 화성시 석우동 1-9번지 원희캐슬동탄 B107호","category":"일반휴게음식 - 일반한식"},{"name":"캐슬빌리아드","tel":"031-8003-5424","addr":"경기도 화성시 석우동 1-9번지 510호 507 508 509","category":"레저업소 - 당 구 장"},{"name":"커피맨의커피박스 (동탄점)","tel":"031-892-1580","addr":"경기도 화성시 석우동 1-9번지 B1층 111호","category":"일반휴게음식 - 서양음식"},{"name":"커피엠박스 동탄본점","tel":"031-8015-5231","addr":"경기도 화성시 석우동 1-9번지 2층 223호 일부","category":"일반휴게음식 - 서양음식"},{"name":"커피코트 동탄삼성DSR점","tel":"031-613-4723","addr":"경기도 화성시 석우동 1-9번지 원희캐슬동탄 1층 118호","category":"일반휴게음식 - 서양음식"},{"name":"토리부대찌개","tel":"031-111-1111","addr":"경기도 화성시 석우동 1-9번지 원희캐슬동탄 1층 112호","category":"일반휴게음식 - 일반한식"},{"name":"투비단어학원/주식회사 투비단","tel":"031-000-0000","addr":"경기도 화성시 석우동 1-9번지 원희캐슬동탄 605호, 606호","category":"학원 - 외국어학원"},{"name":"파스쿠찌 삼성dsr","tel":"031-613-9377","addr":"경기도 화성시 석우동 1-9번지 원희캐슬 103,104호","category":"일반휴게음식 - 서양음식"},{"name":"한스 피지컬 랩","tel":"031-613-3642","addr":"경기도 화성시 석우동 1-9번지 원희캐슬동탄 517호518호","category":"레저업소 - 헬스클럽"},{"name":"한식부페 다온","tel":"02-1111-1111","addr":"경기도 화성시 석우동 1-9번지 101호 102호","category":"일반휴게음식 - 일반한식"},{"name":"해천죽 (전문점)","tel":"031-6202-4489","addr":"경기도 화성시 석우동 1-9번지 129호","category":"일반휴게음식 - 일반한식"}]},{"lat":"37.225494662","long":"127.07499516","items":[{"name":"관악장","tel":"031-376-3761","addr":"경기도 화성시 석우동 8-2번지 1층","category":"일반휴게음식 - 일반한식"}]},{"lat":"37.222412799","long":"127.07552178","items":[{"name":"김가네왕족발","tel":"031-613-1235","addr":"경기도 화성시 석우동 16-10번지","category":"일반휴게음식 - 일반한식"}]},{"lat":"37.221935704","long":"127.07477769","items":[{"name":"김밥천국","tel":"031-613-5007","addr":"경기도 화성시 석우동 18-4번지 124호","category":"일반휴게음식 - 일반한식"},{"name":"밥&분식","tel":"","addr":"경기도 화성시 석우동 18-4번지 삼성디오네오피스텔 1층 116호","category":"일반휴게음식 - 일반한식"},{"name":"성자네흑돼지소금구이","tel":"031-364-8052","addr":"경기도 화성시 석우동 18-4번지 104호 105 디오네오피스텔상가","category":"일반휴게음식 - 일반한식"},{"name":"엄마손밥상","tel":"031-0000-0000","addr":"경기도 화성시 석우동 18-4번지 121-123호","category":"일반휴게음식 - 일반한식"},{"name":"오븐과치킨","tel":"031-8015-1811","addr":"경기도 화성시 석우동 18-4번지 삼성디오네상가 106-108","category":"일반휴게음식 - 스넥"},{"name":"인카페 (in cafe)","tel":"031-613-7269","addr":"경기도 화성시 석우동 18-4번지 119호","category":"일반휴게음식 - 일반한식"},{"name":"카페인사이드","tel":"031-613-6337","addr":"경기도 화성시 석우동 18-4번지 외1필지 동탄삼성디오네오피스텔주건축물 1동 109호 석우동","category":"일반휴게음식 - 서양음식"},{"name":"카피친구","tel":"031-613-0755","addr":"경기도 화성시 석우동 18-4번지 114호","category":"용역 서비스 - 사무서비스"},{"name":"토부리순대국","tel":"031-405-4404","addr":"경기도 화성시 석우동 18-4번지","category":"일반휴게음식 - 일반한식"},{"name":"풍미","tel":"031-613-6788","addr":"경기도 화성시 석우동 18-4번지 1층 110-113호","category":"일반휴게음식 - 중국식"}]},{"lat":"37.217689735","long":"127.07814235","items":[{"name":"까루돈까스전문점","tel":"031-246-7000","addr":"경기도 화성시 석우동 31-3번지 이너매스플래티늄 106호","category":"일반휴게음식 - 서양음식"},{"name":"더골드","tel":"031-8003-0598","addr":"경기도 화성시 석우동 31-3번지 2층 202호","category":"보건위생 - 미용재료"},{"name":"두레밥상","tel":"031-613-7180","addr":"경기도 화성시 석우동 31-3번지 이너매스플래티늄201호,202호일부","category":"일반휴게음식 - 일반한식"},{"name":"미쿠사가","tel":"031-8003-8948","addr":"경기도 화성시 석우동 31-3번지 이너매스플래티늄 107호","category":"일반휴게음식 - 스넥"},{"name":"백채김치찌개","tel":"","addr":"경기도 화성시 석우동 31-3번지 1층 108호","category":"일반휴게음식 - 일반한식"},{"name":"봉이치킨 동탄점","tel":"031-613-8111","addr":"경기도 화성시 석우동 31-3번지 113호","category":"일반휴게음식 - 스넥"},{"name":"세븐일레븐동탄석우점","tel":"","addr":"경기도 화성시 석우동 이너매스플래티늄오피스텔 107호","category":"유통업 영리 - 편 의 점"},{"name":"어죽선생","tel":"070-4191-1021","addr":"경기도 화성시 석우동 31-3번지 104호","category":"일반휴게음식 - 일반한식"},{"name":"엄지검지","tel":"070-4406-6688","addr":"경기도 화성시 석우동 31-3번지 109호","category":"일반휴게음식 - 일반한식"},{"name":"연자","tel":"031-8003-0063","addr":"경기도 화성시 석우동 31-3번지 2층 208-209호","category":"일반휴게음식 - 일반한식"},{"name":"이도비어 삼성반도체점","tel":"031-613-2076","addr":"경기도 화성시 석우동 31-3번지 이너매스플래티늄 111호","category":"일반휴게음식 - 주점"},{"name":"주식회사 엄지검지","tel":"031-613-4556","addr":"경기도 화성시 석우동 31-3번지 이너매스플래티늄 204호,205호","category":"일반휴게음식 - 일반한식"},{"name":"주식회사 위셀코리아","tel":"","addr":"경기도 화성시 석우동 31-3번지 이너매스플래티늄 412호","category":"음료식품 - 기타음료식품"},{"name":"카페인사이드 Cafe Inside","tel":"031-663-0447","addr":"경기도 화성시 석우동 31-3번지 110호","category":"일반휴게음식 - 서양음식"}]},{"lat":"37.21615773","long":"127.07852389","items":[{"name":"꽃담","tel":"","addr":"경기도 화성시 석우동 42-3번지 1층","category":"의류 - 정장"},{"name":"똑소리문화센타","tel":"031-8015-9906","addr":"경기도 화성시 석우동 42-3번지 지하1층문화센타 석우동","category":"문화.취미 - 문화취미기타"}]},{"lat":"37.223575196","long":"127.07542149","items":[{"name":"남도장독대","tel":"031-8003-3787","addr":"경기도 화성시 석우동 12-1번지 1층상가","category":"일반휴게음식 - 일반한식"}]},{"lat":"37.212193955","long":"127.0772807","items":[{"name":"넥스트정보통신","tel":"031-374-3011","addr":"경기도 화성시 석우동 53번지 동탄예당마을우미린제일풍경채","category":"사무통신 - 통신기기"},{"name":"띠엠뽀(카페시간)","tel":"","addr":"경기도 화성시 석우동 53번지 동탄예당마을우미린제일풍경채 상가동 지1층 101일부호","category":"일반휴게음식 - 서양음식"},{"name":"리듬음악학원","tel":"031-8003-5670","addr":"경기도 화성시 석우동 53번지 동탄예담마을우미린제일풍경채 상가동 110호","category":"학원 - 예·체능계학원"},{"name":"마틸다헤어","tel":"031-8015-3338","addr":"경기도 화성시 석우동 53번지 예당마을우미린제일풍경채 상가동 204호","category":"보건위생 - 미용원"},{"name":"민컬헤어리치","tel":"031-8058-3383","addr":"경기도 화성시 석우동 53동탄예당마을우미린제일풍경채상가동204","category":"보건위생 - 미용원"},{"name":"봄아트미술교습소","tel":"031-613-6515","addr":"경기도 화성시 석우동 53번지 동탄예당마을우미린제일풍경채 상가동 205호","category":"학원 - 예·체능계학원"},{"name":"쏭~쓰(S)치킨","tel":"031-8003-7011","addr":"경기도 화성시 석우동 53번지 동탄예당마을우미린제일풍경채 상가동 108호","category":"일반휴게음식 - 일반한식"},{"name":"씨유동탄우미린점","tel":"070-4250-2321","addr":"경기도 화성시 석우동 53번지 동탄 예당마을 우미린제일풍경채 상가동 1층 201호 석우동","category":"유통업 영리 - 편 의 점"},{"name":"어썸디자인(AWESOME DESIGN)","tel":"","addr":"경기도 화성시 석우동 53번지 단지 상가 105호","category":"건축자재 - 인테리어전문"},{"name":"예그린미술교습소","tel":"031-613-3644","addr":"경기도 화성시 석우동 53번지 예당마을우미린제일풍경채 상가동 2층 202","category":"학원 - 예·체능계학원"},{"name":"예당해법영어수학학원","tel":"031-8003-8324","addr":"경기도 화성시 석우동 53번지 예당마을우미린제일풍경채 상가 1층 109호","category":"회원제형태 - 학원"},{"name":"용인대예당태권도","tel":"031-8003-3223","addr":"경기도 화성시 석우동 53번지 예당마을우미린제일풍경채 상가 207호","category":"학원 - 예·체능계학원"},{"name":"크린토피아 동탄예당우미린점","tel":"031-8003-3393","addr":"경기도 화성시 석우동 53번지 동탄예당마을우미린제일풍경채 상가동 203호","category":"수리서비스 - 세탁소"}]},{"lat":"37.21632866","long":"127.07894091","items":[{"name":"놀부부대찌개동탄한림대병원점","tel":"031-8015-2585","addr":"경기도 화성시 석우동 41-3번지 201호","category":"일반휴게음식 - 일반한식"},{"name":"아가방 동탄제일점","tel":"031-8015-5104","addr":"경기도 화성시 석우동 41-3번지 성심제일프라자 1층 102호","category":"의류 - 아동의류"}]},{"lat":"37.215328524","long":"127.07891737","items":[{"name":"다원통신","tel":"031-8015-5116","addr":"경기도 화성시 석우동 43번지 새정인디안타워 206호","category":"사무통신 - 통신기기"},{"name":"주식회사원시스템컴퍼니","tel":"070-4655-1305","addr":"경기도 화성시 석우동 43번지 새정인디안타워 206호","category":"용역 서비스 - 종합용역"}]},{"lat":"37.216743209","long":"127.07882866","items":[{"name":"대풍약국","tel":"031-8015-5511","addr":"경기도 화성시 석우동 41-1번지 102호","category":"약국 - 약국"},{"name":"라팡파스텔(동탄점)","tel":"031-8003-3178","addr":"경기도 화성시 석우동 41-1번지 5층,6층","category":"광학제품 - 사진관"},{"name":"라피네헤어","tel":"031-8003-4483","addr":"경기도 화성시 석우동 41-1번지 204호","category":"보건위생 - 미용원"},{"name":"사계절","tel":"","addr":"경기도 화성시 석우동 41-1번지 202호","category":"일반휴게음식 - 서양음식"},{"name":"씨유화성동탄한림점","tel":"031-8003-6658","addr":"경기도 화성시 석우동 41-1번지","category":"유통업 영리 - 편 의 점"},{"name":"죠샌드위치 동탄신도시점","tel":"031-8003-1717","addr":"경기도 화성시 석우동 41-1번지 1층 101호","category":"일반휴게음식 - 서양음식"}]},{"lat":"37.223052479","long":"127.07561253","items":[{"name":"돈마실","tel":"031-613-3492","addr":"경기도 화성시 석우동 12-20번지","category":"일반휴게음식 - 일반한식"}]},{"lat":"37.218824384","long":"127.07916875","items":[{"name":"동탄전집","tel":"031-8015-1151","addr":"경기도 화성시 석우동 32-3번지 1층 113,114호","category":"일반휴게음식 - 일반한식"},{"name":"설악추어탕/한모둠순대국","tel":"031-8015-3201","addr":"경기도 화성시 석우동 32-3번지 리치안오피스텔 110동 112호","category":"일반휴게음식 - 일반한식"},{"name":"성원주차장","tel":"","addr":"경기도 화성시 석우동 32-3번지 동탄풍산리치안오피스텔 지하층","category":"자동차정비 유지 - 주차장"},{"name":"송림한식부페","tel":"031-8003-5961","addr":"경기도 화성시 석우동 32-3번지 리치안오피스텔 109호","category":"일반휴게음식 - 일반한식"},{"name":"완산골명가","tel":"031-613-7963","addr":"경기도 화성시 석우동 32-3번지 리치안오피스텔상가115호-116호 115호 석우동","category":"일반휴게음식 - 일반한식"},{"name":"주식회사 에스앤제이컴퍼니(S.J company)","tel":"031-8003-8003","addr":"경기도 화성시 석우동 32-3번지 풍산리치안 1104호","category":"용역 서비스 - 사무서비스"},{"name":"초심한우","tel":"031-8015-1555","addr":"경기도 화성시 석우동 32-3번지 101일부, 102, 103,104호","category":"일반휴게음식 - 일반한식"},{"name":"카페로그(Cafe Log)","tel":"070-8886-0107","addr":"경기도 화성시 석우동 32-3번지 리치안오피스텔 1층 107호","category":"일반휴게음식 - 서양음식"}]},{"lat":"37.216995744","long":"127.07844586","items":[{"name":"듬뿍만두","tel":"031-8003-8244","addr":"경기도 화성시 석우동 31-7번지 104호","category":"일반휴게음식 - 스넥"},{"name":"아담하다","tel":"","addr":"경기도 화성시 석우동 31-7번지 1층 108호","category":"음료식품 - 농·축·수산품"},{"name":"영심이","tel":"031-8050-3145","addr":"경기도 화성시 석우동 31-7번지 114,115호","category":"일반휴게음식 - 일반한식"},{"name":"콩마을","tel":"031-8043-2299","addr":"경기도 화성시 석우동 31-7번지","category":"일반휴게음식 - 일반한식"},{"name":"파리바게트동탄성심병원","tel":"031-8050-0482","addr":"경기도 화성시 석우동 31-7번지","category":"음료식품 - 제과점"},{"name":"파리바게트동탄성심병원","tel":"031-8050-0482","addr":"경기도 화성시 석우동 31-7번지","category":"음료식품 - 제과점"},{"name":"하태우 노란황태/(주)칸시스템즈","tel":"031-8050-5063","addr":"경기도 화성시 석우동 31-7번지 이림리치안 203,204호","category":"일반휴게음식 - 일반한식"}]},{"lat":"37.224827944","long":"127.07491565","items":[{"name":"떼레노시떼","tel":"070-4150-5767","addr":"경기도 화성시 석우동 9-7번지 1층","category":"일반휴게음식 - 서양음식"}]},{"lat":"37.222962548","long":"127.07533076","items":[{"name":"또봉이통닭석우점","tel":"031-8003-8293","addr":"경기도 화성시 석우동 16-5번지 101호","category":"일반휴게음식 - 스넥"}]},{"lat":"37.225242317","long":"127.07508506","items":[{"name":"뜨락","tel":"031-8003-6925","addr":"경기도 화성시 석우동 8-4번지 1층","category":"일반휴게음식 - 일반한식"}]},{"lat":"37.222187485","long":"127.0756117","items":[{"name":"마라도해물탕해물찜","tel":"031-8015-5522","addr":"경기도 화성시 석우동 16-12번지 1층","category":"일반휴게음식 - 일반한식"}]},{"lat":"37.224161192","long":"127.07489248","items":[{"name":"명품생태집","tel":"031-8003-0445","addr":"경기도 화성시 석우동 15-1번지","category":"일반휴게음식 - 일반한식"}]},{"lat":"37.223719078","long":"127.07588359","items":[{"name":"무쏘 화성석우점","tel":"031-8003-5649","addr":"경기도 화성시 석우동 11-1번지 1층","category":"일반휴게음식 - 일반한식"}]},{"lat":"37.223989762","long":"127.07527541","items":[{"name":"무한갈비만세","tel":"031-613-0609","addr":"경기도 화성시 석우동 13-8번지","category":"일반휴게음식 - 일반한식"}]},{"lat":"37.211860159","long":"127.07793378","items":[{"name":"뮤엠베스트","tel":"031-111-1111","addr":"경기도 화성시 석우동 53번지 동탄예당마을우미린제일풍경채 125동 27층 3호","category":"학원 - 기타 교육기관"},{"name":"해맑은아이어린이집[아이행복]","tel":"031-613-2866","addr":"경기도 화성시 석우동 53번지 동탄예당마을우미린제일풍경채 125동 103호","category":"학원 - 유아원"}]},{"lat":"37.225549161","long":"127.07427408","items":[{"name":"백년삼계탕","tel":"031-8015-3235","addr":"경기도 화성시 석우동 6-1번지 1층","category":"일반휴게음식 - 일반한식"}]},{"lat":"37.223881803","long":"127.07500489","items":[{"name":"복희정육식당","tel":"031-8003-6960","addr":"경기도 화성시 석우동 15-3번지 1층","category":"일반휴게음식 - 일반한식"}]},{"lat":"37.222268405","long":"127.07589346","items":[{"name":"부자(BUZZA)커피","tel":"031-8003-3457","addr":"경기도 화성시 석우동 12-14번지 1층","category":"일반휴게음식 - 서양음식"}]},{"lat":"37.224359165","long":"127.07530957","items":[{"name":"블렌드","tel":"031-8003-3521","addr":"경기도 화성시 석우동 13-2번지","category":"일반휴게음식 - 서양음식"}]},{"lat":"37.222665137","long":"127.07544315","items":[{"name":"석우정","tel":"031-613-5530","addr":"경기도 화성시 석우동 16-8번지","category":"음료식품 - 정육점"},{"name":"석우정","tel":"031-613-5530","addr":"경기도 화성시 석우동 16-8번지","category":"일반휴게음식 - 일반한식"}]},{"lat":"37.207075852","long":"127.07761363","items":[{"name":"세븐일레븐동탄호수공원점","tel":"031-1577-0711","addr":"경기도 화성시 석우동 59-5번지 동탄산타플러스 104호","category":"유통업 영리 - 편 의 점"},{"name":"조마루 감자탕 동탄점","tel":"031-8003-2077","addr":"경기도 화성시 석우동 59-5번지 107,108호","category":"일반휴게음식 - 일반한식"}]},{"lat":"37.223630052","long":"127.07411452","items":[{"name":"스피드메이트 동탄정안점","tel":"031-8003-0459","addr":"경기도 화성시 석우동 3-6번지","category":"자동차정비 유지 - 자동차정비"}]},{"lat":"37.225134412","long":"127.07472439","items":[{"name":"신팔당","tel":"031-613-8235","addr":"경기도 화성시 석우동 6-5번지 1층","category":"일반휴게음식 - 일반한식"}]},{"lat":"37.22299809","long":"127.07614205","items":[{"name":"씨유동탄석우원룸점","tel":"031-898-6569","addr":"경기도 화성시 석우동 11-19번지 101호","category":"유통업 영리 - 편 의 점"}]},{"lat":"37.212302983","long":"127.07582753","items":[{"name":"씽씽레포키즈","tel":"031-853-0648","addr":"경기도 화성시 석우동 53번지 예당마을우미린제일풍경채 118동 2001호","category":"학원 - 기타 교육기관"}]},{"lat":"37.20840066","long":"127.07716433","items":[{"name":"아트누리","tel":"","addr":"경기도 화성시 석우동 56번지 동탄예당마을신일유토빌 134동 6층 4호","category":"학원 - 기타 교육기관"}]},{"lat":"37.222493719","long":"127.07580354","items":[{"name":"어무이동태탕","tel":"031-8003-5349","addr":"경기도 화성시 석우동 12-16번지","category":"일반휴게음식 - 일반한식"}]},{"lat":"37.211040465","long":"127.07753868","items":[{"name":"엄지어린이집[아이행복]","tel":"031-8050-6336","addr":"경기도 화성시 석우동 53번지 동탄예당마을우미린제일풍경 123동 105호","category":"학원 - 유아원"}]},{"lat":"37.207545819","long":"127.07531603","items":[{"name":"에듀바비경기화성반송지점","tel":"02-1522-0701","addr":"경기도 화성시 석우동 56번지 동탄예당마을신일유토빌 136동 1802호","category":"용역 서비스 - 사무서비스"}]},{"lat":"37.225386483","long":"127.07508519","items":[{"name":"엘리스빌","tel":"031-831-5579","addr":"경기도 화성시 석우동 8-3번지 1층","category":"신변잡화 - 기타잡화"},{"name":"엘리스빌(ELLISVILL)","tel":"031-704-0226","addr":"경기도 화성시 석우동 8-3번지","category":"일반휴게음식 - 서양음식"}]},{"lat":"37.212932621","long":"127.07757434","items":[{"name":"엠디(MD)638","tel":"02-511-1308","addr":"경기도 화성시 석우동 53번지 예당마을우미린제일풍경채 115동 1801호","category":"회원제형태 - 기타1"}]},{"lat":"37.223494275","long":"127.07513973","items":[{"name":"역전할머니맥주화성석우점","tel":"031-111-1111","addr":"경기도 화성시 석우동 16-16번지 상가 101호","category":"일반휴게음식 - 주점"},{"name":"장모님순대국","tel":"031-613-6995","addr":"경기도 화성시 석우동 16-16번지 1층","category":"일반휴게음식 - 일반한식"}]},{"lat":"37.21226503","long":"127.07886924","items":[{"name":"예당어린이집[아이행복]","tel":"070-7503-6252","addr":"경기도 화성시 석우동 53번지 동탄예당마을우미린제일풍경채 112동 102호","category":"학원 - 유아원"}]},{"lat":"37.210302965","long":"127.07536372","items":[{"name":"예당초등학교병설유치원[아이행복]","tel":"031-8055-7188","addr":"경기도 화성시 석우동 54번지 예당초등학교","category":"학원 - 유치원"}]},{"lat":"37.210824956","long":"127.07635559","items":[{"name":"예원초등학교","tel":"031-8059-3431","addr":"경기도 화성시 석우동 52번지 예원초등학교","category":"학원 - 초중고교육기관"},{"name":"하늘빛유치원[아이행복]","tel":"031-8015-8084","addr":"경기도 화성시 석우동 52번지","category":"학원 - 유치원"}]},{"lat":"37.216581289","long":"127.07841164","items":[{"name":"옐로yelo","tel":"031-8015-9999","addr":"경기도 화성시 석우동 42-1번지","category":"음료식품 - 기타음료식품"}]},{"lat":"37.210988781","long":"127.07366329","items":[{"name":"우일","tel":"043-880-1040","addr":"경기도 화성시 석우동 55번지 동탄예담마을롯데 151동 101호","category":"자동차정비 유지 - 세차장"}]},{"lat":"37.211168256","long":"127.07488013","items":[{"name":"은샘어린이집[아이행복]","tel":"031-8058-3069","addr":"경기도 화성시 석우동 55번지 동탄예당마을롯데캐슬 156동 102호","category":"학원 - 유아원"}]},{"lat":"37.22465661","long":"127.07514084","items":[{"name":"이디야커피(화성석우IT점)","tel":"031-000-0000","addr":"경기도 화성시 석우동 9-5번지","category":"일반휴게음식 - 서양음식"}]},{"lat":"37.220746269","long":"127.07488923","items":[{"name":"이우아이 어린이집[아이행복]","tel":"031-379-9411","addr":"경기도 화성시 석우동 23-4번지","category":"학원 - 유아원"}]},{"lat":"37.224963284","long":"127.07461155","items":[{"name":"이화수전통육개장 동탄석우점","tel":"031-8003-1219","addr":"경기도 화성시 석우동 6-6번지 1층","category":"일반휴게음식 - 일반한식"}]},{"lat":"37.224494169","long":"127.07555758","items":[{"name":"정선수제비가","tel":"031-8015-0712","addr":"경기도 화성시 석우동 10-2번지","category":"일반휴게음식 - 일반한식"}]},{"lat":"37.224828129","long":"127.07461142","items":[{"name":"주식회사가빈정","tel":"031-8003-3830","addr":"경기도 화성시 석우동 6-7번지","category":"일반휴게음식 - 일반한식"}]},{"lat":"37.211525047","long":"127.08061466","items":[{"name":"중 식당","tel":"","addr":"경기도 화성시 석우동 46번지 1층 106호","category":"일반휴게음식 - 중국식"},{"name":"카페루멘","tel":"031-8003-6770","addr":"경기도 화성시 석우동 46번지 105호","category":"일반휴게음식 - 일반한식"},{"name":"코다리감동이되다","tel":"","addr":"경기도 화성시 석우동 46번지 동탄삼희프라자 1층 111호","category":"일반휴게음식 - 일반한식"}]},{"lat":"37.223629141","long":"127.07561309","items":[{"name":"진스치킨","tel":"031-8003-8876","addr":"경기도 화성시 석우동 12-2번지","category":"일반휴게음식 - 스넥"}]},{"lat":"37.22269155","long":"127.07644596","items":[{"name":"카페놀다","tel":"070-4656-9630","addr":"경기도 화성시 석우동 11-11번지 1층","category":"일반휴게음식 - 일반한식"}]},{"lat":"37.223440013","long":"127.07546643","items":[{"name":"카페로12-23","tel":"031-8015-4860","addr":"경기도 화성시 석우동 12-23번지","category":"일반휴게음식 - 서양음식"}]},{"lat":"37.212527873","long":"127.07642483","items":[{"name":"칼의부활(서산태안점)","tel":"070-8624-9330","addr":"경기도 화성시 석우동 53번지 동탄예당마을우미린제일풍경채 117동 2402호","category":"수리서비스 - 기타수리서비스"}]},{"lat":"37.224989828","long":"127.07541158","items":[{"name":"커피그린빈","tel":"031-613-7980","addr":"경기도 화성시 석우동 8-7번지 1층","category":"일반휴게음식 - 서양음식"}]},{"lat":"37.22374662","long":"127.07504983","items":[{"name":"페리스휠","tel":"031-8003-5637","addr":"경기도 화성시 석우동 15-4번지 103호","category":"일반휴게음식 - 서양음식"}]},{"lat":"37.225296585","long":"127.07474708","items":[{"name":"프라하","tel":"031-8003-9488","addr":"경기도 화성시 석우동 6-4번지 1층","category":"일반휴게음식 - 서양음식"}]},{"lat":"37.211834145","long":"127.0763115","items":[{"name":"플랜비디자인","tel":"","addr":"경기도 화성시 석우동 53번지 예당마을우미린제일풍경채 121동 1802호","category":"학원 - 기능학원"}]},{"lat":"37.222826726","long":"127.07641229","items":[{"name":"하누옥","tel":"031-8015-3225","addr":"경기도 화성시 석우동 11-10번지 1층","category":"일반휴게음식 - 일반한식"}]},{"lat":"37.212123114","long":"127.07527534","items":[{"name":"하늘사랑어린이집[아이행복]","tel":"070-4148-4048","addr":"경기도 화성시 석우동 53번지 동탄예당마을우미린제일풍경채 119동 101호","category":"학원 - 유아원"}]},{"lat":"37.206327268","long":"127.07875064","items":[{"name":"화성시니어클럽 노노카페 푸드트럭2호점 (","tel":"031-8059-4349","addr":"경기도 화성시 석우동 63번지 노작호수공원","category":"일반휴게음식 - 서양음식"}]},{"lat":"37.206886127","long":"127.07841325","items":[{"name":"화성시니어클럽 노노카페(동탄보건지소)","tel":"031-8059-4349","addr":"경기도 화성시 석우동 60번지 1층","category":"일반휴게음식 - 서양음식"}]}]