[{"lat":"37.677656075","long":"126.80689894","items":[{"name":"(주)스펙토피아","tel":"031-967-9912","addr":"경기도 고양시 일산동구 동국로","category":"서적문구 - 과학기자재"},{"name":"(주)스펙토피아/원격지","tel":"031-967-9912","addr":"경기도 고양시 일산동구 동국로","category":"기타 - 기타 전문점"},{"name":"세컨허즈","tel":"070-4809-4234","addr":"경기도 고양시 일산동구 동국로","category":"신변잡화 - 기타잡화"},{"name":"주식회사저탄소문명원시촌","tel":"070-8688-1120","addr":"경기도 고양시 일산동구 동국로","category":"음료식품 - 농·축·수산품"}]},{"lat":"37.682992262","long":"126.80300782","items":[{"name":"강석갤러리","tel":"031-963-6627","addr":"경기도 고양시 일산동구 동국로","category":"가구 - 일반가구"}]},{"lat":"37.676270305","long":"126.80793411","items":[{"name":"더행복한콩","tel":"031-962-2582","addr":"경기도 고양시 일산동구 동국로","category":"일반휴게음식 - 일반한식"}]},{"lat":"37.67790196","long":"126.80848529","items":[{"name":"동국패션","tel":"031-961-9425","addr":"경기도 고양시 일산동구 동국로","category":"의류 - 정장"}]},{"lat":"37.676125551","long":"126.80757176","items":[{"name":"페스토(pesto)","tel":"031-962-0868","addr":"경기도 고양시 일산동구 동국로","category":"일반휴게음식 - 일반한식"}]}]