[{"lat":"37.852583856","long":"127.22476748","items":[{"name":"SM씽크붙박이","tel":"031-542-0548","addr":"경기도 포천시 군내면 좌의리 208-8번지","category":"가구 - 일반가구"}]},{"lat":"37.858312747","long":"127.21558037","items":[{"name":"군내어린이집[아이행복]","tel":"031-536-9323","addr":"경기도 포천시 군내면 좌의리 305-5번지 군내어린이집","category":"학원 - 유아원"}]},{"lat":"37.857060452","long":"127.21557678","items":[{"name":"누리하나","tel":"031-536-5040","addr":"경기도 포천시 군내면 좌의리 307번지","category":"가구 - 일반가구"}]},{"lat":"37.866113343","long":"127.21138656","items":[{"name":"대흥탱크","tel":"031-536-4044","addr":"경기도 포천시 군내면 좌의리 449-1번지","category":"건축자재 - 기타건축자재"}]},{"lat":"37.863059609","long":"127.21113932","items":[{"name":"미랜","tel":"070-4018-2124","addr":"경기도 포천시 군내면 좌의리 408-1번지","category":"회원제형태 - 기타1"}]},{"lat":"37.856084975","long":"127.21693753","items":[{"name":"보드114","tel":"","addr":"경기도 포천시 군내면 좌의리 286번지","category":"사무통신 - 기타 사무용품"}]},{"lat":"37.859778009","long":"127.21738002","items":[{"name":"삼성상사","tel":"031-536-8287","addr":"경기도 포천시 군내면 좌의리 146-3","category":"자동차정비 유지 - 자동차부품"}]},{"lat":"37.862862287","long":"127.21568436","items":[{"name":"새마을낚시터","tel":"031-535-2007","addr":"경기도 포천시 군내면 좌의리 373-2번지","category":"레저업소 - 기타레져업소"}]},{"lat":"37.863581566","long":"127.21147034","items":[{"name":"선진건설","tel":"031-536-9456","addr":"경기도 포천시 군내면 좌의리 410-1번지","category":"용역 서비스 - 기타용역서비스"}]},{"lat":"37.869859429","long":"127.22229622","items":[{"name":"신영산업","tel":"031-541-8589","addr":"경기도 포천시 군내면 좌의리 23-23번지","category":"가구 - 일반가구"}]},{"lat":"37.863831163","long":"127.20785725","items":[{"name":"커피스완","tel":"031-536-1938","addr":"경기도 포천시 군내면 좌의리 506-7번지","category":"일반휴게음식 - 서양음식"}]},{"lat":"37.853117797","long":"127.21863333","items":[{"name":"태연이엔지","tel":"031-536-4271","addr":"경기도 포천시 군내면 좌의리 224-2번지","category":"기타 - 기계공구"}]},{"lat":"37.859665804","long":"127.21466382","items":[{"name":"파파스 퍼니처","tel":"031-536-2352","addr":"경기도 포천시 군내면 좌의리 352-3번지","category":"가구 - 일반가구"}]},{"lat":"37.862755496","long":"127.20988842","items":[{"name":"할매왕족발","tel":"031-535-2023","addr":"경기도 포천시 군내면 좌의리 510-4번지","category":"일반휴게음식 - 일반한식"}]}]