[{"lat":"37.3932537","long":"127.2275961","items":[{"name":"#헤어","tel":"031-639-0066","addr":"경기도 광주시 태전동 282-1번지 1층","category":"보건위생 - 미용원"},{"name":"글로리아에스테틱","tel":"","addr":"경기도 광주시 태전동 282-1번지 티큐브 3층 202호","category":"보건위생 - 피부미용실"},{"name":"네일 더 빛나 인뷰티","tel":"02-1111-1111","addr":"경기도 광주시 태전동 282-1번지 티큐브 302호","category":"보건위생 - 피부미용실"},{"name":"노인과바다","tel":"031-797-6333","addr":"경기도 광주시 태전동 282-1번지 티큐브 1층 105호","category":"일반휴게음식 - 일식·회집"},{"name":"대박낙소","tel":"031-767-4331","addr":"경기도 광주시 태전동 282-1번지 티큐브 2층 202호","category":"일반휴게음식 - 일반한식"},{"name":"또또와분식","tel":"031-761-1833","addr":"경기도 광주시 태전동 282-1번지","category":"일반휴게음식 - 스넥"},{"name":"빛나","tel":"","addr":"경기도 광주시 태전동 282-1번지 티큐브 3층 302호","category":"보건위생 - 피부미용실"},{"name":"수반찬","tel":"031-762-8525","addr":"경기도 광주시 태전동 282-1번지 티큐브 1층 101호","category":"음료식품 - 기타음료식품"},{"name":"심리상담센터 아이뜰","tel":"031-797-9870","addr":"경기도 광주시 태전동 282-1번지 티큐브 402호","category":"보건위생 - 기타대인서비스"},{"name":"온도","tel":"","addr":"경기도 광주시 태전동 282-1번지 티큐브 1층 106호","category":"일반휴게음식 - 서양음식"},{"name":"정철주니어어학원","tel":"031-8027-8877","addr":"경기도 광주시 태전동 282-1번지 디큐브 301호","category":"학원 - 외국어학원"},{"name":"찜했어!","tel":"031-766-7756","addr":"경기도 광주시 태전동 282-1번지 티큐브 2층 201호","category":"일반휴게음식 - 일반한식"},{"name":"포카페태전","tel":"031-764-9821","addr":"경기도 광주시 태전동 282-1번지 티큐브 1층 107호","category":"일반휴게음식 - 서양음식"},{"name":"황태애돈까스","tel":"031-762-0617","addr":"경기도 광주시 태전동 282-1번지 1층","category":"일반휴게음식 - 일반한식"}]},{"lat":"37.39358633","long":"127.2133118","items":[{"name":"(주) 비에스글로벌","tel":"","addr":"경기도 광주시 태전동 483-1번지 2층","category":"의류 - 기타의류"}]},{"lat":"37.38986531","long":"127.2182361","items":[{"name":"(주)로스팅멘토","tel":"070-4413-7750","addr":"경기도 광주시 태전동 536번지 1층","category":"음료식품 - 기타음료식품"}]},{"lat":"37.39103284","long":"127.2298932","items":[{"name":"(주)베베블랑/주식회사 베베블랑(bebe blan","tel":"031-797-1005","addr":"경기도 광주시 태전동 261-144번지 4층","category":"일반휴게음식 - 서양음식"},{"name":"주식회사오리종","tel":"031-763-7630","addr":"경기도 광주시 태전동 261-144번지 403호","category":"신변잡화 - 기타잡화"}]},{"lat":"37.39033404","long":"127.2181245","items":[{"name":"(주)세현상사","tel":"031-747-3564","addr":"경기도 광주시 태전동 538번지","category":"유통업 영리 - 기타유통업"}]},{"lat":"37.38939067","long":"127.2166425","items":[{"name":"(주)스톤닥터엔제너럴코리아","tel":"02-424-4084","addr":"경기도 광주시 태전동 550-12번지","category":"기타 - 기타 전문점"}]},{"lat":"37.38803037","long":"127.2165145","items":[{"name":"(주)와이앤지","tel":"031-769-7899","addr":"경기도 광주시 태전동 574-5번지","category":"기타 - 기타 전문점"}]},{"lat":"37.39514118","long":"127.2154844","items":[{"name":"(주)중부가스","tel":"031-767-8789","addr":"경기도 광주시 태전동 492번지","category":"연료판매점 - LPG 취급점"}]},{"lat":"37.38828361","long":"127.2159845","items":[{"name":"(주)트랜스폼","tel":"031-765-1992","addr":"경기도 광주시 태전동 557-4번지","category":"음료식품 - 기타음료식품"}]},{"lat":"37.39097594","long":"127.2218415","items":[{"name":"(주)티알상사","tel":"031-898-4426","addr":"경기도 광주시 태전동 313번지","category":"의류 - 기타의류"}]},{"lat":"37.39139352","long":"127.2201489","items":[{"name":"(주)포베이비","tel":"02-719-1357","addr":"경기도 광주시 태전동 324-6번지","category":"의류 - 아동의류"}]},{"lat":"37.3931673","long":"127.2256423","items":[{"name":"(주)푸름건설","tel":"031-766-8932","addr":"경기도 광주시 태전동 296번지 3층","category":"용역 서비스 - 기타용역서비스"},{"name":"펫모아","tel":"031-765-2737","addr":"경기도 광주시 태전동 296번지 햇길터 102호","category":"문화.취미 - 애완동물"}]},{"lat":"37.39397542","long":"127.2123756","items":[{"name":"(주)행남유통","tel":"031-798-5081","addr":"경기도 광주시 태전동 482-5번지","category":"주방용구 - 주방용식기"},{"name":"(주)행남유통/올리브물대","tel":"031-798-5081","addr":"경기도 광주시 태전동 482-5번지","category":"별도관리 - 자체물품대금"}]},{"lat":"37.3939235","long":"127.2259833","items":[{"name":"(주)홈케어마스터","tel":"031-767-0768","addr":"경기도 광주시 태전동 289-1번지","category":"용역 서비스 - 종합용역"},{"name":"제이에스오토","tel":"031-766-8416","addr":"경기도 광주시 태전동 289-1번지 1층","category":"건축자재 - 기타건축자재"},{"name":"주경수산","tel":"070-4147-4498","addr":"경기도 광주시 태전동 289-1번지","category":"음료식품 - 농·축·수산품"}]},{"lat":"37.38383469","long":"127.2294198","items":[{"name":"153+ 마트","tel":"031-761-0591","addr":"경기도 광주시 태전동 87번지 태전아이파크 108호 상가","category":"유통업 영리 - 슈퍼마켓"},{"name":"글라스스토리(광주태전점)","tel":"031-762-1123","addr":"경기도 광주시 태전동 87번지 태전아이파크 상가동 2층 103호","category":"보건위생 - 안경"},{"name":"메가커피 광주태전아이파크점","tel":"031-8028-2962","addr":"경기도 광주시 태전동 87번지 태전아이파크 상가동 지2층 106호","category":"일반휴게음식 - 서양음식"},{"name":"비제이인터네셔널","tel":"070-8959-0709","addr":"경기도 광주시 태전동 87번지 광주태전아이파크 106동 2104호","category":"신변잡화 - 기타잡화"},{"name":"씨유태전153점","tel":"080-080-3663","addr":"경기도 광주시 태전동 87번지 태전아이파크 상가동 109호","category":"유통업 영리 - 편 의 점"},{"name":"정인진 교습","tel":"070-7776-3296","addr":"경기도 광주시 태전동 87번지 태전아이파크 104동 202호","category":"학원 - 기타 교육기관"},{"name":"크리아트 태전원","tel":"070-8699-4669","addr":"경기도 광주시 태전동 87번지 태전아이파크 104동 1202호","category":"학원 - 기타 교육기관"},{"name":"포유(for you)","tel":"031-797-4117","addr":"경기도 광주시 태전동 87번지 태전아이파크 상가동 지하2층 108호","category":"보건위생 - 미용원"},{"name":"해법영어. 수학","tel":"031-0000-0000","addr":"경기도 광주시 태전동 87번지 태전아이파크 102동 104호","category":"학원 - 기타 교육기관"}]},{"lat":"37.3992836","long":"127.2065064","items":[{"name":"153세라믹","tel":"031-766-8892","addr":"경기도 광주시 태전동 439-3번지","category":"건축자재 - 건축용 요업제품"}]},{"lat":"37.39211489","long":"127.2247019","items":[{"name":"153스텐레스","tel":"031-767-0639","addr":"경기도 광주시 태전동 301번지","category":"건축자재 - 기타건축자재"}]},{"lat":"37.39911178","long":"127.2068673","items":[{"name":"1급대광모터스","tel":"031-769-1914","addr":"경기도 광주시 태전동 439번지","category":"자동차정비 유지 - 자동차정비"}]},{"lat":"37.3841457","long":"127.2362859","items":[{"name":"25편의점","tel":"031-764-1223","addr":"경기도 광주시 태전동 9번지 1층","category":"유통업 영리 - 편 의 점"},{"name":"OK세탁마트","tel":"031-766-8250","addr":"경기도 광주시 태전동 9번지","category":"수리서비스 - 세탁소"},{"name":"거진항코다리","tel":"031-762-5575","addr":"경기도 광주시 태전동 9번지 1층","category":"일반휴게음식 - 일반한식"},{"name":"누리야헤어","tel":"031-762-4045","addr":"경기도 광주시 태전동 9번지","category":"보건위생 - 미용원"},{"name":"대학으로가는길학원","tel":"031-769-4583","addr":"경기도 광주시 태전동 9번지 203호","category":"학원 - 보습학원"},{"name":"세민수산 (광주점)","tel":"031-766-5554","addr":"경기도 광주시 태전동 9번지 106호","category":"일반휴게음식 - 일식·회집"},{"name":"에듀스터디학원","tel":"070-4079-8155","addr":"경기도 광주시 태전동 9번지 2층","category":"학원 - 보습학원"},{"name":"엘림음악학원","tel":"031-768-0363","addr":"경기도 광주시 태전동 9번지","category":"학원 - 예·체능계학원"}]},{"lat":"37.3924457","long":"127.2307895","items":[{"name":"60계 광주태전점","tel":"031-764-1060","addr":"경기도 광주시 태전동 262-1번지","category":"일반휴게음식 - 스넥"},{"name":"등갈비달인(광주태전점)","tel":"031-765-6081","addr":"경기도 광주시 태전동 262-1번지","category":"일반휴게음식 - 일반한식"},{"name":"성원당구장","tel":"031-767-5604","addr":"경기도 광주시 태전동 262-1번지 2층","category":"레저업소 - 당 구 장"},{"name":"성원스토어","tel":"070-9150-8411","addr":"경기도 광주시 태전동 262-1번지 2층","category":"일반휴게음식 - 일반한식"},{"name":"와와노래연습장","tel":"031-763-6725","addr":"경기도 광주시 태전동 262-1번지 지층","category":"레저업소 - 노 래 방"}]},{"lat":"37.38042081","long":"127.228924","items":[{"name":"B.Art리빙","tel":"070-8836-8704","addr":"경기도 광주시 태전동 702번지 힐스테이트태전 1602동 1602호","category":"주방용구 - 주방용구"},{"name":"GS25태전타운점","tel":"","addr":"경기도 광주시 태전동 702번지 힐스테이트7블럭 상가 101호","category":"유통업 영리 - 편 의 점"},{"name":"과일 트럭","tel":"031-405-4404","addr":"경기도 광주시 태전동 702번지 힐스테이트태전 1603동 902호","category":"음료식품 - 농·축·수산품"},{"name":"일상미학","tel":"","addr":"경기도 광주시 태전동 702번지 힐스테이트태전 1602동 501호","category":"가구 - 기타가구"},{"name":"카페단지","tel":"","addr":"경기도 광주시 태전동 702번지 힐스테이트태전 1627동 1층 105호","category":"일반휴게음식 - 서양음식"},{"name":"해법수학 태전힐스6지구점","tel":"031-0000-0000","addr":"경기도 광주시 태전동 702번지 힐스테이트태전 1603동 1402호","category":"학원 - 기타 교육기관"},{"name":"헤어바이주디","tel":"031-763-2098","addr":"경기도 광주시 태전동 702번지 힐스테이트 상가 1층 103호","category":"보건위생 - 미용원"}]},{"lat":"37.39092355","long":"127.2305026","items":[{"name":"B.B.Q(태전점)","tel":"031-762-6350","addr":"경기도 광주시 태전동 674-1번지","category":"일반휴게음식 - 스넥"},{"name":"낭만달호","tel":"032-761-4779","addr":"경기도 광주시 태전동 674-1번지 1층","category":"일반휴게음식 - 주점"},{"name":"밀레니엄","tel":"031-767-0311","addr":"경기도 광주시 태전동 674-1번지 2층","category":"레저업소 - 노 래 방"},{"name":"산울인테리어","tel":"031-768-0050","addr":"경기도 광주시 태전동 674-1번지","category":"직물 - 카페트,커튼,천막,지물"},{"name":"아로마피씨존","tel":"031-762-4464","addr":"경기도 광주시 태전동 674-1번지 2층","category":"레저업소 - 기타레져업소"},{"name":"짱구짱구꼬마김밥&만두","tel":"031-762-0098","addr":"경기도 광주시 태전동 674-1번지 1층","category":"일반휴게음식 - 스넥"},{"name":"호타루","tel":"070-4219-0967","addr":"경기도 광주시 태전동 674-1번지 1층 2호","category":"일반휴게음식 - 일식·회집"}]},{"lat":"37.37859086","long":"127.2293928","items":[{"name":"BBQ 태전행복점","tel":"031-764-1314","addr":"경기도 광주시 태전동 703번지 힐스테이트 태전1634 G동 1층 104호","category":"일반휴게음식 - 스넥"},{"name":"나무에듀테인먼트","tel":"","addr":"경기도 광주시 태전동 703번지 힐스테이트태전 1612동 403호","category":"서적문구 - 일반서적"},{"name":"엘이디키퍼","tel":"","addr":"경기도 광주시 태전동 703번지 힐스테이트태전 1610동 2105호","category":"수리서비스 - 기타수리서비스"},{"name":"태성엔지니어링","tel":"","addr":"경기도 광주시 태전동 703번지 힐스테이트태전 1613동 1703호","category":"용역 서비스 - 기타용역서비스"},{"name":"푸드갤러리","tel":"031-769-6432","addr":"경기도 광주시 태전동 703번지 힐스테이트태전 1610동 1405호","category":"학원 - 기타 교육기관"}]},{"lat":"37.39244989","long":"127.2189549","items":[{"name":"CARSUN(카썬)","tel":"070-7788-3203","addr":"경기도 광주시 태전동 522번지","category":"자동차정비 유지 - 자동차부품"}]},{"lat":"37.39594786","long":"127.2128102","items":[{"name":"CK모터스","tel":"031-766-5256","addr":"경기도 광주시 태전동 466-2번지","category":"자동차정비 유지 - 자동차정비"}]},{"lat":"37.39033787","long":"127.2305121","items":[{"name":"GON PC방","tel":"031-6359-7273","addr":"경기도 광주시 태전동 676번지 2층","category":"레저업소 - 기타레져업소"},{"name":"군산생선구이아구찜","tel":"031-765-1141","addr":"경기도 광주시 태전동 676번지 하은상가 101호","category":"일반휴게음식 - 일반한식"},{"name":"꼼장어&세꼬시","tel":"031-767-0363","addr":"경기도 광주시 태전동 676번지 1층","category":"일반휴게음식 - 일반한식"},{"name":"마임광주태전지사","tel":"031-765-0377","addr":"경기도 광주시 태전동 676번지 계단기준북측 2층","category":"보건위생 - 화장품"},{"name":"앗싸곱창","tel":"031-767-5553","addr":"경기도 광주시 태전동 676번지 1층","category":"일반휴게음식 - 일반한식"},{"name":"페리카나(태전점)","tel":"031-798-3361","addr":"경기도 광주시 태전동 676번지 105호","category":"일반휴게음식 - 스넥"},{"name":"힐링샵","tel":"031-765-8387","addr":"경기도 광주시 태전동 676번지","category":"보건위생 - 화장품"}]},{"lat":"37.39506383","long":"127.2183978","items":[{"name":"GS25광주고불로점","tel":"02-2006-2485","addr":"경기도 광주시 태전동 502-8","category":"유통업 영리 - 상품권전문판매"},{"name":"세븐일레븐경기광주고불로점","tel":"031-1577-0711","addr":"경기도 광주시 태전동 502-8번지","category":"유통업 영리 - 편 의 점"},{"name":"장순필 참과끼니","tel":"031-798-0237","addr":"경기도 광주시 태전동 502-8번지","category":"음료식품 - 기타음료식품"}]},{"lat":"37.39519555","long":"127.2153151","items":[{"name":"GS25광주고불센터점","tel":"","addr":"경기도 광주시 태전동 491번지","category":"유통업 영리 - 편 의 점"}]},{"lat":"37.39194919","long":"127.2312849","items":[{"name":"GS25광주태전점","tel":"02-2006-2118","addr":"경기도 광주시 태전동 262-12번지","category":"유통업 영리 - 편 의 점"},{"name":"GS25광주태전점","tel":"02-2006-2118","addr":"경기도 광주시 태전동 262-12번지","category":"유통업 영리 - 상품권전문판매"},{"name":"바른자세 척추교정원","tel":"031-763-0467","addr":"경기도 광주시 태전동 262-12번지 201호","category":"보건위생 - 기타대인서비스"},{"name":"새봄헤어아트","tel":"031-765-8261","addr":"경기도 광주시 태전동 262-12번지","category":"보건위생 - 미용원"}]},{"lat":"37.39342049","long":"127.2251574","items":[{"name":"GS25광주행복점","tel":"","addr":"경기도 광주시 태전동 296-10번지 데코빌 A동 101호","category":"유통업 영리 - 편 의 점"},{"name":"GS25광주행복점","tel":"","addr":"경기도 광주시 태전동 296-10번지 데코빌 A동 101호","category":"유통업 영리 - 상품권전문판매"}]},{"lat":"37.38669975","long":"127.2341484","items":[{"name":"GS25태전에듀점","tel":"","addr":"경기도 광주시 태전동 162-8번지 에듀프라자 105호","category":"유통업 영리 - 편 의 점"},{"name":"강남프라임학원","tel":"031-768-0880","addr":"경기도 광주시 태전동 162-8번지 에듀프라자 402호","category":"학원 - 보습학원"},{"name":"규이자카야","tel":"","addr":"경기도 광주시 태전동 162-8번지 에듀프라자 1층 110호","category":"일반휴게음식 - 일반한식"},{"name":"까치다방 태전점","tel":"031-783-6866","addr":"경기도 광주시 태전동 162-8번지 에듀프라자 1층 107호","category":"일반휴게음식 - 서양음식"},{"name":"더페이스(The Faith)어학원","tel":"031-699-1828","addr":"경기도 광주시 태전동 162-8번지 에듀프라자 3층 301호","category":"학원 - 외국어학원"},{"name":"마더스한의원","tel":"031-767-1085","addr":"경기도 광주시 태전동 162-8번지 에듀프라자 3층 302호","category":"의원 - 한의원"},{"name":"명랑핫도그태전점","tel":"031-000-0000","addr":"경기도 광주시 태전동 162-8번지 에듀프라자 104호","category":"일반휴게음식 - 스넥"},{"name":"본샵","tel":"031-797-7797","addr":"경기도 광주시 태전동 162-8번지 에듀프라자 2층 206호","category":"보건위생 - 미용원"},{"name":"브로스비어 광주태전점","tel":"031-367-5349","addr":"경기도 광주시 태전동 162-8번지 에듀프라자 1층 115호","category":"일반휴게음식 - 주점"},{"name":"설빙 태전점","tel":"031-766-0559","addr":"경기도 광주시 태전동 162-8번지 에듀프라자 2층 202호","category":"일반휴게음식 - 서양음식"},{"name":"소소곱창","tel":"031-763-7639","addr":"경기도 광주시 태전동 162-8번지 에듀프라자 2층 201호","category":"일반휴게음식 - 일반한식"},{"name":"송현","tel":"031-767-0221","addr":"경기도 광주시 태전동 162-8번지 에듀프라자 403호","category":"학원 - 보습학원"},{"name":"쉐프리(Chef Lee)","tel":"031-766-4791","addr":"경기도 광주시 태전동 162-8번지 에듀프리자 2층 203호","category":"일반휴게음식 - 서양음식"},{"name":"알찬냄비","tel":"031-766-0201","addr":"경기도 광주시 태전동 162-8번지 에듀프라자 1층 114호","category":"일반휴게음식 - 일반한식"},{"name":"여기닭발","tel":"031-000-0000","addr":"경기도 광주시 태전동 162-8번지 에듀프라자 1층 109호","category":"일반휴게음식 - 일반한식"},{"name":"오리엔탈 필라테스 경기광주점","tel":"031-797-5276","addr":"경기도 광주시 태전동 162-8번지 에듀프라자 2층 205호","category":"레저업소 - 헬스클럽"},{"name":"이치와원리수학학원","tel":"031-766-2123","addr":"경기도 광주시 태전동 162-8번지 에듀프라자 401호","category":"학원 - 보습학원"},{"name":"청담떡방","tel":"031-763-2562","addr":"경기도 광주시 태전동 162-8번지 에듀프라자 102호","category":"음료식품 - 제과점"},{"name":"태전아구찜","tel":"","addr":"경기도 광주시 태전동 162-8번지 에듀프라자 113호","category":"일반휴게음식 - 일반한식"},{"name":"푸짐한분식","tel":"031-000-0000","addr":"경기도 광주시 태전동 162-8번지 에듀프라자 103호","category":"일반휴게음식 - 스넥"},{"name":"하루만족발","tel":"031-764-8922","addr":"경기도 광주시 태전동 162-8번지 에듀프라자 2층 204호","category":"일반휴게음식 - 일반한식"},{"name":"한국체대 엘리트 태권도장","tel":"031-769-0069","addr":"경기도 광주시 태전동 162-8번지 에듀프라자 3층 303,304호","category":"학원 - 예·체능계학원"},{"name":"홍루이젠 태전점","tel":"","addr":"경기도 광주시 태전동 162-8번지 에듀프라자 1층 106호","category":"일반휴게음식 - 서양음식"},{"name":"화덕살롱","tel":"","addr":"경기도 광주시 태전동 162-8번지 에듀프라자 1층 108호","category":"일반휴게음식 - 서양음식"},{"name":"회밀리","tel":"","addr":"경기도 광주시 태전동 162-8번지 에듀프라자 112호","category":"일반휴게음식 - 일식·회집"}]},{"lat":"37.38339716","long":"127.2320381","items":[{"name":"GS25태전중앙점","tel":"","addr":"경기도 광주시 태전동 700번지 B102호 힐스테이트 단지내상가 6블럭","category":"유통업 영리 - 상품권전문판매"},{"name":"GS25태전중앙점","tel":"","addr":"경기도 광주시 태전동 700번지 B102호 힐스테이트 단지내상가 6블럭","category":"유통업 영리 - 편 의 점"},{"name":"바로컴퍼니","tel":"","addr":"경기도 광주시 태전동 700번지 힐스테이트태전 1516동 1105호","category":"의류 - 내의판매"},{"name":"바빈스커피 광주태전점","tel":"031-766-5420","addr":"경기도 광주시 태전동 700번지 지1층,104호","category":"일반휴게음식 - 서양음식"},{"name":"잠실출장세차 킹카워시 송파점","tel":"","addr":"경기도 광주시 태전동 700번지 힐스테이트태전 1518동 1001호","category":"자동차정비 유지 - 세차장"}]},{"lat":"37.39203328","long":"127.2297268","items":[{"name":"HN유통","tel":"111-111-1111","addr":"경기도 광주시 태전동 261-5번지","category":"음료식품 - 농·축·수산품"},{"name":"히든","tel":"","addr":"경기도 광주시 태전동 261-5번지","category":"일반휴게음식 - 주점"}]},{"lat":"37.39227915","long":"127.218706","items":[{"name":"INSTEM(인스템)","tel":"031-752-9627","addr":"경기도 광주시 태전동 522-2번지","category":"주방용구 - 주방용구"}]},{"lat":"37.39530664","long":"127.2085396","items":[{"name":"J&J농구교실","tel":"031-7736-2838","addr":"경기도 광주시 태전동 467-33번지","category":"레저업소 - 기타레져업소"}]},{"lat":"37.38649452","long":"127.2377046","items":[{"name":"JJang's English(장쌤영어)","tel":"","addr":"경기도 광주시 태전동 688번지 쌍용2단지아파트","category":"학원 - 기타 교육기관"}]},{"lat":"37.39314199","long":"127.2247275","items":[{"name":"KP","tel":"070-8245-1438","addr":"경기도 광주시 태전동 366-2번지","category":"유통업 영리 - 슈퍼마켓"},{"name":"옛날맛집","tel":"031-768-3530","addr":"경기도 광주시 태전동 366-2번지","category":"일반휴게음식 - 일반한식"}]},{"lat":"37.38969742","long":"127.2308941","items":[{"name":"OK마트/(주)바이블","tel":"031-767-9322","addr":"경기도 광주시 태전동 247-1번지","category":"유통업 영리 - 슈퍼마켓"},{"name":"서울기계","tel":"031-768-4578","addr":"경기도 광주시 태전동 247-1번지","category":"기타 - 기계공구"}]},{"lat":"37.39289156","long":"127.2285098","items":[{"name":"Orange Jok (오렌지족)","tel":"031-763-9551","addr":"경기도 광주시 태전동 271-2번지","category":"일반휴게음식 - 일반한식"},{"name":"농장식당","tel":"031-761-7664","addr":"경기도 광주시 태전동 271-2번지","category":"일반휴게음식 - 일반한식"},{"name":"아찌네즉석떡볶이","tel":"031-763-9277","addr":"경기도 광주시 태전동 271-2번지 1층","category":"일반휴게음식 - 스넥"},{"name":"태봉포차","tel":"","addr":"경기도 광주시 태전동 271-2번지","category":"일반휴게음식 - 주점"}]},{"lat":"37.39306376","long":"127.2279795","items":[{"name":"SHUNJI","tel":"","addr":"경기도 광주시 태전동 280-1번지 태경빌딩 1층 104호","category":"일반휴게음식 - 일식·회집"},{"name":"다온카페","tel":"","addr":"경기도 광주시 태전동 280-1번지 태경빌딩 105호","category":"일반휴게음식 - 서양음식"},{"name":"뜻품고","tel":"031-766-8684","addr":"경기도 광주시 태전동 280-1번지 태경빌딩 1층 107호","category":"일반휴게음식 - 일반한식"},{"name":"라인필라테스","tel":"031-762-3434","addr":"경기도 광주시 태전동 280-1번지 태경프라자 401호","category":"레저업소 - 헬스클럽"},{"name":"민낯뷰티","tel":"","addr":"경기도 광주시 태전동 280-1번지 태경빌딩 1층 110호","category":"보건위생 - 피부미용실"},{"name":"쁘띠몽드","tel":"031-768-7657","addr":"경기도 광주시 태전동 280-1번지 태경빌딩 303호","category":"일반휴게음식 - 서양음식"},{"name":"앙포레모리노헤어 태전점","tel":"031-763-4041","addr":"경기도 광주시 태전동 280-1번지 태경빌딩 1층 103호","category":"보건위생 - 미용원"},{"name":"우쿠야 앤 올떡 광주 태전점","tel":"031-766-2801","addr":"경기도 광주시 태전동 280-1번지 태경빌딩 1층 113호","category":"일반휴게음식 - 일반한식"},{"name":"으뜸모바일","tel":"031-764-0930","addr":"경기도 광주시 태전동 280-1번지 태경빌딩 101호","category":"사무통신 - 통신기기"},{"name":"태전닥터정이클래스영어학원","tel":"031-769-0579","addr":"경기도 광주시 태전동 280-1번지 태경빌딩 402호","category":"학원 - 외국어학원"}]},{"lat":"37.38665027","long":"127.2364066","items":[{"name":"Sonsuda(손수다)","tel":"031-764-3705","addr":"경기도 광주시 태전동 687번지 쌍용3단지아파트","category":"신변잡화 - 액세서리"}]},{"lat":"37.38420092","long":"127.2356989","items":[{"name":"The반찬","tel":"031-797-8890","addr":"경기도 광주시 태전동 143번지 1층","category":"음료식품 - 기타음료식품"},{"name":"광주일등급학원","tel":"031-765-6430","addr":"경기도 광주시 태전동 143번지 광남 상가 201호","category":"학원 - 보습학원"},{"name":"멕시카나 태전점","tel":"031-762-3392","addr":"경기도 광주시 태전동 143번지 1층","category":"일반휴게음식 - 스넥"},{"name":"베스트아카데미학원","tel":"031-767-7955","addr":"경기도 광주시 태전동 143번지 3층","category":"학원 - 보습학원"},{"name":"설헤어","tel":"031-765-0072","addr":"경기도 광주시 태전동 143번지 1층 광낭상가 전면좌측","category":"보건위생 - 미용원"},{"name":"성화가설산업","tel":"031-769-9067","addr":"경기도 광주시 태전동 143번지","category":"건축자재 - 기타건축자재"},{"name":"에쎄레돌체","tel":"","addr":"경기도 광주시 태전동 143번지 1층","category":"음료식품 - 기타음료식품"},{"name":"와룡국어교습소","tel":"031-763-1489","addr":"경기도 광주시 태전동 143번지 광남상가 3층","category":"회원제형태 - 학원"},{"name":"코코네일","tel":"031-765-1013","addr":"경기도 광주시 태전동 143번지 1층","category":"보건위생 - 피부미용실"},{"name":"코코네일","tel":"031-765-1013","addr":"경기도 광주시 태전동 143번지","category":"보건위생 - 피부미용실"}]},{"lat":"37.38861839","long":"127.2297617","items":[{"name":"YB악기","tel":"031-762-9779","addr":"경기도 광주시 태전동 628번지 성원프라자 114호","category":"레져용품 - 악기점"},{"name":"경희대성원태권도장","tel":"031-763-6160","addr":"경기도 광주시 태전동 628번지 성원프라자 4층 402~404호","category":"학원 - 예·체능계학원"},{"name":"고양이미술관","tel":"031-764-7147","addr":"경기도 광주시 태전동 628번지 성원프라자 1층","category":"신변잡화 - 신발"},{"name":"나랏말씀국어교습소","tel":"","addr":"경기도 광주시 태전동 628번지 성원프라자 2층 202호","category":"학원 - 보습학원"},{"name":"네일,그대와","tel":"031-767-4141","addr":"경기도 광주시 태전동 628번지 성원프라자 144호","category":"보건위생 - 피부미용실"},{"name":"동아찜닭","tel":"031-767-6966","addr":"경기도 광주시 태전동 628번지 성원프라자 217호","category":"일반휴게음식 - 일반한식"},{"name":"떡깨비","tel":"031-766-3933","addr":"경기도 광주시 태전동 628번지 성원프라자 2층 217호","category":"일반휴게음식 - 일반한식"},{"name":"레드","tel":"031-766-0619","addr":"경기도 광주시 태전동 628번지 성원프라자 1층 39호","category":"의류 - 정장"},{"name":"레전드","tel":"031-323-6016","addr":"경기도 광주시 태전동 628번지 성원프라자 126호","category":"의류 - 정장"},{"name":"루시골드","tel":"031-000-0000","addr":"경기도 광주시 태전동 628번지 성원프라자 1층 134호","category":"신변잡화 - 액세서리"},{"name":"마녀네일&뷰티","tel":"031-768-6103","addr":"경기도 광주시 태전동 628번지 성원프라자 2층 210호","category":"보건위생 - 피부미용실"},{"name":"마루","tel":"031-798-3131","addr":"경기도 광주시 태전동 628번지 성원프라자 133호","category":"의류 - 정장"},{"name":"마카마카마카롱 태전동점","tel":"031-000-0000","addr":"경기도 광주시 태전동 628번지 성원프라자 121호","category":"음료식품 - 기타음료식품"},{"name":"만리장성","tel":"031-769-1756","addr":"경기도 광주시 태전동 628번지","category":"일반휴게음식 - 중국식"},{"name":"맛나반찬","tel":"031-769-0311","addr":"경기도 광주시 태전동 628번지 성원프라자 147호","category":"음료식품 - 기타음료식품"},{"name":"매쓰솔루션수학교습소","tel":"031-252-3474","addr":"경기도 광주시 태전동 628번지 성원프라자 315호","category":"학원 - 보습학원"},{"name":"메종드 미스바","tel":"","addr":"경기도 광주시 태전동 628번지 성원프라자 136호","category":"의류 - 정장"},{"name":"명153수학교습소","tel":"031-761-0059","addr":"경기도 광주시 태전동 628번지 성원프라자 221호","category":"학원 - 보습학원"},{"name":"무림합기도","tel":"070-7550-7393","addr":"경기도 광주시 태전동 628번지 성원프라자 304호","category":"학원 - 예·체능계학원"},{"name":"바이올린스튜디오교습소","tel":"031-767-4352","addr":"경기도 광주시 태전동 628번지 성원프라자 3층 308호","category":"학원 - 예·체능계학원"},{"name":"바켄도르프과자점","tel":"031-797-2147","addr":"경기도 광주시 태전동 628번지 성원프라자 108호","category":"음료식품 - 제과점"},{"name":"보드앤","tel":"031-765-0442","addr":"경기도 광주시 태전동 628번지 성원프라자 307호","category":"음료식품 - 기타음료식품"},{"name":"본뜰솥뚜껑김치삼겹살","tel":"031-761-3996","addr":"경기도 광주시 태전동 628번지 성원프라자 201호","category":"일반휴게음식 - 일반한식"},{"name":"부엉이","tel":"031-769-7639","addr":"경기도 광주시 태전동 628번지 성원프라자 126호,127호","category":"의류 - 정장"},{"name":"블럭키드","tel":"031-765-2979","addr":"경기도 광주시 태전동 628번지 성원프라자 412,413호","category":"음료식품 - 기타음료식품"},{"name":"삼성영어태전2학원","tel":"031-762-9009","addr":"경기도 광주시 태전동 628번지 성원프라자 414호,415호","category":"회원제형태 - 학원"},{"name":"새집인테리어.메인","tel":"031-766-9886","addr":"경기도 광주시 태전동 628번지 성원프라자 118호","category":"의류 - 정장"},{"name":"성원음악학원","tel":"031-797-5822","addr":"경기도 광주시 태전동 628번지 성원프라자 407호","category":"회원제형태 - 학원"},{"name":"성원인테리어","tel":"031-797-6776","addr":"경기도 광주시 태전동 628번지 성원프라자 143호","category":"건축자재 - 인테리어전문"},{"name":"성원텔레콤","tel":"031-765-7102","addr":"경기도 광주시 태전동 628번지 성원프라자 1층 132호","category":"사무통신 - 통신기기"},{"name":"성원프라자번영회","tel":"031-763-7362","addr":"경기도 광주시 태전동 628번지 성원프라자","category":"자동차정비 유지 - 주차장"},{"name":"썬초본화장품","tel":"031-721-7750","addr":"경기도 광주시 태전동 628번지 성원프라자 210호","category":"보건위생 - 화장품"},{"name":"썸(SOME )","tel":"031-765-2974","addr":"경기도 광주시 태전동 628번지 성원프라자 113호","category":"의류 - 기타의류"},{"name":"아르떼미술학원","tel":"031-768-6199","addr":"경기도 광주시 태전동 628번지 성원프라자 2층 204호","category":"학원 - 예·체능계학원"},{"name":"엄마는 예쁘다","tel":"","addr":"경기도 광주시 태전동 628번지 성원프라자 1층 119호","category":"의류 - 정장"},{"name":"에듀탑학원","tel":"031-8027-2011","addr":"경기도 광주시 태전동 628번지 성원프라자 206호","category":"학원 - 보습학원"},{"name":"연세소아과의원","tel":"031-763-6490","addr":"경기도 광주시 태전동 628번지","category":"의원 - 의원"},{"name":"오렌지와낑깡","tel":"031-798-0357","addr":"경기도 광주시 태전동 628번지 성원프라자 1층 130호","category":"신변잡화 - 기타잡화"},{"name":"오복떡집","tel":"031-762-9020","addr":"경기도 광주시 태전동 628번지 성원프라자 1층 148호","category":"음료식품 - 제과점"},{"name":"원 SUSHI PUB","tel":"031-767-2806","addr":"경기도 광주시 태전동 628번지 성원프라자 203호","category":"일반휴게음식 - 일식·회집"},{"name":"유럽황실자수","tel":"031-765-0264","addr":"경기도 광주시 태전동 628번지 성원프라자 1층 123호","category":"직물 - 기타직물"},{"name":"이화약국","tel":"031-797-2408","addr":"경기도 광주시 태전동 628번지 성원프라자 111호","category":"약국 - 약국"},{"name":"자르니헤어샵","tel":"031-763-8829","addr":"경기도 광주시 태전동 628번지 성원프라자 2층 211호","category":"보건위생 - 미용원"},{"name":"지오란제리","tel":"031-769-6856","addr":"경기도 광주시 태전동 628번지 성원프라자 1층 128호","category":"의류 - 내의판매"},{"name":"지혜서점","tel":"031-763-5533","addr":"경기도 광주시 태전동 628번지 성원프라자 117호","category":"서적문구 - 일반서적"},{"name":"차수학학원","tel":"070-8272-4205","addr":"경기도 광주시 태전동 628번지 성원프라자","category":"학원 - 보습학원"},{"name":"창작나라조형마을","tel":"031-797-3349","addr":"경기도 광주시 태전동 628번지 성원프라자 144호","category":"문화.취미 - 문화취미기타"},{"name":"처음처럼","tel":"031-766-7571","addr":"경기도 광주시 태전동 628번지 성원프라자 1층 109호","category":"보건위생 - 미용재료"},{"name":"충무식당","tel":"031-797-7976","addr":"경기도 광주시 태전동 628번지","category":"일반휴게음식 - 일반한식"},{"name":"치킨선생","tel":"031-766-7248","addr":"경기도 광주시 태전동 628번지 성원프라자 105호","category":"일반휴게음식 - 스넥"},{"name":"커피나무","tel":"070-8264-9072","addr":"경기도 광주시 태전동 628번지 성원프라자 1층 116호","category":"일반휴게음식 - 서양음식"},{"name":"커피베이태전동점","tel":"031-765-1565","addr":"경기도 광주시 태전동 628번지 성원프라자","category":"일반휴게음식 - 서양음식"},{"name":"코코아","tel":"031-768-5591","addr":"경기도 광주시 태전동 628번지 성원프라자 129호","category":"의류 - 아동의류"},{"name":"크린토피아(성원점)","tel":"031-769-4242","addr":"경기도 광주시 태전동 628번지 성원프라자 142호","category":"수리서비스 - 세탁소"},{"name":"클리포드학원","tel":"031-797-7997","addr":"경기도 광주시 태전동 628번지 성원프라자 316호","category":"학원 - 보습학원"},{"name":"태전성원수학교습소","tel":"031-8028-4554","addr":"경기도 광주시 태전동 628번지 성원프라자 413호","category":"학원 - 보습학원"},{"name":"튼튼영어마스터클럽태전학원","tel":"031-763-7905","addr":"경기도 광주시 태전동 628번지 성원프라자 209호","category":"학원 - 보습학원"},{"name":"파니핑크","tel":"031-764-2161","addr":"경기도 광주시 태전동 628번지 성원 상가 218호","category":"회원제형태 - 학원"},{"name":"팔레트","tel":"","addr":"경기도 광주시 태전동 628번지 성원프라자 120호","category":"보건위생 - 미용원"},{"name":"팝콘아동복","tel":"031-768-5320","addr":"경기도 광주시 태전동 628번지 성원프라자 122호","category":"의류 - 아동의류"},{"name":"퍼스트영어교습소","tel":"031-760-0570","addr":"경기도 광주시 태전동 628번지 성원프라자 226호","category":"학원 - 보습학원"},{"name":"프라임학원","tel":"031-767-0582","addr":"경기도 광주시 태전동 628번지 성원프라자 414,415호","category":"학원 - 보습학원"},{"name":"피부나라","tel":"031-766-9886","addr":"경기도 광주시 태전동 628번지 성원프라자 2층 225호","category":"보건위생 - 피부미용실"},{"name":"하이축산","tel":"031-763-9198","addr":"경기도 광주시 태전동 628번지 성원프라자 101동 102호","category":"음료식품 - 정육점"},{"name":"한예종탄츠무용학원","tel":"031-763-8555","addr":"경기도 광주시 태전동 628번지 성원프라자단지 상가 4층 416호","category":"회원제형태 - 학원"},{"name":"해법중국어태전교실교습소","tel":"031-769-3399","addr":"경기도 광주시 태전동 628번지 성원프라자 2층 221호","category":"회원제형태 - 학원"},{"name":"해법태전영어교습소","tel":"031-769-5228","addr":"경기도 광주시 태전동 628번지 성원프라자 224호","category":"회원제형태 - 학원"},{"name":"헤어도우미","tel":"031-797-5268","addr":"경기도 광주시 태전동 628번지 성원프라자 1층 110호","category":"보건위생 - 미용원"}]},{"lat":"37.38825339","long":"127.2321432","items":[{"name":"e편한헤어","tel":"031-767-6936","addr":"경기도 광주시 태전동 695번지 상가동1동 1층 1-4호","category":"보건위생 - 미용원"},{"name":"vivi쌤영어","tel":"070-8160-8479","addr":"경기도 광주시 태전동 695번지 이편한세상태전2차","category":"학원 - 기타 교육기관"},{"name":"메타교육","tel":"","addr":"경기도 광주시 태전동 695번지 이편한세상태전2차","category":"학원 - 기타 교육기관"},{"name":"속눈썹 일일구","tel":"031-766-2243","addr":"경기도 광주시 태전동 695번지 이편한세상태전2차 지층 2-1호","category":"보건위생 - 피부미용실"},{"name":"율음악학원","tel":"031-797-8035","addr":"경기도 광주시 태전동 695번지 2층 일부","category":"학원 - 예·체능계학원"},{"name":"이끌림헤어","tel":"031-761-3357","addr":"경기도 광주시 태전동 695번지 상가 2동 2-2호","category":"보건위생 - 미용원"},{"name":"이마트24 광주태전점","tel":"031-111-1111","addr":"경기도 광주시 태전동 695번지 이편한세상단지내상가 상가 2동 지하1층 2-8,2-9호","category":"유통업 영리 - 편 의 점"},{"name":"자전거상설할인매장","tel":"031-761-0252","addr":"경기도 광주시 태전동 695번지 이편한세상태전2차 1동 1층 1-5호","category":"레져용품 - 스포츠·레져용품"},{"name":"통큰 두마리 찜닭","tel":"031-766-0016","addr":"경기도 광주시 태전동 695번지 상가 1동 1층 1-1호","category":"일반휴게음식 - 일반한식"}]},{"lat":"37.38669927","long":"127.2343968","items":[{"name":"가마로강정","tel":"","addr":"경기도 광주시 태전동 162-5번지 1층 106호","category":"일반휴게음식 - 일반한식"},{"name":"나이스가이(태전점)","tel":"031-765-0918","addr":"경기도 광주시 태전동 162-5번지 퍼스트타워 107호","category":"보건위생 - 미용원"},{"name":"몽샹82 경기광주점","tel":"031-765-1366","addr":"경기도 광주시 태전동 162-5번지 태전3지구 G1 1층 103호","category":"일반휴게음식 - 일반한식"},{"name":"신전떡볶이","tel":"031-765-8700","addr":"경기도 광주시 태전동 162-5번지 1층 102호","category":"일반휴게음식 - 일반한식"},{"name":"펄카페","tel":"","addr":"경기도 광주시 태전동 162-5번지 퍼스트타워 1층 105호","category":"일반휴게음식 - 서양음식"},{"name":"하하동물병원","tel":"031-766-3463","addr":"경기도 광주시 태전동 162-5번지 퍼스트타워 104호","category":"기타의료기관 - 동물병원"}]},{"lat":"37.38550579","long":"127.2365046","items":[{"name":"가온누리학원","tel":"031-765-3634","addr":"경기도 광주시 태전동 7-4번지 태림빌딩 502호","category":"학원 - 보습학원"},{"name":"내츄럴헤어비스","tel":"031-796-6262","addr":"경기도 광주시 태전동 7-4번지 태림빌딩 102호","category":"보건위생 - 미용원"},{"name":"별의공작소미술학원","tel":"070-8767-9666","addr":"경기도 광주시 태전동 7-4번지 태림빌딩 501호","category":"학원 - 예·체능계학원"},{"name":"스마일명품찹쌀꽈배기","tel":"","addr":"경기도 광주시 태전동 7-4번지 태림빌딩","category":"일반휴게음식 - 스넥"},{"name":"음악사랑학원","tel":"031-767-3285","addr":"경기도 광주시 태전동 7-4번지 태림빌딩 202호","category":"학원 - 예·체능계학원"},{"name":"이보영토킹클럽태전어학원","tel":"031-767-9212","addr":"경기도 광주시 태전동 7-4번지 태림빌딩 401호","category":"회원제형태 - 학원"},{"name":"제이와이(JY)수학전문학원","tel":"031-768-4894","addr":"경기도 광주시 태전동 7-4번지 태림빌딩 301호","category":"학원 - 보습학원"},{"name":"조이빈","tel":"031-769-7323","addr":"경기도 광주시 태전동 7-4번지 태림빌딩 103호","category":"일반휴게음식 - 서양음식"},{"name":"최혜정수학전문학원","tel":"031-797-9674","addr":"경기도 광주시 태전동 7-4번지 태림빌딩 302호","category":"학원 - 보습학원"},{"name":"태전비상아이비츠학원","tel":"031-765-3677","addr":"경기도 광주시 태전동 7-4번지 태림빌딩 3층 302호","category":"학원 - 보습학원"},{"name":"태전페르마학원","tel":"031-765-9212","addr":"경기도 광주시 태전동 7-4번지 태림빌딩 501호","category":"회원제형태 - 학원"}]},{"lat":"37.38614124","long":"127.2340902","items":[{"name":"가온누리학원 2관","tel":"031-764-3634","addr":"경기도 광주시 태전동 160-7번지 2층 202,203호","category":"학원 - 보습학원"},{"name":"서강수학교습소","tel":"031-8028-0881","addr":"경기도 광주시 태전동 160-7번지 녹산빌딩 302호","category":"학원 - 보습학원"},{"name":"에스테틱 피움","tel":"031-761-0711","addr":"경기도 광주시 태전동 160-7번지 201호","category":"보건위생 - 피부미용실"},{"name":"월남선생","tel":"031-798-2601","addr":"경기도 광주시 태전동 160-7번지 2층 206호","category":"일반휴게음식 - 서양음식"},{"name":"지니소아청소년과의원","tel":"031-764-0713","addr":"경기도 광주시 태전동 160-7번지 3층","category":"의원 - 의원"},{"name":"코랄아트미술교습소","tel":"031-111-1111","addr":"경기도 광주시 태전동 160-7번지 3층 301호","category":"학원 - 예·체능계학원"},{"name":"키즈닥터","tel":"031-763-6623","addr":"경기도 광주시 태전동 160-7번지 3층 5호","category":"학원 - 학습지 교육"},{"name":"해먹요가 기구필라테스 플라잉","tel":"031-766-7242","addr":"경기도 광주시 태전동 160-7번지 녹산빌딩 2층 204호","category":"레저업소 - 헬스클럽"}]},{"lat":"37.393002","long":"127.2272905","items":[{"name":"가우디헤어샵","tel":"031-7678-8886","addr":"경기도 광주시 태전동 281-9번지 2층","category":"보건위생 - 미용원"},{"name":"디저트래","tel":"","addr":"경기도 광주시 태전동 281-9번지 요셉빌딩 1층","category":"일반휴게음식 - 서양음식"}]},{"lat":"37.39389267","long":"127.2232051","items":[{"name":"간판과 사람들","tel":"031-768-0003","addr":"경기도 광주시 태전동 371-3번지","category":"용역 서비스 - 종합용역"},{"name":"주식회사 성일팩","tel":"031-765-4064","addr":"경기도 광주시 태전동 371-3번지","category":"유통업 영리 - 기타유통업"}]},{"lat":"37.39136525","long":"127.230391","items":[{"name":"감성커피경기광주태전점","tel":"031-762-7651","addr":"경기도 광주시 태전동 261-99번지 101호","category":"일반휴게음식 - 서양음식"},{"name":"네네치킨(태전점)","tel":"031-767-9200","addr":"경기도 광주시 태전동 261-99번지","category":"일반휴게음식 - 주점"},{"name":"매운불족발","tel":"031-769-9199","addr":"경기도 광주시 태전동 261-99번지 1층 103호","category":"일반휴게음식 - 일반한식"},{"name":"부산아구찜","tel":"031-797-3371","addr":"경기도 광주시 태전동 261-99번지","category":"일반휴게음식 - 일반한식"},{"name":"챔프 노래연습장","tel":"031-768-2230","addr":"경기도 광주시 태전동 261-99번지 2층","category":"레저업소 - 노 래 방"},{"name":"컴퓨터119","tel":"031-766-1472","addr":"경기도 광주시 태전동 261-99번지 101호","category":"사무통신 - 컴퓨터"},{"name":"킹스타피자","tel":"031-768-2545","addr":"경기도 광주시 태전동 261-99번지","category":"일반휴게음식 - 서양음식"},{"name":"펀비어킹","tel":"031-766-2552","addr":"경기도 광주시 태전동 261-99번지","category":"일반휴게음식 - 스넥"}]},{"lat":"37.3939101","long":"127.2235214","items":[{"name":"감자꽃버스","tel":"031-764-1462","addr":"경기도 광주시 태전동 371-2번지 크레앙스 E동 1층","category":"용역 서비스 - 종합용역"}]},{"lat":"37.39308414","long":"127.2219267","items":[{"name":"강서꽃농원","tel":"031-759-4131","addr":"경기도 광주시 태전동 350-2번지","category":"문화.취미 - 화원"}]},{"lat":"37.39450911","long":"127.2260076","items":[{"name":"건강&미의 하모니","tel":"070-7666-2855","addr":"경기도 광주시 태전동 287번지","category":"신변잡화 - 기타잡화"}]},{"lat":"37.39256241","long":"127.2310045","items":[{"name":"건강한탁구교실","tel":"031-797-6847","addr":"경기도 광주시 태전동 267-2번지","category":"레저업소 - 기타레져업소"},{"name":"유메","tel":"070-8899-8222","addr":"경기도 광주시 태전동 267-2번지","category":"일반휴게음식 - 일식·회집"},{"name":"육감만족","tel":"031-764-9216","addr":"경기도 광주시 태전동 267-2번지 1층 101호","category":"일반휴게음식 - 일반한식"},{"name":"현대경안판매대리점","tel":"031-767-7055","addr":"경기도 광주시 태전동 267-2번지","category":"자동차판매 - 국산신차판매"},{"name":"홀릭스터디카페","tel":"","addr":"경기도 광주시 태전동 267-2번지 2층 홀릭스터디카페","category":"용역 서비스 - 사무서비스"}]},{"lat":"37.39095136","long":"127.2300962","items":[{"name":"견우동물병원","tel":"031-767-0079","addr":"경기도 광주시 태전동 261-14번지","category":"기타의료기관 - 동물병원"},{"name":"교촌치킨(태전점)","tel":"031-769-1091","addr":"경기도 광주시 태전동 261-14번지","category":"일반휴게음식 - 스넥"},{"name":"꽃내음","tel":"031-797-3303","addr":"경기도 광주시 태전동 261-14번지","category":"음료식품 - 기타음료식품"},{"name":"닭터네","tel":"031-797-0711","addr":"경기도 광주시 태전동 261-14번지 105호","category":"일반휴게음식 - 일반한식"},{"name":"더 샵PC방","tel":"031-0000-0000","addr":"경기도 광주시 태전동 261-14번지 2층","category":"레저업소 - 기타레져업소"},{"name":"무지개노래연습장","tel":"031-763-0035","addr":"경기도 광주시 태전동 261-14번지 202호","category":"레저업소 - 노 래 방"},{"name":"자금성","tel":"031-767-8682","addr":"경기도 광주시 태전동 261-14번지 대한 상가 102호","category":"일반휴게음식 - 중국식"},{"name":"죠슈아헤어","tel":"031-766-5841","addr":"경기도 광주시 태전동 261-14번지","category":"보건위생 - 미용원"}]},{"lat":"37.39355774","long":"127.2240398","items":[{"name":"경희늘편한한의원","tel":"","addr":"경기도 광주시 태전동 370번지 2층","category":"의원 - 한의원"},{"name":"수제돈까스공방","tel":"031-797-0930","addr":"경기도 광주시 태전동 370번지","category":"일반휴게음식 - 서양음식"}]},{"lat":"37.38159032","long":"127.2298647","items":[{"name":"경희대 한아름 태권도장","tel":"031-765-7698","addr":"경기도 광주시 태전동 702-20번지 서원프라자2층 4층 401호","category":"학원 - 예·체능계학원"},{"name":"꼬지사께 태전점","tel":"031-763-7844","addr":"경기도 광주시 태전동 702-20번지 2층 203호","category":"일반휴게음식 - 주점"},{"name":"메이드인(MADE IN)","tel":"031-761-9876","addr":"경기도 광주시 태전동 702-20번지 2동 201호","category":"보건위생 - 미용원"},{"name":"스폴영어학원","tel":"031-767-2077","addr":"경기도 광주시 태전동 702-20번지 서원프라자 202호","category":"학원 - 외국어학원"}]},{"lat":"37.38500161","long":"127.2363111","items":[{"name":"고기이야기","tel":"031-769-9615","addr":"경기도 광주시 태전동 7-5번지 상가동 지하1층 102호","category":"음료식품 - 정육점"},{"name":"샌드위치가 맛있는 태전동커피","tel":"031-766-6244","addr":"경기도 광주시 태전동 7-5번지 태전지웰 상가동 지1층 108호","category":"일반휴게음식 - 서양음식"},{"name":"소반,정","tel":"031-766-3534","addr":"경기도 광주시 태전동 7-5번지 상가동 제지하1층 105호","category":"일반휴게음식 - 일반한식"}]},{"lat":"37.39492472","long":"127.2105375","items":[{"name":"고불로 식당","tel":"031-769-3573","addr":"경기도 광주시 태전동 467-27번지 1층","category":"일반휴게음식 - 일반한식"}]},{"lat":"37.39239218","long":"127.2305071","items":[{"name":"고향숯불막창","tel":"031-768-6601","addr":"경기도 광주시 태전동 261-7번지","category":"일반휴게음식 - 일반한식"},{"name":"수","tel":"031-765-6094","addr":"경기도 광주시 태전동 261-7번지","category":"보건위생 - 기타대인서비스"}]},{"lat":"37.37756051","long":"127.2310606","items":[{"name":"고향푸드","tel":"031-765-4341","addr":"경기도 광주시 태전동 39번지","category":"일반휴게음식 - 일반한식"}]},{"lat":"37.39120338","long":"127.2302325","items":[{"name":"골드앤올거래소","tel":"031-622-1533","addr":"경기도 광주시 태전동 261-23번지 1층 103호","category":"신변잡화 - 귀금속"},{"name":"놀러와노래연습장","tel":"031-767-0803","addr":"경기도 광주시 태전동 261-23번지 3층","category":"레저업소 - 노 래 방"},{"name":"돈버닝PC방","tel":"070-8861-3009","addr":"경기도 광주시 태전동 261-23번지 4층","category":"레저업소 - 기타레져업소"},{"name":"점핑하이 태전점","tel":"","addr":"경기도 광주시 태전동 261-23번지 5층","category":"레저업소 - 헬스클럽"},{"name":"조가네명품족발보쌈","tel":"031-764-8885","addr":"경기도 광주시 태전동 261-23번지 2층","category":"일반휴게음식 - 일반한식"},{"name":"초록마을","tel":"031-765-6280","addr":"경기도 광주시 태전동 261-23번지","category":"유통업 영리 - 슈퍼마켓"},{"name":"태전밝은안경원","tel":"031-765-3663","addr":"경기도 광주시 태전동 261-23번지 1층 101호~102호","category":"보건위생 - 안경"}]},{"lat":"37.39261615","long":"127.231174","items":[{"name":"골드핑거(GOLD FINGER)","tel":"031-765-8753","addr":"경기도 광주시 태전동 267-1번지","category":"보건위생 - 피부미용실"},{"name":"광일세탁소","tel":"031-768-1801","addr":"경기도 광주시 태전동 267-1번지 1층","category":"수리서비스 - 세탁소"},{"name":"벨리타헤어살롱","tel":"031-762-3618","addr":"경기도 광주시 태전동 267-1번지 202호","category":"보건위생 - 미용원"},{"name":"오-바(O-BAR)","tel":"031-762-6758","addr":"경기도 광주시 태전동 267-1번지 지하1층","category":"일반휴게음식 - 일반한식"},{"name":"인삼마을","tel":"031-767-2811","addr":"경기도 광주시 태전동 267-1번지","category":"건강식품 - 인삼제품"},{"name":"참치가든","tel":"031-265-6024","addr":"경기도 광주시 태전동 267-1번지 101호","category":"일반휴게음식 - 일식·회집"},{"name":"치어스 태전점","tel":"031-798-8780","addr":"경기도 광주시 태전동 267-1번지 2층 201호","category":"일반휴게음식 - 서양음식"}]},{"lat":"37.39228556","long":"127.2297276","items":[{"name":"광남검도관","tel":"031-699-6968","addr":"경기도 광주시 태전동 272-2번지 2층","category":"회원제형태 - 학원"},{"name":"수빈헤어샵","tel":"031-768-1740","addr":"경기도 광주시 태전동 272-2번지","category":"보건위생 - 미용원"},{"name":"철뚝집(태전점)","tel":"031-763-6097","addr":"경기도 광주시 태전동 272-2번지","category":"일반휴게음식 - 일반한식"}]},{"lat":"37.39003514","long":"127.2189819","items":[{"name":"광남식당","tel":"031-767-7921","addr":"경기도 광주시 태전동 534-1번지","category":"일반휴게음식 - 일반한식"}]},{"lat":"37.39297461","long":"127.2274824","items":[{"name":"광어9900","tel":"031-768-9931","addr":"경기도 광주시 태전동 281-1번지","category":"일반휴게음식 - 일반한식"},{"name":"태전모터스","tel":"031-763-3439","addr":"경기도 광주시 태전동 281-1번지","category":"자동차정비 유지 - 자동차정비"}]},{"lat":"37.38887019","long":"127.2300109","items":[{"name":"광주미래학원","tel":"031-765-1588","addr":"경기도 광주시 태전동 252-1번지 4층","category":"학원 - 보습학원"},{"name":"블루클럽","tel":"031-768-8998","addr":"경기도 광주시 태전동 252-1번지","category":"보건위생 - 미용원"},{"name":"선진피아노","tel":"070-8734-8422","addr":"경기도 광주시 태전동 252-1번지 3층 1호","category":"학원 - 예·체능계학원"},{"name":"아발론교육태전어학원","tel":"031-765-0909","addr":"경기도 광주시 태전동 252-1번지","category":"학원 - 외국어학원"},{"name":"올가스킨","tel":"","addr":"경기도 광주시 태전동 252-1번지","category":"보건위생 - 피부미용실"},{"name":"윤선생영어교실광주태전","tel":"031-769-0584","addr":"경기도 광주시 태전동 252-1번지 5층","category":"학원 - 학습지 교육"},{"name":"윤선생영어숲태전어학원","tel":"031-764-3829","addr":"경기도 광주시 태전동 252-1번지","category":"학원 - 외국어학원"},{"name":"정대박나주곰탕(태진점)","tel":"031-699-6339","addr":"경기도 광주시 태전동 252-1번지 1층","category":"일반휴게음식 - 일반한식"},{"name":"태전밝은안과","tel":"031-765-7515","addr":"경기도 광주시 태전동 252-1번지 5층","category":"의원 - 의원"},{"name":"태전연세가정의학과","tel":"031-765-5041","addr":"경기도 광주시 태전동 252-1번지 3층","category":"병원 - 병원"},{"name":"태전연세이비인후과의원","tel":"031-765-5075","addr":"경기도 광주시 태전동 252-1번지 지층 1호","category":"의원 - 의원"},{"name":"하우스터디 경기광주센터 독서실","tel":"031-763-0955","addr":"경기도 광주시 태전동 252-1번지 6층","category":"학원 - 독서실"},{"name":"하우스터디 경기광주센터 모임공간","tel":"031-763-0955","addr":"경기도 광주시 태전동 252-1번지 6층","category":"용역 서비스 - 사무서비스"}]},{"lat":"37.39488991","long":"127.2098372","items":[{"name":"광주분체","tel":"031-798-5451","addr":"경기도 광주시 태전동 467-22번지","category":"건축자재 - 페인트"}]},{"lat":"37.39236256","long":"127.2223424","items":[{"name":"광주스포츠","tel":"031-766-7649","addr":"경기도 광주시 태전동 350-5번지 정현아트빌 상가 102호","category":"레져용품 - 스포츠·레져용품"},{"name":"안심치킨","tel":"031-766-1235","addr":"경기도 광주시 태전동 350-5번지 1층 102호","category":"일반휴게음식 - 일반한식"},{"name":"이화수산 조개구이","tel":"031-000-0000","addr":"경기도 광주시 태전동 350-5번지","category":"일반휴게음식 - 일반한식"}]},{"lat":"37.38530888","long":"127.2358378","items":[{"name":"광주시 청소년수련관","tel":"031-779-2450","addr":"경기도 광주시 태전동 7-10번지 광주시청소년수련관 4동","category":"학원 - 기타 교육기관"}]},{"lat":"37.39205811","long":"127.2308674","items":[{"name":"광주실용무용학원","tel":"031-768-0034","addr":"경기도 광주시 태전동 262-2번지","category":"학원 - 예·체능계학원"}]},{"lat":"37.39286934","long":"127.2307005","items":[{"name":"광주정육점식당","tel":"031-766-0998","addr":"경기도 광주시 태전동 269-9번지","category":"일반휴게음식 - 일반한식"},{"name":"광주축산물도매센타","tel":"031-766-0998","addr":"경기도 광주시 태전동 269-9번지","category":"음료식품 - 정육점"}]},{"lat":"37.39292428","long":"127.225506","items":[{"name":"광주종로약국","tel":"031-766-6663","addr":"경기도 광주시 태전동 298번지 1층","category":"약국 - 약국"},{"name":"끌리 (G)헤어","tel":"031-8027-0022","addr":"경기도 광주시 태전동 298번지 102호","category":"보건위생 - 미용원"},{"name":"끌리G메이크업","tel":"","addr":"경기도 광주시 태전동 298번지 102호","category":"보건위생 - 미용원"},{"name":"순천댁네","tel":"031-768-1685","addr":"경기도 광주시 태전동 298번지","category":"일반휴게음식 - 일반한식"},{"name":"카페201","tel":"","addr":"경기도 광주시 태전동 298번지 1층","category":"일반휴게음식 - 서양음식"}]},{"lat":"37.39030838","long":"127.2317881","items":[{"name":"구리시골식당","tel":"031-797-1113","addr":"경기도 광주시 태전동 683번지 1층 101호","category":"일반휴게음식 - 일반한식"},{"name":"성모약국","tel":"031-761-9970","addr":"경기도 광주시 태전동 683번지","category":"약국 - 약국"},{"name":"에스테티아 태전1호점","tel":"031-766-0830","addr":"경기도 광주시 태전동 683번지","category":"보건위생 - 피부미용실"},{"name":"태후사랑","tel":"031-766-0670","addr":"경기도 광주시 태전동 683번지","category":"보건위생 - 이용원"}]},{"lat":"37.39567447","long":"127.2195175","items":[{"name":"국제무인항공교육원","tel":"","addr":"경기도 광주시 태전동 502-51번지 에디스빌","category":"학원 - 기타 교육기관"},{"name":"귀뚜라미 성남중원 서비스","tel":"","addr":"경기도 광주시 태전동 502-51번지 에디스빌","category":"수리서비스 - 기타수리서비스"}]},{"lat":"37.38405687","long":"127.235642","items":[{"name":"그린인테리어","tel":"031-763-3762","addr":"경기도 광주시 태전동 144-1번지","category":"건축자재 - 인테리어전문"},{"name":"커피트리앤모어","tel":"031-765-0323","addr":"경기도 광주시 태전동 144-1번지","category":"일반휴게음식 - 서양음식"}]},{"lat":"37.3922293","long":"127.2308679","items":[{"name":"그집","tel":"031-763-1056","addr":"경기도 광주시 태전동 262-19번지","category":"일반휴게음식 - 일반한식"},{"name":"대구전봇대막창","tel":"031-797-3383","addr":"경기도 광주시 태전동 262-19번지","category":"일반휴게음식 - 일반한식"},{"name":"파워돈","tel":"031-768-5055","addr":"경기도 광주시 태전동 262-19번지","category":"일반휴게음식 - 일반한식"}]},{"lat":"37.38841801","long":"127.2164026","items":[{"name":"극동상사","tel":"","addr":"경기도 광주시 태전동 580-1번지 지하","category":"자동차정비 유지 - 자동차부품"}]},{"lat":"37.3888366","long":"127.2287348","items":[{"name":"글로벌렌탈","tel":"031-769-2759","addr":"경기도 광주시 태전동 228번지 성원아파트","category":"레져용품 - 스포츠·레져용품"},{"name":"대암광주총판","tel":"031-797-0711","addr":"경기도 광주시 태전동 228번지 성원아파트","category":"의류 - 내의판매"},{"name":"영구크린","tel":"031-763-0199","addr":"경기도 광주시 태전동 228번지 성원아파트","category":"용역 서비스 - 종합용역"}]},{"lat":"37.38945253","long":"127.2173089","items":[{"name":"금강금속","tel":"031-761-2325","addr":"경기도 광주시 태전동 549번지","category":"용역 서비스 - 기타용역서비스"}]},{"lat":"37.39475495","long":"127.2197859","items":[{"name":"금강식당","tel":"031-767-0860","addr":"경기도 광주시 태전동 502-1. 14","category":"일반휴게음식 - 일반한식"}]},{"lat":"37.3927579","long":"127.2180411","items":[{"name":"금강촌","tel":"031-768-8842","addr":"경기도 광주시 태전동 523-2번지","category":"일반휴게음식 - 일반한식"}]},{"lat":"37.3986133","long":"127.20856","items":[{"name":"금단식당","tel":"031-767-0227","addr":"경기도 광주시 태전동 443-4번지 1층","category":"일반휴게음식 - 일반한식"},{"name":"금단식당","tel":"031-767-0227","addr":"경기도 광주시 태전동 443-4번지","category":"일반휴게음식 - 일반한식"}]},{"lat":"37.39331318","long":"127.2294822","items":[{"name":"금일맛이","tel":"031-764-0100","addr":"경기도 광주시 태전동 269-17번지","category":"일반휴게음식 - 일반한식"}]},{"lat":"37.38895491","long":"127.228114","items":[{"name":"김도연 교습","tel":"","addr":"경기도 광주시 태전동 228번지 성원아파트","category":"학원 - 기타 교육기관"},{"name":"신명양말","tel":"031-768-0394","addr":"경기도 광주시 태전동 228번지 성원아파트","category":"의류 - 기타의류"},{"name":"우리나라","tel":"031-322-6430","addr":"경기도 광주시 태전동 228번지 성원아파트","category":"음료식품 - 기타음료식품"}]},{"lat":"37.39178369","long":"127.2283145","items":[{"name":"김미향의 영수나라","tel":"","addr":"경기도 광주시 태전동 705번지 태전효성해링턴플레이스 106동 302호","category":"학원 - 기타 교육기관"},{"name":"노크온수학교습소","tel":"031-766-3201","addr":"경기도 광주시 태전동 705번지 태전효성해링턴플레이스 119동 2층 201호","category":"학원 - 보습학원"},{"name":"든든도시락","tel":"031-764-2550","addr":"경기도 광주시 태전동 705번지 태전효성해링턴플레이스 119동 1층 102호","category":"일반휴게음식 - 일반한식"},{"name":"서미인헤어살롱","tel":"","addr":"경기도 광주시 태전동 705번지 태전효송해링턴플레이스 119동 2층 203호","category":"보건위생 - 미용원"},{"name":"서율헤어","tel":"031-767-2894","addr":"경기도 광주시 태전동 705번지 태전효성해링턴플레이스 상가 2동 2층 202호","category":"보건위생 - 미용원"},{"name":"셀렉토커피","tel":"","addr":"경기도 광주시 태전동 705번지 태전효성해링턴플레이스 119동 103호","category":"일반휴게음식 - 서양음식"},{"name":"옥카롱","tel":"","addr":"경기도 광주시 태전동 705번지 태전효성해링턴플레이스 119동 1층 101호","category":"일반휴게음식 - 서양음식"},{"name":"카앤피플 서울서초구지점","tel":"","addr":"경기도 광주시 태전동 705번지 태전효성해링턴플레이스 105동 901호","category":"자동차정비 유지 - 세차장"},{"name":"카페 드 몽디","tel":"","addr":"경기도 광주시 태전동 705번지 태전효성해링턴플레이스 1층 106호","category":"일반휴게음식 - 서양음식"},{"name":"크린토피아 (광주태전효성점)","tel":"","addr":"경기도 광주시 태전동 705번지 태전효성해링턴플레이스 118동 202호","category":"수리서비스 - 세탁소"},{"name":"트리니티코스메틱","tel":"031-781-5763","addr":"경기도 광주시 태전동 705번지 태전효성해링턴플레이스 109동 801호","category":"보건위생 - 화장품"},{"name":"하랑모바일","tel":"031-769-6010","addr":"경기도 광주시 태전동 705번지 태전효성해링턴플레이스 상가 2동 105호","category":"사무통신 - 통신기기"},{"name":"하얀집","tel":"031-767-6386","addr":"경기도 광주시 태전동 705번지 태전효성해링턴플레이스 102동 1001호","category":"용역 서비스 - 종합용역"}]},{"lat":"37.39175182","long":"127.2212905","items":[{"name":"김종합상사","tel":"031-761-0945","addr":"경기도 광주시 태전동 309번지 1층","category":"건축자재 - 목재·석재·철물"},{"name":"조박사손짜장손짬뽕","tel":"031-765-7763","addr":"경기도 광주시 태전동 309번지 102호","category":"일반휴게음식 - 중국식"},{"name":"평산테크","tel":"031-763-2989","addr":"경기도 광주시 태전동 309번지","category":"전기제품 - 기타전기제품"}]},{"lat":"37.38481151","long":"127.2367622","items":[{"name":"깨비밥/이모션블루(emotion blue)","tel":"031-797-5464","addr":"경기도 광주시 태전동 694번지 태전지웰 상가동 제지하1층 110호","category":"일반휴게음식 - 스넥"},{"name":"반하나(BANHANA)","tel":"031-763-2123","addr":"경기도 광주시 태전동 694번지 태전지웰 104호","category":"보건위생 - 피부미용실"},{"name":"뽀야네","tel":"070-8795-2073","addr":"경기도 광주시 태전동 694번지 태전지웰 107호","category":"의류 - 정장"},{"name":"살롱드미장원","tel":"031-000-0000","addr":"경기도 광주시 태전동 694번지 태전지웰상가 G동 1층 103호","category":"보건위생 - 미용원"},{"name":"스토리아트","tel":"","addr":"경기도 광주시 태전동 694번지 태전지웰 103동 103호","category":"학원 - 기타 교육기관"},{"name":"아소비 광주태전지웰점","tel":"","addr":"경기도 광주시 태전동 694번지 태전지웰 103동 702호","category":"학원 - 기타 교육기관"},{"name":"오브원","tel":"","addr":"경기도 광주시 태전동 694번지 태전지웰 103동 1401호","category":"의류 - 정장"},{"name":"이모션블루 (emotion blue)","tel":"031-797-5464","addr":"경기도 광주시 태전동 694번지 태전지웰 제상가동 제지하1층 제110호","category":"수리서비스 - 세탁소"}]},{"lat":"37.38586905","long":"127.2304196","items":[{"name":"꼬메타(Cometa)","tel":"031-8028-4447","addr":"경기도 광주시 태전동 698번지 힐스테이트태전 제1528동 지1층 104호","category":"일반휴게음식 - 서양음식"},{"name":"살롱드 봄(salon de 봄)","tel":"031-766-0405","addr":"경기도 광주시 태전동 698번지 힐스테이트태전 1528동 지1층 103호","category":"보건위생 - 미용원"},{"name":"아이곤지 가베교실","tel":"070-8158-1418","addr":"경기도 광주시 태전동 698번지 힐스테이트태전 1502동 2103호","category":"학원 - 기타 교육기관"},{"name":"아트윈커튼&블라인드","tel":"","addr":"경기도 광주시 태전동 698번지 힐스테이트태전 1501동 401호","category":"직물 - 카페트,커튼,천막,지물"},{"name":"정수테크","tel":"","addr":"경기도 광주시 태전동 698번지 힐스테이트태전 1505동 1903호","category":"사무통신 - 컴퓨터"},{"name":"해윰","tel":"","addr":"경기도 광주시 태전동 698번지 힐스테이트태전 1505동 2003호","category":"용역 서비스 - 기타용역서비스"}]},{"lat":"37.39225777","long":"127.2301227","items":[{"name":"꽈배기마법사 경기광주태전점","tel":"031-764-7990","addr":"경기도 광주시 태전동 261-3번지 1층","category":"일반휴게음식 - 서양음식"},{"name":"눈맞은 짝태앤노가리","tel":"070-8237-1157","addr":"경기도 광주시 태전동 261-3번지","category":"일반휴게음식 - 주점"},{"name":"프로당구장","tel":"031-767-8298","addr":"경기도 광주시 태전동 261-3번지","category":"레저업소 - 당 구 장"}]},{"lat":"37.38656482","long":"127.234035","items":[{"name":"나누리김밥","tel":"031-766-6468","addr":"경기도 광주시 태전동 162-4번지 태전메디프라자 111호","category":"일반휴게음식 - 스넥"},{"name":"닥터금소아청소년과의원","tel":"031-765-5379","addr":"경기도 광주시 태전동 162-4번지 메디프라자 3층 305호","category":"의원 - 의원"},{"name":"더마마 태전점","tel":"070-7719-3741","addr":"경기도 광주시 태전동 162-4번지 메디프라자 103호","category":"의류 - 정장"},{"name":"던킨 광주 태전점/비알코리아(주)","tel":"031-768-6081","addr":"경기도 광주시 태전동 162-4번지 메디프라자 1층 102호","category":"음료식품 - 제과점"},{"name":"마이클래식피부과의원","tel":"031-764-0206","addr":"경기도 광주시 태전동 162-4번지 메디프라자 2층 203,204호","category":"의원 - 의원"},{"name":"메디프라자 약국","tel":"031-765-3326","addr":"경기도 광주시 태전동 162-4번지 메디프라자 101호","category":"약국 - 약국"},{"name":"바른이비인후과","tel":"031-765-7117","addr":"경기도 광주시 태전동 162-4번지 메디프라자 301호","category":"의원 - 치과의원"},{"name":"빵델디아","tel":"031-766-0677","addr":"경기도 광주시 태전동 162-4번지 메디프라자 1층 108호","category":"음료식품 - 제과점"},{"name":"손발꾸락","tel":"","addr":"경기도 광주시 태전동 162-4번지 메디프라자 1층 106호","category":"보건위생 - 피부미용실"},{"name":"에너지마취통증의학과의원","tel":"031-764-5975","addr":"경기도 광주시 태전동 162-4번지 메디프라자 302호","category":"의원 - 의원"},{"name":"이차돌 광주태전점","tel":"","addr":"경기도 광주시 태전동 162-4번지 1층 109,110호","category":"일반휴게음식 - 일반한식"},{"name":"이탑치과의원","tel":"031-762-2879","addr":"경기도 광주시 태전동 162-4번지 메디프라자 401,402,403호","category":"의원 - 치과의원"},{"name":"참빛옵틱","tel":"070-4649-1101","addr":"경기도 광주시 태전동 162-4번지 104,105호","category":"보건위생 - 안경"},{"name":"커피베이태전메디컬점","tel":"031-765-4275","addr":"경기도 광주시 태전동 162-4번지 메디프라자 1층 107호","category":"일반휴게음식 - 서양음식"},{"name":"태전김안과의원","tel":"031-699-3000","addr":"경기도 광주시 태전동 162-4번지 태전메디프라자 205호,206호","category":"의원 - 의원"},{"name":"태전성모내과의원","tel":"031-798-7975","addr":"경기도 광주시 태전동 162-4번지 201,202호","category":"의원 - 의원"},{"name":"태전성모내과의원","tel":"031-798-7975","addr":"경기도 광주시 태전동 162-4번지 202호 201호,202호","category":"의원 - 의원"},{"name":"태전성모내과의원","tel":"","addr":"경기도 광주시 태전동 162-4번지 메디프라자 201,202호","category":"의원 - 의원"},{"name":"토리헤어","tel":"031-797-6766","addr":"경기도 광주시 태전동 162-4번지 메디프라자 4층 402호","category":"보건위생 - 미용원"},{"name":"하나로축산","tel":"031-766-8616","addr":"경기도 광주시 태전동 162-4번지 메디프라자 112호","category":"음료식품 - 정육점"}]},{"lat":"37.39922694","long":"127.2080083","items":[{"name":"나우리","tel":"031-794-2321","addr":"경기도 광주시 태전동 435-1번지","category":"기타 - 기타 전문점"}]},{"lat":"37.39291658","long":"127.2295601","items":[{"name":"네오키즈스윔","tel":"031-797-7761","addr":"경기도 광주시 태전동 270-2번지","category":"레저업소 - 수 영 장"}]},{"lat":"37.3917781","long":"127.2312279","items":[{"name":"네일공간","tel":"070-4768-4115","addr":"경기도 광주시 태전동 667-4번지 2층 1호","category":"보건위생 - 피부미용실"},{"name":"백원장헤어","tel":"031-766-7988","addr":"경기도 광주시 태전동 667-4번지 2층 1호","category":"보건위생 - 미용원"},{"name":"최강에스영수학원","tel":"070-7420-3513","addr":"경기도 광주시 태전동 667-4번지 3층","category":"학원 - 보습학원"}]},{"lat":"37.39011875","long":"127.2273045","items":[{"name":"네임텍광고디자인","tel":"031-764-3434","addr":"경기도 광주시 태전동 238-8번지 파랑새빌라","category":"용역 서비스 - 종합용역"}]},{"lat":"37.38614179","long":"127.2338079","items":[{"name":"노리파크 광주태전점","tel":"031-767-8009","addr":"경기도 광주시 태전동 160-1번지 명성빌딩 2층 201호","category":"일반휴게음식 - 스넥"},{"name":"다온약국","tel":"031-767-6169","addr":"경기도 광주시 태전동 160-1번지 1층 103호","category":"약국 - 약국"},{"name":"붐바타 태전점","tel":"031-766-8009","addr":"경기도 광주시 태전동 160-1번지 명성빌딩 1층 106호","category":"일반휴게음식 - 서양음식"},{"name":"소마&대두수학학원","tel":"031-798-8253","addr":"경기도 광주시 태전동 160-1번지 3층","category":"학원 - 보습학원"},{"name":"조은상 베이커리","tel":"","addr":"경기도 광주시 태전동 160-1번지 명성빌딩 104호","category":"음료식품 - 제과점"},{"name":"칠성포차","tel":"031-763-7377","addr":"경기도 광주시 태전동 160-1번지 2층","category":"일반휴게음식 - 주점"},{"name":"카페160","tel":"031-766-7700","addr":"경기도 광주시 태전동 160-1번지 명성빌딩 4층","category":"일반휴게음식 - 서양음식"},{"name":"크린토피아 광주태전고점","tel":"031-761-2440","addr":"경기도 광주시 태전동 160-1번지","category":"수리서비스 - 세탁소"},{"name":"홀릭스터티카페","tel":"","addr":"경기도 광주시 태전동 160-1번지 명성빌딩 302호","category":"용역 서비스 - 사무서비스"}]},{"lat":"37.39599999","long":"127.2138945","items":[{"name":"녹원축산유통","tel":"031-764-8052","addr":"경기도 광주시 태전동 419-3번지","category":"음료식품 - 정육점"}]},{"lat":"37.38592511","long":"127.2340331","items":[{"name":"농업회사법인 굿농 (주) 태전지점","tel":"031-768-8691","addr":"경기도 광주시 태전동 158-2번지 태진프라자 1층 107호","category":"음료식품 - 농·축·수산품"},{"name":"듀크영어학원","tel":"031-769-0542","addr":"경기도 광주시 태전동 158-2번지 태전프라자 403호","category":"학원 - 외국어학원"},{"name":"마미찬","tel":"","addr":"경기도 광주시 태전동 158-2번지 103호","category":"음료식품 - 기타음료식품"},{"name":"북촌손만두 경기광주 태전점","tel":"031-767-8998","addr":"경기도 광주시 태전동 158-2번지 1층 108호","category":"일반휴게음식 - 일반한식"},{"name":"아이새움소아청소년과의원","tel":"031-766-7574","addr":"경기도 광주시 태전동 158-2번지 202,203,204,303,304호","category":"의원 - 의원"},{"name":"엘에스(LS)파워점핑줄넘기클럽경희대LS태권","tel":"031-762-7688","addr":"경기도 광주시 태전동 158-2번지 태전프라자 4층 1호","category":"학원 - 예·체능계학원"},{"name":"좋은아침페스츄리","tel":"031-797-0012","addr":"경기도 광주시 태전동 158-2번지 1층","category":"일반휴게음식 - 서양음식"},{"name":"주스(JU'S)&효자동닭꼬치","tel":"031-731-5747","addr":"경기도 광주시 태전동 158-2번지 104호","category":"일반휴게음식 - 서양음식"},{"name":"죽이야기 광주태전점","tel":"031-866-6233","addr":"경기도 광주시 태전동 158-2번지 106호","category":"일반휴게음식 - 일반한식"},{"name":"쿄와스시","tel":"031-798-8848","addr":"경기도 광주시 태전동 158-2번지 1층 101,102호","category":"일반휴게음식 - 일식·회집"},{"name":"태전드림정형외과의원","tel":"031-766-7400","addr":"경기도 광주시 태전동 158-2번지 외 1필지 태전프라자 3층 301,302호","category":"의원 - 의원"},{"name":"태전온누리약국","tel":"031-764-2772","addr":"경기도 광주시 태전동 158-2번지 1층 105호","category":"약국 - 약국"},{"name":"펀비어킹 태전지구점","tel":"","addr":"경기도 광주시 태전동 158-2번지 1층","category":"일반휴게음식 - 일반한식"}]},{"lat":"37.39261474","long":"127.227199","items":[{"name":"뉴서울자동차용품","tel":"031-768-1175","addr":"경기도 광주시 태전동 278-3번지","category":"자동차정비 유지 - 자동차부품"}]},{"lat":"37.39038992","long":"127.2171196","items":[{"name":"느티나무식당","tel":"031-766-0424","addr":"경기도 광주시 태전동 541-7번지","category":"일반휴게음식 - 일반한식"}]},{"lat":"37.38667094","long":"127.230422","items":[{"name":"다솜세탁소","tel":"031-797-1248","addr":"경기도 광주시 태전동 193성원3차102","category":"수리서비스 - 세탁소"},{"name":"성원상우마트","tel":"031-761-0710","addr":"경기도 광주시 태전동 193","category":"유통업 영리 - 슈퍼마켓"}]},{"lat":"37.39278221","long":"127.2195318","items":[{"name":"다인의료기","tel":"031-765-1251","addr":"경기도 광주시 태전동 521번지","category":"보건위생 - 의료용품"}]},{"lat":"37.38831015","long":"127.2162555","items":[{"name":"대경헤드","tel":"031-768-6466","addr":"경기도 광주시 태전동 580-5번지","category":"음료식품 - 기타음료식품"}]},{"lat":"37.38208927","long":"127.2373635","items":[{"name":"대림종합공사","tel":"031-765-5284","addr":"경기도 광주시 태전동 22번지","category":"용역 서비스 - 기타용역서비스"}]},{"lat":"37.39041742","long":"127.2313141","items":[{"name":"대명유리,샷시","tel":"031-767-4040","addr":"경기도 광주시 태전동 678번지","category":"건축자재 - 유리"}]},{"lat":"37.39067168","long":"127.2302873","items":[{"name":"대박통신","tel":"031-765-3915","addr":"경기도 광주시 태전동 674번지","category":"신변잡화 - 기타잡화"},{"name":"슈라패션","tel":"031-762-1854","addr":"경기도 광주시 태전동 674번지","category":"의류 - 정장"},{"name":"우리인테리어","tel":"031-797-9466","addr":"경기도 광주시 태전동 674번지 674호","category":"건축자재 - 인테리어전문"},{"name":"탑발란스 휘트니스","tel":"031-762-4466","addr":"경기도 광주시 태전동 674번지 3층","category":"레져용품 - 스포츠·레져용품"},{"name":"태봉옷수선","tel":"","addr":"경기도 광주시 태전동 674번지 1-1호","category":"수리서비스 - 세탁소"},{"name":"태전도장","tel":"031-768-4999","addr":"경기도 광주시 태전동 674번지","category":"학원 - 예·체능계학원"},{"name":"펫 매니아","tel":"031-765-4140","addr":"경기도 광주시 태전동 674번지 104호","category":"문화.취미 - 애완동물"}]},{"lat":"37.39191778","long":"127.2192357","items":[{"name":"대산상사","tel":"031-798-8766","addr":"경기도 광주시 태전동 326-2번지","category":"신변잡화 - 기타잡화"}]},{"lat":"37.39649949","long":"127.2116711","items":[{"name":"대성주방가구","tel":"031-763-1912","addr":"경기도 광주시 태전동 460-5번지","category":"주방용구 - 주방용구"}]},{"lat":"37.3930884","long":"127.2244789","items":[{"name":"대일정밀","tel":"031-767-6697","addr":"경기도 광주시 태전동 365번지","category":"기타 - 기계공구"},{"name":"명성공업사","tel":"031-767-0934","addr":"경기도 광주시 태전동 365번지 1층 101호","category":"건축자재 - 목재·석재·철물"},{"name":"진미","tel":"031-767-5133","addr":"경기도 광주시 태전동 365번지","category":"일반휴게음식 - 일반한식"}]},{"lat":"37.39272544","long":"127.2305645","items":[{"name":"대한초밥","tel":"031-766-4381","addr":"경기도 광주시 태전동 269-5번지 가동 1층","category":"일반휴게음식 - 일식·회집"},{"name":"복싱아카데미","tel":"031-763-1213","addr":"경기도 광주시 태전동 269-5번지 2층","category":"레저업소 - 헬스클럽"}]},{"lat":"37.39270017","long":"127.2296498","items":[{"name":"대현볼트","tel":"031-768-4844","addr":"경기도 광주시 태전동 272-6","category":"기타 - 기계공구"},{"name":"보미네떡볶이","tel":"031-761-4599","addr":"경기도 광주시 태전동 272-6번지 103호","category":"일반휴게음식 - 스넥"},{"name":"태전떡집방아간","tel":"031-767-0250","addr":"경기도 광주시 태전동 272-6번지","category":"음료식품 - 제과점"},{"name":"태전무인카페 디셈버","tel":"031-111-1111","addr":"경기도 광주시 태전동 272-6번지 1층 105호","category":"음료식품 - 기타음료식품"},{"name":"항아리포차","tel":"","addr":"경기도 광주시 태전동 272-6번지 102호","category":"일반휴게음식 - 일반한식"}]},{"lat":"37.38455967","long":"127.2319287","items":[{"name":"더헤어","tel":"031-765-3184","addr":"경기도 광주시 태전동 699번지 힐스테이트태전 1536동 108호","category":"보건위생 - 미용원"},{"name":"박제량미술","tel":"","addr":"경기도 광주시 태전동 699번지 힐스테이트태전 1514동 1103호","category":"학원 - 기타 교육기관"},{"name":"성남출장세차 킹카워시 분당 판교점","tel":"031-759-9137","addr":"경기도 광주시 태전동 699번지 힐스테이트태전 1510동 1501호","category":"자동차정비 유지 - 세차장"},{"name":"셀파우등생교실","tel":"","addr":"경기도 광주시 태전동 699번지 힐스테이트태전 1513동 502호","category":"학원 - 기타 교육기관"},{"name":"올데이클린","tel":"070-8600-2789","addr":"경기도 광주시 태전동 699번지 힐스테이트태전 1509동 10층 04호","category":"자동차정비 유지 - 카인테리어"},{"name":"우렁각시","tel":"031-765-2274","addr":"경기도 광주시 태전동 699번지 힐스테이트태전 1536동 지하1층 106호","category":"음료식품 - 기타음료식품"},{"name":"태전힐스테이트해법수학","tel":"","addr":"경기도 광주시 태전동 699번지 힐스테이트태전 1508동 303호","category":"학원 - 기타 교육기관"}]},{"lat":"37.3936728","long":"127.210263","items":[{"name":"동광산업","tel":"031-111-1111","addr":"경기도 광주시 태전동 467-47번지","category":"건축자재 - 목재·석재·철물"}]},{"lat":"37.3915052","long":"127.2182069","items":[{"name":"동부분체","tel":"031-767-8115","addr":"경기도 광주시 태전동 524번지","category":"건축자재 - 목재·석재·철물"}]},{"lat":"37.39492106","long":"127.2126153","items":[{"name":"두열바이오","tel":"","addr":"경기도 광주시 태전동 481-14번지","category":"농업 - 비료,사료,종자"},{"name":"셀라이프","tel":"070-7542-3476","addr":"경기도 광주시 태전동 481-14번지 1층","category":"농업 - 비료,사료,종자"}]},{"lat":"37.3870633","long":"127.2325348","items":[{"name":"드레스메이커 헤라(total dress shop the H","tel":"","addr":"경기도 광주시 태전동 696번지 이편한세상태전2차","category":"의류 - 맞춤복점"},{"name":"디 아르헤어","tel":"031-798-1747","addr":"경기도 광주시 태전동 696번지 이편한세상태전2차 1호","category":"보건위생 - 미용원"},{"name":"분당캐리어","tel":"031-744-3342","addr":"경기도 광주시 태전동 696번지 이편한세상태전2차","category":"자동차정비 유지 - 견인서비스"},{"name":"빈쓰바니","tel":"","addr":"경기도 광주시 태전동 696번지 이편한세상태전2차","category":"의류 - 정장"},{"name":"엠에스","tel":"031-797-0711","addr":"경기도 광주시 태전동 696번지 이편한세상태전2차","category":"학원 - 기타 교육기관"},{"name":"이편한세탁","tel":"031-766-7663","addr":"경기도 광주시 태전동 696번지 이편한세상태전2차 1-4호","category":"수리서비스 - 세탁소"},{"name":"카앤피플 경기광주4호점","tel":"","addr":"경기도 광주시 태전동 696번지 이편한세상태전2차","category":"자동차정비 유지 - 세차장"},{"name":"허브앤솔 태전동점","tel":"031-761-7799","addr":"경기도 광주시 태전동 696번지 이편한세상태전2차 상가동 지1층 1-7호","category":"일반휴게음식 - 스넥"}]},{"lat":"37.39358594","long":"127.2281957","items":[{"name":"떡킹(태전점)","tel":"031-763-6261","addr":"경기도 광주시 태전동 283-4번지 뤼미에르빌리지","category":"일반휴게음식 - 스넥"},{"name":"빅스타피자 경기광주태전점","tel":"031-797-7444","addr":"경기도 광주시 태전동 283-4번지 뤼미에르빌리지","category":"일반휴게음식 - 서양음식"}]},{"lat":"37.39167138","long":"127.2305049","items":[{"name":"또봉이통닭(태전점)","tel":"031-765-3301","addr":"경기도 광주시 태전동 261-9번지 태광빌딩","category":"일반휴게음식 - 스넥"},{"name":"에이스당구클럽","tel":"031-768-3308","addr":"경기도 광주시 태전동 261-9번지 태광빌딩 2층 201호","category":"레저업소 - 당 구 장"},{"name":"할매순대국","tel":"031-958-0160","addr":"경기도 광주시 태전동 261-9번지","category":"일반휴게음식 - 일반한식"}]},{"lat":"37.3927521","long":"127.2307566","items":[{"name":"라온약국","tel":"031-767-3292","addr":"경기도 광주시 태전동 268번지 1층","category":"약국 - 약국"},{"name":"라온온누리약국","tel":"031-767-2282","addr":"경기도 광주시 태전동 268번지 1층","category":"약국 - 약국"},{"name":"바른경영세무회계","tel":"031-763-9333","addr":"경기도 광주시 태전동 268번지 3층","category":"용역 서비스 - 법률회계서비스(개인)"},{"name":"삼성영어명문학원(2관)","tel":"031-768-3595","addr":"경기도 광주시 태전동 268번지 3층","category":"학원 - 보습학원"},{"name":"서울장내과의원","tel":"031-766-9911","addr":"경기도 광주시 태전동 268번지 영주빌딩 2층","category":"의원 - 의원"},{"name":"아우네왕돌오겹살","tel":"031-765-5392","addr":"경기도 광주시 태전동 268번지","category":"일반휴게음식 - 일반한식"}]},{"lat":"37.39172585","long":"127.2302905","items":[{"name":"램플러스 (태전점)","tel":"031-764-7794","addr":"경기도 광주시 태전동 261-72번지 1층","category":"일반휴게음식 - 중국식"},{"name":"윤수네 숟가락&젓가락","tel":"","addr":"경기도 광주시 태전동 261-72번지 204호","category":"신변잡화 - 기타잡화"}]},{"lat":"37.38592571","long":"127.2290648","items":[{"name":"레몬트리","tel":"031-000-0000","addr":"경기도 광주시 태전동 692번지 태전우림필유아파트","category":"문화.취미 - 민예·공예품"}]},{"lat":"37.39197713","long":"127.2308107","items":[{"name":"로지아","tel":"","addr":"경기도 광주시 태전동 262-16번지","category":"일반휴게음식 - 서양음식"}]},{"lat":"37.39300078","long":"127.2182563","items":[{"name":"롯데칠성음료 복정점","tel":"","addr":"경기도 광주시 태전동 520번지","category":"음료식품 - 기타음료식품"},{"name":"미래쇼파","tel":"031-769-9430","addr":"경기도 광주시 태전동 520번지","category":"가구 - 일반가구"}]},{"lat":"37.38568427","long":"127.2281043","items":[{"name":"루나루","tel":"","addr":"경기도 광주시 태전동 692번지 태전우림필유아파트","category":"레져용품 - 스포츠·레져용품"}]},{"lat":"37.39339421","long":"127.2247621","items":[{"name":"루시헤어","tel":"031-767-6953","addr":"경기도 광주시 태전동 367-12번지","category":"보건위생 - 미용원"},{"name":"생명의샘반찬","tel":"031-769-9258","addr":"경기도 광주시 태전동 367-12번지 1층","category":"음료식품 - 기타음료식품"}]},{"lat":"37.39241814","long":"127.2310605","items":[{"name":"루체헤어","tel":"031-797-6661","addr":"경기도 광주시 태전동 267-3번지 1층","category":"보건위생 - 미용원"},{"name":"말자포차","tel":"031-8028-1329","addr":"경기도 광주시 태전동 267-3번지 1층","category":"일반휴게음식 - 주점"},{"name":"별밤 노래연습장","tel":"031-765-2480","addr":"경기도 광주시 태전동 267-3번지 3층","category":"레저업소 - 노 래 방"},{"name":"생고기제작소 태전점","tel":"031-761-5000","addr":"경기도 광주시 태전동 267-3번지","category":"일반휴게음식 - 일반한식"},{"name":"이모김밥Zip(집)","tel":"031-766-1056","addr":"경기도 광주시 태전동 267-3번지 1층","category":"일반휴게음식 - 스넥"}]},{"lat":"37.3962221","long":"127.2156455","items":[{"name":"리미드 디자인","tel":"","addr":"경기도 광주시 태전동 409-5번지 3호","category":"신변잡화 - 기타잡화"}]},{"lat":"37.39058025","long":"127.2262557","items":[{"name":"리얼안심탕수육&리얼하노이태전점","tel":"031-798-1777","addr":"경기도 광주시 태전동 245-67번지 화이트캐슬 101동 지층 B103호","category":"일반휴게음식 - 일반한식"}]},{"lat":"37.38574628","long":"127.2286577","items":[{"name":"리즈몰","tel":"070-4189-7594","addr":"경기도 광주시 태전동 692번지 태전우림필유아파트","category":"사무통신 - 컴퓨터"}]},{"lat":"37.38988539","long":"127.2268295","items":[{"name":"마링앤코코","tel":"","addr":"경기도 광주시 태전동 245-79번지 수앤수캐슬 102동 402호","category":"신변잡화 - 기타잡화"}]},{"lat":"37.39050205","long":"127.219864","items":[{"name":"만다린","tel":"031-765-5407","addr":"경기도 광주시 태전동 317-2번지","category":"일반휴게음식 - 중국식"},{"name":"배달삼겹갈통삼(태전점)","tel":"031-763-9280","addr":"경기도 광주시 태전동 317-2번지 1층","category":"일반휴게음식 - 일반한식"},{"name":"한우대가","tel":"031-765-1666","addr":"경기도 광주시 태전동 317-2번지 1층","category":"일반휴게음식 - 일반한식"},{"name":"한우대가","tel":"031-765-1666","addr":"경기도 광주시 태전동 317-2번지","category":"음료식품 - 정육점"},{"name":"한우대가","tel":"031-767-8897","addr":"경기도 광주시 태전동 317-2번지 1층","category":"일반휴게음식 - 일반한식"}]},{"lat":"37.39509121","long":"127.2182059","items":[{"name":"만물상회","tel":"031-765-0774","addr":"경기도 광주시 태전동 502-2번지","category":"음료식품 - 농·축·수산품"},{"name":"숙헤어샵","tel":"031-765-9401","addr":"경기도 광주시 태전동 502-2","category":"보건위생 - 미용원"},{"name":"장모님순대국","tel":"031-766-5996","addr":"경기도 광주시 태전동 502-2번지","category":"일반휴게음식 - 일반한식"}]},{"lat":"37.38620028","long":"127.2361455","items":[{"name":"맘맘키즈","tel":"","addr":"경기도 광주시 태전동 687번지 쌍용스윗닷홈 301동 1405호","category":"의류 - 아동의류"},{"name":"이룸홈스터디","tel":"031-797-4180","addr":"경기도 광주시 태전동 687번지 쌍용3단지아파트","category":"회원제형태 - 학원"}]},{"lat":"37.39325672","long":"127.2260039","items":[{"name":"맛집","tel":"031-767-8005","addr":"경기도 광주시 태전동 281-2번지","category":"일반휴게음식 - 일반한식"},{"name":"스타일리쉬 헤어샵","tel":"070-4063-2543","addr":"경기도 광주시 태전동 281-2번지 1층 4호","category":"보건위생 - 미용원"},{"name":"은성공조산업","tel":"070-7724-8596","addr":"경기도 광주시 태전동 281-2번지","category":"용역 서비스 - 기타용역서비스"},{"name":"일번지당구장","tel":"031-66-1775","addr":"경기도 광주시 태전동 281-2번지","category":"레저업소 - 당 구 장"},{"name":"해인도장","tel":"031-765-8679","addr":"경기도 광주시 태전동 281-2번지","category":"기타 - 기타 전문점"}]},{"lat":"37.38723171","long":"127.2385312","items":[{"name":"매건 (Magan)","tel":"","addr":"경기도 광주시 태전동 688번지 쌍용2단지아파트","category":"문화.취미 - 화원"},{"name":"유진설비 하수구변기하수도세면대막힘뚫음","tel":"031-797-0988","addr":"경기도 광주시 태전동 688번지 쌍용2단지아파트","category":"수리서비스 - 기타수리서비스"},{"name":"이레토탈리스","tel":"031-769-9867","addr":"경기도 광주시 태전동 688 쌍용스윗닷홈 207-1306 19/15","category":"회원제형태 - 기타4"}]},{"lat":"37.389008","long":"127.2286223","items":[{"name":"먹으러올래떡볶이","tel":"031-764-5949","addr":"경기도 광주시 태전동 228번지 외12필지 성원프라자 1동 115호","category":"일반휴게음식 - 스넥"},{"name":"젠틀맨남성커트점","tel":"031-767-6400","addr":"경기도 광주시 태전동 228번지 성원아파트 2층 202호","category":"보건위생 - 미용원"}]},{"lat":"37.39894578","long":"127.2090691","items":[{"name":"메닉스(MENICS)","tel":"031-765-5712","addr":"경기도 광주시 태전동 435-2번지","category":"주방용구 - 주방용구"}]},{"lat":"37.38880745","long":"127.2390443","items":[{"name":"메타드론캠","tel":"031-111-1111","addr":"경기도 광주시 태전동 690번지 쌍용1단지아파트","category":"광학제품 - 사진관"}]},{"lat":"37.39345057","long":"127.2235313","items":[{"name":"명랑푸드","tel":"","addr":"경기도 광주시 태전동 363-3번지 부광빌딩 1층","category":"일반휴게음식 - 일반한식"},{"name":"미가상회(상사)","tel":"031-761-6702","addr":"경기도 광주시 태전동 363-3번지","category":"음료식품 - 농·축·수산품"},{"name":"플로라","tel":"031-776-3121","addr":"경기도 광주시 태전동 363-3번지 부광빌딩","category":"일반휴게음식 - 서양음식"},{"name":"플로라","tel":"031-776-3121","addr":"경기도 광주시 태전동 363-3번지 부광빌딩","category":"문화.취미 - 화원"}]},{"lat":"37.38283956","long":"127.2361238","items":[{"name":"명진가설","tel":"031-7652-9118","addr":"경기도 광주시 태전동 산5-1","category":"건축자재 - 기타건축자재"}]},{"lat":"37.3931164","long":"127.228725","items":[{"name":"명품아울렛","tel":"031-243-3306","addr":"경기도 광주시 태전동 271-14번지 전면 좌측1호상가","category":"유통업 영리 - 슈퍼마켓"},{"name":"소한마리","tel":"031-767-4721","addr":"경기도 광주시 태전동 271-14번지","category":"일반휴게음식 - 일반한식"},{"name":"조마루뼈전문점","tel":"031-766-3033","addr":"경기도 광주시 태전동 271-14번지","category":"일반휴게음식 - 일반한식"}]},{"lat":"37.39420134","long":"127.2219525","items":[{"name":"모든카센타","tel":"031-767-0909","addr":"경기도 광주시 태전동 388번지","category":"자동차정비 유지 - 자동차정비"},{"name":"우리공업사","tel":"031-798-9677","addr":"경기도 광주시 태전동 388번지 1층","category":"자동차정비 유지 - 자동차부품"}]},{"lat":"37.38820107","long":"127.2167859","items":[{"name":"모터클럽자동차공업사","tel":"031-767-1647","addr":"경기도 광주시 태전동 574-1번지","category":"자동차정비 유지 - 자동차정비"}]},{"lat":"37.38150953","long":"127.2297064","items":[{"name":"못난이꽈배기 태전점","tel":"031-761-7877","addr":"경기도 광주시 태전동 702-18번지 서원프라자1 1층 103호","category":"일반휴게음식 - 일반한식"},{"name":"송강제면소","tel":"070-8866-9771","addr":"경기도 광주시 태전동 702-18번지 서원프라자1 1동 106호","category":"일반휴게음식 - 일식·회집"},{"name":"어반수수","tel":"","addr":"경기도 광주시 태전동 702-18번지 서원프라자1 1동 1층 107호","category":"일반휴게음식 - 서양음식"},{"name":"컴포즈커피","tel":"031-798-0223","addr":"경기도 광주시 태전동 702-18번지 서원프라자1 104호","category":"일반휴게음식 - 서양음식"},{"name":"키즈키친 봄(KIDS KICHEN BOM)","tel":"","addr":"경기도 광주시 태전동 702-18번지 서원프라자1 2층 201호","category":"일반휴게음식 - 일반한식"},{"name":"하나치과 교정과 치과의원","tel":"031-8027-2828","addr":"경기도 광주시 태전동 702-18번지 서원프라자1 202호","category":"의원 - 치과의원"}]},{"lat":"37.39278398","long":"127.2234503","items":[{"name":"미니스톱광주목동점","tel":"031-767-9021","addr":"경기도 광주시 태전동 359-23번지","category":"유통업 영리 - 편 의 점"}]},{"lat":"37.39161634","long":"127.2262926","items":[{"name":"바스라이프","tel":"031-764-9612","addr":"경기도 광주시 태전동 244-86번지 라데팡스 102동 101호","category":"건축자재 - 건축용 요업제품"}]},{"lat":"37.39358669","long":"127.2230123","items":[{"name":"밧데리백화점","tel":"031-763-1136","addr":"경기도 광주시 태전동 362번지","category":"자동차정비 유지 - 자동차부품"},{"name":"어머나노래연습장","tel":"031-767-8289","addr":"경기도 광주시 태전동 362번지 2층","category":"레저업소 - 노 래 방"},{"name":"예산오가한식뷔페","tel":"031-767-0686","addr":"경기도 광주시 태전동 362번지 202호","category":"일반휴게음식 - 일반한식"},{"name":"진수성찬","tel":"031-767-8280","addr":"경기도 광주시 태전동 362번지 외 1필지","category":"일반휴게음식 - 일반한식"},{"name":"커리1978","tel":"031-763-2904","addr":"경기도 광주시 태전동 362번지 1층 103호","category":"일반휴게음식 - 일반한식"},{"name":"태성배관부속공구","tel":"031-766-6775","addr":"경기도 광주시 태전동 362번지","category":"기타 - 기계공구"},{"name":"태양","tel":"031-111-1111","addr":"경기도 광주시 태전동 362번지 3층 301호","category":"레저업소 - 헬스클럽"}]},{"lat":"37.39567327","long":"127.2201725","items":[{"name":"방은정","tel":"031-756-7558","addr":"경기도 광주시 태전동 502-93번지 성현빌리지1차","category":"회원제형태 - 학원"}]},{"lat":"37.39749988","long":"127.2165639","items":[{"name":"버들유통","tel":"02-403-2009","addr":"경기도 광주시 태전동 428-19번지 아트리움 202동 201호","category":"음료식품 - 기타음료식품"}]},{"lat":"37.39231222","long":"127.2299196","items":[{"name":"베이프엔조이","tel":"031-1899-3272","addr":"경기도 광주시 태전동 261-4번지 1층","category":"기타 - 기타 전문점"},{"name":"옛날잔치국수","tel":"031-769-5742","addr":"경기도 광주시 태전동 261-4번지","category":"일반휴게음식 - 일반한식"},{"name":"유일전기","tel":"031-767-7230","addr":"경기도 광주시 태전동 261-4번지","category":"전기제품 - 기타전기제품"},{"name":"자연내림","tel":"031-765-7936","addr":"경기도 광주시 태전동 261-4번지","category":"건강식품 - 기타건강식품"},{"name":"클래식노래연습장","tel":"031-767-0309","addr":"경기도 광주시 태전동 261-4번지 2층","category":"레저업소 - 노 래 방"},{"name":"태봉지업사","tel":"031-767-1972","addr":"경기도 광주시 태전동 261-4번지","category":"직물 - 카페트,커튼,천막,지물"},{"name":"흥부찜닭x삼겹본능","tel":"031-767-9595","addr":"경기도 광주시 태전동 261-4번지 1층","category":"일반휴게음식 - 일반한식"}]},{"lat":"37.38406423","long":"127.2364776","items":[{"name":"베토벤노래방","tel":"031-767-1344","addr":"경기도 광주시 태전동 9-3번지","category":"레저업소 - 노 래 방"},{"name":"뽁까","tel":"031-761-2090","addr":"경기도 광주시 태전동 9-3번지","category":"일반휴게음식 - 스넥"},{"name":"샤나나숯불바베큐치킨","tel":"031-764-9292","addr":"경기도 광주시 태전동 9-3번지","category":"일반휴게음식 - 일반한식"},{"name":"신우당구장","tel":"031-797-0711","addr":"경기도 광주시 태전동 9-3번지 2층","category":"레저업소 - 당 구 장"},{"name":"카페  D.O","tel":"031-797-0711","addr":"경기도 광주시 태전동 9-3번지 1층","category":"일반휴게음식 - 일반한식"}]},{"lat":"37.3868722","long":"127.2380784","items":[{"name":"벽화TV INSTALL","tel":"","addr":"경기도 광주시 태전동 688번지 쌍용2단지아파트","category":"용역 서비스 - 기타용역서비스"}]},{"lat":"37.39155808","long":"127.2285058","items":[{"name":"보석창고","tel":"031-763-1833","addr":"경기도 광주시 태전동 272-20번지 효성A단지내 후문상가104호","category":"신변잡화 - 귀금속"}]},{"lat":"37.3843631","long":"127.2356994","items":[{"name":"복돼지구이촌","tel":"031-765-9595","addr":"경기도 광주시 태전동 143-2번지 광남 상가 1층 전면우측","category":"일반휴게음식 - 일반한식"},{"name":"세븐데이즈","tel":"031-798-5900","addr":"경기도 광주시 태전동 143-2번지","category":"유통업 영리 - 슈퍼마켓"},{"name":"예가람예술음악학원","tel":"031-798-2004","addr":"경기도 광주시 태전동 143-2번지 광남상가 3층","category":"학원 - 예·체능계학원"},{"name":"진짜사나이","tel":"031-769-5967","addr":"경기도 광주시 태전동 143-2번지","category":"보건위생 - 이용원"},{"name":"태전한울태권도","tel":"031-798-6553","addr":"경기도 광주시 태전동 143-2번지 2층","category":"학원 - 예·체능계학원"},{"name":"햄토피아","tel":"031-798-4776","addr":"경기도 광주시 태전동 143-2번지","category":"일반휴게음식 - 스넥"}]},{"lat":"37.39347619","long":"127.224288","items":[{"name":"부산기장산꼼장어","tel":"031-763-7092","addr":"경기도 광주시 태전동 366번지","category":"일반휴게음식 - 일반한식"},{"name":"어무니칼국수곱창전골","tel":"031-767-1605","addr":"경기도 광주시 태전동 366번지 가동 1층","category":"일반휴게음식 - 일반한식"}]},{"lat":"37.39136658","long":"127.2297022","items":[{"name":"부영수산","tel":"031-765-8995","addr":"경기도 광주시 태전동 261-60번지","category":"음료식품 - 농·축·수산품"},{"name":"부영장어","tel":"031-797-0592","addr":"경기도 광주시 태전동 261-60번지 나동","category":"일반휴게음식 - 일반한식"}]},{"lat":"37.38829255","long":"127.2305285","items":[{"name":"브라보스 미용재료","tel":"031-798-1571","addr":"경기도 광주시 태전동 222번지 2단지성원아파트","category":"보건위생 - 미용재료"}]},{"lat":"37.39175427","long":"127.2295679","items":[{"name":"브론즈드리앙","tel":"","addr":"경기도 광주시 태전동 261-57번지 101호","category":"의류 - 정장"},{"name":"샤넬노래연습장","tel":"031-699-8284","addr":"경기도 광주시 태전동 261-57번지","category":"레저업소 - 노 래 방"}]},{"lat":"37.39505965","long":"127.2157326","items":[{"name":"블루원자동차공업사 (BLUE1자동차공업사)","tel":"031-764-0770","addr":"경기도 광주시 태전동 493번지","category":"자동차정비 유지 - 자동차정비"},{"name":"홈&카","tel":"031-477-8572","addr":"경기도 광주시 태전동 493번지 2층","category":"자동차정비 유지 - 자동차부품"}]},{"lat":"37.39225873","long":"127.2248717","items":[{"name":"빨간꽃초록잎","tel":"","addr":"경기도 광주시 태전동 354-1번지 1층","category":"일반휴게음식 - 서양음식"}]},{"lat":"37.39066996","long":"127.2311794","items":[{"name":"빵델디아(Pan del dla)","tel":"070-4652-2867","addr":"경기도 광주시 태전동 677번지","category":"음료식품 - 제과점"},{"name":"양푼이&두루치기","tel":"031-765-1503","addr":"경기도 광주시 태전동 677번지","category":"일반휴게음식 - 일반한식"}]},{"lat":"37.38772679","long":"127.2387699","items":[{"name":"쁘렝땅","tel":"031-8870-6675","addr":"경기도 광주시 태전동 690번지 쌍용1단지아파트","category":"회원제형태 - 기타4"}]},{"lat":"37.39558512","long":"127.2141192","items":[{"name":"사계절백반","tel":"031-765-0152","addr":"경기도 광주시 태전동 415번지","category":"일반휴게음식 - 일반한식"}]},{"lat":"37.39672711","long":"127.2153985","items":[{"name":"삼익기획","tel":"031-767-9952","addr":"경기도 광주시 태전동 424-4,5","category":"용역 서비스 - 종합용역"},{"name":"원기획","tel":"031-767-1421","addr":"경기도 광주시 태전동 424-4번지","category":"용역 서비스 - 종합용역"},{"name":"진메디컴","tel":"031-752-4194","addr":"경기도 광주시 태전동 424-4번지","category":"사무통신 - 컴퓨터"}]},{"lat":"37.39272581","long":"127.2303726","items":[{"name":"샴푸노래연습장","tel":"031-763-0565","addr":"경기도 광주시 태전동 269-4번지","category":"레저업소 - 노 래 방"}]},{"lat":"37.39415723","long":"127.2262663","items":[{"name":"서울마트","tel":"031-767-1683","addr":"경기도 광주시 태전동 287-3번지 장우맨션 나동 101호","category":"유통업 영리 - 슈퍼마켓"}]},{"lat":"37.38861919","long":"127.2293439","items":[{"name":"선물꾸러미","tel":"031-763-4325","addr":"경기도 광주시 태전동 성원프라자 1층 29호","category":"신변잡화 - 액세서리"},{"name":"스피드컴119","tel":"031-763-1192","addr":"경기도 광주시 태전동 227외12필지성원프라자제1층137호","category":"사무통신 - 컴퓨터"},{"name":"이레한의원","tel":"031-768-8275","addr":"경기도 광주시 태전동 227-12번지 성원프라자 3층 302호","category":"의원 - 한의원"},{"name":"주식회사세븐엘","tel":"031-768-8277","addr":"경기도 광주시 태전동 521-17성원프라자302","category":"건강식품 - 기타건강식품"},{"name":"클리포드이젠수학학원","tel":"031-797-1488","addr":"경기도 광주시 태전동 628 성원프라자405호~406호","category":"학원 - 보습학원"}]},{"lat":"37.39658821","long":"127.2124506","items":[{"name":"성남벤딩공업","tel":"031-768-9662","addr":"경기도 광주시 태전동 465-1번지","category":"건축자재 - 기타건축자재"}]},{"lat":"37.39397246","long":"127.2089312","items":[{"name":"성남상사","tel":"031-735-7914","addr":"경기도 광주시 태전동 467-48번지 가동, 1층","category":"의류 - 기타의류"}]},{"lat":"37.39300545","long":"127.230204","items":[{"name":"성남장군보쌈족발(태전점)","tel":"031-763-8283","addr":"경기도 광주시 태전동 269-12번지 동주빌딩","category":"일반휴게음식 - 일반한식"}]},{"lat":"37.39347362","long":"127.2158749","items":[{"name":"성도버티칼","tel":"031-763-8670","addr":"경기도 광주시 태전동 509-7번지","category":"직물 - 카페트,커튼,천막,지물"}]},{"lat":"37.3932787","long":"127.2238922","items":[{"name":"성심종합상사","tel":"031-797-7460","addr":"경기도 광주시 태전동 364번지","category":"기타 - 기계공구"},{"name":"중국성","tel":"031-764-2191","addr":"경기도 광주시 태전동 364번지","category":"일반휴게음식 - 중국식"}]},{"lat":"37.39000768","long":"127.2240859","items":[{"name":"성훈타이어","tel":"031-797-8749","addr":"경기도 광주시 태전동 245-60번지 로하스빌","category":"자동차정비 유지 - 자동차시트·타이어"}]},{"lat":"37.39819772","long":"127.2092026","items":[{"name":"세곡현대공업사","tel":"031-764-4425","addr":"경기도 광주시 태전동 451번지","category":"자동차정비 유지 - 자동차정비"}]},{"lat":"37.39680567","long":"127.2117623","items":[{"name":"세원메디칼","tel":"031-768-7579","addr":"경기도 광주시 태전동 461번지","category":"가구 - 일반가구"}]},{"lat":"37.38386923","long":"127.230199","items":[{"name":"세쯔야","tel":"031-8028-8688","addr":"경기도 광주시 태전동 91-11번지 태전4지구 C블록 태전아이파크 상가동 지2층 107호","category":"일반휴게음식 - 서양음식"},{"name":"커먼베이커리","tel":"031-904-1760","addr":"경기도 광주시 태전동 91-11번지 태전4지구 C3 태전아이파크상가동 102호","category":"음료식품 - 제과점"}]},{"lat":"37.38686336","long":"127.2287514","items":[{"name":"세차킹","tel":"031-000-0000","addr":"경기도 광주시 태전동 692번지 태전우림필유아파트","category":"자동차정비 유지 - 세차장"}]},{"lat":"37.39052972","long":"127.219514","items":[{"name":"소담옥수수생칼국수","tel":"031-799-7887","addr":"경기도 광주시 태전동 532-3번지","category":"일반휴게음식 - 스넥"},{"name":"제이에스푸드 (JSFood)","tel":"031-761-5212","addr":"경기도 광주시 태전동 532-3번지 1층","category":"일반휴게음식 - 일반한식"}]},{"lat":"37.39061603","long":"127.2263913","items":[{"name":"수뷰티","tel":"031-765-9815","addr":"경기도 광주시 태전동 245-19번지 도움빌 201호","category":"보건위생 - 화장품"}]},{"lat":"37.3925084","long":"127.2262614","items":[{"name":"스마티즈솔루션(SMARTIZSOLUTION)","tel":"031-762-2851","addr":"경기도 광주시 태전동 276-7번지","category":"사무통신 - 기타 사무용품"},{"name":"천마유통","tel":"031-768-2208","addr":"경기도 광주시 태전동 276-7번지","category":"음료식품 - 기타음료식품"}]},{"lat":"37.39786104","long":"127.205904","items":[{"name":"스완카페트","tel":"02-793-8899","addr":"경기도 광주시 태전동 444-1번지","category":"직물 - 카페트,커튼,천막,지물"}]},{"lat":"37.39264387","long":"127.2260924","items":[{"name":"시골밥상대청마루","tel":"031-761-8848","addr":"경기도 광주시 태전동 276-4번지","category":"일반휴게음식 - 일반한식"},{"name":"프롬마더","tel":"02-521-1269","addr":"경기도 광주시 태전동 276-4번지 1층 102호","category":"음료식품 - 농·축·수산품"}]},{"lat":"37.39580634","long":"127.2163671","items":[{"name":"신안모터스","tel":"031-798-0773","addr":"경기도 광주시 태전동 408번지","category":"자동차정비 유지 - 자동차부품"},{"name":"씨큐리티코리아","tel":"031-777-0001","addr":"경기도 광주시 태전동 408번지","category":"전기제품 - 기타전기제품"},{"name":"한우리시스템","tel":"","addr":"경기도 광주시 태전동 408번지 1층 103호","category":"용역 서비스 - 기타용역서비스"}]},{"lat":"37.39628103","long":"127.2129241","items":[{"name":"심포니침대","tel":"031-767-8275","addr":"경기도 광주시 태전동 466번지","category":"가구 - 일반가구"}]},{"lat":"37.38811397","long":"127.2388953","items":[{"name":"쌍용할인마트","tel":"031-762-7648","addr":"경기도 광주시 태전동 690번지 쌍용1단지아파트","category":"유통업 영리 - 슈퍼마켓"},{"name":"행복커피패밀리","tel":"","addr":"경기도 광주시 태전동 690번지 쌍용스윗닷홈 303동 706호","category":"음료식품 - 기타음료식품"}]},{"lat":"37.38848216","long":"127.2395063","items":[{"name":"썬미디어","tel":"02-451-1320","addr":"경기도 광주시 태전동 690번지 쌍용스윗닷홈 105동 402호","category":"광학제품 - 사진관"}]},{"lat":"37.38219645","long":"127.237838","items":[{"name":"썬화인(SUN-fine)","tel":"031-768-9664","addr":"경기도 광주시 태전동 20번지","category":"건축자재 - 기타건축자재"}]},{"lat":"37.3956434","long":"127.2167845","items":[{"name":"씨유광주고불로점","tel":"031-239-6695","addr":"경기도 광주시 태전동 405번지","category":"유통업 영리 - 편 의 점"}]},{"lat":"37.38980705","long":"127.2253726","items":[{"name":"씨유광주태전빌리지점","tel":"031-897-6975","addr":"경기도 광주시 태전동 245-102번지 화이트캐슬 202동 B101호","category":"유통업 영리 - 편 의 점"}]},{"lat":"37.38775683","long":"127.227975","items":[{"name":"아르모음악학원","tel":"031-763-7162","addr":"경기도 광주시 태전동 228-1","category":"학원 - 예·체능계학원"},{"name":"탑클래스 태권도","tel":"031-761-1317","addr":"경기도 광주시 태전동 228-1번지 태전5차성원상떼빌 상가 2층","category":"학원 - 예·체능계학원"}]},{"lat":"37.38617036","long":"127.2283428","items":[{"name":"아름다운헤어","tel":"070-4119-9236","addr":"경기도 광주시 태전동 692번지 우림필유 206동 105호","category":"보건위생 - 미용원"},{"name":"태전예인음악교습소","tel":"031-763-8360","addr":"경기도 광주시 태전동 692번지","category":"학원 - 예·체능계학원"}]},{"lat":"37.39733328","long":"127.2088953","items":[{"name":"아모스침대","tel":"031-768-9451","addr":"경기도 광주시 태전동 449-4번지","category":"가구 - 일반가구"}]},{"lat":"37.39000461","long":"127.2304547","items":[{"name":"아이존안경원","tel":"031-769-8844","addr":"경기도 광주시 태전동 261-43번지","category":"보건위생 - 안경"},{"name":"아이존옵틱","tel":"031-769-8844","addr":"경기도 광주시 태전동 261-43번지","category":"보건위생 - 안경"},{"name":"엘루체","tel":"031-339-2025","addr":"경기도 광주시 태전동 261-43번지","category":"신변잡화 - 액세서리"},{"name":"이삭토스트","tel":"031-767-2021","addr":"경기도 광주시 태전동 261-43번지","category":"일반휴게음식 - 스넥"},{"name":"태봉곱창","tel":"031-769-3364","addr":"경기도 광주시 태전동 261-43번지","category":"일반휴게음식 - 일반한식"}]},{"lat":"37.39130985","long":"127.2263708","items":[{"name":"아이지 미술","tel":"031-767-6457","addr":"경기도 광주시 태전동 244-48번지 라데팡스 104동 201호","category":"회원제형태 - 서적"}]},{"lat":"37.39255943","long":"127.218176","items":[{"name":"아트판넬(주)","tel":"031-66-3883","addr":"경기도 광주시 태전동 523-1번지","category":"건축자재 - 건축용 요업제품"}]},{"lat":"37.38708221","long":"127.2366789","items":[{"name":"안타이 (AUNTHYE)","tel":"","addr":"경기도 광주시 태전동 687번지 쌍용3단지아파트","category":"의류 - 정장"}]},{"lat":"37.39556297","long":"127.2164229","items":[{"name":"엄마손맛뷔페","tel":"031-761-5554","addr":"경기도 광주시 태전동 407번지","category":"일반휴게음식 - 일반한식"}]},{"lat":"37.3876437","long":"127.2160956","items":[{"name":"에덴카","tel":"031-765-3345","addr":"경기도 광주시 태전동 574-7번지","category":"자동차정비 유지 - 자동차시트·타이어"}]},{"lat":"37.38389409","long":"127.2359464","items":[{"name":"에듀위양지학원","tel":"031-797-7977","addr":"경기도 광주시 태전동 14-3번지 2,3층","category":"학원 - 보습학원"},{"name":"정화통신","tel":"031-797-9433","addr":"경기도 광주시 태전동 14-3번지 (1층(정문우측))","category":"사무통신 - 통신기기"},{"name":"헤어시티","tel":"031-767-7525","addr":"경기도 광주시 태전동 14-3번지 영주빌딩","category":"보건위생 - 미용원"}]},{"lat":"37.39419431","long":"127.2108742","items":[{"name":"에버델","tel":"031-798-2130","addr":"경기도 광주시 태전동 467-17 2층 1","category":"신변잡화 - 기타잡화"}]},{"lat":"37.390778","long":"127.2265047","items":[{"name":"에스텍 (STEK)","tel":"070-8806-6273","addr":"경기도 광주시 태전동 245-20번지 1층","category":"레저업소 - 기타레져업소"},{"name":"엠에이스영어학원","tel":"031-765-6252","addr":"경기도 광주시 태전동 245-20번지 2층","category":"학원 - 외국어학원"}]},{"lat":"37.38917546","long":"127.216066","items":[{"name":"에이앤이 (ANE)","tel":"031-111-1111","addr":"경기도 광주시 태전동 551번지 1층","category":"가구 - 일반가구"}]},{"lat":"37.39458469","long":"127.2241445","items":[{"name":"엔씨 오토 (NC AUTO)","tel":"031-767-8011","addr":"경기도 광주시 태전동 377-1번지 아트리움2차 202동 101호","category":"건축자재 - 기타건축자재"}]},{"lat":"37.39514568","long":"127.2179802","items":[{"name":"엘림침구","tel":"","addr":"경기도 광주시 태전동 502-20번지 한도빌라 202호","category":"직물 - 카페트,커튼,천막,지물"}]},{"lat":"37.39322879","long":"127.2264781","items":[{"name":"엘복싱","tel":"031-797-3080","addr":"경기도 광주시 태전동 281-4번지 씨엘프라자 3층","category":"레저업소 - 헬스클럽"},{"name":"인스쿨연기학원(경기광주)","tel":"031-762-3094","addr":"경기도 광주시 태전동 281-4번지 씨엘프라자 3층","category":"학원 - 예·체능계학원"},{"name":"카페데빈","tel":"031-766-8356","addr":"경기도 광주시 태전동 281-4번지 씨엘프라자 3층","category":"일반휴게음식 - 서양음식"}]},{"lat":"37.39578135","long":"127.2201954","items":[{"name":"영복청과","tel":"031-111-1111","addr":"경기도 광주시 태전동 502-93번지 성현빌리지1차","category":"음료식품 - 농·축·수산품"}]},{"lat":"37.38933174","long":"127.2289508","items":[{"name":"예건","tel":"031-0000-0000","addr":"경기도 광주시 태전동 228번지 성원아파트","category":"회원제형태 - 기타4"}]},{"lat":"37.39277887","long":"127.2308922","items":[{"name":"오땡큐 태전점","tel":"031-768-5705","addr":"경기도 광주시 태전동 268-1번지 2층","category":"보건위생 - 이용원"},{"name":"화이트통신 (태전점)","tel":"031-797-9016","addr":"경기도 광주시 태전동 268-1번지 ,1,2층","category":"사무통신 - 통신기기"}]},{"lat":"37.39417339","long":"127.2224493","items":[{"name":"오복식당","tel":"031-763-7232","addr":"경기도 광주시 태전동 387-1번지 외3필지","category":"일반휴게음식 - 일반한식"}]},{"lat":"37.39250667","long":"127.2271761","items":[{"name":"오토피아","tel":"031-768-5112","addr":"경기도 광주시 태전동 276-9번지","category":"자동차정비 유지 - 자동차시트·타이어"}]},{"lat":"37.39489413","long":"127.2224853","items":[{"name":"와이에스 스포츠클럽(YS sports club)","tel":"031-767-1233","addr":"경기도 광주시 태전동 384-1번지 1호","category":"학원 - 기타 교육기관"}]},{"lat":"37.39350254","long":"127.2246495","items":[{"name":"용언자동차정비코너","tel":"031-765-6583","addr":"경기도 광주시 태전동 367-14번지","category":"자동차정비 유지 - 자동차정비"}]},{"lat":"37.37853302","long":"127.226649","items":[{"name":"우리","tel":"","addr":"경기도 광주시 태전동 704번지 힐스테이트태전 1616동 1403호","category":"사무통신 - 기타 사무용품"},{"name":"이마트24 (광주힐스테이트점)","tel":"","addr":"경기도 광주시 태전동 704번지 힐스테이트태전 104호","category":"유통업 영리 - 편 의 점"},{"name":"이마트24 (광주힐스테이트점)","tel":"031-1111-1111","addr":"경기도 광주시 태전동 704번지 힐스테이트태전 104호","category":"유통업 영리 - 편 의 점"}]},{"lat":"37.39889357","long":"127.2080073","items":[{"name":"운찬하우징","tel":"031-8825-1550","addr":"경기도 광주시 태전동 443-1번지","category":"건축자재 - 기타건축자재"}]},{"lat":"37.39133667","long":"127.2264838","items":[{"name":"월드그린","tel":"031-763-7313","addr":"경기도 광주시 태전동 244-83번지 라데팡스지하1층 101호","category":"신변잡화 - 기타잡화"},{"name":"피나치너","tel":"031-766-6565","addr":"경기도 광주시 태전동 244-83번지 라데팡스 103동 B101호","category":"일반휴게음식 - 서양음식"}]},{"lat":"37.38120752","long":"127.232133","items":[{"name":"웹이머스(Webimmerse)","tel":"031-768-4577","addr":"경기도 광주시 태전동 691번지 광주태전이-편한세상아파트","category":"회원제형태 - 기타4"}]},{"lat":"37.39120129","long":"127.2313165","items":[{"name":"위드치킨","tel":"031-765-3389","addr":"경기도 광주시 태전동 667번지","category":"일반휴게음식 - 스넥"},{"name":"컴시너지","tel":"070-7658-6967","addr":"경기도 광주시 태전동 667번지 미진아파트","category":"회원제형태 - 기타4"},{"name":"포천식당","tel":"031-798-2234","addr":"경기도 광주시 태전동 667번지 미진 상가 103호","category":"일반휴게음식 - 주점"}]},{"lat":"37.39655533","long":"127.2157255","items":[{"name":"유니시스템","tel":"031-798-6119","addr":"경기도 광주시 태전동 426번지","category":"사무통신 - 컴퓨터"}]},{"lat":"37.38767437","long":"127.2140631","items":[{"name":"유성상사","tel":"031-767-7788","addr":"경기도 광주시 태전동 588-1번지 나동 2층","category":"자동차판매 - 이륜차판매"},{"name":"전협상공","tel":"031-767-7788","addr":"경기도 광주시 태전동 588-1번지 외5필지","category":"자동차판매 - 이륜차판매"},{"name":"한국CST","tel":"031-767-7788","addr":"경기도 광주시 태전동 588-1번지","category":"자동차판매 - 이륜차판매"}]},{"lat":"37.39241775","long":"127.2217328","items":[{"name":"은성가구","tel":"031-768-8811","addr":"경기도 광주시 태전동 350-3번지","category":"가구 - 일반가구"}]},{"lat":"37.38953119","long":"127.2283077","items":[{"name":"이지하우스","tel":"031-284-0804","addr":"경기도 광주시 태전동 228번지 성원아파트","category":"직물 - 카페트,커튼,천막,지물"}]},{"lat":"37.39020125","long":"127.2265594","items":[{"name":"익수세탁","tel":"031-763-3684","addr":"경기도 광주시 태전동 245-112번지 스타하우스 B01호","category":"수리서비스 - 세탁소"}]},{"lat":"37.3933062","long":"127.2236438","items":[{"name":"인사동","tel":"070-7872-4298","addr":"경기도 광주시 태전동 364-3번지 1층","category":"일반휴게음식 - 일반한식"}]},{"lat":"37.39642425","long":"127.2134552","items":[{"name":"일흥벤딩공업","tel":"031-767-3957","addr":"경기도 광주시 태전동 419번지","category":"기타 - 기타 전문점"}]},{"lat":"37.3910877","long":"127.2198657","items":[{"name":"자매식당","tel":"031-764-3389","addr":"경기도 광주시 태전동 322-1번지","category":"일반휴게음식 - 일반한식"},{"name":"자매식당","tel":"031-764-3389","addr":"경기도 광주시 태전동 322-1번지","category":"일반휴게음식 - 일반한식"}]},{"lat":"37.39433706","long":"127.221648","items":[{"name":"정대천 믿음카센타","tel":"031-764-2830","addr":"경기도 광주시 태전동 389-2번지","category":"자동차정비 유지 - 자동차정비"}]},{"lat":"37.39422963","long":"127.2163401","items":[{"name":"정읍국밥식당","tel":"031-766-2136","addr":"경기도 광주시 태전동 508-6번지","category":"일반휴게음식 - 일반한식"},{"name":"태전오리","tel":"031-763-1300","addr":"경기도 광주시 태전동 508-6번지 1층","category":"일반휴게음식 - 일반한식"}]},{"lat":"37.39164386","long":"127.226033","items":[{"name":"제이앤하우스","tel":"031-763-0708","addr":"경기도 광주시 태전동 244-86번지 102동 B-101호","category":"일반휴게음식 - 서양음식"}]},{"lat":"37.39350039","long":"127.22579","items":[{"name":"주식회사  대박건설","tel":"031-761-9373","addr":"경기도 광주시 태전동 295-2번지 햇길터","category":"기타 - 기계공구"}]},{"lat":"37.39545225","long":"127.2077043","items":[{"name":"주식회사 그랑프리골프코리아","tel":"02-581-1872","addr":"경기도 광주시 태전동 467-35번지","category":"레져용품 - 스포츠·레져용품"}]},{"lat":"37.39108554","long":"127.2210401","items":[{"name":"주식회사 미단푸드","tel":"031-702-2503","addr":"경기도 광주시 태전동 313-2번지","category":"음료식품 - 정육점"}]},{"lat":"37.39547214","long":"127.2066203","items":[{"name":"주식회사 삼일하이테크","tel":"031-763-0577","addr":"경기도 광주시 태전동 467-38번지","category":"주방용구 - 주방용구"}]},{"lat":"37.39589078","long":"127.214504","items":[{"name":"주식회사 성보자동차공업사","tel":"031-797-8554","addr":"경기도 광주시 태전동 413번지","category":"자동차정비 유지 - 자동차정비"}]},{"lat":"37.39083511","long":"127.2200343","items":[{"name":"주식회사 이마트24 광주샘터점","tel":"031-1111-1111","addr":"경기도 광주시 태전동 319-1번지 1층","category":"유통업 영리 - 편 의 점"}]},{"lat":"37.39419811","long":"127.208706","items":[{"name":"주식회사 하나라이트","tel":"031-763-5213","addr":"경기도 광주시 태전동 467-80번지 1,2호동","category":"용역 서비스 - 종합용역"}]},{"lat":"37.39892123","long":"127.207646","items":[{"name":"주식회사 한국대형정비","tel":"031-797-1919","addr":"경기도 광주시 태전동 443-2번지","category":"기타 - 기계공구"},{"name":"주식회사임국","tel":"031-764-2701","addr":"경기도 광주시 태전동 443-2번지","category":"건축자재 - 기타건축자재"}]},{"lat":"37.39281056","long":"127.2087022","items":[{"name":"주식회사엠앤에스(M&S)","tel":"031-722-1777","addr":"경기도 광주시 태전동 467-89번지","category":"용역 서비스 - 종합용역"}]},{"lat":"37.38961284","long":"127.218337","items":[{"name":"주식회사이앤엘이디","tel":"031-595-2671","addr":"경기도 광주시 태전동 570-1번지 A","category":"건축자재 - 조명기구"}]},{"lat":"37.39939234","long":"127.2061453","items":[{"name":"주원제니퍼","tel":"031-766-0528","addr":"경기도 광주시 태전동 439-5번지","category":"건축자재 - 기타건축자재"}]},{"lat":"37.39515214","long":"127.2193805","items":[{"name":"지희시스템","tel":"031-741-9228","addr":"경기도 광주시 태전동 502-26번지 디베리아빌","category":"회원제형태 - 기타4"}]},{"lat":"37.39836533","long":"127.2060634","items":[{"name":"진우드인테리어","tel":"031-765-8576","addr":"경기도 광주시 태전동 442-1번지","category":"가구 - 일반가구"}]},{"lat":"37.38753003","long":"127.2380353","items":[{"name":"처갓집양념치킨","tel":"031-762-9525","addr":"경기도 광주시 태전동 688-1번지 쌍용스윗닷홈 상가동 102호","category":"일반휴게음식 - 스넥"}]},{"lat":"37.39261834","long":"127.2300335","items":[{"name":"천수한의원","tel":"031-764-8799","addr":"경기도 광주시 태전동 261-1대한상가1층106호~107호","category":"의원 - 한의원"},{"name":"청춘미장원","tel":"031-769-8701","addr":"경기도 광주시 태전동 261-1번지 2층","category":"보건위생 - 미용원"}]},{"lat":"37.3938388","long":"127.2278915","items":[{"name":"천애육","tel":"031-763-6463","addr":"경기도 광주시 태전동 284번지 1층","category":"일반휴게음식 - 일반한식"},{"name":"천애육 (태전본점)","tel":"031-763-6463","addr":"경기도 광주시 태전동 284번지 1층","category":"음료식품 - 정육점"}]},{"lat":"37.39772326","long":"127.2074282","items":[{"name":"청솔식당","tel":"031-768-0381","addr":"경기도 광주시 태전동 445번지","category":"일반휴게음식 - 일반한식"}]},{"lat":"37.3996151","long":"127.2075914","items":[{"name":"청아창호","tel":"031-768-6235","addr":"경기도 광주시 태전동 437-2번지 D동","category":"건축자재 - 보일러·펌프·샷시"}]},{"lat":"37.38849585","long":"127.2278755","items":[{"name":"최성순 개인교습소","tel":"","addr":"경기도 광주시 태전동 228-1번지 태전5차성원상떼빌","category":"학원 - 기타 교육기관"}]},{"lat":"37.38736694","long":"127.214672","items":[{"name":"케드코에너지 주식회사","tel":"031-731-1195","addr":"경기도 광주시 태전동 584-1번지","category":"전기제품 - 기타전기제품"}]},{"lat":"37.39374953","long":"127.2127363","items":[{"name":"코리아그린포트","tel":"031-765-2792","addr":"경기도 광주시 태전동 482-3번지 외3필지","category":"신변잡화 - 기타잡화"}]},{"lat":"37.39336616","long":"127.2253041","items":[{"name":"코인빨래방","tel":"","addr":"경기도 광주시 태전동 296-1번지 데코빌 B동 1층","category":"수리서비스 - 세탁소"}]},{"lat":"37.39589255","long":"127.2135102","items":[{"name":"큐시스이앤지","tel":"031-767-5936","addr":"경기도 광주시 태전동 467-6번지","category":"서적문구 - 출판 및 인쇄물"}]},{"lat":"37.39583737","long":"127.2141425","items":[{"name":"큰손식당","tel":"031-765-5828","addr":"경기도 광주시 태전동 416-2번지","category":"일반휴게음식 - 일반한식"}]},{"lat":"37.39295246","long":"127.2248963","items":[{"name":"태전로114","tel":"031-797-1140","addr":"경기도 광주시 태전동 365-5번지 1층 102호","category":"일반휴게음식 - 일반한식"},{"name":"태전로114/농업회사법인 100년축산(주)태전","tel":"031-797-1140","addr":"경기도 광주시 태전동 365-5번지 101호","category":"음료식품 - 정육점"}]},{"lat":"37.39308691","long":"127.2300123","items":[{"name":"태전철물","tel":"031-766-7522","addr":"경기도 광주시 태전동 269-13번지","category":"기타 - 기계공구"}]},{"lat":"37.39139236","long":"127.2207812","items":[{"name":"태창자동차공업사","tel":"031-766-5109","addr":"경기도 광주시 태전동 311번지","category":"자동차정비 유지 - 자동차정비"}]},{"lat":"37.387058","long":"127.2306151","items":[{"name":"토스 (TOSS)","tel":"031-8028-0055","addr":"경기도 광주시 태전동 193번지 3단지성원아파트","category":"전기제품 - 기타전기제품"}]},{"lat":"37.39461303","long":"127.2135631","items":[{"name":"튼튼패키지","tel":"031-763-6252","addr":"경기도 광주시 태전동 480번지 480-1,486-5,487-1","category":"유통업 영리 - 기타유통업"}]},{"lat":"37.39311539","long":"127.2292558","items":[{"name":"파프리카 푸드","tel":"031-763-8079","addr":"경기도 광주시 태전동 270-1번지 1층","category":"음료식품 - 기타음료식품"}]},{"lat":"37.38788325","long":"127.2278285","items":[{"name":"퍼팩트코퍼레이션","tel":"","addr":"경기도 광주시 태전동 228-1번지 태전5차성원상떼빌","category":"자동차정비 유지 - 자동차부품"}]},{"lat":"37.38626629","long":"127.230003","items":[{"name":"펀앤골프(FUN&GOLF)","tel":"031-798-8982","addr":"경기도 광주시 태전동 193번지 3단지성원아파트","category":"학원 - 기타 교육기관"}]},{"lat":"37.38966891","long":"127.2172305","items":[{"name":"페이지스튜디오","tel":"070-4179-0495","addr":"경기도 광주시 태전동 548-2번지","category":"건축자재 - 인테리어전문"}]},{"lat":"37.39306022","long":"127.2250886","items":[{"name":"피씨매니저","tel":"031-765-5119","addr":"경기도 광주시 태전동 297-3번지","category":"사무통신 - 컴퓨터"}]},{"lat":"37.39494888","long":"127.2172004","items":[{"name":"필트리(feel tree)","tel":"031-699-3433","addr":"경기도 광주시 태전동 499번지 2층","category":"일반휴게음식 - 일반한식"},{"name":"한마음휴게소슈퍼","tel":"031-766-7551","addr":"경기도 광주시 태전동 499번지","category":"유통업 영리 - 슈퍼마켓"}]},{"lat":"37.39372956","long":"127.2284784","items":[{"name":"하늘당 벌상","tel":"070-4219-0063","addr":"경기도 광주시 태전동 284-2번지","category":"보건위생 - 기타대인서비스"}]},{"lat":"37.38700112","long":"127.2366787","items":[{"name":"하늘통상","tel":"031-768-9039","addr":"경기도 광주시 태전동 687번지 쌍용3단지아파트","category":"신변잡화 - 기타잡화"}]},{"lat":"37.39442325","long":"127.2188702","items":[{"name":"한국종합목재(주)","tel":"02-333-9911","addr":"경기도 광주시 태전동 503번지","category":"건축자재 - 인테리어전문"}]},{"lat":"37.39611502","long":"127.2150693","items":[{"name":"한성산업","tel":"031-766-5855","addr":"경기도 광주시 태전동 412-5번지","category":"직물 - 침구·수예점"}]},{"lat":"37.3950049","long":"127.2161164","items":[{"name":"한일디자인","tel":"031-762-2646","addr":"경기도 광주시 태전동 496번지","category":"주방용구 - 주방용구"}]},{"lat":"37.39105848","long":"127.230616","items":[{"name":"행운열쇠","tel":"031-765-3040","addr":"경기도 광주시 태전동 674-8","category":"기타 - 기계공구"}]},{"lat":"37.38648106","long":"127.2307715","items":[{"name":"허그매트","tel":"","addr":"경기도 광주시 태전동 193번지 3단지성원아파트","category":"신변잡화 - 기타잡화"}]},{"lat":"37.38311716","long":"127.2277014","items":[{"name":"힐스커피","tel":"","addr":"경기도 광주시 태전동 87-33번지 1층","category":"일반휴게음식 - 서양음식"}]}]