[{"lat":"37.825221209","long":"127.02888093","items":[{"name":"(재)선학원 지장사","tel":"031-863-1888","addr":"경기도 양주시 덕계동 752-2번지","category":"기타 - 비영리/대상"}]},{"lat":"37.822305272","long":"127.04831309","items":[{"name":"(주)베이비플러스","tel":"031-204-5789","addr":"경기도 양주시 덕계동 480-16번지 원재빌딩 2층 1호 2호","category":"의류 - 아동의류"},{"name":"닭이봉 원조 춘천닭갈비","tel":"031-857-1230","addr":"경기도 양주시 덕계동 480-16번지 1층","category":"일반휴게음식 - 일반한식"},{"name":"베이비플러스","tel":"031-858-8589","addr":"경기도 양주시 덕계동 480-16번지 원재빌딩 A동 2층","category":"의류 - 아동의류"},{"name":"장순복횟집","tel":"031-863-2235","addr":"경기도 양주시 덕계동 480-16번지 원재빌딩 A동 1층","category":"일반휴게음식 - 일식·회집"}]},{"lat":"37.825340704","long":"127.05021178","items":[{"name":"(주)신덕계공업사","tel":"031-863-3458","addr":"경기도 양주시 덕계동 496-1번지","category":"자동차정비 유지 - 자동차정비"}]},{"lat":"37.816810481","long":"127.0457317","items":[{"name":"(주)쓰리아이씨오(3ICO Icorporation)","tel":"031-856-0600","addr":"경기도 양주시 덕계동 699-3번지","category":"보건위생 - 안경"},{"name":"명륜진사갈비 덕계점","tel":"031-863-5609","addr":"경기도 양주시 덕계동 699-3번지","category":"일반휴게음식 - 일반한식"},{"name":"몽피크","tel":"031-866-8974","addr":"경기도 양주시 덕계동 699-3번지 1층 A-1호","category":"의류 - 정장"},{"name":"샤빌로트 당구카페","tel":"031-858-3938","addr":"경기도 양주시 덕계동 699-3번지 2층","category":"레저업소 - 당 구 장"}]},{"lat":"37.821476422","long":"127.04826715","items":[{"name":"(주)에이취앤지에듀케이션","tel":"031-868-8838","addr":"경기도 양주시 덕계동 473-4번지 현대빌딩 2,3층","category":"학원 - 외국어학원"},{"name":"굽네치킨(양주덕계점)","tel":"031-868-9492","addr":"경기도 양주시 덕계동 473-4번지 1층","category":"일반휴게음식 - 주점"},{"name":"김경자대구왕뽈찜 덕계점","tel":"031-866-7821","addr":"경기도 양주시 덕계동 473-4번지 현대빌딩 1층","category":"일반휴게음식 - 일반한식"},{"name":"양주천막건설산업","tel":"031-865-2295","addr":"경기도 양주시 덕계동 473-4번지","category":"직물 - 카페트,커튼,천막,지물"},{"name":"카페테라","tel":"031-858-5277","addr":"경기도 양주시 덕계동 473-4번지 현대빌딩","category":"일반휴게음식 - 일반한식"},{"name":"향기나는꽃집","tel":"031-858-5277","addr":"경기도 양주시 덕계동 473-4번지 현대빌딩 2호","category":"문화.취미 - 화원"}]},{"lat":"37.818278711","long":"127.04657298","items":[{"name":"(주)원하환경","tel":"031-857-4077","addr":"경기도 양주시 덕계동 420-3","category":"용역 서비스 - 종합용역"},{"name":"덕계볼링장","tel":"031-867-8877","addr":"경기도 양주시 덕계동 420-3번지","category":"레저업소 - 볼 링 장"}]},{"lat":"37.820611538","long":"127.04820984","items":[{"name":"(주)지속사회경영원","tel":"031-875-2700","addr":"경기도 양주시 덕계동 455-1번지 3층","category":"학원 - 기타 교육기관"},{"name":"김돼지네","tel":"031-859-0292","addr":"경기도 양주시 덕계동 455-1번지 1층","category":"일반휴게음식 - 일반한식"},{"name":"김돼지네","tel":"031-859-0292","addr":"경기도 양주시 덕계동 455-1번지","category":"일반휴게음식 - 일반한식"},{"name":"시대모터","tel":"031-863-2261","addr":"경기도 양주시 덕계동 455-1번지","category":"수리서비스 - 기타수리서비스"},{"name":"양주심리상담센터","tel":"031-825-1235","addr":"경기도 양주시 덕계동 455-1번지 2층","category":"보건위생 - 기타대인서비스"}]},{"lat":"37.820333234","long":"127.04556337","items":[{"name":"(주)카페그립지","tel":"031-868-0191","addr":"경기도 양주시 덕계동 678-3번지","category":"일반휴게음식 - 서양음식"}]},{"lat":"37.818702484","long":"127.04567601","items":[{"name":"203 대박 아이스크림 할인점","tel":"031-111-1111","addr":"경기도 양주시 덕계동 681-16번지 1층","category":"음료식품 - 기타음료식품"},{"name":"백가네닭강정","tel":"070-8154-2357","addr":"경기도 양주시 덕계동 681-16번지 1층","category":"일반휴게음식 - 일반한식"},{"name":"신광인테리어","tel":"031-864-0764","addr":"경기도 양주시 덕계동 681-16번지","category":"직물 - 카페트,커튼,천막,지물"},{"name":"엘가헤어","tel":"070-4922-1261","addr":"경기도 양주시 덕계동 681-16번지 2층","category":"보건위생 - 미용원"},{"name":"풍성장터","tel":"031-866-7250","addr":"경기도 양주시 덕계동 681-16번지","category":"음료식품 - 정육점"}]},{"lat":"37.821034841","long":"127.04857354","items":[{"name":"24시전주명가콩나물국밥","tel":"031-857-3880","addr":"경기도 양주시 덕계동 451-3번지 1층","category":"일반휴게음식 - 일반한식"}]},{"lat":"37.812981607","long":"127.04534337","items":[{"name":"3장만원","tel":"031-861-6553","addr":"경기도 양주시 덕계동 717-3","category":"의류 - 정장"},{"name":"경원자동차공업사","tel":"031-862-5155","addr":"경기도 양주시 덕계동 717-3번지","category":"자동차정비 유지 - 자동차정비"}]},{"lat":"37.819863989","long":"127.04759608","items":[{"name":"B.B.Q","tel":"031-866-3445","addr":"경기도 양주시 덕계동 451-1덕계빌딩1층","category":"일반휴게음식 - 스넥"},{"name":"GS25양주덕계점","tel":"","addr":"경기도 양주시 덕계동 456-1번지","category":"유통업 영리 - 편 의 점"},{"name":"마임덕계지점","tel":"031-859-1331","addr":"경기도 양주시 덕계동 456-1번지","category":"보건위생 - 화장품"},{"name":"미래패션","tel":"031-865-5274","addr":"경기도 양주시 덕계동 456-1번지","category":"의류 - 정장"},{"name":"아론PC방","tel":"070-4010-6585","addr":"경기도 양주시 덕계동 456-1번지 덕계빌딩 2층","category":"레저업소 - 기타레져업소"},{"name":"우리노래연습장","tel":"031-858-9044","addr":"경기도 양주시 덕계동 456-1번지","category":"레저업소 - 노 래 방"},{"name":"월드파크모텔","tel":"031-111-1111","addr":"경기도 양주시 덕계동 456-1번지 3층","category":"숙박업 - 여관/기타숙박업"},{"name":"윤홍식정형외과","tel":"031-863-8275","addr":"경기도 양주시 덕계동 456-1번지","category":"의원 - 의원"},{"name":"윤홍식정형외과","tel":"031-866-8275","addr":"경기도 양주시 덕계동 456-1번지","category":"의원 - 의원"},{"name":"행복한미용실","tel":"031-861-8460","addr":"경기도 양주시 덕계동 456-1번지 1층","category":"보건위생 - 미용원"},{"name":"회천유리","tel":"031-868-6262","addr":"경기도 양주시 덕계동 456-1번지","category":"건축자재 - 유리"}]},{"lat":"37.816674069","long":"127.04909327","items":[{"name":"GS25덕계신우점","tel":"","addr":"경기도 양주시 덕계동 411-85번지","category":"유통업 영리 - 편 의 점"}]},{"lat":"37.818035591","long":"127.04620941","items":[{"name":"GS25덕계영토점","tel":"","addr":"경기도 양주시 덕계동 420-9번지 영토빌딩 105,106호","category":"유통업 영리 - 편 의 점"},{"name":"가족약국","tel":"031-861-8288","addr":"경기도 양주시 덕계동 420-9번지 영토빌딩 104호","category":"약국 - 약국"},{"name":"강남떡집","tel":"031-858-3060","addr":"경기도 양주시 덕계동 420-9번지","category":"음료식품 - 제과점"},{"name":"굿모닝투어","tel":"031-859-9903","addr":"경기도 양주시 덕계동 420-9번지 304호","category":"여행 - 관광여행"},{"name":"김밥나라","tel":"031-858-1558","addr":"경기도 양주시 덕계동 420-9번지 109호","category":"일반휴게음식 - 스넥"},{"name":"덕계텔레콤","tel":"031-858-1029","addr":"경기도 양주시 덕계동 420-9번지 영토빌딩 1층 107호","category":"사무통신 - 통신기기"},{"name":"리치헤어","tel":"031-868-2127","addr":"경기도 양주시 덕계동 420-9번지 201호","category":"보건위생 - 미용원"},{"name":"별스튜디오","tel":"031-864-1654","addr":"경기도 양주시 덕계동 420-9번지 영토빌딩 1층 108호","category":"광학제품 - 사진관"},{"name":"블루클럽","tel":"031-861-0525","addr":"경기도 양주시 덕계동 420-9번지 1층","category":"보건위생 - 미용원"},{"name":"우리치과","tel":"031-865-0505","addr":"경기도 양주시 덕계동 420-9번지 3층","category":"의원 - 치과의원"},{"name":"위 짐(WE GYM)","tel":"031-868-8680","addr":"경기도 양주시 덕계동 420-9번지 5층","category":"레저업소 - 헬스클럽"},{"name":"이디야(양주덕계점)","tel":"031-862-9590","addr":"경기도 양주시 덕계동 420-9번지 1층 1,2호","category":"일반휴게음식 - 서양음식"},{"name":"첨단인지학습센터","tel":"031-861-9988","addr":"경기도 양주시 덕계동 420-9번지 8층 803호","category":"보건위생 - 기타대인서비스"},{"name":"피부 앤 바디","tel":"031-868-8847","addr":"경기도 양주시 덕계동 420-9번지 3층 302호","category":"보건위생 - 피부미용실"},{"name":"한평주정신건강의학과의원","tel":"031-867-7780","addr":"경기도 양주시 덕계동 420-9번지 영토빌딩 9층 902호 901","category":"의원 - 의원"},{"name":"해와달요양원","tel":"031-864-0011","addr":"경기도 양주시 덕계동 420-9번지 6층 7층","category":"기타의료기관 - 기타의료기관 및 기타"}]},{"lat":"37.821334055","long":"127.04337192","items":[{"name":"GS25덕계평화점","tel":"080-555-2525","addr":"경기도 양주시 덕계동 656-6번지 1층","category":"유통업 영리 - 편 의 점"},{"name":"양주와이어주짓수","tel":"031-859-9950","addr":"경기도 양주시 덕계동 656-6번지 3층","category":"레저업소 - 헬스클럽"}]},{"lat":"37.807037689","long":"127.0610105","items":[{"name":"GS25덕계현진점","tel":"","addr":"경기도 양주시 덕계동 856번지 현진에버빌단지 상가동 102~103호","category":"유통업 영리 - 편 의 점"},{"name":"까페아인 (CAFE A-in)","tel":"031-867-6464","addr":"경기도 양주시 덕계동 856번지 현진에버빌2단지 상가동 104호","category":"일반휴게음식 - 서양음식"},{"name":"담담","tel":"031-862-7707","addr":"경기도 양주시 덕계동 856번지 양주덕계현진에버빌2단지 101호","category":"일반휴게음식 - 스넥"},{"name":"헤라뷰티샵","tel":"031-838-5631","addr":"경기도 양주시 덕계동 856번지 양주덕계현진에버빌2단지아파트 상가동 106호","category":"보건위생 - 미용원"}]},{"lat":"37.821782799","long":"127.04811969","items":[{"name":"LHB행정사 사무소","tel":"031-864-1325","addr":"경기도 양주시 덕계동 475-1번지 1층","category":"용역 서비스 - 법률회계서비스(개인)"},{"name":"고려행정사합동사무소","tel":"031-858-7807","addr":"경기도 양주시 덕계동 475-1번지","category":"용역 서비스 - 법률회계서비스(개인)"},{"name":"고향유통","tel":"031-868-1345","addr":"경기도 양주시 덕계동 475-1번지 1,2층","category":"음료식품 - 기타음료식품"},{"name":"덕산카센타","tel":"031-867-7264","addr":"경기도 양주시 덕계동 475-1번지","category":"자동차정비 유지 - 카인테리어"},{"name":"삼천리덕계대리점","tel":"031-864-5285","addr":"경기도 양주시 덕계동 475-1번지","category":"레져용품 - 스포츠·레져용품"},{"name":"양주 행정사 사무소","tel":"031-866-8915","addr":"경기도 양주시 덕계동 475-1번지","category":"용역 서비스 - 법률회계서비스(개인)"},{"name":"이쁘지오 스킨앤바디","tel":"031-867-8228","addr":"경기도 양주시 덕계동 475-1번지 2층","category":"보건위생 - 피부미용실"},{"name":"주식회사휴메인","tel":"02-599-1676","addr":"경기도 양주시 덕계동 475-1번지 2층","category":"여행 - 관광여행"}]},{"lat":"37.821701605","long":"127.04840359","items":[{"name":"MRT","tel":"031-863-2008","addr":"경기도 양주시 덕계동 474-6번지 승정빌딩","category":"사무통신 - 통신기기"},{"name":"로마노래연습장","tel":"031-861-7756","addr":"경기도 양주시 덕계동 474-6번지 1층","category":"레저업소 - 노 래 방"},{"name":"주식회사 코랩","tel":"031-863-2211","addr":"경기도 양주시 덕계동 474-6번지 승정빌딩 3층","category":"서적문구 - 과학기자재"},{"name":"탑댄스스포츠학원","tel":"031-861-6025","addr":"경기도 양주시 덕계동 474-6번지 4층","category":"학원 - 예·체능계학원"}]},{"lat":"37.823881676","long":"127.04895011","items":[{"name":"OK(오케이)능이마을","tel":"031-859-5239","addr":"경기도 양주시 덕계동 513-1번지 B동 1층 일부","category":"일반휴게음식 - 일반한식"},{"name":"대가수산","tel":"031-861-3777","addr":"경기도 양주시 덕계동 513-1번지 상상타운 B동 1층 일부","category":"일반휴게음식 - 일식·회집"}]},{"lat":"37.825583747","long":"127.05073442","items":[{"name":"Ongolf(온골프)","tel":"070-7301-2559","addr":"경기도 양주시 덕계동 496번지 1층","category":"레져용품 - 골프용품 전문점"},{"name":"넷길이 콩나물 국밥","tel":"031-861-9687","addr":"경기도 양주시 덕계동 496번지 양주골프클럽 1층","category":"일반휴게음식 - 일반한식"},{"name":"대림도기","tel":"031-858-0311","addr":"경기도 양주시 덕계동 496번지 토리골프클럽1층일부","category":"건축자재 - 건축용 요업제품"},{"name":"디스포츠","tel":"031-859-2498","addr":"경기도 양주시 덕계동 496번지","category":"레져용품 - 스포츠·레져용품"},{"name":"지노조명전기백화점","tel":"031-858-0500","addr":"경기도 양주시 덕계동 496번지","category":"건축자재 - 조명기구"},{"name":"토리골프클럽(주)","tel":"031-866-2122","addr":"경기도 양주시 덕계동 496번지","category":"회원제형태 - 레져업소"}]},{"lat":"37.820476462","long":"127.04803939","items":[{"name":"Rinnai","tel":"","addr":"경기도 양주시 덕계동 455-7번지","category":"건축자재 - 보일러·펌프·샷시"},{"name":"수림샵","tel":"031-862-0987","addr":"경기도 양주시 덕계동 455-7번지 2층","category":"보건위생 - 피부미용실"}]},{"lat":"37.823918681","long":"127.04640593","items":[{"name":"THE 끌림헤어","tel":"031-862-0401","addr":"경기도 양주시 덕계동 519번지 1층","category":"보건위생 - 미용원"}]},{"lat":"37.825305591","long":"127.04784924","items":[{"name":"가나안유리","tel":"031-859-7703","addr":"경기도 양주시 덕계동 532-15번지","category":"회원제형태 - 기타4"}]},{"lat":"37.82322631","long":"127.04256654","items":[{"name":"가락동농산물","tel":"031-865-2027","addr":"경기도 양주시 덕계동 584-5","category":"음료식품 - 농·축·수산품"},{"name":"갈비앤등갈비","tel":"031-000-0000","addr":"경기도 양주시 덕계동 584-5번지","category":"일반휴게음식 - 일반한식"}]},{"lat":"37.823394925","long":"127.04956314","items":[{"name":"가마치통닭(덕계점)","tel":"031-864-2235","addr":"경기도 양주시 덕계동 509-10번지 다동 1층","category":"일반휴게음식 - 일반한식"},{"name":"꾸오레안경원","tel":"031-862-4223","addr":"경기도 양주시 덕계동 509-10번지 나동","category":"보건위생 - 안경"},{"name":"다힘 세무회계","tel":"031-866-5858","addr":"경기도 양주시 덕계동 509-10번지 가동 2층","category":"용역 서비스 - 법률회계서비스(개인)"},{"name":"명진타일","tel":"031-866-1925","addr":"경기도 양주시 덕계동 509-10","category":"건축자재 - 건축용 요업제품"},{"name":"씨유양주중앙점","tel":"031-863-7385","addr":"경기도 양주시 덕계동 509-10번지 1층","category":"유통업 영리 - 편 의 점"},{"name":"오 안경","tel":"031-859-3996","addr":"경기도 양주시 덕계동 509-10번지 나동","category":"보건위생 - 안경"},{"name":"이디야커피 양주덕계중앙점","tel":"031-862-3665","addr":"경기도 양주시 덕계동 509-10번지 1층","category":"일반휴게음식 - 서양음식"}]},{"lat":"37.820224263","long":"127.04786888","items":[{"name":"가족노래연습장","tel":"031-868-6777","addr":"경기도 양주시 덕계동 452-44번지 외1필지 지하1층","category":"레저업소 - 노 래 방"},{"name":"행운만물사","tel":"031-868-1313","addr":"경기도 양주시 덕계동 452-44.45","category":"기타 - 기타 전문점"}]},{"lat":"37.816917712","long":"127.04809401","items":[{"name":"갈매기살전문점","tel":"031-861-4155","addr":"경기도 양주시 덕계동 411-60번지 1층","category":"일반휴게음식 - 일반한식"}]},{"lat":"37.822729931","long":"127.04504229","items":[{"name":"감나무집","tel":"031-863-9274","addr":"경기도 양주시 덕계동 622-2번지","category":"일반휴게음식 - 일반한식"}]},{"lat":"37.81950377","long":"127.04717564","items":[{"name":"감사민속떡집","tel":"031-863-3136","addr":"경기도 양주시 덕계동 462-1번지 1층","category":"음료식품 - 제과점"},{"name":"공간노래연습장","tel":"031-827-9288","addr":"경기도 양주시 덕계동 462-1번지","category":"레저업소 - 노 래 방"},{"name":"달주","tel":"031-832-6598","addr":"경기도 양주시 덕계동 462-1번지 2층","category":"일반휴게음식 - 일반한식"},{"name":"쌀피자","tel":"031-866-5982","addr":"경기도 양주시 덕계동 462-1번지","category":"일반휴게음식 - 서양음식"},{"name":"유명해장국","tel":"031-864-5236","addr":"경기도 양주시 덕계동 462-1번지","category":"일반휴게음식 - 일반한식"}]},{"lat":"37.808119635","long":"127.05934207","items":[{"name":"강남","tel":"031-874-2777","addr":"경기도 양주시 덕계동 49번지","category":"일반휴게음식 - 일반한식"}]},{"lat":"37.82227837","long":"127.0479837","items":[{"name":"강남동태찜","tel":"031-861-5335","addr":"경기도 양주시 덕계동 479-1번지","category":"일반휴게음식 - 일반한식"},{"name":"박가네옹심이메밀칼국수","tel":"031-866-0086","addr":"경기도 양주시 덕계동 479-1번지 1층 4호","category":"일반휴게음식 - 일반한식"},{"name":"쭈꾸미아저씨","tel":"031-857-7787","addr":"경기도 양주시 덕계동 479-1번지","category":"일반휴게음식 - 일반한식"}]},{"lat":"37.822305184","long":"127.04854025","items":[{"name":"강남메기","tel":"031-858-6020","addr":"경기도 양주시 덕계동 480-2번지","category":"일반휴게음식 - 일반한식"},{"name":"돈이짬뽕","tel":"031-863-1192","addr":"경기도 양주시 덕계동 480-2번지","category":"일반휴게음식 - 일반한식"},{"name":"본가남원추어탕부대찌개","tel":"031-861-1232","addr":"경기도 양주시 덕계동 480-2번지 B동 1호","category":"일반휴게음식 - 일반한식"},{"name":"블루 당구클럽","tel":"02-956-8040","addr":"경기도 양주시 덕계동 480-2번지 A동 3층","category":"레저업소 - 당 구 장"},{"name":"원조마포소금구이","tel":"031-867-7419","addr":"경기도 양주시 덕계동 480-2.3","category":"일반휴게음식 - 일반한식"},{"name":"채선당 덕계점","tel":"031-859-5958","addr":"경기도 양주시 덕계동 480-2번지 2층","category":"일반휴게음식 - 일반한식"},{"name":"황가네숯불생고기","tel":"031-858-1892","addr":"경기도 양주시 덕계동 480-2번지","category":"일반휴게음식 - 일반한식"}]},{"lat":"37.820728348","long":"127.0490163","items":[{"name":"강촌매운탕추어탕","tel":"031-861-8532","addr":"경기도 양주시 덕계동 451-31번지","category":"일반휴게음식 - 일반한식"}]},{"lat":"37.81906238","long":"127.0469823","items":[{"name":"강호플러스치과","tel":"031-863-3840","addr":"경기도 양주시 덕계동 424-4번지 1동 301호","category":"의원 - 치과의원"},{"name":"굿스 수제찹쌀고로케","tel":"","addr":"경기도 양주시 덕계동 424-4번지 1동 109호","category":"일반휴게음식 - 일반한식"},{"name":"꼬지사께","tel":"031-858-9245","addr":"경기도 양주시 덕계동 424-4번지 1층","category":"일반휴게음식 - 일식·회집"},{"name":"덕계 점핑 다이어트","tel":"","addr":"경기도 양주시 덕계동 424-4번지 4층 404호","category":"건강식품 - 기타건강식품"},{"name":"동문서점","tel":"031-863-9393","addr":"경기도 양주시 덕계동 424-4번지","category":"서적문구 - 일반서적"},{"name":"떼루와양주덕계점","tel":"031-862-0922","addr":"경기도 양주시 덕계동 424-4번지 제1층 제105호 스타프라자건축물제 1동","category":"일반휴게음식 - 일반한식"},{"name":"맘스터치","tel":"031-857-8322","addr":"경기도 양주시 덕계동 424-4번지 스타프라자 1층 110,111호","category":"일반휴게음식 - 서양음식"},{"name":"맨스타머리컷트","tel":"031-862-3335","addr":"경기도 양주시 덕계동 424-4번지 1층 일부 106호","category":"보건위생 - 이용원"},{"name":"박경자김밥","tel":"031-863-7977","addr":"경기도 양주시 덕계동 424-4번지 스타프라자 102호","category":"일반휴게음식 - 일반한식"},{"name":"백경훈소아과","tel":"031-864-3838","addr":"경기도 양주시 덕계동 424-4번지 1동 302호","category":"의원 - 의원"},{"name":"수라젓갈쌈밥","tel":"031-863-6343","addr":"경기도 양주시 덕계동 424-4번지 스타프라자주건축물제1동 126호","category":"일반휴게음식 - 일반한식"},{"name":"스타당구장","tel":"031-111-1111","addr":"경기도 양주시 덕계동 424-4번지","category":"레저업소 - 당 구 장"},{"name":"스타약국","tel":"031-859-9993","addr":"경기도 양주시 덕계동 424-4번지 311호","category":"약국 - 약국"},{"name":"양주아산정형외과","tel":"031-858-1275","addr":"경기도 양주시 덕계동 424-4번지 스타프라자 3층","category":"의원 - 의원"},{"name":"여우곱창","tel":"","addr":"경기도 양주시 덕계동 424-4번지 스타프라자 113호","category":"일반휴게음식 - 일반한식"},{"name":"응급실국물떡볶이 양주덕계점","tel":"031-838-4001","addr":"경기도 양주시 덕계동 424-4번지 스타프라자 1층 112호","category":"일반휴게음식 - 스넥"},{"name":"이오 (io)테라피","tel":"070-7013-8874","addr":"경기도 양주시 덕계동 424-4번지 1동 2층 203호","category":"보건위생 - 화장품"},{"name":"제이케이메디칼","tel":"031-864-3800","addr":"경기도 양주시 덕계동 424-4번지 1동 213호","category":"보건위생 - 의료용품"},{"name":"조성아헤어","tel":"031-866-0550","addr":"경기도 양주시 덕계동 424-4번지 스타프라자 2층 202호","category":"보건위생 - 미용원"},{"name":"주식회사 희성통신","tel":"031-858-9111","addr":"경기도 양주시 덕계동 424-4번지 스타프라자 상가 1동 103호","category":"사무통신 - 통신기기"},{"name":"평화약국","tel":"031-861-1061","addr":"경기도 양주시 덕계동 424-4번지 스타프라자 1층 125호","category":"약국 - 약국"},{"name":"피자애덕계점","tel":"031-868-3800","addr":"경기도 양주시 덕계동 424-4번지 스타프라자 1층 108호","category":"일반휴게음식 - 서양음식"}]},{"lat":"37.819170241","long":"127.04765245","items":[{"name":"개미공방","tel":"031-861-3708","addr":"경기도 양주시 덕계동 462-14번지 금광포란재아파트 101호 상가","category":"문화.취미 - 민예·공예품"}]},{"lat":"37.82036837","long":"127.04798254","items":[{"name":"거북찌게전문점","tel":"031-863-6951","addr":"경기도 양주시 덕계동 452-3번지","category":"일반휴게음식 - 일반한식"},{"name":"영암보일러","tel":"031-865-0549","addr":"경기도 양주시 덕계동 452-3번지","category":"수리서비스 - 기타수리서비스"},{"name":"오뚜기방앗간","tel":"031-867-3550","addr":"경기도 양주시 덕계동 452-3","category":"음료식품 - 제과점"}]},{"lat":"37.810200764","long":"127.05945721","items":[{"name":"거성디자인","tel":"031-859-5960","addr":"경기도 양주시 덕계동 98번지 B동","category":"건축자재 - 인테리어전문"}]},{"lat":"37.822396015","long":"127.04659812","items":[{"name":"경기웰니스요양병원/의료법인 가화의료재단","tel":"031-828-1803","addr":"경기도 양주시 덕계동 477-5번지 경기웰니스요양병원","category":"병원 - 병원"},{"name":"카페 에스파스","tel":"","addr":"경기도 양주시 덕계동 477-5번지 경기웰니스요양병원 1층","category":"일반휴게음식 - 서양음식"}]},{"lat":"37.816502898","long":"127.04907045","items":[{"name":"경기유통","tel":"031-846-8701","addr":"경기도 양주시 덕계동 412-20번지","category":"회원제형태 - 기타1"}]},{"lat":"37.82447612","long":"127.0494048","items":[{"name":"경기재활용","tel":"031-863-0054","addr":"경기도 양주시 덕계동 507-3번지","category":"전기제품 - 가전제품"},{"name":"코알라스튜디오","tel":"031-858-1752","addr":"경기도 양주시 덕계동 507-3번지 2층","category":"광학제품 - 사진관"}]},{"lat":"37.819531137","long":"127.04626707","items":[{"name":"경희웰빙반찬","tel":"031-863-0440","addr":"경기도 양주시 덕계동 465-1번지 1층","category":"음료식품 - 기타음료식품"},{"name":"민들레 옷 수선","tel":"031-861-3736","addr":"경기도 양주시 덕계동 465-1번지 1층","category":"수리서비스 - 세탁소"},{"name":"불타는조개","tel":"031-859-9848","addr":"경기도 양주시 덕계동 465-1번지","category":"일반휴게음식 - 일반한식"},{"name":"예삐애견","tel":"031-867-7628","addr":"경기도 양주시 덕계동 465-1번지","category":"문화.취미 - 애완동물"},{"name":"짜글이찌개&석쇠불고기","tel":"031-862-1874","addr":"경기도 양주시 덕계동 465-1번지","category":"일반휴게음식 - 일반한식"},{"name":"투썸퓨전호프","tel":"031-823-6665","addr":"경기도 양주시 덕계동 465-1번지 1층","category":"일반휴게음식 - 주점"},{"name":"푸드1번지","tel":"031-866-8257","addr":"경기도 양주시 덕계동 465-1번지","category":"일반휴게음식 - 일반한식"}]},{"lat":"37.819422724","long":"127.04707338","items":[{"name":"경희한의원","tel":"031-863-0543","addr":"경기도 양주시 덕계동 462-2번지 2층","category":"의원 - 한의원"},{"name":"금광노래연습장","tel":"031-859-3819","addr":"경기도 양주시 덕계동 462-2번지 지하","category":"레저업소 - 노 래 방"},{"name":"재성인쇄","tel":"031-864-1877","addr":"경기도 양주시 덕계동 462-2번지","category":"서적문구 - 출판 및 인쇄물"},{"name":"재성인쇄","tel":"070-3157-0671","addr":"경기도 양주시 덕계동 462-2번지","category":"서적문구 - 출판 및 인쇄물"}]},{"lat":"37.819422944","long":"127.04648279","items":[{"name":"고려당구장","tel":"031-863-1749","addr":"경기도 양주시 덕계동 466-19번지 2층","category":"레저업소 - 당 구 장"},{"name":"덕계1001안경콘텍트","tel":"031-864-5581","addr":"경기도 양주시 덕계동 466-19번지 1층 5,6호","category":"보건위생 - 안경"},{"name":"덕계만물사","tel":"031-866-9119","addr":"경기도 양주시 덕계동 466-19번지","category":"건축자재 - 목재·석재·철물"},{"name":"맛달도너츠찐빵","tel":"031-858-7979","addr":"경기도 양주시 덕계동 466-19번지 1층","category":"일반휴게음식 - 일반한식"},{"name":"밀땅","tel":"031-858-8886","addr":"경기도 양주시 덕계동 466-19번지","category":"일반휴게음식 - 스넥"},{"name":"성희네만두","tel":"031-858-2389","addr":"경기도 양주시 덕계동 466-19번지","category":"일반휴게음식 - 일반한식"},{"name":"왕텔레콤","tel":"031-868-4488","addr":"경기도 양주시 덕계동 466-19번지 1층 1호","category":"사무통신 - 통신기기"}]},{"lat":"37.819477345","long":"127.04554016","items":[{"name":"고려삼계탕","tel":"031-865-1174","addr":"경기도 양주시 덕계동 679-13번지","category":"일반휴게음식 - 일반한식"}]},{"lat":"37.818612501","long":"127.04536931","items":[{"name":"고을떡방앗간","tel":"031-861-5850","addr":"경기도 양주시 덕계동 681-10번지 1층","category":"음료식품 - 제과점"}]},{"lat":"37.817313695","long":"127.04920724","items":[{"name":"골목대장","tel":"031-858-9344","addr":"경기도 양주시 덕계동 410-10번지 1층","category":"일반휴게음식 - 주점"}]},{"lat":"37.82066664","long":"127.04540456","items":[{"name":"공원DVD방","tel":"031-867-1170","addr":"경기도 양주시 덕계동 678-1번지 2층","category":"레저업소 - 기타레져업소"},{"name":"세븐일레븐양주덕계한주점","tel":"031-1577-0711","addr":"경기도 양주시 덕계동 678-1번지","category":"유통업 영리 - 편 의 점"},{"name":"치킨투고","tel":"031-868-3282","addr":"경기도 양주시 덕계동 678-1번지","category":"일반휴게음식 - 스넥"},{"name":"펫푸드 선","tel":"031-822-9306","addr":"경기도 양주시 덕계동 678-1번지 2층","category":"문화.취미 - 애완동물"}]},{"lat":"37.818558403","long":"127.04548285","items":[{"name":"과일사랑","tel":"","addr":"경기도 양주시 덕계동 681-13번지","category":"음료식품 - 농·축·수산품"},{"name":"김나연헤어샵","tel":"031-866-5110","addr":"경기도 양주시 덕계동 681-13번지 1층","category":"보건위생 - 미용원"},{"name":"노다지식당","tel":"031-868-8989","addr":"경기도 양주시 덕계동 681-13번지 1층","category":"일반휴게음식 - 일반한식"},{"name":"호떡군튀김양","tel":"031-528-5241","addr":"경기도 양주시 덕계동 681-13번지","category":"일반휴게음식 - 스넥"}]},{"lat":"37.823586817","long":"127.04218056","items":[{"name":"과일사랑","tel":"070-0000-0000","addr":"경기도 양주시 덕계동 582-9번지","category":"음료식품 - 농·축·수산품"},{"name":"하나공사","tel":"031-862-7466","addr":"경기도 양주시 덕계동 582-9번지 103호","category":"용역 서비스 - 기타용역서비스"}]},{"lat":"37.822702645","long":"127.04575782","items":[{"name":"광명대형카","tel":"02-2614-3600","addr":"경기도 양주시 덕계동 621-2번지","category":"자동차정비 유지 - 자동차정비"}]},{"lat":"37.817556905","long":"127.04932096","items":[{"name":"광명전기LED조명공사","tel":"031-861-8904","addr":"경기도 양주시 덕계동 410번지 1층 1호","category":"건축자재 - 조명기구"},{"name":"서우","tel":"031-858-7811","addr":"경기도 양주시 덕계동 410번지 1층 일부","category":"일반휴게음식 - 일반한식"},{"name":"소피아헤어","tel":"070-4324-4090","addr":"경기도 양주시 덕계동 410번지 1층 5호","category":"보건위생 - 미용원"},{"name":"의정부부대찌개","tel":"031-865-1032","addr":"경기도 양주시 덕계동 410번지","category":"일반휴게음식 - 일반한식"},{"name":"전산 O.A","tel":"031-876-8850","addr":"경기도 양주시 덕계동 410번지","category":"사무통신 - 기타 사무용품"}]},{"lat":"37.823702362","long":"127.04665568","items":[{"name":"구제몰","tel":"031-000-0000","addr":"경기도 양주시 덕계동 519-16번지 1층 3호","category":"의류 - 기타의류"},{"name":"마이따","tel":"070-7425-4545","addr":"경기도 양주시 덕계동 519-16번지","category":"일반휴게음식 - 스넥"},{"name":"밥도둑","tel":"031-083-5554","addr":"경기도 양주시 덕계동 519-16번지 102호","category":"음료식품 - 기타음료식품"}]},{"lat":"37.822395159","long":"127.04884697","items":[{"name":"귀빈호프치킨","tel":"031-867-5652","addr":"경기도 양주시 덕계동 480-11번지","category":"일반휴게음식 - 주점"},{"name":"대포항횟집","tel":"031-866-0692","addr":"경기도 양주시 덕계동 480-11번지","category":"일반휴게음식 - 일반한식"},{"name":"또바기밥상","tel":"031-859-4081","addr":"경기도 양주시 덕계동 480-11번지 1층","category":"일반휴게음식 - 일반한식"},{"name":"부성상사","tel":"031-865-0491","addr":"경기도 양주시 덕계동 480-11번지","category":"기타 - 기계공구"},{"name":"신의주찹쌀순대","tel":"031-859-2625","addr":"경기도 양주시 덕계동 480-11번지 1층","category":"일반휴게음식 - 일반한식"},{"name":"엄지식당","tel":"031-866-2009","addr":"경기도 양주시 덕계동 480-11번지","category":"일반휴게음식 - 일반한식"}]},{"lat":"37.818837875","long":"127.04498329","items":[{"name":"규헤어","tel":"031-859-7415","addr":"경기도 양주시 덕계동 682-36번지 1층","category":"보건위생 - 미용원"},{"name":"복된송아지","tel":"031-866-5002","addr":"경기도 양주시 덕계동 682-36번지","category":"음료식품 - 정육점"},{"name":"복된송아지","tel":"031-866-5002","addr":"경기도 양주시 덕계동 682-36번지","category":"일반휴게음식 - 일반한식"},{"name":"올림픽당구장","tel":"070-4417-7595","addr":"경기도 양주시 덕계동 682-36번지 2층","category":"레저업소 - 당 구 장"},{"name":"팡팡노래연습장","tel":"031-864-4577","addr":"경기도 양주시 덕계동 682-36번지 지하1층","category":"레저업소 - 노 래 방"},{"name":"프렌즈","tel":"031-867-9981","addr":"경기도 양주시 덕계동 682-36번지","category":"일반휴게음식 - 스넥"}]},{"lat":"37.818422988","long":"127.04623235","items":[{"name":"그때그집포차","tel":"031-824-2019","addr":"경기도 양주시 덕계동 421-2번지","category":"일반휴게음식 - 일반한식"},{"name":"금강보청기 양주센터","tel":"031-858-0888","addr":"경기도 양주시 덕계동 421-2번지 2층","category":"보건위생 - 의료용품"},{"name":"둘리노래연습장","tel":"031-864-0955","addr":"경기도 양주시 덕계동 421-2번지","category":"레저업소 - 노 래 방"},{"name":"디지털HP양주점","tel":"031-864-0730","addr":"경기도 양주시 덕계동 421-2.13","category":"사무통신 - 사무용 OA기기"},{"name":"미소약국","tel":"031-858-7227","addr":"경기도 양주시 덕계동 421-2번지","category":"약국 - 약국"},{"name":"본죽 양주덕계점","tel":"031-865-5288","addr":"경기도 양주시 덕계동 421-2번지","category":"일반휴게음식 - 일반한식"},{"name":"부어치킨(덕계점)","tel":"031-868-9289","addr":"경기도 양주시 덕계동 421-2번지","category":"일반휴게음식 - 주점"},{"name":"쿨헤어터치","tel":"031-868-4127","addr":"경기도 양주시 덕계동 421-2번지","category":"보건위생 - 미용원"},{"name":"트리","tel":"031-863-7947","addr":"경기도 양주시 덕계동 421-2번지 2층","category":"일반휴게음식 - 서양음식"},{"name":"폼나리","tel":"031-851-8169","addr":"경기도 양주시 덕계동 421-2번지","category":"의류 - 정장"}]},{"lat":"37.820027686","long":"127.04337121","items":[{"name":"그린마트","tel":"031-973-0356","addr":"경기도 양주시 덕계동 670번지 금용상가 1호,2호","category":"유통업 영리 - 슈퍼마켓"}]},{"lat":"37.823504133","long":"127.04671235","items":[{"name":"극동컴퓨터세탁소","tel":"031-857-0921","addr":"경기도 양주시 덕계동 519-23번지","category":"수리서비스 - 세탁소"},{"name":"소풍분식","tel":"031-861-6665","addr":"경기도 양주시 덕계동 519-23번지","category":"일반휴게음식 - 일반한식"}]},{"lat":"37.824116758","long":"127.04675815","items":[{"name":"금빛 태권도","tel":"031-858-0377","addr":"경기도 양주시 덕계동 528-1번지 3층","category":"학원 - 예·체능계학원"},{"name":"쇼팽의친구들 음악학원","tel":"031-867-3694","addr":"경기도 양주시 덕계동 528-1번지 2층","category":"학원 - 예·체능계학원"}]},{"lat":"37.820782656","long":"127.04836895","items":[{"name":"금산페인트","tel":"031-863-4287","addr":"경기도 양주시 덕계동 451-4번지","category":"건축자재 - 페인트"},{"name":"부부떡집","tel":"031-867-9898","addr":"경기도 양주시 덕계동 451-4번지 35번째","category":"음료식품 - 제과점"},{"name":"크린토피아양주덕계점","tel":"031-862-0808","addr":"경기도 양주시 덕계동 451-4번지 1층 일부","category":"수리서비스 - 세탁소"}]},{"lat":"37.821423753","long":"127.04450774","items":[{"name":"금상첨화","tel":"031-866-9333","addr":"경기도 양주시 덕계동 673-15번지","category":"일반휴게음식 - 일반한식"}]},{"lat":"37.813557577","long":"127.04706988","items":[{"name":"금성산업계기","tel":"031-873-9440","addr":"경기도 양주시 덕계동 388-3","category":"기타 - 기타 전문점"}]},{"lat":"37.810702085","long":"127.04570546","items":[{"name":"금호냉동","tel":"031-863-2822","addr":"경기도 양주시 덕계동 721-10번지 B동 102호","category":"용역 서비스 - 기타용역서비스"},{"name":"대성ENG","tel":"070-8624-1329","addr":"경기도 양주시 덕계동 721-10번지 C동 101호 102호","category":"전기제품 - 기타전기제품"},{"name":"사람과건축","tel":"031-866-4281","addr":"경기도 양주시 덕계동 721-10번지","category":"건축자재 - 기타건축자재"},{"name":"하이축산","tel":"031-866-3225","addr":"경기도 양주시 덕계동 721-10번지","category":"음료식품 - 정육점"}]},{"lat":"37.819639424","long":"127.04579012","items":[{"name":"기분좋은날","tel":"031-861-9291","addr":"경기도 양주시 덕계동 679-7번지","category":"일반휴게음식 - 일반한식"},{"name":"꿀잼점핑24(덕계점)","tel":"","addr":"경기도 양주시 덕계동 679-7번지 2층 오른쪽","category":"건강식품 - 기타건강식품"},{"name":"지음등갈비","tel":"","addr":"경기도 양주시 덕계동 679-7번지","category":"일반휴게음식 - 일반한식"},{"name":"착한포장마차","tel":"031-868-6668","addr":"경기도 양주시 덕계동 679-7번지 1층","category":"일반휴게음식 - 일반한식"},{"name":"플러스헤어","tel":"031-8083-2888","addr":"경기도 양주시 덕계동 679-7번지","category":"보건위생 - 미용원"}]},{"lat":"37.821171799","long":"127.0436217","items":[{"name":"길목건강원","tel":"031-862-0496","addr":"경기도 양주시 덕계동 656-15번지","category":"건강식품 - 기타건강식품"},{"name":"양주댁계란","tel":"031-827-0720","addr":"경기도 양주시 덕계동 656-15번지","category":"음료식품 - 농·축·수산품"},{"name":"황금식품","tel":"031-867-8687","addr":"경기도 양주시 덕계동 656-15번지 1층","category":"일반휴게음식 - 스넥"}]},{"lat":"37.818783096","long":"127.04695942","items":[{"name":"김영미헤어채널","tel":"031-861-1066","addr":"경기도 양주시 덕계동 424-15번지","category":"보건위생 - 미용원"},{"name":"몽블랑치킨","tel":"031-867-0092","addr":"경기도 양주시 덕계동 424-15번지","category":"일반휴게음식 - 일반한식"},{"name":"진우학원","tel":"031-857-9857","addr":"경기도 양주시 덕계동 424-15번지 3층","category":"학원 - 보습학원"},{"name":"집밥처럼","tel":"","addr":"경기도 양주시 덕계동 424-15번지 1층","category":"일반휴게음식 - 일반한식"},{"name":"코디패션","tel":"","addr":"경기도 양주시 덕계동 424-15번지 1층","category":"의류 - 정장"},{"name":"팽고팽고","tel":"031-862-2517","addr":"경기도 양주시 덕계동 424-15번지","category":"일반휴게음식 - 주점"}]},{"lat":"37.819250657","long":"127.04937881","items":[{"name":"꽃잔디","tel":"","addr":"경기도 양주시 덕계동 425-1번지","category":"보건위생 - 화장품"}]},{"lat":"37.820863382","long":"127.04928896","items":[{"name":"꿀때지","tel":"031-878-3392","addr":"경기도 양주시 덕계동 451-12번지","category":"일반휴게음식 - 일반한식"},{"name":"부산횟집","tel":"031-858-8109","addr":"경기도 양주시 덕계동 451-12번지 1층","category":"일반휴게음식 - 일반한식"}]},{"lat":"37.818946086","long":"127.04471078","items":[{"name":"꿈의김밥 (덕계점)","tel":"031-866-3368","addr":"경기도 양주시 덕계동 682-23번지","category":"일반휴게음식 - 스넥"},{"name":"어묵거리","tel":"031-541-0703","addr":"경기도 양주시 덕계동 682-23번지","category":"일반휴게음식 - 일반한식"}]},{"lat":"37.821117332","long":"127.04479151","items":[{"name":"나능이능이버섯백숙","tel":"031-861-9980","addr":"경기도 양주시 덕계동 672-1번지 1동 1층","category":"일반휴게음식 - 일반한식"},{"name":"왕십리 불난 막창","tel":"","addr":"경기도 양주시 덕계동 672-1번지","category":"일반휴게음식 - 일반한식"},{"name":"우거지품은순대국(덕계점)","tel":"031-857-8257","addr":"경기도 양주시 덕계동 672-1번지","category":"일반휴게음식 - 일반한식"},{"name":"퓨전돈까스","tel":"031-866-0549","addr":"경기도 양주시 덕계동 672-1번지 (1동5호)","category":"일반휴게음식 - 서양음식"}]},{"lat":"37.815449972","long":"127.04595805","items":[{"name":"나라뷰티","tel":"","addr":"경기도 양주시 덕계동 706-9번지 7층","category":"보건위생 - 미용재료"},{"name":"나라식당","tel":"031-867-1022","addr":"경기도 양주시 덕계동 706-9번지 외3필지","category":"일반휴게음식 - 일반한식"},{"name":"박상옥세무회계사무소","tel":"031-826-2271","addr":"경기도 양주시 덕계동 706-9나라빌딩,707-13,707-27.602","category":"용역 서비스 - 법률회계서비스(개인)"},{"name":"법무법인 우암 양주분사무소","tel":"031-863-3388","addr":"경기도 양주시 덕계동 706-9번지 나라빌딩 9층","category":"용역 서비스 - 법률회계서비스(법인)"},{"name":"세븐일레븐양주경민점","tel":"","addr":"경기도 양주시 덕계동 706-9번지 1층","category":"유통업 영리 - 편 의 점"},{"name":"센타스타코리아","tel":"031-858-3245","addr":"경기도 양주시 덕계동 706-9번지 나라빌딩 2층","category":"직물 - 침구·수예점"},{"name":"아모레","tel":"031-859-2827","addr":"경기도 양주시 덕계동 706-9번지 나라빌딩 7층","category":"보건위생 - 화장품"},{"name":"아모레","tel":"","addr":"경기도 양주시 덕계동 706-9나라빌딩5층","category":"보건위생 - 화장품"},{"name":"아모레덕정(특)외판","tel":"031-859-2828","addr":"경기도 양주시 덕계동 나라빌딩 5층","category":"보건위생 - 화장품"},{"name":"아모레덕정특약점","tel":"031-859-2828","addr":"경기도 양주시 덕계동 706-9 나라빌딩 5층.","category":"보건위생 - 화장품"},{"name":"아모레양주(특)외판","tel":"031-859-2828","addr":"경기도 양주시 덕계동 706-9번지 마라빌딩 5층","category":"보건위생 - 화장품"},{"name":"아모레카운셀러","tel":"031-859-2827","addr":"경기도 양주시 덕계동 706-9 나라빌딩5층","category":"보건위생 - 화장품"},{"name":"아모레카운셀러","tel":"031-859-2827","addr":"경기도 양주시 덕계동 706-9 나라빌딩5층","category":"보건위생 - 화장품"},{"name":"아모레카운셀러","tel":"","addr":"경기도 양주시 덕계동 706-9 나라빌딩5층","category":"보건위생 - 화장품"},{"name":"아모레카운셀러","tel":"031-859-2827","addr":"경기도 양주시 덕계동 706-9 나라빌딩 5층","category":"보건위생 - 화장품"},{"name":"아모레카운셀러","tel":"031-859-2827","addr":"경기도 양주시 덕계동 706-9번지 나라빌딩 5층","category":"보건위생 - 화장품"},{"name":"아모레카운셀러","tel":"031-859-2828","addr":"경기도 양주시 덕계동 706-9 나라빌딩5층","category":"보건위생 - 화장품"},{"name":"아모레카운셀러","tel":"031-859-2827","addr":"경기도 양주시 덕계동 706-9 나라빌딩 5층","category":"보건위생 - 화장품"},{"name":"아모레카운셀러","tel":"031-859-2827","addr":"경기도 양주시 덕계동 706-9번지","category":"보건위생 - 화장품"},{"name":"아모레카운셀러","tel":"031-859-2827","addr":"경기도 양주시 덕계동 706-9번지 5층","category":"보건위생 - 화장품"},{"name":"아모레카운셀러","tel":"031-859-2827","addr":"경기도 양주시 덕계동 706-9나라빌딩5층","category":"보건위생 - 화장품"},{"name":"아모레카운셀러","tel":"031-859-2828","addr":"경기도 양주시 덕계동 706-9나라빌딩5층","category":"회원제형태 - 기타1"},{"name":"아모레카운셀러","tel":"031-859-2827","addr":"경기도 양주시 덕계동 706-9번지 나라빌딩 5층","category":"보건위생 - 화장품"},{"name":"아모레카운셀러","tel":"031-862-3337","addr":"경기도 양주시 덕계동 706-9 나라빌딩5층","category":"보건위생 - 화장품"},{"name":"아모레카운셀러","tel":"031-859-2827","addr":"경기도 양주시 덕계동 706-9번지","category":"보건위생 - 화장품"},{"name":"아모레카운셀러","tel":"031-859-2827","addr":"경기도 양주시 덕계동 706-9번지 나라빌딩 5층","category":"보건위생 - 화장품"},{"name":"아모레카운셀러","tel":"031-859-2827","addr":"경기도 양주시 덕계동 706-9번지 5층","category":"보건위생 - 화장품"},{"name":"아모레카운셀러","tel":"031-859-2827","addr":"경기도 양주시 덕계동 706-9번지 5층","category":"보건위생 - 화장품"},{"name":"아모레카운셀러","tel":"031-859-2827","addr":"경기도 양주시 덕계동 706-9번지","category":"보건위생 - 화장품"},{"name":"아모레카운셀러","tel":"031-859-2827","addr":"경기도 양주시 덕계동 706-9번지 나라빌딩 5층","category":"보건위생 - 화장품"},{"name":"아모레카운셀러","tel":"031-859-2827","addr":"경기도 양주시 덕계동 706-9번지 나라빌딩 5층","category":"보건위생 - 화장품"},{"name":"아모레카운셀러","tel":"031-859-2827","addr":"경기도 양주시 덕계동 706-9번지 나라빌딩 5층","category":"보건위생 - 화장품"},{"name":"아모레카운셀러","tel":"031-859-2827","addr":"경기도 양주시 덕계동 706-9번지 나라빌딩 5층","category":"보건위생 - 화장품"},{"name":"아모레카운셀러/이경희","tel":"031-859-2827","addr":"경기도 양주시 덕계동 706-9나라빌딩5층","category":"보건위생 - 화장품"},{"name":"아모레카운셀러/황순정","tel":"031-859-2828","addr":"경기도 양주시 덕계동 706-9나라빌딩5층","category":"보건위생 - 화장품"},{"name":"한방사우나탕","tel":"031-859-9328","addr":"경기도 양주시 덕계동 706-9번지","category":"보건위생 - 사우나"}]},{"lat":"37.82050273","long":"127.04998154","items":[{"name":"나라찬 효 태권도","tel":"031-858-9900","addr":"경기도 양주시 덕계동 453-1번지 2층","category":"학원 - 예·체능계학원"},{"name":"두꺼비곱창","tel":"031-858-9285","addr":"경기도 양주시 덕계동 453-1번지","category":"일반휴게음식 - 일반한식"},{"name":"머리할래","tel":"031-867-5154","addr":"경기도 양주시 덕계동 453-1번지 1층 103호","category":"보건위생 - 미용원"},{"name":"씨유덕계해피점","tel":"031-858-4720","addr":"경기도 양주시 덕계동 453-1번지","category":"유통업 영리 - 편 의 점"},{"name":"에리카 네일","tel":"031-866-0942","addr":"경기도 양주시 덕계동 453-1번지 109호","category":"보건위생 - 피부미용실"},{"name":"치킨플러스양주덕계점","tel":"031-858-1020","addr":"경기도 양주시 덕계동 453-1번지 1층 110호","category":"일반휴게음식 - 일반한식"}]},{"lat":"37.824115796","long":"127.04926828","items":[{"name":"나비랑 키즈카페","tel":"031-864-2764","addr":"경기도 양주시 덕계동 513-1번지 A동 2층","category":"레저업소 - 기타레져업소"}]},{"lat":"37.819116906","long":"127.04571032","items":[{"name":"나은건강원","tel":"031-858-4515","addr":"경기도 양주시 덕계동 681-1번지","category":"건강식품 - 기타건강식품"},{"name":"비앤제이학원","tel":"031-862-6565","addr":"경기도 양주시 덕계동 681-1번지 정산빌딩 4층","category":"학원 - 컴퓨터학원"},{"name":"양주시장애아재활치료교육센터","tel":"031-865-1147","addr":"경기도 양주시 덕계동 681-1번지 3층","category":"학원 - 기타 교육기관"},{"name":"에쿠스노래연습장","tel":"031-861-6197","addr":"경기도 양주시 덕계동 681-1번지 지하1층","category":"레저업소 - 노 래 방"},{"name":"장원규내과의원","tel":"031-861-7583","addr":"경기도 양주시 덕계동 681-1번지 정산빌딩 201호","category":"의원 - 의원"},{"name":"팍스팍스","tel":"","addr":"경기도 양주시 덕계동 681-1번지 1층","category":"일반휴게음식 - 일반한식"},{"name":"화로마을","tel":"031-864-9289","addr":"경기도 양주시 덕계동 681-1번지 외1필지 105","category":"일반휴게음식 - 일반한식"},{"name":"황금시푸드","tel":"070-7555-0641","addr":"경기도 양주시 덕계동 681-1번지 애터미상가 1층","category":"일반휴게음식 - 일반한식"},{"name":"희망약국","tel":"031-868-3678","addr":"경기도 양주시 덕계동 681-1번지","category":"약국 - 약국"}]},{"lat":"37.820278306","long":"127.04790298","items":[{"name":"낙원숲토탈인테리어","tel":"031-861-0482","addr":"경기도 양주시 덕계동 452-43번지 1층","category":"건축자재 - 인테리어전문"}]},{"lat":"37.819342113","long":"127.04578995","items":[{"name":"낮밤","tel":"070-9466-7797","addr":"경기도 양주시 덕계동 679-2번지 2층","category":"일반휴게음식 - 서양음식"}]},{"lat":"37.816891329","long":"127.04637909","items":[{"name":"네네치킨(덕계점)","tel":"031-864-9982","addr":"경기도 양주시 덕계동 418-7번지","category":"일반휴게음식 - 스넥"},{"name":"머리쟁이","tel":"031-858-6913","addr":"경기도 양주시 덕계동 418-7번지 1층 103호","category":"보건위생 - 미용원"},{"name":"신세계호프","tel":"031-864-1036","addr":"경기도 양주시 덕계동 418-7번지","category":"일반휴게음식 - 주점"},{"name":"윤선생덕계학원","tel":"031-858-8270","addr":"경기도 양주시 덕계동 418-7번지 정호빌딩 4층","category":"학원 - 보습학원"},{"name":"은빛요양원","tel":"031-864-0766","addr":"경기도 양주시 덕계동 418-7번지 3층 301호","category":"기타의료기관 - 기타의료기관 및 기타"}]},{"lat":"37.823782514","long":"127.0490977","items":[{"name":"네일공방","tel":"031-858-2737","addr":"경기도 양주시 덕계동 513-1번지 103호","category":"보건위생 - 피부미용실"},{"name":"덕계 식자재마트","tel":"031-862-6663","addr":"경기도 양주시 덕계동 513-1번지 1층","category":"유통업 영리 - 슈퍼마켓"},{"name":"세비앙","tel":"031-856-0166","addr":"경기도 양주시 덕계동 513-1번지 상상타운 B호 103","category":"의류 - 아동의류"},{"name":"정우베이커리","tel":"031-841-6919","addr":"경기도 양주시 덕계동 513-1번지 정우에프에스마트","category":"음료식품 - 제과점"}]},{"lat":"37.819171442","long":"127.04437019","items":[{"name":"노블레스노래연습장","tel":"031-865-4253","addr":"경기도 양주시 덕계동 670-9번지","category":"레저업소 - 노 래 방"},{"name":"원두원","tel":"02-000-0000","addr":"경기도 양주시 덕계동 670-9번지 3층","category":"음료식품 - 기타음료식품"}]},{"lat":"37.811118887","long":"127.06118404","items":[{"name":"뉴트라스완","tel":"031-865-0237","addr":"경기도 양주시 덕계동 102-1번지 가동","category":"회원제형태 - 건강식품"},{"name":"엔돌핀","tel":"070-7504-3119","addr":"경기도 양주시 덕계동 102-1번지","category":"회원제형태 - 기타4"}]},{"lat":"37.811368825","long":"127.04559228","items":[{"name":"뉴현대모터스","tel":"031-855-8018","addr":"경기도 양주시 덕계동 721-3번지","category":"자동차판매 - 중고자동차판매"},{"name":"덕계점기아오토큐","tel":"031-864-8580","addr":"경기도 양주시 덕계동 721-3번지","category":"자동차정비 유지 - 자동차정비"}]},{"lat":"37.81825269","long":"127.04376774","items":[{"name":"늘푸른가구","tel":"031-863-2760","addr":"경기도 양주시 덕계동 682-17번지","category":"가구 - 일반가구"}]},{"lat":"37.821647189","long":"127.04932353","items":[{"name":"다모아텔","tel":"","addr":"경기도 양주시 덕계동 448-1번지 양주외치빌딩 202호","category":"사무통신 - 통신기기"},{"name":"베이비파스텔스튜디오","tel":"031-859-7900","addr":"경기도 양주시 덕계동 448-1번지 양주외치빌딩 3층","category":"광학제품 - 사진관"},{"name":"썬","tel":"031-857-7900","addr":"경기도 양주시 덕계동 448-1번지 3층","category":"일반휴게음식 - 주점"},{"name":"월드카마스타","tel":"031-866-7755","addr":"경기도 양주시 덕계동 448-1번지 양주외치빌딩","category":"자동차정비 유지 - 자동차정비"},{"name":"휴하우징","tel":"031-863-3344","addr":"경기도 양주시 덕계동 448-1번지 양주외치빌딩","category":"용역 서비스 - 기타용역서비스"}]},{"lat":"37.823478869","long":"127.04168076","items":[{"name":"다엘기업","tel":"031-858-5070","addr":"경기도 양주시 덕계동 582-20유림화이트4동302","category":"신변잡화 - 기타잡화"}]},{"lat":"37.823278898","long":"127.04671222","items":[{"name":"다영분식","tel":"031-867-2575","addr":"경기도 양주시 덕계동 519-30번지","category":"일반휴게음식 - 일반한식"}]},{"lat":"37.811146449","long":"127.06009387","items":[{"name":"다원냉동공조","tel":"031-866-1331","addr":"경기도 양주시 덕계동 105-3번지","category":"전기제품 - 냉열기기"}]},{"lat":"37.818756254","long":"127.04645969","items":[{"name":"다인통신2","tel":"031-864-5966","addr":"경기도 양주시 덕계동 421-1번지","category":"사무통신 - 통신기기"},{"name":"마드레","tel":"031-864-5549","addr":"경기도 양주시 덕계동 421-1번지 2층 2호","category":"보건위생 - 미용원"},{"name":"상아당구장","tel":"031-863-3728","addr":"경기도 양주시 덕계동 421-1번지","category":"레저업소 - 당 구 장"},{"name":"신성당","tel":"031-863-0716","addr":"경기도 양주시 덕계동 421-1번지","category":"신변잡화 - 귀금속"},{"name":"아싸라이브","tel":"031-864-5268","addr":"경기도 양주시 덕계동 421-1번지 지하1층","category":"일반휴게음식 - 주점"},{"name":"양주의료기","tel":"031-857-0220","addr":"경기도 양주시 덕계동 421-1번지","category":"기타의료기관 - 기타의료기관 및 기타"},{"name":"에스더 화장품","tel":"031-858-8496","addr":"경기도 양주시 덕계동 421-1번지 1층 3호","category":"보건위생 - 화장품"}]},{"lat":"37.825028615","long":"127.06287599","items":[{"name":"당구넷","tel":"031-863-3949","addr":"경기도 양주시 덕계동 175-13번지","category":"레져용품 - 스포츠·레져용품"}]},{"lat":"37.820944672","long":"127.04876656","items":[{"name":"대광함석","tel":"031-865-1547","addr":"경기도 양주시 덕계동 451-23번지","category":"건축자재 - 기타건축자재"},{"name":"미라송","tel":"031-861-8776","addr":"경기도 양주시 덕계동 451-23번지","category":"일반휴게음식 - 일반한식"},{"name":"해물쿡","tel":"031-837-0189","addr":"경기도 양주시 덕계동 451-23번지","category":"일반휴게음식 - 일반한식"}]},{"lat":"37.816836701","long":"127.04790089","items":[{"name":"대구안지랑곱창막창","tel":"053-857-2051","addr":"경기도 양주시 덕계동 411-74번지 1층 일부","category":"일반휴게음식 - 일반한식"},{"name":"박진선미용실","tel":"031-867-0510","addr":"경기도 양주시 덕계동 411-74번지","category":"보건위생 - 미용원"},{"name":"비에스에이치(BSH)","tel":"070-7623-0321","addr":"경기도 양주시 덕계동 411-74번지 1층 비에스에이치(BSH)","category":"보건위생 - 화장품"},{"name":"효성체육관","tel":"02-0000-0000","addr":"경기도 양주시 덕계동 411-74번지 3층","category":"학원 - 예·체능계학원"},{"name":"효성체육관","tel":"070-8133-4706","addr":"경기도 양주시 덕계동 411-74번지 3층","category":"학원 - 예·체능계학원"}]},{"lat":"37.823307245","long":"127.04300955","items":[{"name":"대발관","tel":"031-866-2042","addr":"경기도 양주시 덕계동 591-1번지","category":"일반휴게음식 - 중국식"}]},{"lat":"37.817612147","long":"127.04620916","items":[{"name":"대성공인중개사사무소","tel":"031-868-0400","addr":"경기도 양주시 덕계동 420-10 1층1호","category":"용역 서비스 - 부동산 중개·임대"},{"name":"덕계실로암안경","tel":"031-856-4047","addr":"경기도 양주시 덕계동 420-10번지","category":"보건위생 - 안경"},{"name":"동의보감한의원","tel":"031-867-8210","addr":"경기도 양주시 덕계동 420-10번지 세원빌딩 5층 1호","category":"의원 - 한의원"},{"name":"라파이비인후과의원","tel":"031-862-9905","addr":"경기도 양주시 덕계동 420-10번지 세원빌딩 3층","category":"의원 - 의원"},{"name":"리즈헤어","tel":"031-863-2353","addr":"경기도 양주시 덕계동 420-10번지","category":"보건위생 - 미용원"},{"name":"법무사정병탁사무소","tel":"031-866-0099","addr":"경기도 양주시 덕계동 420-10번지 세원빌딩 2층","category":"용역 서비스 - 법률회계서비스(개인)"},{"name":"서울안과","tel":"031-865-4001","addr":"경기도 양주시 덕계동 420-10번지","category":"의원 - 의원"},{"name":"씨앗호떡","tel":"031-858-4892","addr":"경기도 양주시 덕계동 420-10번지 세원빌딩 104호","category":"일반휴게음식 - 일반한식"},{"name":"양주정형외과의원","tel":"031-864-5119","addr":"경기도 양주시 덕계동 420-10번지 4층","category":"의원 - 의원"},{"name":"용인대 광백태권도","tel":"031-867-5252","addr":"경기도 양주시 덕계동 420-10번지 5층 502호","category":"학원 - 예·체능계학원"},{"name":"파리바게뜨","tel":"031-861-7755","addr":"경기도 양주시 덕계동 420-10번지 105동 106호","category":"음료식품 - 제과점"},{"name":"황가 손만두","tel":"031-858-7781","addr":"경기도 양주시 덕계동 420-10번지 109호","category":"일반휴게음식 - 일반한식"}]},{"lat":"37.816585224","long":"127.04578835","items":[{"name":"대우자동차양주영업소","tel":"031-866-7070","addr":"경기도 양주시 덕계동 698-5번지","category":"자동차판매 - 국산신차판매"},{"name":"짬뽕9단","tel":"031-866-2343","addr":"경기도 양주시 덕계동 698-5번지","category":"일반휴게음식 - 중국식"},{"name":"크로커다일양주점","tel":"031-865-5055","addr":"경기도 양주시 덕계동 698-5번지 1층 3호","category":"레져용품 - 스포츠·레져용품"}]},{"lat":"37.814286598","long":"127.04901229","items":[{"name":"대일문기","tel":"031-858-1288","addr":"경기도 양주시 덕계동 374-2","category":"의류 - 정장"}]},{"lat":"37.818639059","long":"127.04665269","items":[{"name":"대한지물","tel":"031-862-5923","addr":"경기도 양주시 덕계동 421-10번지","category":"직물 - 카페트,커튼,천막,지물"},{"name":"덕계칼국수","tel":"031-864-5032","addr":"경기도 양주시 덕계동 421-10번지","category":"일반휴게음식 - 일반한식"}]},{"lat":"37.825061292","long":"127.05050692","items":[{"name":"더끌림셀프카워시","tel":"031-858-8948","addr":"경기도 양주시 덕계동 495-12번지","category":"자동차정비 유지 - 세차장"},{"name":"태영모터스","tel":"031-861-5008","addr":"경기도 양주시 덕계동 495-12번지","category":"자동차정비 유지 - 자동차정비"}]},{"lat":"37.806452897","long":"127.05931809","items":[{"name":"더예뻐진네일","tel":"","addr":"경기도 양주시 덕계동 855번지 양주덕계현진에버빌1단지 G동 1층 104호","category":"보건위생 - 피부미용실"},{"name":"머리하는날","tel":"031-861-5955","addr":"경기도 양주시 덕계동 855양주덕계현진에버빌1단지상가104","category":"보건위생 - 미용원"},{"name":"비엔나음악학원,수학의달인","tel":"031-862-7737","addr":"경기도 양주시 덕계동 855번지 상가동101호~103호 상가 101호","category":"학원 - 예·체능계학원"}]},{"lat":"37.81714303","long":"127.04787836","items":[{"name":"더예쁜머리","tel":"031-1111-1111","addr":"경기도 양주시 덕계동 411-78번지 1층 일부","category":"보건위생 - 미용원"},{"name":"양주축산유통","tel":"031-862-2912","addr":"경기도 양주시 덕계동 411-78번지 1층","category":"음료식품 - 정육점"},{"name":"콩이랑두부랑","tel":"031-857-0042","addr":"경기도 양주시 덕계동 411-78번지","category":"음료식품 - 기타음료식품"}]},{"lat":"37.815891427","long":"127.04598102","items":[{"name":"더크랩양주점","tel":"02-2679-6605","addr":"경기도 양주시 덕계동 701번지 1층","category":"일반휴게음식 - 일반한식"},{"name":"주식회사해담","tel":"001-0000-0000","addr":"경기도 양주시 덕계동 701번지","category":"음료식품 - 농·축·수산품"}]},{"lat":"37.818945648","long":"127.04592601","items":[{"name":"덕계 비와이씨(BYC)","tel":"031-866-3090","addr":"경기도 양주시 덕계동 681-23번지 1층","category":"의류 - 내의판매"},{"name":"덕계약국","tel":"031-863-0824","addr":"경기도 양주시 덕계동 681-23번지 1층","category":"약국 - 약국"},{"name":"성모의원","tel":"031-863-2098","addr":"경기도 양주시 덕계동 681-23번지","category":"의원 - 의원"},{"name":"세탁나라","tel":"031-866-0405","addr":"경기도 양주시 덕계동 681-23번지","category":"수리서비스 - 세탁소"},{"name":"한농축산","tel":"031-877-2363","addr":"경기도 양주시 덕계동 681-23번지","category":"음료식품 - 정육점"}]},{"lat":"37.829777189","long":"127.03940091","items":[{"name":"덕계낚시터","tel":"031-864-6536","addr":"경기도 양주시 덕계동 745번지","category":"레저업소 - 기타레져업소"}]},{"lat":"37.819891681","long":"127.04581298","items":[{"name":"덕계리사진관","tel":"031-866-4730","addr":"경기도 양주시 덕계동 679-1번지","category":"광학제품 - 사진관"},{"name":"황부자감자탕 덕계점","tel":"031-859-6363","addr":"경기도 양주시 덕계동 679-1번지 주건축물제1동 1층","category":"일반휴게음식 - 일반한식"}]},{"lat":"37.821667152","long":"127.044099","items":[{"name":"덕계방앗간","tel":"031-864-5357","addr":"경기도 양주시 덕계동 674번지","category":"음료식품 - 제과점"}]},{"lat":"37.817556784","long":"127.0496276","items":[{"name":"덕계인테리어","tel":"031-858-0022","addr":"경기도 양주시 덕계동 407-2번지 지하1층","category":"건축자재 - 인테리어전문"},{"name":"돈미돈미생삼겹갈비","tel":"031-844-9922","addr":"경기도 양주시 덕계동 407-2번지","category":"일반휴게음식 - 일반한식"},{"name":"소리샘피아노학원","tel":"031-868-0112","addr":"경기도 양주시 덕계동 407-2번지","category":"회원제형태 - 학원"}]},{"lat":"37.816702114","long":"127.04642441","items":[{"name":"덕계치과의원","tel":"031-863-0414","addr":"경기도 양주시 덕계동 418-9번지 학산빌딩 3층","category":"의원 - 치과의원"},{"name":"신양주종로약국","tel":"031-859-7077","addr":"경기도 양주시 덕계동 418-9번지 1층","category":"약국 - 약국"},{"name":"양주중앙의원","tel":"031-867-3355","addr":"경기도 양주시 덕계동 418-9번지 2층","category":"의원 - 의원"}]},{"lat":"37.819224828","long":"127.04623282","items":[{"name":"덕계한의원","tel":"031-866-5464","addr":"경기도 양주시 덕계동 465-9번지","category":"의원 - 한의원"},{"name":"뚜레쥬르 양주덕계제일점","tel":"031-858-8244","addr":"경기도 양주시 덕계동 465-9번지 선재빌딩 103호","category":"음료식품 - 제과점"},{"name":"베스킨라빈스31(덕계점)","tel":"031-865-1020","addr":"경기도 양주시 덕계동 465-9번지","category":"음료식품 - 제과점"},{"name":"세무사박승열사무소","tel":"031-868-7895","addr":"경기도 양주시 덕계동 465-9번지 402호","category":"용역 서비스 - 법률회계서비스(개인)"},{"name":"연세웰치과의원","tel":"031-866-2876","addr":"경기도 양주시 덕계동 465-9번지 435-15,465-32","category":"의원 - 치과의원"},{"name":"희성통신","tel":"031-858-9111","addr":"경기도 양주시 덕계동 465-9번지 선재빌딩 1층","category":"사무통신 - 통신기기"}]},{"lat":"37.817313859","long":"127.04878703","items":[{"name":"덕상유통","tel":"031-865-6479","addr":"경기도 양주시 덕계동 411-15번지 지하층","category":"유통업 영리 - 슈퍼마켓"},{"name":"세븐일레븐양주덕계회천점","tel":"","addr":"경기도 양주시 덕계동 411-15번지 지하","category":"유통업 영리 - 편 의 점"}]},{"lat":"37.817534359","long":"127.05965588","items":[{"name":"덕신합성(주)","tel":"031-864-5700","addr":"경기도 양주시 덕계동 271-18번지","category":"건축자재 - 페인트"}]},{"lat":"37.818142996","long":"127.04809476","items":[{"name":"돈내코마을","tel":"031-861-5581","addr":"경기도 양주시 덕계동 423-1","category":"일반휴게음식 - 일반한식"},{"name":"혜성산업","tel":"031-868-0580","addr":"경기도 양주시 덕계동 423-1번지","category":"건축자재 - 보일러·펌프·샷시"}]},{"lat":"37.815564712","long":"127.05204534","items":[{"name":"동광핀.부러쉬","tel":"031-861-5630","addr":"경기도 양주시 덕계동 248-27","category":"신변잡화 - 액세서리"}]},{"lat":"37.816422171","long":"127.04815049","items":[{"name":"동네노래방","tel":"","addr":"경기도 양주시 덕계동 411-96번지","category":"레저업소 - 노 래 방"},{"name":"보안열쇠","tel":"031-857-9119","addr":"경기도 양주시 덕계동 411-96번지","category":"기타 - 기계공구"},{"name":"신우옥사우나","tel":"031-866-6468","addr":"경기도 양주시 덕계동 411-96번지","category":"보건위생 - 사우나"}]},{"lat":"37.811092966","long":"127.05890144","items":[{"name":"동양건강정보원","tel":"031-863-4379","addr":"경기도 양주시 덕계동 101-10번지","category":"건강식품 - 기타건강식품"}]},{"lat":"37.819729193","long":"127.04667605","items":[{"name":"동양미용재료","tel":"031-865-8077","addr":"경기도 양주시 덕계동 466-18번지","category":"보건위생 - 화장품"},{"name":"성희포차","tel":"031-866-5222","addr":"경기도 양주시 덕계동 466-18번지","category":"일반휴게음식 - 스넥"},{"name":"수지의료기","tel":"031-863-4939","addr":"경기도 양주시 덕계동 466-18번지","category":"기타의료기관 - 기타의료기관 및 기타"},{"name":"수플라워","tel":"031-862-0607","addr":"경기도 양주시 덕계동 466-18번지","category":"문화.취미 - 화원"},{"name":"양주덕계리우편취급소","tel":"031-863-0222","addr":"경기도 양주시 덕계동 466-18번지","category":"용역 서비스 - 공공요금대행서비스/소"},{"name":"양주덕계우편취급소","tel":"031-863-0222","addr":"경기도 양주시 덕계동 466-18번지","category":"용역 서비스 - 공공요금대행서비스/소"}]},{"lat":"37.81606238","long":"127.04659439","items":[{"name":"동원모터스","tel":"031-825-6688","addr":"경기도 양주시 덕계동 417-5번지","category":"자동차정비 유지 - 자동차정비"},{"name":"벙커","tel":"031-865-7988","addr":"경기도 양주시 덕계동 417-5번지","category":"자동차정비 유지 - 자동차부품"},{"name":"타이어테크 덕계점","tel":"031-858-3640","addr":"경기도 양주시 덕계동 417-5번지","category":"자동차정비 유지 - 자동차시트·타이어"},{"name":"현대세차장","tel":"031-861-0120","addr":"경기도 양주시 덕계동 417-5번지","category":"자동차정비 유지 - 세차장"}]},{"lat":"37.819279146","long":"127.04551734","items":[{"name":"동해오찬음식점","tel":"031-868-2898","addr":"경기도 양주시 덕계동 680-1번지","category":"일반휴게음식 - 일반한식"},{"name":"필","tel":"031-111-1111","addr":"경기도 양주시 덕계동 680-1번지 2층","category":"일반휴게음식 - 주점"},{"name":"호식이두마리치킨덕계점","tel":"031-862-9996","addr":"경기도 양주시 덕계동 680-1번지","category":"일반휴게음식 - 스넥"}]},{"lat":"37.817836451","long":"127.04867378","items":[{"name":"드림도어","tel":"031-859-9743","addr":"경기도 양주시 덕계동 423-7번지 1층 8호","category":"건축자재 - 기타건축자재"},{"name":"예쁜집","tel":"031-861-1849","addr":"경기도 양주시 덕계동 423-7번지 1층","category":"의류 - 정장"},{"name":"유명세탁편의점","tel":"070-7795-5911","addr":"경기도 양주시 덕계동 423-7번지 1층","category":"수리서비스 - 세탁소"},{"name":"유플라워","tel":"031-862-8798","addr":"경기도 양주시 덕계동 423-7번지","category":"문화.취미 - 화원"},{"name":"크리스탈뷰티.주얼리","tel":"031-858-8084","addr":"경기도 양주시 덕계동 423-7번지","category":"신변잡화 - 액세서리"}]},{"lat":"37.816223963","long":"127.04815037","items":[{"name":"드림스터디수학교습소","tel":"070-7623-0321","addr":"경기도 양주시 덕계동 417-11번지 2층","category":"학원 - 보습학원"}]},{"lat":"37.817313389","long":"127.04997952","items":[{"name":"뚱뚱이할머니족발보쌈","tel":"031-868-1350","addr":"경기도 양주시 덕계동 407백원상가1층","category":"일반휴게음식 - 일반한식"}]},{"lat":"37.8254228","long":"127.04762215","items":[{"name":"럭셔리패션","tel":"070-8154-6023","addr":"경기도 양주시 덕계동 532-22번지","category":"의류 - 기타의류"}]},{"lat":"37.824630647","long":"127.04580437","items":[{"name":"럭키유통","tel":"","addr":"경기도 양주시 덕계동 613번지 삼익빌라 라동 301호","category":"음료식품 - 농·축·수산품"},{"name":"행운유통","tel":"","addr":"경기도 양주시 덕계동 613번지 삼익빌라 라동 301호","category":"음료식품 - 농·축·수산품"}]},{"lat":"37.821505234","long":"127.04337202","items":[{"name":"레알당구장","tel":"031-865-7873","addr":"경기도 양주시 덕계동 656-2번지 2층","category":"레저업소 - 당 구 장"},{"name":"모닝마트","tel":"031-857-6108","addr":"경기도 양주시 덕계동 656-2번지 1층","category":"유통업 영리 - 슈퍼마켓"},{"name":"엘리트 특공무술","tel":"031-865-2418","addr":"경기도 양주시 덕계동 656-2번지 4층","category":"레저업소 - 헬스클럽"}]},{"lat":"37.817008788","long":"127.04545925","items":[{"name":"롯데리아(양주리치마트점)","tel":"031-867-5070","addr":"경기도 양주시 덕계동 697-4번지","category":"일반휴게음식 - 서양음식"},{"name":"이화산부인과의원","tel":"031-865-1230","addr":"경기도 양주시 덕계동 697-4번지","category":"의원 - 의원"}]},{"lat":"37.822946941","long":"127.04279355","items":[{"name":"루디아","tel":"","addr":"경기도 양주시 덕계동 584-11번지 1층","category":"음료식품 - 기타음료식품"}]},{"lat":"37.824812164","long":"127.04198812","items":[{"name":"루체인알티스","tel":"031-000-0000","addr":"경기도 양주시 덕계동 574-16번지 3층","category":"신변잡화 - 가방"},{"name":"세븐일레븐덕계신도점","tel":"","addr":"경기도 양주시 덕계동 574-16번지","category":"유통업 영리 - 편 의 점"},{"name":"스낵바바사삭","tel":"031-861-9233","addr":"경기도 양주시 덕계동 574-16번지 1층 103호","category":"일반휴게음식 - 스넥"}]},{"lat":"37.805091132","long":"127.06204229","items":[{"name":"리리플라워카페","tel":"031-844-3100","addr":"경기도 양주시 덕계동 24-6번지","category":"문화.취미 - 화원"},{"name":"바른자세 교정 운동원","tel":"","addr":"경기도 양주시 덕계동 24-6번지","category":"보건위생 - 기타대인서비스"}]},{"lat":"37.814729267","long":"127.04582135","items":[{"name":"리치가구","tel":"031-866-4841","addr":"경기도 양주시 덕계동 707-20번지","category":"가구 - 일반가구"}]},{"lat":"37.827749051","long":"127.04254625","items":[{"name":"리후능이오리쌈밥전문점","tel":"031-866-2030","addr":"경기도 양주시 덕계동 554-5번지","category":"음료식품 - 기타음료식품"},{"name":"리후능이오리쌈밥전문점","tel":"031-866-2030","addr":"경기도 양주시 덕계동 554-5번지","category":"일반휴게음식 - 일반한식"},{"name":"양주벌꿀","tel":"031-863-2260","addr":"경기도 양주시 덕계동 554-5번지","category":"음료식품 - 농·축·수산품"}]},{"lat":"37.810314736","long":"127.04554625","items":[{"name":"린나이 보일러 판매수리전문점","tel":"031-859-8247","addr":"경기도 양주시 덕계동 721-11 비동 101호","category":"건축자재 - 보일러·펌프·샷시"}]},{"lat":"37.820973063","long":"127.04512079","items":[{"name":"막내식당","tel":"031-868-6589","addr":"경기도 양주시 덕계동 672-3번지","category":"일반휴게음식 - 일반한식"},{"name":"봉봉","tel":"031-823-7395","addr":"경기도 양주시 덕계동 672-3번지","category":"의류 - 정장"}]},{"lat":"37.816368965","long":"127.04587908","items":[{"name":"막스까르띠지오","tel":"","addr":"경기도 양주시 덕계동 698-13번지","category":"의류 - 스포츠의류"},{"name":"소유창 휘트니스","tel":"02-3494-0380","addr":"경기도 양주시 덕계동 698-13번지 2층","category":"레저업소 - 헬스클럽"},{"name":"스팀보이 양주점","tel":"","addr":"경기도 양주시 덕계동 698-13번지 1층 북측","category":"자동차정비 유지 - 세차장"},{"name":"티아이유통","tel":"070-0000-0000","addr":"경기도 양주시 덕계동 698-13번지 1층","category":"신변잡화 - 가방"},{"name":"할리스커피 (양주점)","tel":"031-868-5779","addr":"경기도 양주시 덕계동 698-13번지","category":"일반휴게음식 - 서양음식"},{"name":"홍키통키","tel":"031-821-2078","addr":"경기도 양주시 덕계동 698-13번지","category":"회원제형태 - 레져업소"}]},{"lat":"37.817169976","long":"127.04809416","items":[{"name":"막창","tel":"031-857-3392","addr":"경기도 양주시 덕계동 411-55번지 1층","category":"일반휴게음식 - 일반한식"}]},{"lat":"37.818423192","long":"127.04567584","items":[{"name":"만남노래연습장","tel":"031-863-0202","addr":"경기도 양주시 덕계동 681-24번지","category":"레저업소 - 노 래 방"},{"name":"천사날개","tel":"031-866-8829","addr":"경기도 양주시 덕계동 681-24번지 1층 2호","category":"의류 - 정장"},{"name":"춘천골닭갈비","tel":"031-865-6467","addr":"경기도 양주시 덕계동 681-24번지","category":"일반휴게음식 - 일반한식"},{"name":"황금당","tel":"031-863-4466","addr":"경기도 양주시 덕계동 681-24번지","category":"신변잡화 - 시계"}]},{"lat":"37.81783609","long":"127.04959371","items":[{"name":"만다린","tel":"031-858-2112","addr":"경기도 양주시 덕계동 408-1번지 1층","category":"일반휴게음식 - 중국식"},{"name":"주식회사 율하모니","tel":"031-867-9872","addr":"경기도 양주시 덕계동 408-1번지 2층","category":"학원 - 예·체능계학원"}]},{"lat":"37.823611446","long":"127.04881365","items":[{"name":"맛있는한우랑","tel":"031-861-9446","addr":"경기도 양주시 덕계동 513-1번지 C동 102호","category":"일반휴게음식 - 일반한식"}]},{"lat":"37.806037885","long":"127.06051008","items":[{"name":"멘토르학원","tel":"031-868-5495","addr":"경기도 양주시 덕계동 14-4번지 외치빌딩 1층,2층","category":"학원 - 보습학원"},{"name":"차오름태권도장","tel":"","addr":"경기도 양주시 덕계동 14-4번지 외치빌딩 지층","category":"학원 - 예·체능계학원"}]},{"lat":"37.811116777","long":"127.04499026","items":[{"name":"명성모터스","tel":"031-821-4600","addr":"경기도 양주시 덕계동 721-8번지","category":"자동차판매 - 중고자동차판매"},{"name":"블루페페","tel":"031-858-8253","addr":"경기도 양주시 덕계동 721-8번지","category":"레져용품 - 스포츠·레져용품"},{"name":"사단법인국제피플투피플한국본부양주챕터","tel":"031-858-0144","addr":"경기도 양주시 덕계동 721-8번지","category":"기타 - 비영리/비대상"}]},{"lat":"37.816116684","long":"127.04592436","items":[{"name":"목동화로구이","tel":"031-858-9157","addr":"경기도 양주시 덕계동 698-7번지","category":"일반휴게음식 - 일반한식"},{"name":"미네스타 몰앤카페(mall&cafe)","tel":"031-864-7005","addr":"경기도 양주시 덕계동 698-7번지 1층 일부","category":"음료식품 - 정육점"},{"name":"청마루(진)","tel":"031-873-1119","addr":"경기도 양주시 덕계동 698-7번지 1층 2호","category":"의류 - 정장"},{"name":"할매토종순대국","tel":"031-866-0055","addr":"경기도 양주시 덕계동 698-7번지","category":"일반휴게음식 - 일반한식"}]},{"lat":"37.814117181","long":"127.04426515","items":[{"name":"무진장","tel":"031-865-4429","addr":"경기도 양주시 덕계동 707-14번지","category":"용역 서비스 - 가례서비스업"}]},{"lat":"37.820893585","long":"127.04037328","items":[{"name":"미미머리사랑","tel":"031-865-8132","addr":"경기도 양주시 덕계동 646-2번지 상가동102-1호","category":"보건위생 - 미용원"}]},{"lat":"37.822890572","long":"127.04911986","items":[{"name":"미소육화(덕계점)","tel":"031-0000-0000","addr":"경기도 양주시 덕계동 510-3번지 연신빌딩 102호","category":"일반휴게음식 - 일반한식"},{"name":"앙헬","tel":"031-861-7771","addr":"경기도 양주시 덕계동 510-3번지 3층","category":"숙박업 - 여관/기타숙박업"},{"name":"이마트24 양주덕계점","tel":"","addr":"경기도 양주시 덕계동 510-3번지 101호","category":"유통업 영리 - 편 의 점"}]},{"lat":"37.822613281","long":"127.043702","items":[{"name":"미소헤어","tel":"070-8869-6441","addr":"경기도 양주시 덕계동 589번지","category":"보건위생 - 미용원"}]},{"lat":"37.824893101","long":"127.04243114","items":[{"name":"미앤미헤어샵","tel":"031-862-2621","addr":"경기도 양주시 덕계동 573-4번지 1동 1층","category":"보건위생 - 미용원"},{"name":"부흥식당","tel":"031-866-9646","addr":"경기도 양주시 덕계동 573-4번지 1층","category":"일반휴게음식 - 일반한식"}]},{"lat":"37.823749073","long":"127.04191942","items":[{"name":"민턴맨(MINTONMAN)","tel":"031-377-7793","addr":"경기도 양주시 덕계동 582-4번지 유림화이트빌라 3동 302호","category":"회원제형태 - 기타4"}]},{"lat":"37.817088891","long":"127.04809411","items":[{"name":"바다향기","tel":"","addr":"경기도 양주시 덕계동 411-58번지 1층","category":"일반휴게음식 - 일식·회집"},{"name":"아세아이불","tel":"031-861-0890","addr":"경기도 양주시 덕계동 411-58번지","category":"직물 - 침구·수예점"}]},{"lat":"37.813118713","long":"127.06173071","items":[{"name":"배드민턴나라","tel":"031-848-1841","addr":"경기도 양주시 덕계동 127-20번지","category":"레져용품 - 스포츠·레져용품"}]},{"lat":"37.816729654","long":"127.04501616","items":[{"name":"배양리회관 덕계점","tel":"","addr":"경기도 양주시 덕계동 696-3번지 리치빌리지 상가동 1층","category":"일반휴게음식 - 일반한식"},{"name":"별미아구찜","tel":"031-867-7287","addr":"경기도 양주시 덕계동 696-3번지 리치빌리지 1층","category":"일반휴게음식 - 일반한식"},{"name":"양주재래식손두부(덕계점)","tel":"","addr":"경기도 양주시 덕계동 696-3번지 리치빌리지","category":"일반휴게음식 - 일반한식"},{"name":"육공판 덕계점","tel":"031-857-6092","addr":"경기도 양주시 덕계동 696-3번지 리치빌리지","category":"일반휴게음식 - 일반한식"}]},{"lat":"37.824310866","long":"127.03059568","items":[{"name":"백송","tel":"031-868-0707","addr":"경기도 양주시 덕계동 산73","category":"문화.취미 - 화원"}]},{"lat":"37.820171252","long":"127.04504084","items":[{"name":"벨라에스테틱","tel":"031-572-4242","addr":"경기도 양주시 덕계동 679-30번지 1층 일부","category":"보건위생 - 피부미용실"}]},{"lat":"37.813278976","long":"127.04518455","items":[{"name":"별난버섯집","tel":"031-862-2753","addr":"경기도 양주시 덕계동 714-1번지","category":"일반휴게음식 - 일반한식"}]},{"lat":"37.822919828","long":"127.04304341","items":[{"name":"병팔이호프","tel":"031-867-2881","addr":"경기도 양주시 덕계동 588-1번지","category":"일반휴게음식 - 주점"},{"name":"신비인테리어","tel":"031-867-6907","addr":"경기도 양주시 덕계동 588-1번지 태성빌딩","category":"건축자재 - 인테리어전문"}]},{"lat":"37.81122714","long":"127.06090022","items":[{"name":"보경산업","tel":"031-859-0828","addr":"경기도 양주시 덕계동 103-9번지 나동","category":"건축자재 - 유리"}]},{"lat":"37.819036248","long":"127.04451775","items":[{"name":"부티나네","tel":"031-744-8488","addr":"경기도 양주시 덕계동 682-22번지 1층","category":"의류 - 정장"},{"name":"에덴청과","tel":"031-847-1221","addr":"경기도 양주시 덕계동 682-22번지","category":"음료식품 - 농·축·수산품"}]},{"lat":"37.818972927","long":"127.04523323","items":[{"name":"부평감자탕","tel":"070-997-9970","addr":"경기도 양주시 덕계동 680-3번지 1층","category":"일반휴게음식 - 일반한식"},{"name":"태산한우한돈판매점","tel":"031-867-0333","addr":"경기도 양주시 덕계동 680-3번지","category":"음료식품 - 정육점"}]},{"lat":"37.818918822","long":"127.04536948","items":[{"name":"뷰림헤어","tel":"031-861-9658","addr":"경기도 양주시 덕계동 681-14번지","category":"보건위생 - 미용원"},{"name":"스토리샵","tel":"031-865-9170","addr":"경기도 양주시 덕계동 681-14번지 1층","category":"회원제형태 - 기타4"},{"name":"코리안바베큐","tel":"031-864-3535","addr":"경기도 양주시 덕계동 681-14번지","category":"일반휴게음식 - 주점"},{"name":"펍카페1429","tel":"031-866-8886","addr":"경기도 양주시 덕계동 681-14번지","category":"일반휴게음식 - 서양음식"},{"name":"힐파크모텔","tel":"031-865-2817","addr":"경기도 양주시 덕계동 681-14번지","category":"숙박업 - 여관/기타숙박업"}]},{"lat":"37.821223362","long":"127.05028866","items":[{"name":"뷰티샵","tel":"031-859-1331","addr":"경기도 양주시 덕계동 445-1 2층","category":"회원제형태 - 기타4"}]},{"lat":"37.821757198","long":"127.04423534","items":[{"name":"비온뒤맑음","tel":"070-7435-3993","addr":"경기도 양주시 덕계동 673-8번지 1층","category":"광학제품 - 사진관"}]},{"lat":"37.819783567","long":"127.04581292","items":[{"name":"뽕이네","tel":"031-865-0029","addr":"경기도 양주시 덕계동 679-11번지","category":"일반휴게음식 - 스넥"}]},{"lat":"37.82497484","long":"127.04043214","items":[{"name":"뿌리상회","tel":"070-7622-0092","addr":"경기도 양주시 덕계동 744","category":"건강식품 - 홍삼제품"}]},{"lat":"37.82864392","long":"127.03257373","items":[{"name":"산장가든","tel":"031-864-6882","addr":"경기도 양주시 덕계동 산12-1번지","category":"일반휴게음식 - 일반한식"}]},{"lat":"37.817286937","long":"127.04851445","items":[{"name":"살롱드J","tel":"","addr":"경기도 양주시 덕계동 411-8번지 1층","category":"보건위생 - 미용원"}]},{"lat":"37.826640773","long":"127.04289777","items":[{"name":"삼우엠앤아이","tel":"031-858-2294","addr":"경기도 양주시 덕계동 550번지","category":"보건위생 - 의료용품"}]},{"lat":"37.821811127","long":"127.04459882","items":[{"name":"상상나무","tel":"031-824-2416","addr":"경기도 양주시 덕계동 675-5번지","category":"의류 - 정장"},{"name":"천년지음","tel":"031-857-6423","addr":"경기도 양주시 덕계동 675-5번지","category":"수리서비스 - 기타수리서비스"},{"name":"할아버지의꽃","tel":"031-821-0854","addr":"경기도 양주시 덕계동 675-5번지 천년즈음옆 1동","category":"문화.취미 - 화원"}]},{"lat":"37.817313605","long":"127.04943438","items":[{"name":"상생차돌이","tel":"031-866-2010","addr":"경기도 양주시 덕계동 409-2번지","category":"자동차정비 유지 - 세차장"},{"name":"씨유양주덕산점","tel":"031-862-5436","addr":"경기도 양주시 덕계동 409-2번지","category":"유통업 영리 - 편 의 점"}]},{"lat":"37.819944504","long":"127.04907259","items":[{"name":"상옥","tel":"031-864-1900","addr":"경기도 양주시 덕계동 452-25번지","category":"신변잡화 - 신발"}]},{"lat":"37.805532806","long":"127.0616225","items":[{"name":"샤인음악학원","tel":"031-865-3696","addr":"경기도 양주시 덕계동 23-21번지","category":"학원 - 예·체능계학원"},{"name":"성균관영어&수학학원","tel":"031-859-1941","addr":"경기도 양주시 덕계동 23-21번지 2층","category":"학원 - 보습학원"}]},{"lat":"37.816278586","long":"127.0466513","items":[{"name":"서래궁","tel":"031-868-7797","addr":"경기도 양주시 덕계동 418-1번지 해동타워 101호","category":"일반휴게음식 - 중국식"},{"name":"홍,광천 한우직판장","tel":"070-4334-7094","addr":"경기도 양주시 덕계동 418-1번지 102호","category":"음료식품 - 정육점"}]},{"lat":"37.826693534","long":"127.04654386","items":[{"name":"선녀와나무꾼","tel":"031-861-5800","addr":"경기도 양주시 덕계동 540번지 외5필지","category":"레저업소 - 기타레져업소"}]},{"lat":"37.824145846","long":"127.06256861","items":[{"name":"선진산업","tel":"031-866-1772","addr":"경기도 양주시 덕계동 175-27번지","category":"건축자재 - 기타건축자재"}]},{"lat":"37.816116894","long":"127.04534516","items":[{"name":"성도건설","tel":"031-863-1055","addr":"경기도 양주시 덕계동 702-2번지","category":"용역 서비스 - 기타용역서비스"},{"name":"한솔아트","tel":"031-857-0627","addr":"경기도 양주시 덕계동 702-2번지","category":"문화.취미 - 화방·표구점"}]},{"lat":"37.809676847","long":"127.062239","items":[{"name":"세라에듀 산아","tel":"","addr":"경기도 양주시 덕계동 68-4번지 1층","category":"문화.취미 - 문화취미기타"}]},{"lat":"37.821306578","long":"127.04465532","items":[{"name":"소리헤어","tel":"031-866-6878","addr":"경기도 양주시 덕계동 673-16번지","category":"보건위생 - 미용원"}]},{"lat":"37.817675112","long":"127.04648177","items":[{"name":"소망문구","tel":"031-865-0985","addr":"경기도 양주시 덕계동 420-11번지 정산빌리지","category":"서적문구 - 문구용품"},{"name":"제일건강원","tel":"031-865-6637","addr":"경기도 양주시 덕계동 420-11번지 정산빌리지","category":"건강식품 - 기타건강식품"},{"name":"주식회사 페나토르","tel":"031-865-2008","addr":"경기도 양주시 덕계동 420-11번지 정산빌리지 1층 1호","category":"음료식품 - 미곡상"},{"name":"큰대문집","tel":"031-858-0758","addr":"경기도 양주시 덕계동 420-11번지 정산빌리지","category":"일반휴게음식 - 일반한식"}]},{"lat":"37.823918785","long":"127.04612198","items":[{"name":"소울뮤직음악교습소","tel":"031-858-8693","addr":"경기도 양주시 덕계동 614-26번지 정산맨션 103호","category":"학원 - 예·체능계학원"}]},{"lat":"37.818585116","long":"127.04634601","items":[{"name":"손정문비뇨기과","tel":"031-861-1488","addr":"경기도 양주시 덕계동 421-15","category":"의원 - 의원"}]},{"lat":"37.818783516","long":"127.0458237","items":[{"name":"송엘림두마리치킨 덕계점","tel":"031-822-7891","addr":"경기도 양주시 덕계동 681-20번지","category":"일반휴게음식 - 스넥"},{"name":"아리따움양주덕계점화장품","tel":"031-868-0120","addr":"경기도 양주시 덕계동 681-20번지","category":"보건위생 - 화장품"},{"name":"하니호프","tel":"031-862-1888","addr":"경기도 양주시 덕계동 681-20번지 지하1층","category":"일반휴게음식 - 주점"}]},{"lat":"37.813307092","long":"127.04203884","items":[{"name":"송원","tel":"031-868-2357","addr":"경기도 양주시 덕계동 730번지","category":"일반휴게음식 - 일반한식"}]},{"lat":"37.817278089","long":"127.04809423","items":[{"name":"수경헤어","tel":"031-857-0823","addr":"경기도 양주시 덕계동 411-54번지","category":"보건위생 - 미용원"},{"name":"이마트24 덕계신우점","tel":"031-1111-1111","addr":"경기도 양주시 덕계동 411-54번지 1층","category":"유통업 영리 - 편 의 점"}]},{"lat":"37.817062521","long":"127.04634512","items":[{"name":"수유리우동집(덕계)","tel":"031-864-3245","addr":"경기도 양주시 덕계동 418-6번지","category":"일반휴게음식 - 일반한식"},{"name":"양주공구","tel":"031-863-2877","addr":"경기도 양주시 덕계동 418-6번지","category":"건축자재 - 기타건축자재"},{"name":"지앤비보습학원","tel":"031-868-0114","addr":"경기도 양주시 덕계동 418-6번지 3층","category":"회원제형태 - 학원"},{"name":"해동검도","tel":"031-866-1535","addr":"경기도 양주시 덕계동 418-6번지","category":"회원제형태 - 레져업소"},{"name":"활어장군","tel":"","addr":"경기도 양주시 덕계동 418-6번지","category":"일반휴게음식 - 일식·회집"}]},{"lat":"37.816557","long":"127.04895692","items":[{"name":"시골보리밥","tel":"031-862-6660","addr":"경기도 양주시 덕계동 411-84번지 1층 일부","category":"일반휴게음식 - 일반한식"}]},{"lat":"37.822504825","long":"127.04467871","items":[{"name":"신명태옥","tel":"031-861-8880","addr":"경기도 양주시 덕계동 622-4번지 1층","category":"일반휴게음식 - 일반한식"}]},{"lat":"37.810813072","long":"127.0601504","items":[{"name":"신영맞춤가구","tel":"031-857-5651","addr":"경기도 양주시 덕계동 101-5나동","category":"주방용구 - 주방용구"}]},{"lat":"37.810310941","long":"127.05498305","items":[{"name":"신한정공","tel":"031-868-7675","addr":"경기도 양주시 덕계동 333-35","category":"기타 - 기타 전문점"}]},{"lat":"37.818504297","long":"127.04561911","items":[{"name":"싱싱마트","tel":"070-0000-0000","addr":"경기도 양주시 덕계동 681-22번지","category":"음료식품 - 농·축·수산품"},{"name":"진수성찬","tel":"031-864-7007","addr":"경기도 양주시 덕계동 681-22번지","category":"음료식품 - 기타음료식품"}]},{"lat":"37.815576331","long":"127.0453335","items":[{"name":"싹스리김치삼겹살(덕계동)","tel":"031-858-0555","addr":"경기도 양주시 덕계동 704-1번지 A동 101층","category":"일반휴게음식 - 일반한식"}]},{"lat":"37.826749322","long":"127.0415916","items":[{"name":"씨에스푸드(CS FOOD)","tel":"031-861-4810","addr":"경기도 양주시 덕계동 566-11번지","category":"음료식품 - 농·축·수산품"}]},{"lat":"37.823145037","long":"127.04312304","items":[{"name":"씨유덕계미래점","tel":"031-858-2508","addr":"경기도 양주시 덕계동 591-8번지","category":"유통업 영리 - 편 의 점"},{"name":"정성식당","tel":"031-864-1334","addr":"경기도 양주시 덕계동 591-8번지","category":"일반휴게음식 - 일반한식"}]},{"lat":"37.816530913","long":"127.04648109","items":[{"name":"씨유덕계평화점","tel":"031-859-0236","addr":"경기도 양주시 덕계동 418-14번지","category":"유통업 영리 - 편 의 점"}]},{"lat":"37.82730807","long":"127.04109211","items":[{"name":"아띠","tel":"070-7435-3993","addr":"경기도 양주시 덕계동 558-2번지 1층","category":"일반휴게음식 - 서양음식"}]},{"lat":"37.821278271","long":"127.04811938","items":[{"name":"아임주방","tel":"031-000-0000","addr":"경기도 양주시 덕계동 472-6번지","category":"주방용구 - 주방용구"}]},{"lat":"37.811254524","long":"127.06017345","items":[{"name":"안녕나무야","tel":"031-847-3476","addr":"경기도 양주시 덕계동 105-1번지","category":"가구 - 일반가구"}]},{"lat":"37.818008687","long":"127.04586868","items":[{"name":"알보","tel":"031-000-0000","addr":"경기도 양주시 덕계동 산50-2번지","category":"음료식품 - 기타음료식품"}]},{"lat":"37.818837204","long":"127.04682317","items":[{"name":"앗싸곱창(덕계점)","tel":"031-861-7990","addr":"경기도 양주시 덕계동 424-14번지","category":"일반휴게음식 - 일반한식"}]},{"lat":"37.816953601","long":"127.04848017","items":[{"name":"애브넬","tel":"031-861-4441","addr":"경기도 양주시 덕계동 411-42번지 102호","category":"보건위생 - 피부미용실"},{"name":"카페 안길","tel":"","addr":"경기도 양주시 덕계동 411-42번지 1층 101호","category":"일반휴게음식 - 서양음식"}]},{"lat":"37.821531895","long":"127.04442829","items":[{"name":"애플(cafe)","tel":"031-858-7522","addr":"경기도 양주시 덕계동 673-3번지","category":"일반휴게음식 - 서양음식"}]},{"lat":"37.819396211","long":"127.04567641","items":[{"name":"얌마카롱(Yum Macaron)","tel":"","addr":"경기도 양주시 덕계동 679-6번지 103호","category":"일반휴게음식 - 서양음식"},{"name":"유연헤어샵","tel":"031-8083-1640","addr":"경기도 양주시 덕계동 679-6번지","category":"보건위생 - 미용원"},{"name":"장터국수만두","tel":"031-859-4372","addr":"경기도 양주시 덕계동 679-6번지 101호","category":"일반휴게음식 - 스넥"},{"name":"하하스 컴퍼니","tel":"","addr":"경기도 양주시 덕계동 679-6번지 103호","category":"의류 - 정장"}]},{"lat":"37.812308558","long":"127.0603219","items":[{"name":"양명대사","tel":"","addr":"경기도 양주시 덕계동 125번지 1동 1호","category":"보건위생 - 기타대인서비스"}]},{"lat":"37.828028381","long":"127.04243281","items":[{"name":"양봉양주사업소","tel":"031-863-2260","addr":"경기도 양주시 덕계동 554-4번지","category":"농업 - 기타농업관련"}]},{"lat":"37.820809587","long":"127.04861883","items":[{"name":"양주뚝배기국밥","tel":"031-858-9888","addr":"경기도 양주시 덕계동 451-15번지 1층","category":"일반휴게음식 - 일반한식"}]},{"lat":"37.825754745","long":"127.05117751","items":[{"name":"양주아동발달센터","tel":"031-857-7577","addr":"경기도 양주시 덕계동 534-4번지 3층","category":"보건위생 - 기타대인서비스"},{"name":"양주필카오디오","tel":"031-858-7703","addr":"경기도 양주시 덕계동 534-4번지 1층","category":"자동차정비 유지 - 자동차부품"},{"name":"우리주야간보호센터","tel":"031-857-1178","addr":"경기도 양주시 덕계동 534-4번지 4층","category":"기타의료기관 - 기타의료기관 및 기타"}]},{"lat":"37.812279146","long":"127.04457074","items":[{"name":"양주장례문화원","tel":"031-863-4444","addr":"경기도 양주시 덕계동 723번지","category":"용역 서비스 - 가례서비스업"},{"name":"양주장례식장","tel":"031-864-4400","addr":"경기도 양주시 덕계동 723번지","category":"음료식품 - 기타음료식품"}]},{"lat":"37.820647079","long":"127.0494819","items":[{"name":"에리카롱","tel":"","addr":"경기도 양주시 덕계동 451-39번지","category":"음료식품 - 기타음료식품"}]},{"lat":"37.809029508","long":"127.0595131","items":[{"name":"에스에스(SS)퍼니처","tel":"031-868-8015","addr":"경기도 양주시 덕계동 85번지 1층(85-1,86,86-1,86-2)","category":"가구 - 일반가구"}]},{"lat":"37.822676708","long":"127.04264575","items":[{"name":"에스에이치드론기술","tel":"031-462-5685","addr":"경기도 양주시 덕계동 586-2번지 원창맨션 103동 203호","category":"학원 - 기능학원"}]},{"lat":"37.823061933","long":"127.04865429","items":[{"name":"에스에이치컨설텅(주)","tel":"031-859-1231","addr":"경기도 양주시 덕계동 513-8번지","category":"기타의료기관 - 산후조리원"}]},{"lat":"37.806397492","long":"127.06206604","items":[{"name":"엔젤스도어","tel":"031-862-5939","addr":"경기도 양주시 덕계동 39-6번지","category":"자동차정비 유지 - 카인테리어"}]},{"lat":"37.82339602","long":"127.04671229","items":[{"name":"엘림인테리어","tel":"031-864-2012","addr":"경기도 양주시 덕계동 519-24번지 1층","category":"건축자재 - 인테리어전문"},{"name":"예지머리방","tel":"031-862-6321","addr":"경기도 양주시 덕계동 519-24번지","category":"보건위생 - 미용원"}]},{"lat":"37.808479162","long":"127.06109112","items":[{"name":"엘씨엘씽크대공장","tel":"070-8953-6355","addr":"경기도 양주시 덕계동 59-1번지 1층","category":"주방용구 - 주방용구"}]},{"lat":"37.823755212","long":"127.04979052","items":[{"name":"엘지전자(주) 양주서비스센터","tel":"02-0000-0000","addr":"경기도 양주시 덕계동 509-7번지 1층","category":"수리서비스 - 가정용품수리"}]},{"lat":"37.81900866","long":"127.04607369","items":[{"name":"연인","tel":"031-857-7475","addr":"경기도 양주시 덕계동 681-3번지 2층","category":"일반휴게음식 - 일반한식"}]},{"lat":"37.817286981","long":"127.04840087","items":[{"name":"영능이오리백숙","tel":"031-866-2500","addr":"경기도 양주시 덕계동 411-29번지 1층","category":"일반휴게음식 - 일반한식"}]},{"lat":"37.813342349","long":"127.0443215","items":[{"name":"영주산업","tel":"031-866-1930","addr":"경기도 양주시 덕계동 726-2번지","category":"수리서비스 - 기타수리서비스"}]},{"lat":"37.818811065","long":"127.04436998","items":[{"name":"영희영양탕","tel":"031-867-1235","addr":"경기도 양주시 덕계동 682-25번지","category":"일반휴게음식 - 일반한식"}]},{"lat":"37.821892163","long":"127.04473515","items":[{"name":"오땡큐","tel":"070-7718-2283","addr":"경기도 양주시 덕계동 466-37번지 1층","category":"보건위생 - 미용원"}]},{"lat":"37.821973658","long":"127.04356535","items":[{"name":"옹달샘건강원","tel":"031-867-3784","addr":"경기도 양주시 덕계동 633-4 9/1","category":"건강식품 - 기타건강식품"}]},{"lat":"37.815675411","long":"127.0454017","items":[{"name":"왕손쭈꾸미","tel":"031-861-0110","addr":"경기도 양주시 덕계동 704-4번지 1층","category":"일반휴게음식 - 일반한식"}]},{"lat":"37.81534125","long":"127.04759335","items":[{"name":"용상철물","tel":"031-865-4008","addr":"경기도 양주시 덕계동 416-11","category":"건축자재 - 목재·석재·철물"}]},{"lat":"37.823334496","long":"127.0423508","items":[{"name":"우진유통","tel":"031-867-8569","addr":"경기도 양주시 덕계동 582-10번지","category":"음료식품 - 정육점"}]},{"lat":"37.821694104","long":"127.04431481","items":[{"name":"웨이브헤어","tel":"031-868-5887","addr":"경기도 양주시 덕계동 673-11번지 1층","category":"보건위생 - 미용원"},{"name":"의정부콩 부대찌개","tel":"031-866-5679","addr":"경기도 양주시 덕계동 673-11번지 1층","category":"일반휴게음식 - 일반한식"}]},{"lat":"37.822585078","long":"127.04696168","items":[{"name":"웰스토어","tel":"070-4325-8005","addr":"경기도 양주시 덕계동 477-22번지","category":"음료식품 - 기타음료식품"}]},{"lat":"37.821225922","long":"127.04342865","items":[{"name":"유니크학원","tel":"031-863-0919","addr":"경기도 양주시 덕계동 656-7번지","category":"학원 - 보습학원"}]},{"lat":"37.824394659","long":"127.05034748","items":[{"name":"유로모터스","tel":"031-874-1001","addr":"경기도 양주시 덕계동 505-1번지","category":"자동차정비 유지 - 자동차정비"},{"name":"회천주유소","tel":"031-863-3351","addr":"경기도 양주시 덕계동 505-1번지","category":"연료판매점 - 쌍용S-OIL"}]},{"lat":"37.81117329","long":"127.06048","items":[{"name":"유성","tel":"031-868-8687","addr":"경기도 양주시 덕계동 105번지","category":"주방용구 - 주방용구"}]},{"lat":"37.823729637","long":"127.04598557","items":[{"name":"유즈플라워","tel":"","addr":"경기도 양주시 덕계동 519-3번지 원창맨션 101호","category":"문화.취미 - 화원"}]},{"lat":"37.817286871","long":"127.0486848","items":[{"name":"유진헤어","tel":"","addr":"경기도 양주시 덕계동 411-14번지","category":"보건위생 - 미용원"},{"name":"청명정육점","tel":"031-865-7001","addr":"경기도 양주시 덕계동 411-14번지","category":"음료식품 - 정육점"}]},{"lat":"37.828695492","long":"127.0411837","items":[{"name":"은성식품","tel":"031-858-7943","addr":"경기도 양주시 덕계동 556-8번지","category":"음료식품 - 기타음료식품"}]},{"lat":"37.824611099","long":"127.04981378","items":[{"name":"은한에어컨","tel":"031-000-0000","addr":"경기도 양주시 덕계동 502번지 청솔빌라 2동 301호","category":"용역 서비스 - 기타용역서비스"}]},{"lat":"37.805703957","long":"127.06167941","items":[{"name":"이앤엠학원","tel":"031-864-0579","addr":"경기도 양주시 덕계동 23-2번지 2층 201호","category":"학원 - 보습학원"}]},{"lat":"37.804370682","long":"127.06142854","items":[{"name":"이에이치","tel":"031-846-6082","addr":"경기도 양주시 덕계동 8-2번지 가동 1층","category":"서적문구 - 문구용품"}]},{"lat":"37.824785218","long":"127.04173823","items":[{"name":"이화미용실","tel":"031-859-7105","addr":"경기도 양주시 덕계동 574-28번지 1층","category":"보건위생 - 미용원"},{"name":"이화헤어","tel":"031-859-7105","addr":"경기도 양주시 덕계동 574-28번지 1층","category":"보건위생 - 미용원"}]},{"lat":"37.817972888","long":"127.04520994","items":[{"name":"일미식당","tel":"031-864-5388","addr":"경기도 양주시 덕계동 682-15번지","category":"일반휴게음식 - 일반한식"}]},{"lat":"37.819477263","long":"127.04576731","items":[{"name":"일산식당","tel":"031-861-9625","addr":"경기도 양주시 덕계동 679-8번지","category":"일반휴게음식 - 일반한식"}]},{"lat":"37.819279475","long":"127.04459739","items":[{"name":"임자 만난 옛 통닭","tel":"031-866-9291","addr":"경기도 양주시 덕계동 680-5번지","category":"일반휴게음식 - 스넥"}]},{"lat":"37.819229824","long":"127.02937855","items":[{"name":"장자울","tel":"031-863-2713","addr":"경기도 양주시 덕계동 754,754-6","category":"일반휴게음식 - 일반한식"},{"name":"장자울","tel":"031-863-2764","addr":"경기도 양주시 덕계동 754, 754-6","category":"일반휴게음식 - 일반한식"}]},{"lat":"37.812643566","long":"127.05681305","items":[{"name":"장필헤어","tel":"031-857-3879","addr":"경기도 양주시 덕계동 852번지 상가동 101호","category":"보건위생 - 미용원"},{"name":"쿠키 그리고","tel":"031-863-5106","addr":"경기도 양주시 덕계동 852번지 202,206호","category":"일반휴게음식 - 서양음식"},{"name":"한국 광백 태권도장","tel":"031-867-5253","addr":"경기도 양주시 덕계동 852번지 2층201.203.204.205호","category":"학원 - 예·체능계학원"}]},{"lat":"37.823837474","long":"127.04673527","items":[{"name":"전원부식마트","tel":"031-866-1190","addr":"경기도 양주시 덕계동 519-35번지","category":"음료식품 - 농·축·수산품"}]},{"lat":"37.812197583","long":"127.04589938","items":[{"name":"제일목재합판","tel":"031-857-4055","addr":"경기도 양주시 덕계동 384-4","category":"건축자재 - 목재·석재·철물"}]},{"lat":"37.822361064","long":"127.04356557","items":[{"name":"종합설비","tel":"031-867-0454","addr":"경기도 양주시 덕계동 588-14번지 유림다세대주택 3동 301호","category":"용역 서비스 - 기타용역서비스"}]},{"lat":"37.805532246","long":"127.06273531","items":[{"name":"주식회사 양주렌트카","tel":"031-866-5531","addr":"경기도 양주시 덕계동 25번지","category":"여행 - 렌터카"}]},{"lat":"37.822674615","long":"127.0484269","items":[{"name":"주식회사 엠케이컨설팅","tel":"031-859-1231","addr":"경기도 양주시 덕계동 513-14번지 8층","category":"기타의료기관 - 산후조리원"},{"name":"주식회사엠케이컨설팅","tel":"031-859-1231","addr":"경기도 양주시 덕계동 513-14번지","category":"건강식품 - 기타건강식품"}]},{"lat":"37.825173019","long":"127.06237634","items":[{"name":"주식회사 원명스틸","tel":"031-857-9001","addr":"경기도 양주시 덕계동 175-11번지","category":"건축자재 - 기타건축자재"},{"name":"청오정공","tel":"031-863-0014","addr":"경기도 양주시 덕계동 175-11번지","category":"기타 - 기계공구"}]},{"lat":"37.808199774","long":"127.06128394","items":[{"name":"주식회사신우교구","tel":"031-701-3514","addr":"경기도 양주시 덕계동 61번지","category":"서적문구 - 과학기자재"}]},{"lat":"37.810367704","long":"127.04845341","items":[{"name":"주현전기","tel":"031-865-2370","addr":"경기도 양주시 덕계동 358","category":"용역 서비스 - 기타용역서비스"}]},{"lat":"37.820701257","long":"127.04917528","items":[{"name":"중화루","tel":"031-868-1259","addr":"경기도 양주시 덕계동 451-32번지 1층","category":"일반휴게음식 - 중국식"}]},{"lat":"37.8158694","long":"127.055816","items":[{"name":"중흥식당","tel":"031-861-0021","addr":"경기도 양주시 덕계동 278-5","category":"일반휴게음식 - 일반한식"}]},{"lat":"37.824223635","long":"127.04996119","items":[{"name":"지엔지카","tel":"02-1670-4401","addr":"경기도 양주시 덕계동 507-6번지 1층","category":"자동차정비 유지 - 카인테리어"}]},{"lat":"37.820142964","long":"127.04842534","items":[{"name":"진미농산","tel":"031-796-2554","addr":"경기도 양주시 덕계동 452-12번지","category":"음료식품 - 농·축·수산품"}]},{"lat":"37.819223018","long":"127.05090067","items":[{"name":"진성금속","tel":"02-2254-4755","addr":"경기도 양주시 덕계동 426-12번지","category":"기타 - 기계공구"}]},{"lat":"37.81655687","long":"127.04928627","items":[{"name":"진이네분식","tel":"031-857-5287","addr":"경기도 양주시 덕계동 411-110번지 1층 일부","category":"일반휴게음식 - 스넥"}]},{"lat":"37.817278037","long":"127.04823051","items":[{"name":"쪼끼쪼끼","tel":"031-859-7744","addr":"경기도 양주시 덕계동 411-53번지","category":"일반휴게음식 - 주점"}]},{"lat":"37.821667345","long":"127.04354247","items":[{"name":"차이나타운","tel":"031-868-6774","addr":"경기도 양주시 덕계동 656-1번지 1층 전체","category":"일반휴게음식 - 중국식"}]},{"lat":"37.820143974","long":"127.04573362","items":[{"name":"천냥노가리","tel":"070-4158-2893","addr":"경기도 양주시 덕계동 678-9번지 1층","category":"일반휴게음식 - 일반한식"}]},{"lat":"37.819638848","long":"127.04734608","items":[{"name":"천부장여관","tel":"031-862-4249","addr":"경기도 양주시 덕계동 462번지 외1필지","category":"숙박업 - 여관/기타숙박업"},{"name":"천부장여관","tel":"031-63-4249","addr":"경기도 양주시 덕계동 462번지","category":"숙박업 - 여관/기타숙박업"},{"name":"훌랄라참숯바베큐치킨","tel":"031-865-4566","addr":"경기도 양주시 덕계동 462번지 1층","category":"일반휴게음식 - 스넥"}]},{"lat":"37.80889496","long":"127.05826386","items":[{"name":"추오정남원추어탕","tel":"031-858-5003","addr":"경기도 양주시 덕계동 324-23번지 1층","category":"일반휴게음식 - 일반한식"}]},{"lat":"37.82178405","long":"127.04473509","items":[{"name":"치킨탑 덕계점","tel":"031-858-9981","addr":"경기도 양주시 덕계동 675-10번지 1동 1층","category":"일반휴게음식 - 일반한식"}]},{"lat":"37.827416231","long":"127.04094451","items":[{"name":"컬투미용재료","tel":"070-4325-7063","addr":"경기도 양주시 덕계동 558-4번지 미조아트빌라 가동 4층 3호","category":"보건위생 - 화장품"}]},{"lat":"37.817809603","long":"127.04820812","items":[{"name":"크라우스악기","tel":"031-865-7255","addr":"경기도 양주시 덕계동 423-2번지 1층","category":"레져용품 - 악기점"}]},{"lat":"37.810614358","long":"127.06118364","items":[{"name":"타코하우스 (Taco House)","tel":"031-858-2026","addr":"경기도 양주시 덕계동 102-3번지","category":"음료식품 - 기타음료식품"}]},{"lat":"37.827839707","long":"127.0408425","items":[{"name":"태백우리흑염소","tel":"031-859-1113","addr":"경기도 양주시 덕계동 558-1번지 1층","category":"일반휴게음식 - 일반한식"}]},{"lat":"37.820730075","long":"127.04437106","items":[{"name":"태후사랑","tel":"031-866-8377","addr":"경기도 양주시 덕계동 669번지 덕계한주아파트 상가동 206호","category":"보건위생 - 화장품"}]},{"lat":"37.822585978","long":"127.04448567","items":[{"name":"토담보리밥","tel":"031-866-8982","addr":"경기도 양주시 덕계동 623번지","category":"일반휴게음식 - 일반한식"}]},{"lat":"37.818644333","long":"127.0557612","items":[{"name":"편의점","tel":"031-821-9480","addr":"경기도 양주시 덕계동 209-5번지","category":"유통업 영리 - 편 의 점"}]},{"lat":"37.826278683","long":"127.04765674","items":[{"name":"하나유리샤시창호금속방충망판넬방화문강화","tel":"","addr":"경기도 양주시 덕계동 533번지 하늘샘빌라 102호","category":"용역 서비스 - 기타용역서비스"}]},{"lat":"37.817251135","long":"127.04790114","items":[{"name":"하이얀호프","tel":"031-863-4992","addr":"경기도 양주시 덕계동 411-4번지 1층","category":"일반휴게음식 - 스넥"}]},{"lat":"37.816647735","long":"127.0472875","items":[{"name":"하이패션","tel":"031-861-8487","addr":"경기도 양주시 덕계동 417-1번지 신우상가 1층","category":"의류 - 정장"}]},{"lat":"37.812200378","long":"127.06045809","items":[{"name":"한국디지털로스타","tel":"031-857-2656","addr":"경기도 양주시 덕계동 125-1번지","category":"주방용구 - 주방용구"}]},{"lat":"37.807587958","long":"127.05959148","items":[{"name":"한국연합불교조계종양산덕계보현정사","tel":"070-8235-2678","addr":"경기도 양주시 덕계동 45-1","category":"기타 - 비영리/대상"}]},{"lat":"37.825279168","long":"127.04623636","items":[{"name":"한사랑에어컨","tel":"02-3272-8661","addr":"경기도 양주시 덕계동 529번지 삼익하이츠빌라 A동 104호","category":"용역 서비스 - 기타용역서비스"}]},{"lat":"37.825252433","long":"127.04542991","items":[{"name":"한우사랑","tel":"031-867-8562","addr":"경기도 양주시 덕계동 610-3번지 외4필지","category":"일반휴게음식 - 일반한식"}]},{"lat":"37.81770098","long":"127.04951412","items":[{"name":"해송","tel":"031-858-5755","addr":"경기도 양주시 덕계동 408-2번지","category":"일반휴게음식 - 일반한식"}]},{"lat":"37.81978252","long":"127.04859548","items":[{"name":"행복한창호","tel":"031-861-0999","addr":"경기도 양주시 덕계동 457번지","category":"건축자재 - 기타건축자재"}]},{"lat":"37.82191936","long":"127.04425815","items":[{"name":"향채","tel":"031-865-2999","addr":"경기도 양주시 덕계동 655-15번지 1층","category":"일반휴게음식 - 일반한식"}]},{"lat":"37.820610988","long":"127.04961817","items":[{"name":"헤어아뜰리에 (머리작업소)","tel":"031-863-3697","addr":"경기도 양주시 덕계동 451-40번지 1층 일부","category":"보건위생 - 미용원"}]},{"lat":"37.82084212","long":"127.05689852","items":[{"name":"현대하이퍼","tel":"031-865-0173","addr":"경기도 양주시 덕계동 203-6번지 현대아파트","category":"음료식품 - 기타음료식품"}]},{"lat":"37.808173517","long":"127.05970549","items":[{"name":"현진모터스","tel":"031-858-9501","addr":"경기도 양주시 덕계동 49-6번지","category":"자동차정비 유지 - 자동차정비"}]},{"lat":"37.820115675","long":"127.04909542","items":[{"name":"현진헬스","tel":"031-858-7789","addr":"경기도 양주시 덕계동 452-23번지","category":"회원제형태 - 레져업소"}]},{"lat":"37.817061945","long":"127.04787832","items":[{"name":"호남토종순대국","tel":"031-859-0865","addr":"경기도 양주시 덕계동 411-79번지","category":"일반휴게음식 - 일반한식"}]},{"lat":"37.809725641","long":"127.05426722","items":[{"name":"홍헤어","tel":"031-867-9968","addr":"경기도 양주시 덕계동 331","category":"보건위생 - 미용원"}]},{"lat":"37.821585124","long":"127.04671122","items":[{"name":"회천2동 주민자치센터","tel":"031-867-3354","addr":"경기도 양주시 덕계동 467-8번지","category":"문화.취미 - 문화취미기타"}]}]