[{"lat":"36.999301777","long":"127.27106511","items":[{"name":"(사)경기자동차검사정비사업조합 안성지역","tel":"031-672-5635","addr":"경기도 안성시 도기동 218번지","category":"자동차정비 유지 - 자동차부품"},{"name":"농업회사법인 주식회사 신초","tel":"031-000-0000","addr":"경기도 안성시 도기동 218번지","category":"건강식품 - 인삼제품"}]},{"lat":"36.996996588","long":"127.24957788","items":[{"name":"(주)더에이더블유","tel":"031-667-7800","addr":"경기도 안성시 도기동 505-13번지","category":"일반휴게음식 - 일반한식"}]},{"lat":"36.998911346","long":"127.26837878","items":[{"name":"(주)시그너스잡","tel":"031-671-7282","addr":"경기도 안성시 도기동 40","category":"용역 서비스 - 종합용역"},{"name":"J&H(제이앤에치)","tel":"031-671-1125","addr":"경기도 안성시 도기동 40","category":"기타 - 기계공구"},{"name":"남광종합상사(주)","tel":"031-673-7709","addr":"경기도 안성시 도기동 40","category":"기타 - 기계공구"},{"name":"오너종합카센타","tel":"031-673-5154","addr":"경기도 안성시 도기동 40","category":"자동차정비 유지 - 자동차정비"},{"name":"카플러스","tel":"031-677-7714","addr":"경기도 안성시 도기동 40번지","category":"자동차정비 유지 - 카인테리어"},{"name":"한국밧데리","tel":"031-675-7267","addr":"경기도 안성시 도기동 40","category":"자동차정비 유지 - 자동차정비"}]},{"lat":"36.996945246","long":"127.27315756","items":[{"name":"(주)진우","tel":"031-677-6830","addr":"경기도 안성시 도기동 250-1번지","category":"건축자재 - 기타건축자재"},{"name":"대풍상사","tel":"031-672-8220","addr":"경기도 안성시 도기동 250-1번지","category":"음료식품 - 기타음료식품"}]},{"lat":"36.997304966","long":"127.26948535","items":[{"name":"(주)한일전기","tel":"031-674-8807","addr":"경기도 안성시 도기동 92-3번지","category":"전기제품 - 기타전기제품"},{"name":"주식회사한일전기상사","tel":"031-674-8807","addr":"경기도 안성시 도기동 92-3번지","category":"전기제품 - 기타전기제품"}]},{"lat":"37.001664359","long":"127.26624255","items":[{"name":"KIS정보통신","tel":"031-673-9756","addr":"경기도 안성시 도기동 1번지","category":"사무통신 - 통신기기"},{"name":"무지개식품안성대리점","tel":"031-675-3933","addr":"경기도 안성시 도기동 1번지","category":"음료식품 - 기타음료식품"},{"name":"무한상사","tel":"031-674-4057","addr":"경기도 안성시 도기동 1번지","category":"신변잡화 - 기타잡화"},{"name":"정우디자인","tel":"031-676-6668","addr":"경기도 안성시 도기동 1번지","category":"건축자재 - 인테리어전문"},{"name":"하나냉동공조","tel":"031-673-4477","addr":"경기도 안성시 도기동 1번지","category":"전기제품 - 냉열기기"}]},{"lat":"36.996778224","long":"127.27131462","items":[{"name":"가온산업","tel":"031-677-3376","addr":"경기도 안성시 도기동 229-2번지","category":"기타 - 기계공구"},{"name":"대한대리운전","tel":"031-676-1600","addr":"경기도 안성시 도기동 229-2번지","category":"보건위생 - 기타대인서비스"}]},{"lat":"37.003080393","long":"127.26562952","items":[{"name":"가자춘천닭갈비","tel":"031-672-1692","addr":"경기도 안성시 도기동 544-265번지","category":"일반휴게음식 - 일반한식"}]},{"lat":"36.99879837","long":"127.25404365","items":[{"name":"건자재114","tel":"031-111-1111","addr":"경기도 안성시 도기동 495-3번지 1층","category":"건축자재 - 기타건축자재"}]},{"lat":"36.998250701","long":"127.26965716","items":[{"name":"경기냉동부속상사","tel":"031-673-7484","addr":"경기도 안성시 도기동 52-3번지","category":"전기제품 - 냉열기기"},{"name":"성심동물약품","tel":"031-677-9958","addr":"경기도 안성시 도기동 52-3번지","category":"기타의료기관 - 동물병원"},{"name":"수가성","tel":"031-675-4980","addr":"경기도 안성시 도기동 52-3번지 1층 우측호","category":"일반휴게음식 - 일반한식"},{"name":"안성풍력","tel":"031-677-8565","addr":"경기도 안성시 도기동 52-3번지","category":"건축자재 - 보일러·펌프·샷시"},{"name":"유로건설공구(안성점)","tel":"031-676-0663","addr":"경기도 안성시 도기동 52-3번지 1층","category":"기타 - 기계공구"},{"name":"황금코다리","tel":"031-675-4980","addr":"경기도 안성시 도기동 52-3번지","category":"일반휴게음식 - 일반한식"}]},{"lat":"37.000388833","long":"127.25612724","items":[{"name":"경기도청/안성소방서예방과","tel":"031-678-4223","addr":"경기도 안성시 도기동 544-174번지 민원실","category":"용역 서비스 - 사무서비스"}]},{"lat":"36.998774199","long":"127.26926579","items":[{"name":"경북종합유통","tel":"031-673-2374","addr":"경기도 안성시 도기동 42-6번지","category":"음료식품 - 농·축·수산품"},{"name":"광수네","tel":"031-673-3565","addr":"경기도 안성시 도기동 42-6번지","category":"일반휴게음식 - 일반한식"},{"name":"비전산업","tel":"031-677-7189","addr":"경기도 안성시 도기동 42-6번지","category":"용역 서비스 - 기타용역서비스"},{"name":"와이탄","tel":"031-0000-0000","addr":"경기도 안성시 도기동 42-6번지 1층 2호","category":"일반휴게음식 - 중국식"}]},{"lat":"37.000804777","long":"127.26784611","items":[{"name":"경성볼트상사","tel":"031-677-0107","addr":"경기도 안성시 도기동 18번지","category":"기타 - 기계공구"},{"name":"수성ENG","tel":"031-674-5206","addr":"경기도 안성시 도기동 18번지","category":"기타 - 기계공구"}]},{"lat":"37.003192213","long":"127.26395593","items":[{"name":"경훈원목가구","tel":"031-671-5157","addr":"경기도 안성시 도기동 147-1번지 1층","category":"가구 - 일반가구"},{"name":"국민소방안전(주)","tel":"031-671-1773","addr":"경기도 안성시 도기동 147-1","category":"용역 서비스 - 기타용역서비스"},{"name":"명동배달횟집","tel":"031-671-8489","addr":"경기도 안성시 도기동 147-1번지","category":"일반휴게음식 - 일식·회집"},{"name":"아이러브키즈붐","tel":"070-4624-4812","addr":"경기도 안성시 도기동 147-1번지","category":"학원 - 기타 교육기관"},{"name":"안성양꼬치","tel":"031-8052-6288","addr":"경기도 안성시 도기동 147-1번지 C동 2층","category":"일반휴게음식 - 중국식"},{"name":"올네이션 화장품 경기안성점","tel":"031-675-3433","addr":"경기도 안성시 도기동 147-1번지 3층","category":"보건위생 - 화장품"},{"name":"와이엘메디텍","tel":"031-677-6488","addr":"경기도 안성시 도기동 147-1번지","category":"서적문구 - 과학기자재"},{"name":"월남쌈자연향","tel":"031-676-3433","addr":"경기도 안성시 도기동 147-1번지","category":"일반휴게음식 - 일반한식"}]},{"lat":"37.001832255","long":"127.26365918","items":[{"name":"광덕모터스","tel":"031-677-7977","addr":"경기도 안성시 도기동 109-2번지","category":"자동차정비 유지 - 자동차정비"}]},{"lat":"37.001049491","long":"127.26720659","items":[{"name":"국제상사","tel":"031-671-8376","addr":"경기도 안성시 도기동 2번지","category":"의류 - 기타의류"},{"name":"수도전기","tel":"031-676-5494","addr":"경기도 안성시 도기동 2","category":"수리서비스 - 기타수리서비스"},{"name":"하나유통","tel":"031-674-1070","addr":"경기도 안성시 도기동 2번지","category":"신변잡화 - 기타잡화"}]},{"lat":"36.997361512","long":"127.26431795","items":[{"name":"국제종합기계(주)안성대리점","tel":"031-673-2104","addr":"경기도 안성시 도기동 348-2번지","category":"농업 - 농기계"}]},{"lat":"37.000552606","long":"127.26778906","items":[{"name":"그린에어테크","tel":"031-676-3494","addr":"경기도 안성시 도기동 17-2","category":"사무통신 - 컴퓨터"},{"name":"바디케어운동센터","tel":"070-4106-5252","addr":"경기도 안성시 도기동 17-2번지 3층","category":"레저업소 - 헬스클럽"},{"name":"유림환경건재","tel":"031-674-0427","addr":"경기도 안성시 도기동 17-2번지","category":"건축자재 - 기타건축자재"}]},{"lat":"37.001720041","long":"127.2655125","items":[{"name":"꽃뜨레플라워","tel":"031-673-4343","addr":"경기도 안성시 도기동 1-4번지","category":"문화.취미 - 화원"}]},{"lat":"36.99977066","long":"127.26689884","items":[{"name":"남한산성","tel":"031-674-0201","addr":"경기도 안성시 도기동 15번지","category":"유통업 영리 - 슈퍼마켓"},{"name":"자연산남한산성","tel":"031-674-0201","addr":"경기도 안성시 도기동 15번지","category":"음료식품 - 농·축·수산품"}]},{"lat":"37.000551552","long":"127.2682609","items":[{"name":"노걸대 위드유 안성점","tel":"031-677-2651","addr":"경기도 안성시 도기동 18-4번지 1층","category":"일반휴게음식 - 일반한식"},{"name":"진영유공압","tel":"031-674-8331","addr":"경기도 안성시 도기동 18-4번지","category":"기타 - 기계공구"},{"name":"창성엔지니어링","tel":"031-676-7617","addr":"경기도 안성시 도기동 18-4번지","category":"건축자재 - 기타건축자재"}]},{"lat":"36.994583485","long":"127.26959942","items":[{"name":"녹원","tel":"031-674-6202","addr":"경기도 안성시 도기동 205-1번지","category":"일반휴게음식 - 일반한식"}]},{"lat":"37.004107974","long":"127.26546454","items":[{"name":"다사랑 동물약품","tel":"031-674-6030","addr":"경기도 안성시 도기동 139-22번지 1층","category":"기타의료기관 - 동물병원"},{"name":"코카콜라EDP안성","tel":"031-671-7078","addr":"경기도 안성시 도기동 139-22번지","category":"음료식품 - 기타음료식품"}]},{"lat":"37.003882833","long":"127.26540759","items":[{"name":"닻별","tel":"031-675-6725","addr":"경기도 안성시 도기동 140-2번지 1층","category":"일반휴게음식 - 서양음식"},{"name":"라온공방","tel":"","addr":"경기도 안성시 도기동 140-2번지","category":"신변잡화 - 가방"}]},{"lat":"36.998638787","long":"127.26937766","items":[{"name":"대림목공소 인테리어","tel":"031-675-5344","addr":"경기도 안성시 도기동 42-7번지","category":"건축자재 - 인테리어전문"},{"name":"세덴","tel":"031-677-3316","addr":"경기도 안성시 도기동 42-7번지","category":"자동차정비 유지 - 카인테리어"}]},{"lat":"36.999361147","long":"127.26870613","items":[{"name":"대물림안성장터국밥","tel":"031-674-9494","addr":"경기도 안성시 도기동 20-2번지","category":"일반휴게음식 - 일반한식"}]},{"lat":"36.998384065","long":"127.27045524","items":[{"name":"대성공업사","tel":"031-674-0789","addr":"경기도 안성시 도기동 222번지","category":"수리서비스 - 기타수리서비스"},{"name":"우미옥","tel":"031-675-2377","addr":"경기도 안성시 도기동 222번지","category":"일반휴게음식 - 일반한식"}]},{"lat":"36.997611377","long":"127.26946395","items":[{"name":"대신택배 안성도기","tel":"031-675-3548","addr":"경기도 안성시 도기동 73-5번지","category":"용역 서비스 - 보관및 창고업"},{"name":"세진산업안전","tel":"031-671-9004","addr":"경기도 안성시 도기동 73-5번지","category":"기타 - 기계공구"},{"name":"종합공구철물","tel":"031-675-0986","addr":"경기도 안성시 도기동 73-5","category":"건축자재 - 목재·석재·철물"}]},{"lat":"36.999021802","long":"127.25490941","items":[{"name":"대우공업사일급자동차종합정비","tel":"031-673-2289","addr":"경기도 안성시 도기동 486-3번지","category":"자동차정비 유지 - 자동차부품"}]},{"lat":"37.004334182","long":"127.26503839","items":[{"name":"대원보일러","tel":"031-675-1198","addr":"경기도 안성시 도기동 139-13번지","category":"회원제형태 - 기타4"}]},{"lat":"36.99766352","long":"127.27031791","items":[{"name":"대일주방","tel":"031-677-0248","addr":"경기도 안성시 도기동 214-5번지","category":"주방용구 - 주방용구"},{"name":"수성운반기계","tel":"031-662-2676","addr":"경기도 안성시 도기동 214-5번지","category":"기타 - 기계공구"}]},{"lat":"37.000383988","long":"127.27065323","items":[{"name":"대한건재","tel":"031-674-3648","addr":"경기도 안성시 도기동 58-10번지","category":"건축자재 - 기타건축자재"},{"name":"본가장수촌","tel":"031-673-2732","addr":"경기도 안성시 도기동 58-10번지 A동","category":"일반휴게음식 - 일반한식"}]},{"lat":"36.996331541","long":"127.26146105","items":[{"name":"대한농산","tel":"031-111-1111","addr":"경기도 안성시 도기동 430-2번지","category":"음료식품 - 농·축·수산품"}]},{"lat":"36.999798476","long":"127.27057254","items":[{"name":"대한사료안성대리점","tel":"031-672-7788","addr":"경기도 안성시 도기동 69-5번지","category":"농업 - 비료,사료,종자"}]},{"lat":"36.996607167","long":"127.25052027","items":[{"name":"더에이더블유웨딩컨벤션","tel":"031-677-7800","addr":"경기도 안성시 도기동 505-29번지","category":"일반휴게음식 - 일반한식"},{"name":"하정가(  )","tel":"","addr":"경기도 안성시 도기동 505-29번지 1층","category":"일반휴게음식 - 일반한식"}]},{"lat":"37.003136863","long":"127.26453995","items":[{"name":"도기동커피","tel":"","addr":"경기도 안성시 도기동 544-100번지","category":"일반휴게음식 - 서양음식"}]},{"lat":"36.993358421","long":"127.26942664","items":[{"name":"동승건설공구","tel":"031-676-0949","addr":"경기도 안성시 도기동 207-5번지","category":"기타 - 기계공구"}]},{"lat":"36.99782801","long":"127.2692962","items":[{"name":"동진포장비니루상사","tel":"031-675-0655","addr":"경기도 안성시 도기동 73-6번지","category":"유통업 영리 - 기타유통업"}]},{"lat":"37.000437164","long":"127.27104662","items":[{"name":"드림업엔터테인먼트","tel":"031-674-0774","addr":"경기도 안성시 도기동 57-6번지","category":"용역 서비스 - 종합용역"}]},{"lat":"37.004688219","long":"127.26384869","items":[{"name":"로얄발레교습소","tel":"031-672-1445","addr":"경기도 안성시 도기동 544번지 2층","category":"학원 - 예·체능계학원"},{"name":"영호유통","tel":"031-676-6301","addr":"경기도 안성시 도기동 544번지","category":"음료식품 - 정육점"}]},{"lat":"36.997357084","long":"127.27035054","items":[{"name":"롯데리사이클","tel":"031-673-1688","addr":"경기도 안성시 도기동 214-4번지","category":"가구 - 일반가구"}]},{"lat":"37.000884617","long":"127.26840811","items":[{"name":"맛대로한우방","tel":"031-674-9984","addr":"경기도 안성시 도기동 62번지 B동 1층","category":"일반휴게음식 - 일반한식"},{"name":"명성추어탕","tel":"031-671-3305","addr":"경기도 안성시 도기동 62번지","category":"일반휴게음식 - 일반한식"},{"name":"여수갈매기","tel":"031-675-2265","addr":"경기도 안성시 도기동 62번지 A동","category":"일반휴게음식 - 일반한식"},{"name":"조가네","tel":"031-674-0789","addr":"경기도 안성시 도기동 62번지","category":"일반휴게음식 - 일반한식"},{"name":"한국상사","tel":"031-677-1131","addr":"경기도 안성시 도기동 62","category":"자동차정비 유지 - 자동차부품"}]},{"lat":"36.996969554","long":"127.26226081","items":[{"name":"모모치킨","tel":"031-676-3351","addr":"경기도 안성시 도기동 427-4번지","category":"일반휴게음식 - 스넥"}]},{"lat":"37.000612611","long":"127.27314807","items":[{"name":"모타플러스","tel":"031-674-4667","addr":"경기도 안성시 도기동 241번지","category":"수리서비스 - 기타수리서비스"}]},{"lat":"37.003247116","long":"127.26357413","items":[{"name":"몽마르뜨","tel":"031-674-5854","addr":"경기도 안성시 도기동 147-7번지 가동 2층","category":"일반휴게음식 - 일반한식"},{"name":"몽마르뜨","tel":"031-677-4808","addr":"경기도 안성시 도기동 147-7번지","category":"일반휴게음식 - 일반한식"}]},{"lat":"37.004135626","long":"127.26518376","items":[{"name":"무지개어린이집[아이행복]","tel":"031-677-0298","addr":"경기도 안성시 도기동 139번지","category":"학원 - 유아원"}]},{"lat":"36.997187449","long":"127.26965345","items":[{"name":"미래투어(주)","tel":"031-676-7744","addr":"경기도 안성시 도기동 92번지","category":"여행 - 관광여행"},{"name":"산업안전사","tel":"031-671-2777","addr":"경기도 안성시 도기동 92번지","category":"기타 - 기계공구"},{"name":"삼삼종합광고기획","tel":"031-671-3309","addr":"경기도 안성시 도기동 92번지","category":"건축자재 - 인테리어전문"},{"name":"서진공구상사","tel":"031-674-0934","addr":"경기도 안성시 도기동 92번지","category":"기타 - 기계공구"}]},{"lat":"36.998444653","long":"127.25085201","items":[{"name":"미유가","tel":"","addr":"경기도 안성시 도기동 508-12번지 1층","category":"보건위생 - 미용원"}]},{"lat":"37.000854739","long":"127.26967749","items":[{"name":"배드민턴매니아","tel":"031-675-0035","addr":"경기도 안성시 도기동 59-11번지","category":"레져용품 - 스포츠·레져용품"},{"name":"삼성이앤비(E&B)","tel":"031-335-9204","addr":"경기도 안성시 도기동 59-11번지","category":"건축자재 - 보일러·펌프·샷시"},{"name":"아름약국","tel":"031-672-4326","addr":"경기도 안성시 도기동 59-11번지","category":"약국 - 약국"},{"name":"지에이시스템(G A SYSTEM)","tel":"","addr":"경기도 안성시 도기동 59-11번지","category":"용역 서비스 - 종합용역"},{"name":"촌장과시인","tel":"031-674-8225","addr":"경기도 안성시 도기동 59-11번지 2층","category":"일반휴게음식 - 일반한식"}]},{"lat":"37.000577054","long":"127.27293449","items":[{"name":"백남공업사","tel":"031-675-6528","addr":"경기도 안성시 도기동 241-3번지","category":"수리서비스 - 기타수리서비스"}]},{"lat":"36.99808076","long":"127.26909487","items":[{"name":"백두산숯불갈비","tel":"031-675-7779","addr":"경기도 안성시 도기동 73-1번지","category":"일반휴게음식 - 일반한식"},{"name":"백두산정육점","tel":"031-675-7779","addr":"경기도 안성시 도기동 73-1","category":"음료식품 - 정육점"},{"name":"세기고압호스상사","tel":"031-674-7074","addr":"경기도 안성시 도기동 73-1","category":"건축자재 - 건축용 요업제품"}]},{"lat":"36.996998151","long":"127.26968649","items":[{"name":"백성대리운전","tel":"031-675-3003","addr":"경기도 안성시 도기동 92-5번지","category":"보건위생 - 기타대인서비스"},{"name":"삼성재활용쎈타","tel":"031-677-4442","addr":"경기도 안성시 도기동 92-5번지","category":"전기제품 - 가전제품"},{"name":"영림하우징","tel":"031-677-1472","addr":"경기도 안성시 도기동 92-5번지","category":"건축자재 - 건축용 요업제품"}]},{"lat":"37.00063636","long":"127.27062042","items":[{"name":"백운동해매운탕","tel":"031-676-1668","addr":"경기도 안성시 도기동 58-6번지","category":"일반휴게음식 - 일반한식"}]},{"lat":"36.995357085","long":"127.2661534","items":[{"name":"베스트종합상사","tel":"031-677-7712","addr":"경기도 안성시 도기동 333-8번지","category":"신변잡화 - 기타잡화"}]},{"lat":"36.992025203","long":"127.26926472","items":[{"name":"병천토종순대&수육국밥","tel":"031-676-4578","addr":"경기도 안성시 도기동 210번지 지하1층","category":"일반휴게음식 - 일반한식"},{"name":"스파크인터내셔널","tel":"031-671-8233","addr":"경기도 안성시 도기동 210번지","category":"자동차정비 유지 - 자동차부품"},{"name":"태현에너텍","tel":"031-674-6111","addr":"경기도 안성시 도기동 210번지","category":"전기제품 - 냉열기기"}]},{"lat":"37.003722057","long":"127.26476665","items":[{"name":"보나뻬띠","tel":"070-7077-8308","addr":"경기도 안성시 도기동 137-54번지 1층 101호","category":"일반휴게음식 - 서양음식"}]},{"lat":"37.000445438","long":"127.27137245","items":[{"name":"봉남어린이집[아이행복]","tel":"031-674-9697","addr":"경기도 안성시 도기동 55-7번지 봉남어린이집","category":"학원 - 유아원"}]},{"lat":"36.999938705","long":"127.26831494","items":[{"name":"비봉자동차정비공업사","tel":"031-677-5959","addr":"경기도 안성시 도기동 20번지","category":"자동차정비 유지 - 자동차정비"}]},{"lat":"36.99463474","long":"127.26682492","items":[{"name":"비타간판","tel":"031-671-9595","addr":"경기도 안성시 도기동 255-1번지","category":"건축자재 - 인테리어전문"}]},{"lat":"37.000381779","long":"127.27163062","items":[{"name":"산골염생이","tel":"031-675-2134","addr":"경기도 안성시 도기동 55-6번지 1층","category":"일반휴게음식 - 일반한식"}]},{"lat":"37.004687602","long":"127.26412957","items":[{"name":"산약초사랑","tel":"031-677-3309","addr":"경기도 안성시 도기동 544-216번지","category":"건강식품 - 인삼제품"},{"name":"안성피아노학원","tel":"031-675-3664","addr":"경기도 안성시 도기동 544-216번지","category":"학원 - 예·체능계학원"},{"name":"하나로텍","tel":"070-4140-9518","addr":"경기도 안성시 도기동 544-216번지","category":"전기제품 - 기타전기제품"}]},{"lat":"36.99833119","long":"127.26992706","items":[{"name":"상보정밀","tel":"031-676-2764","addr":"경기도 안성시 도기동 52-1번지","category":"기타 - 기계공구"},{"name":"여빈자동차","tel":"031-672-1923","addr":"경기도 안성시 도기동 52-1번지","category":"자동차정비 유지 - 자동차시트·타이어"}]},{"lat":"36.998743475","long":"127.27090587","items":[{"name":"새생활알뜰매장","tel":"031-674-6419","addr":"경기도 안성시 도기동 220-1번지","category":"신변잡화 - 기타잡화"}]},{"lat":"36.997384509","long":"127.26204878","items":[{"name":"세븐일레븐도기행복점","tel":"","addr":"경기도 안성시 도기동 437번지","category":"유통업 영리 - 편 의 점"}]},{"lat":"37.001192408","long":"127.26776881","items":[{"name":"세븐일레븐안성광명점","tel":"031-1577-0711","addr":"경기도 안성시 도기동 100-13번지 1층","category":"유통업 영리 - 편 의 점"}]},{"lat":"36.999555392","long":"127.27048182","items":[{"name":"쇠전골","tel":"031-676-7872","addr":"경기도 안성시 도기동 216번지","category":"일반휴게음식 - 일반한식"}]},{"lat":"37.000416066","long":"127.26840648","items":[{"name":"신안농기계","tel":"031-673-2020","addr":"경기도 안성시 도기동 18-2번지","category":"농업 - 농기계"}]},{"lat":"37.004188398","long":"127.26576816","items":[{"name":"씨유안성인지로2호점","tel":"031-691-8040","addr":"경기도 안성시 도기동 139-4번지","category":"유통업 영리 - 편 의 점"}]},{"lat":"37.003911031","long":"127.26487965","items":[{"name":"안성 중앙로타리클럽","tel":"031-675-5636","addr":"경기도 안성시 도기동 140-14번지 3층","category":"기타 - 비영리/비대상"},{"name":"영우","tel":"031-674-5402","addr":"경기도 안성시 도기동 140-14번지 1층","category":"보건위생 - 의료용품"}]},{"lat":"37.000160783","long":"127.24888034","items":[{"name":"안성경철서복지회","tel":"031-671-8044","addr":"경기도 안성시 도기동 544-8번지","category":"유통업 영리 - 슈퍼마켓"}]},{"lat":"36.999883561","long":"127.26879782","items":[{"name":"안성대우쎈타","tel":"031-672-0880","addr":"경기도 안성시 도기동 19","category":"자동차정비 유지 - 자동차정비"}]},{"lat":"36.99777171","long":"127.27426141","items":[{"name":"안성맞춤가구백화점","tel":"031-677-8510","addr":"경기도 안성시 도기동 337-6번지","category":"가구 - 일반가구"}]},{"lat":"36.996969577","long":"127.27037165","items":[{"name":"안성맞춤광고","tel":"031-676-0010","addr":"경기도 안성시 도기동 213-1번지","category":"의류 - 단체복"},{"name":"용선모터풀","tel":"031-677-5604","addr":"경기도 안성시 도기동 213-1번지","category":"자동차정비 유지 - 자동차정비"}]},{"lat":"37.003660888","long":"127.26390136","items":[{"name":"안성수족관","tel":"","addr":"경기도 안성시 도기동 145-5번지 1층 일부","category":"문화.취미 - 수족관"}]},{"lat":"37.001021557","long":"127.27162163","items":[{"name":"안성시/여성회관","tel":"031-678-2274","addr":"경기도 안성시 도기동 55-1번지","category":"학원 - 기타 교육기관"}]},{"lat":"37.000106278","long":"127.26993327","items":[{"name":"안성시보건소/보건행정팀","tel":"031-678-5717","addr":"경기도 안성시 도기동 67-21번지","category":"기타의료기관 - 기타의료기관 및 기타"}]},{"lat":"37.001472789","long":"127.26729793","items":[{"name":"안성윤활유상사","tel":"031-676-5149","addr":"경기도 안성시 도기동 100-7번지","category":"연료판매점 - 유류판매"},{"name":"우신가축약품","tel":"031-676-1996","addr":"경기도 안성시 도기동 100-7번지","category":"농업 - 비료,사료,종자"}]},{"lat":"37.00349803","long":"127.26420414","items":[{"name":"안성족발","tel":"031-674-5533","addr":"경기도 안성시 도기동 145번지","category":"일반휴게음식 - 일반한식"}]},{"lat":"37.004576773","long":"127.2653538","items":[{"name":"안성종합사무기","tel":"031-677-6285","addr":"경기도 안성시 도기동 544-154번지","category":"사무통신 - 사무용 OA기기"}]},{"lat":"37.003497287","long":"127.26454118","items":[{"name":"안성중앙로타리클럽","tel":"031-675-2570","addr":"경기도 안성시 도기동 137","category":"기타 - 비영리/비대상"}]},{"lat":"37.00402536","long":"127.26614958","items":[{"name":"안흥진빵만두","tel":"031-672-7733","addr":"경기도 안성시 도기동 544-40번지","category":"음료식품 - 기타음료식품"}]},{"lat":"36.998333687","long":"127.2688149","items":[{"name":"알디라카페","tel":"031-674-0789","addr":"경기도 안성시 도기동 40-5번지 1층","category":"일반휴게음식 - 서양음식"}]},{"lat":"36.996632979","long":"127.25110451","items":[{"name":"알미산식당","tel":"","addr":"경기도 안성시 도기동 502-3번지 1층","category":"일반휴게음식 - 일반한식"}]},{"lat":"37.004749042","long":"127.26487129","items":[{"name":"알부자집","tel":"031-674-3566","addr":"경기도 안성시 도기동 544-72번지","category":"일반휴게음식 - 일반한식"}]},{"lat":"36.997889721","long":"127.26990305","items":[{"name":"에이스판넬주식회사","tel":"031-671-0034","addr":"경기도 안성시 도기동 73번지","category":"건축자재 - 기타건축자재"}]},{"lat":"36.99671857","long":"127.26979785","items":[{"name":"오!꼬마김밥","tel":"031-671-2555","addr":"경기도 안성시 도기동 92-4번지","category":"일반휴게음식 - 일반한식"},{"name":"전주콩나물해장국","tel":"031-674-0642","addr":"경기도 안성시 도기동 92-4번지","category":"일반휴게음식 - 일반한식"},{"name":"차차","tel":"031-677-3367","addr":"경기도 안성시 도기동 92-4번지","category":"자동차정비 유지 - 자동차부품"}]},{"lat":"36.998078166","long":"127.24943534","items":[{"name":"오르세카페","tel":"031-677-0785","addr":"경기도 안성시 도기동 505-7번지 1층","category":"일반휴게음식 - 서양음식"}]},{"lat":"37.003414406","long":"127.2653498","items":[{"name":"오리일번지","tel":"031-677-5282","addr":"경기도 안성시 도기동 137-37번지","category":"일반휴게음식 - 일반한식"},{"name":"정가네숯불소갈비살","tel":"031-671-2223","addr":"경기도 안성시 도기동 137-37번지 1층","category":"일반휴게음식 - 일반한식"},{"name":"희영식당","tel":"031-673-6633","addr":"경기도 안성시 도기동 137-37번지","category":"일반휴게음식 - 일반한식"}]},{"lat":"36.991495012","long":"127.26862259","items":[{"name":"우리막창","tel":"031-677-9191","addr":"경기도 안성시 도기동 278-3번지 가동 1층","category":"일반휴게음식 - 일반한식"},{"name":"육대장","tel":"031-671-6670","addr":"경기도 안성시 도기동 278-3번지 나동 1층","category":"일반휴게음식 - 일반한식"}]},{"lat":"37.004270736","long":"127.26520669","items":[{"name":"우미관","tel":"031-676-8803","addr":"경기도 안성시 도기동 139-14번지","category":"일반휴게음식 - 중국식"}]},{"lat":"36.998444019","long":"127.25115533","items":[{"name":"워시스퀘어","tel":"031-1111-1111","addr":"경기도 안성시 도기동 508-4번지","category":"자동차정비 유지 - 세차장"}]},{"lat":"37.001331743","long":"127.26179255","items":[{"name":"으뜸산업주식회사","tel":"031-602-7713","addr":"경기도 안성시 도기동 114-1번지","category":"건축자재 - 기타건축자재"}]},{"lat":"37.000748729","long":"127.26873343","items":[{"name":"이모네닭칼국수사골손만두국","tel":"031-676-1337","addr":"경기도 안성시 도기동 62-1번지 B동 1층","category":"일반휴게음식 - 일반한식"}]},{"lat":"36.994826645","long":"127.26965643","items":[{"name":"임희수맛집","tel":"031-642-8113","addr":"경기도 안성시 도기동 206-2번지","category":"일반휴게음식 - 일반한식"}]},{"lat":"36.997079431","long":"127.24873561","items":[{"name":"제이스터1급중기자동차공업사","tel":"031-675-0025","addr":"경기도 안성시 도기동 505-36번지","category":"자동차정비 유지 - 자동차정비"},{"name":"제이스터1급중기자동차공업사","tel":"031-675-0025","addr":"경기도 안성시 도기동 505-36번지","category":"자동차정비 유지 - 자동차정비"}]},{"lat":"37.00066583","long":"127.27351899","items":[{"name":"중앙종합상사","tel":"031-673-8008","addr":"경기도 안성시 도기동 241-5번지","category":"연료판매점 - 유류판매"}]},{"lat":"37.003440767","long":"127.26565323","items":[{"name":"처갓집양념치킨 안성점","tel":"031-671-9282","addr":"경기도 안성시 도기동 137-42번지","category":"일반휴게음식 - 스넥"},{"name":"처갓집양념치킨안성점","tel":"031-671-9282","addr":"경기도 안성시 도기동 137-42번지","category":"일반휴게음식 - 스넥"}]},{"lat":"37.001608398","long":"127.26709618","items":[{"name":"케이모터스","tel":"031-674-0696","addr":"경기도 안성시 도기동 100-8번지","category":"자동차정비 유지 - 자동차정비"}]},{"lat":"36.998577401","long":"127.26862477","items":[{"name":"큰대문집","tel":"031-674-4676","addr":"경기도 안성시 도기동 40-3번지 1층","category":"일반휴게음식 - 일반한식"}]},{"lat":"37.000056019","long":"127.26823671","items":[{"name":"타이어마을경정비","tel":"031-677-7767","addr":"경기도 안성시 도기동 20-3번지","category":"자동차정비 유지 - 자동차시트·타이어"}]},{"lat":"37.000245744","long":"127.26801268","items":[{"name":"타이어패밀리","tel":"031-674-7768","addr":"경기도 안성시 도기동 17-3번지","category":"자동차정비 유지 - 자동차시트·타이어"}]},{"lat":"37.004243133","long":"127.265465","items":[{"name":"팔팔해물아귀","tel":"031-675-5674","addr":"경기도 안성시 도기동 139-8번지 1층","category":"일반휴게음식 - 일반한식"}]},{"lat":"37.000972937","long":"127.26920606","items":[{"name":"풍림상사","tel":"031-673-8415","addr":"경기도 안성시 도기동 61-17번지","category":"기타 - 기계공구"}]},{"lat":"37.002806308","long":"127.26732502","items":[{"name":"한일약국","tel":"054-872-1213","addr":"경기도 안성시 도기동 544-120번지","category":"약국 - 약국"}]},{"lat":"36.996690248","long":"127.27037067","items":[{"name":"한진주유소","tel":"031-677-2525","addr":"경기도 안성시 도기동 213번지","category":"연료판매점 - 쌍용S-OIL"}]},{"lat":"36.998999968","long":"127.2690419","items":[{"name":"해성천막기업","tel":"031-676-9530","addr":"경기도 안성시 도기동 42번지","category":"직물 - 카페트,커튼,천막,지물"}]},{"lat":"36.998469022","long":"127.26873673","items":[{"name":"현대배관","tel":"031-673-0866","addr":"경기도 안성시 도기동 40-4번지","category":"건축자재 - 기타건축자재"},{"name":"현대배관","tel":"031-673-0866","addr":"경기도 안성시 도기동 40-4번지","category":"건축자재 - 건축용 요업제품"}]},{"lat":"37.004415823","long":"127.2647915","items":[{"name":"현대장갑","tel":"031-675-8527","addr":"경기도 안성시 도기동 139-21번지","category":"의류 - 기타의류"}]},{"lat":"37.001805913","long":"127.26334452","items":[{"name":"호산나화원","tel":"031-675-2515","addr":"경기도 안성시 도기동 109-6번지","category":"문화.취미 - 화원"}]},{"lat":"37.003772016","long":"127.26662057","items":[{"name":"화랑대리운전","tel":"031-672-7677","addr":"경기도 안성시 도기동 544-44번지 화랑대리","category":"보건위생 - 기타대인서비스"}]}]