[{"lat":"37.446071021","long":"126.79829458","items":[{"name":"(주)더난이엔지","tel":"031-316-5565","addr":"경기도 시흥시 대야동 581-6번지","category":"소매업 - 가설휀스"}]},{"lat":"37.444376223","long":"126.78763162","items":[{"name":"119 공인중개사사무소 이희교","tel":"031-313-5989","addr":"경기도 시흥시 대야동 488-28번지","category":"개인서비스업 - 부동산중개업"},{"name":"59쌀피자 시흥대야점","tel":"031-313-7959","addr":"경기도 시흥시 대야동 488-28번지","category":"음식점업 - 피자"},{"name":"머리하는날","tel":"031-311-1235","addr":"경기도 시흥시 대야동 488-28번지","category":"개인서비스업 - 미용업"}]},{"lat":"37.445659711","long":"126.78987676","items":[{"name":"21세기 세탁소","tel":"031-314-0969","addr":"경기도 시흥시 대야동 468-1번지 1층","category":"개인서비스업 - 세탁소"}]},{"lat":"37.444600574","long":"126.79724764","items":[{"name":"24시카페스터디빌리지","tel":"","addr":"경기도 시흥시 대야동 573-2번지 모비딕빌딩 9층 901호","category":"개인서비스업 - 공간임대"},{"name":"시카고모아치과","tel":"031-313-2275","addr":"경기도 시흥시 대야동 573-2번지 모비딕빌딩 7층","category":"보건업 - 치아치료"},{"name":"쎈수학러닝센터 삼성영어 은행학원","tel":"031-312-2226","addr":"경기도 시흥시 대야동 573-2번지 모비딕빌딩 5층 501호","category":"교육서비스업 - 학원"},{"name":"참누리동물병원","tel":"031-312-0075","addr":"경기도 시흥시 대야동 573-2번지","category":"보건업 - 동물병원"}]},{"lat":"37.44552131","long":"126.78808036","items":[{"name":"J&H뷰티샵","tel":"","addr":"경기도 시흥시 대야동 473-14번지","category":"개인서비스업 - 네일"}]},{"lat":"37.44190459","long":"126.7910174","items":[{"name":"LA북창동순두부 시흥점","tel":"031-435-4359","addr":"경기도 시흥시 대야동 541-19번지","category":"음식점업 - 한식"},{"name":"에비뉴37","tel":"031-315-3770","addr":"경기도 시흥시 대야동 541-19번지 청경프라자 202호","category":"음식점업 - 아시아음식"},{"name":"원할머니보쌈족발 시흥대야점","tel":"031-318-5353","addr":"경기도 시흥시 대야동 541-19번지 청경프라자 202호","category":"음식점업 - 보쌈"},{"name":"한촌설렁탕(대야)","tel":"031-315-8852","addr":"경기도 시흥시 대야동 541-19번지 청경프라자 1층 101호","category":"음식점업 - 설렁탕"}]},{"lat":"37.442076932","long":"126.79166102","items":[{"name":"NOMSHAIR 놈스헤어","tel":"031-314-2020","addr":"경기도 시흥시 대야동 541-3번지 월드타운 120호","category":"개인서비스업 - 미용실"},{"name":"아마존놀이동산","tel":"031-404-5337","addr":"경기도 시흥시 대야동 541-3번지 월드타운 4층","category":"개인서비스업 - 놀이동산"},{"name":"쭈이야기","tel":"031-311-7745","addr":"경기도 시흥시 대야동 541-3번지 월드타운 203호","category":"음식점업 - 음식"},{"name":"프라넬 커피","tel":"031-316-2788","addr":"경기도 시흥시 대야동 541-3번지 104호,201호,202호","category":"음식점업 - 커피"}]},{"lat":"37.445007146","long":"126.78775411","items":[{"name":"PC메이트","tel":"031-317-8923","addr":"경기도 시흥시 대야동 475-22번지 청솔쉐르빌 B동 1호","category":"소매업 - 컴퓨터, 부품"}]},{"lat":"37.441848784","long":"126.79004576","items":[{"name":"SK당구클럽","tel":"031-311-5399","addr":"경기도 시흥시 대야동 540-3번지 SK프라자 4층","category":"스포츠및여가관련서비스업 - 당구장"},{"name":"또와유 모듬숯불생선구이","tel":"","addr":"경기도 시흥시 대야동 540-3번지","category":"음식점업 - 한식"}]},{"lat":"37.444294124","long":"126.78707813","items":[{"name":"e-플러스마트","tel":"031-314-6023~5","addr":"경기도 시흥시 대야동 486-3번지 1층","category":"소매업 - 슈퍼마켓"},{"name":"경동상회","tel":"031-313-9845","addr":"경기도 시흥시 대야동 486-3번지 1층 101호","category":"음식점업 - 한약재"},{"name":"일광당","tel":"031-315-1284","addr":"경기도 시흥시 대야동 486-3번지","category":"소매업 - 귀금속"},{"name":"하이원 볼링센터","tel":"031-314-2311","addr":"경기도 시흥시 대야동 486-3번지","category":"스포츠및여가관련서비스업 - 볼링장"}]},{"lat":"37.445882056","long":"126.78827144","items":[{"name":"㈜선한이웃사람들","tel":"031-312-9373","addr":"경기도 시흥시 대야동 473-3번지 2층","category":"소매업 - 비즈,액세서리,패션"}]},{"lat":"37.446182796","long":"126.79015779","items":[{"name":"㈜중앙산후케어하우스 산후조리원","tel":"031-313-3337","addr":"경기도 시흥시 대야동 455-19번지 3-4층","category":"보건업 - 산후조리원"}]},{"lat":"37.44915564","long":"126.78496216","items":[{"name":"㈜칸티에","tel":"031-311-4600","addr":"경기도 시흥시 대야동 332-1번지 ABC행복학습타운 지혜관2층","category":"음식점업 - 커피가공, 차류가공"},{"name":"꼼꼼스타일","tel":"","addr":"경기도 시흥시 대야동 332-1번지 청년협업마을 가치관 302호","category":"개인서비스업 - 셀프인테리어,소품만들"},{"name":"주식회사 툴스미스","tel":"","addr":"경기도 시흥시 대야동 332-1번지 시흥에이비씨행복학습타운 경기청년협업마을 열림관 303호","category":"제조업 - 3D프린터 등"}]},{"lat":"37.446403626","long":"126.79785295","items":[{"name":"㈜쿱스토어경기대야점(자연드림대야점)","tel":"031-313-7419","addr":"경기도 시흥시 대야동 582-6번지","category":"소매업 - 슈퍼마켓"},{"name":"시흥은계 이아이이 어학원","tel":"031-312-0577","addr":"경기도 시흥시 대야동 582-6번지 3층","category":"교육서비스업 - 교육서비스업"}]},{"lat":"37.442543262","long":"126.7904393","items":[{"name":"가장맛있는 족발 시흥대야점","tel":"031-313-5849","addr":"경기도 시흥시 대야동 537번지 은행프라자 1층 101호","category":"음식점업 - 한식"},{"name":"구들짱삼겹살","tel":"031-404-3531","addr":"경기도 시흥시 대야동 537번지 은행프라자 203호","category":"음식점업 - 일반음식"},{"name":"백년불고기물갈비","tel":"031-435-8431","addr":"경기도 시흥시 대야동 537번지 은행프라자 1층 109호","category":"음식점업 - 한식"},{"name":"사조참치","tel":"031-315-5625","addr":"경기도 시흥시 대야동 537번지 은행프라자 105~7호","category":"음식점업 - 한식"},{"name":"제주흑돼지전문점","tel":"031-404-7467","addr":"경기도 시흥시 대야동 537번지 은행프라자 108호","category":"음식점업 - 한식"}]},{"lat":"37.445240222","long":"126.79721199","items":[{"name":"갈비세상","tel":"031-314-9599","addr":"경기도 시흥시 대야동 575-1번지","category":"음식점업 - 한식"},{"name":"해오름학원","tel":"031-312-9353","addr":"경기도 시흥시 대야동 575-1번지 4층","category":"교육서비스업 - 학원"}]},{"lat":"37.463127719","long":"126.79360249","items":[{"name":"강원옻닭","tel":"031-312-9119","addr":"경기도 시흥시 대야동 36-6번지 외 1필지","category":"음식점업 - 일반음식점"}]},{"lat":"37.444015866","long":"126.7926613","items":[{"name":"강철체육관","tel":"031-404-7943","addr":"경기도 시흥시 대야동 562-3번지 서강프라자 204호","category":"교육서비스업 - 태권도"},{"name":"바르첼음악학원","tel":"031-313-8684","addr":"경기도 시흥시 대야동 562-3번지 서강프라자 305호","category":"교육서비스업 - 교육서비스"},{"name":"바푸리시흥대야점","tel":"031-315-7750","addr":"경기도 시흥시 대야동 562-3번지 서강프라자 103호","category":"음식점업 - 분식"},{"name":"블럭업","tel":"031-311-7944","addr":"경기도 시흥시 대야동 562-3번지 서강프라자 203호","category":"개인서비스업 - 교구대여"},{"name":"서해학원","tel":"031-315-0515","addr":"경기도 시흥시 대야동 562-3번지 서강프라자 206호","category":"교육서비스업 - 보습학원"},{"name":"아이스께끼","tel":"031-404-0617","addr":"경기도 시흥시 대야동 562-3번지 서강프라자 1층 102호","category":"소매업 - 아이스크림"},{"name":"크린토피아코인워시시흥대야점","tel":"031-315-3838","addr":"경기도 시흥시 대야동 562-3번지","category":"개인서비스업 - 세탁편의점"}]},{"lat":"37.445490628","long":"126.78608024","items":[{"name":"갯마을","tel":"031-312-1503","addr":"경기도 시흥시 대야동 476-15번지 1층","category":"음식점업 - 일반음식점"},{"name":"컵오브커피 대야동점(Cup Of Coffee)","tel":"031-404-0801","addr":"경기도 시흥시 대야동 476-15번지 1층","category":"음식점업 - 커피, 카페"}]},{"lat":"37.448040652","long":"126.79115832","items":[{"name":"건강사우나","tel":"031-317-8471","addr":"경기도 시흥시 대야동 442-7번지","category":"개인서비스업 - 목욕탕"}]},{"lat":"37.444322847","long":"126.79302206","items":[{"name":"경기두레생협 대야점","tel":"031-316-0072","addr":"경기도 시흥시 대야동 562-1번지 하나골드타워 105호","category":"소매업 - 슈퍼마켓"},{"name":"마티나타피아노교습소","tel":"031-404-1172","addr":"경기도 시흥시 대야동 562-1번지 하나골드타워 2층 208호","category":"교육서비스업 - 피아노교습소"},{"name":"에이블헤어","tel":"031-311-1371","addr":"경기도 시흥시 대야동 562-1번지 하나골드타워 103호","category":"개인서비스업 - 미용실"},{"name":"윤선생우리집앞시흥대야영어교습소","tel":"","addr":"경기도 시흥시 대야동 562-1번지 하나 골드타워 201~2호","category":"교육서비스업 - 영어"},{"name":"펜탑독서실","tel":"031-315-9400","addr":"경기도 시흥시 대야동 562-1번지 하나골드타워 4층","category":"개인서비스업 - 독서실"},{"name":"폼폰","tel":"","addr":"경기도 시흥시 대야동 562-1번지 하나골드타워 104호","category":"소매업 - 의류"},{"name":"하나바둑학원","tel":"031-312-7050","addr":"경기도 시흥시 대야동 562-1번지 하나골드타워 503호","category":"교육서비스업 - 바둑"},{"name":"하나정육점","tel":"031-318-1666","addr":"경기도 시흥시 대야동 562-1번지","category":"소매업 - 식육"}]},{"lat":"37.451935096","long":"126.78735002","items":[{"name":"경인자동차정비","tel":"","addr":"경기도 시흥시 대야동 305-11번지","category":"개인서비스업 - 자동차정비"}]},{"lat":"37.446601904","long":"126.79788631","items":[{"name":"경희대석사체육관","tel":"031-404-0203","addr":"경기도 시흥시 대야동 582-2번지 2층","category":"교육서비스업 - 태권도"}]},{"lat":"37.445375961","long":"126.79755064","items":[{"name":"고기장사배큰축산","tel":"","addr":"경기도 시흥시 대야동 576번지 12~13호","category":"소매업 - 정육점"},{"name":"명랑시대핫도그 은행점","tel":"031-315-5558","addr":"경기도 시흥시 대야동 576번지 이수빌딩 111호","category":"음식점업 - 분식"},{"name":"윙글치킨 경인직영점","tel":"031-312-9966","addr":"경기도 시흥시 대야동 576번지 이수주차장 109호","category":"음식점업 - 치킨/호프"},{"name":"정가네식당","tel":"031-404-5622","addr":"경기도 시흥시 대야동 576번지","category":"음식점업 - 한식"},{"name":"제주본가","tel":"","addr":"경기도 시흥시 대야동 576번지","category":"음식점업 - 한식"},{"name":"청년다방","tel":"031-316-1988","addr":"경기도 시흥시 대야동 576번지","category":"음식점업 - 분식"}]},{"lat":"37.442211025","long":"126.78610101","items":[{"name":"고래 노래연습장","tel":"","addr":"경기도 시흥시 대야동 498-12번지 동진빌딩 지층","category":"개인서비스업 - 노래연습장"},{"name":"전통식남원추어탕","tel":"031-315-4333","addr":"경기도 시흥시 대야동 498-12번지 11-2호","category":"음식점업 - 한식"}]},{"lat":"37.443877243","long":"126.79071803","items":[{"name":"고봉민김밥대야점","tel":"031-314-1325","addr":"경기도 시흥시 대야동 532-1번지 101호","category":"음식점업 - 김밥"},{"name":"새우리약국","tel":"070-4239-9005","addr":"경기도 시흥시 대야동 532-1번지 디지털프라자 103호","category":"보건업 - 양약"},{"name":"오와스시","tel":"031-312-8899","addr":"경기도 시흥시 대야동 532-1번지 2층","category":"음식점업 - 스시"}]},{"lat":"37.445463991","long":"126.78629503","items":[{"name":"고은이부자리","tel":"","addr":"경기도 시흥시 대야동 476-13번지 101호","category":"소매업 - 고급카페트"},{"name":"로얄 헤어아트","tel":"","addr":"경기도 시흥시 대야동 476-13번지","category":"개인서비스업 - 미용실"},{"name":"성민네식당","tel":"031-404-0462","addr":"경기도 시흥시 대야동 476-13번지","category":"음식점업 - 한식"}]},{"lat":"37.439988394","long":"126.79266127","items":[{"name":"곤봉식객","tel":"031-317-3634","addr":"경기도 시흥시 대야동 556-4번지 1층","category":"음식점업 - 한식"}]},{"lat":"37.448517876","long":"126.79098746","items":[{"name":"공주자동차정비공업사","tel":"031-312-6655","addr":"경기도 시흥시 대야동 441-13번지","category":"개인서비스업 - 자동차정비"}]},{"lat":"37.456070121","long":"126.7870443","items":[{"name":"구례골남원추어탕","tel":"031-315-3855","addr":"경기도 시흥시 대야동 94번지","category":"음식점업 - 한식"}]},{"lat":"37.443097031","long":"126.79276558","items":[{"name":"국사랑","tel":"031-312-9453","addr":"경기도 시흥시 대야동 543-1번지","category":"소매업 - 국,반찬"},{"name":"김창규치과","tel":"031-316-2878","addr":"경기도 시흥시 대야동 543-1번지 디아망타운 503호","category":"보건업 - 치과"},{"name":"대야프리미엄합격독서실","tel":"031-311-0781","addr":"경기도 시흥시 대야동 543-1번지 디아망타운 504-5호","category":"개인서비스업 - 독서실"},{"name":"미소가인피부과의원","tel":"031-315-5501","addr":"경기도 시흥시 대야동 543-1번지 성원디아망타운 304,305호","category":"보건업 - 피부과"},{"name":"별사탕스튜디오","tel":"031-313-2581","addr":"경기도 시흥시 대야동 543-1번지 디아망타운 401호","category":"개인서비스업 - 사진촬영"},{"name":"보석사랑","tel":"031-316-3330","addr":"경기도 시흥시 대야동 543-1번지 디아망타운 1층 104호","category":"소매업 - 귀금속"},{"name":"뷰티데이","tel":"031-315-9894","addr":"경기도 시흥시 대야동 543-1번지 디아망타운 상가동 1층 114호","category":"개인서비스업 - 피부미용업,네일아트,"},{"name":"시흥자인한방병원","tel":"031-404-1075","addr":"경기도 시흥시 대야동 543-1번지 , 5,6층","category":"보건업 - 한방병원"},{"name":"아델라플레르","tel":"070-8872-1315","addr":"경기도 시흥시 대야동 543-1번지 디아망타운 105호","category":"소매업 - 생화"},{"name":"오늘머리할까","tel":"031-313-8188","addr":"경기도 시흥시 대야동 543-1번지 디아망타운 115호","category":"개인서비스업 - 미용업"},{"name":"한가람문고,문구","tel":"031-404-0161","addr":"경기도 시흥시 대야동 543-1번지","category":"소매업 - 문구,서적,팬시,컴퓨터용품"},{"name":"해맑은 에스테틱","tel":"","addr":"경기도 시흥시 대야동 543-1번지 5층 502-2호","category":"개인서비스업 - 피부미용"},{"name":"황금전","tel":"","addr":"경기도 시흥시 대야동 543-1번지 디아망타운 1층 117호","category":"음식점업 - 약선전,약선차,한식"}]},{"lat":"37.443772206","long":"126.78744124","items":[{"name":"그래여기가좋겠네","tel":"031-435-3337","addr":"경기도 시흥시 대야동 492-1번지","category":"음식점업 - 한식"}]},{"lat":"37.446438554","long":"126.78710587","items":[{"name":"그린건강원","tel":"031-312-2211","addr":"경기도 시흥시 대야동 465-7번지","category":"소매업 - 건강식품,담배"}]},{"lat":"37.443242571","long":"126.78851628","items":[{"name":"그린디자인","tel":"","addr":"경기도 시흥시 대야동 491-56번지","category":"제조업 - 인쇄, 광고물"}]},{"lat":"37.445738553","long":"126.78863347","items":[{"name":"그린할인마트","tel":"031-314-0270","addr":"경기도 시흥시 대야동 472번지 중앙빌딩 1층","category":"소매업 - 슈퍼마켓"},{"name":"지엘에이치 (GLH) 태권도장 본관","tel":"031-318-1661","addr":"경기도 시흥시 대야동 472번지 중앙빌딩 2층","category":"교육서비스업 - 체육시설"}]},{"lat":"37.450212616","long":"126.79146863","items":[{"name":"금산목재","tel":"","addr":"경기도 시흥시 대야동 295-7번지","category":"제조업 - 목재,합판"}]},{"lat":"37.445131906","long":"126.79709928","items":[{"name":"기성자동차공업사","tel":"031-312-7373","addr":"경기도 시흥시 대야동 575-3번지","category":"개인서비스업 - 자동차정비"}]},{"lat":"37.445350367","long":"126.78821645","items":[{"name":"기택종합설비","tel":"031-312-1866","addr":"경기도 시흥시 대야동 471-31번지","category":"소매업 - 철물"}]},{"lat":"37.44506919","long":"126.79730286","items":[{"name":"김밥나라","tel":"031-312-5891","addr":"경기도 시흥시 대야동 575-2번지 밀레니엄빌딩 102호","category":"음식점업 - 분식"},{"name":"로제타스톤영어학원","tel":"031-435-3646","addr":"경기도 시흥시 대야동 575-2번지","category":"교육서비스업 - 영어 교습소"},{"name":"샹차이","tel":"031-313-9993","addr":"경기도 시흥시 대야동 575-2번지 밀레니엄빌딩 202호","category":"음식점업 - 중식"},{"name":"소시지야","tel":"031-315-0307","addr":"경기도 시흥시 대야동 575-2번지","category":"음식점업 - 일반음식점"},{"name":"어여쁜뜰안","tel":"031-311-4388","addr":"경기도 시흥시 대야동 575-2번지 밀레니엄빌딩 201호","category":"음식점업 - 한식"},{"name":"탑수학전문학원","tel":"031-313-3128","addr":"경기도 시흥시 대야동 575-2번지 밀레니엄빌딩 301호","category":"교육서비스업 - 수학학원"}]},{"lat":"37.447319411","long":"126.79091173","items":[{"name":"김밥하우스","tel":"031-311-5495","addr":"경기도 시흥시 대야동 454-8번지 행복하우스","category":"음식점업 - 휴게음식업"}]},{"lat":"37.442209589","long":"126.79027074","items":[{"name":"김사장 꼬꼬치킨","tel":"","addr":"경기도 시흥시 대야동 540-1번지","category":"음식점업 - 기타음식점"},{"name":"낭만전집","tel":"031-311-2881","addr":"경기도 시흥시 대야동 540-1번지","category":"음식점업 - 음식점"},{"name":"뚱순네이선장해물","tel":"031-312-2517","addr":"경기도 시흥시 대야동 540-1번지 더베스트프라자 110호","category":"음식점업 - 한식"},{"name":"베스트볼링센터","tel":"031-316-8585","addr":"경기도 시흥시 대야동 540-1번지 더베스트프라자 5층 6호","category":"스포츠및여가관련서비스업 - 서비스"},{"name":"오사카부루스(시흥대야점)","tel":"","addr":"경기도 시흥시 대야동 540-1번지 203~4호","category":"음식점업 - 주점"},{"name":"우리동네특수부","tel":"","addr":"경기도 시흥시 대야동 540-1번지 더베스트프라자 111호","category":"음식점업 - 한식"},{"name":"형네식당의정부부대찌대","tel":"031-318-7722","addr":"경기도 시흥시 대야동 540-1번지 205-6호","category":"음식점업 - 한식"}]},{"lat":"37.446547452","long":"126.79766044","items":[{"name":"김찬수안경원","tel":"031-312-8168","addr":"경기도 시흥시 대야동 582-7번지 은계빌딩 1층","category":"소매업 - 안경"},{"name":"도손도손","tel":"031-313-7142","addr":"경기도 시흥시 대야동 582-7번지","category":"소매업 - 공예품,도자기"},{"name":"드림영재로봇교육학원","tel":"031-432-1237","addr":"경기도 시흥시 대야동 582-7번지 2층","category":"교육서비스업 - 로봇교육학원"}]},{"lat":"37.442547387","long":"126.78773856","items":[{"name":"까망머리 미용실","tel":"","addr":"경기도 시흥시 대야동 491-66번지","category":"개인서비스업 - 미용"},{"name":"토박이 공인중개사 사무소 ","tel":"031-311-8881","addr":"경기도 시흥시 대야동 491-66번지","category":"개인서비스업 - 부동산 자문 및 중개"}]},{"lat":"37.44246565","long":"126.79238314","items":[{"name":"꽃나라","tel":"031-312-6562","addr":"경기도 시흥시 대야동 544-1번지 트윈프라자 A동 104호","category":"소매업 - 꽃집"},{"name":"디저트39시흥대야점","tel":"031-313-3131","addr":"경기도 시흥시 대야동 544-1번지 트윈프라자 1층 101호","category":"음식점업 - 휴게음식"},{"name":"라온제나(시흥점)","tel":"031-312-1322","addr":"경기도 시흥시 대야동 544-1번지 트윈프라자 A동 507~8호","category":"개인서비스업 - 피부미용"},{"name":"본죽 경기시흥점","tel":"031-314-6230","addr":"경기도 시흥시 대야동 544-1번지 102호~103호 102호","category":"음식점업 - 일반음식"},{"name":"예인김소영발레아카데미학원","tel":"031-312-2935","addr":"경기도 시흥시 대야동 544-1번지 트윈프라자 A동 304호","category":"교육서비스업 - 무용학원"},{"name":"장은지네일앤마카롱카페","tel":"031-504-4045","addr":"경기도 시흥시 대야동 544-1번지 트윈프라자 2층 208호","category":"개인서비스업 - 네일아트, 카페"},{"name":"커피가든","tel":"031-315-8586","addr":"경기도 시흥시 대야동 544-1번지 트윈프라자 A동 121호","category":"음식점업 - 커피,음료"},{"name":"피자스쿨","tel":"031-313-5545","addr":"경기도 시흥시 대야동 544-1번지 트윈프라자 106호","category":"음식점업 - 피자"}]},{"lat":"37.446847187","long":"126.78885632","items":[{"name":"꿀꿀할인마트","tel":"031-312-1109","addr":"경기도 시흥시 대야동 458-5번지 1층","category":"소매업 - 식품,잡화"}]},{"lat":"37.448819375","long":"126.79332593","items":[{"name":"나누리분식","tel":"031-311-7774","addr":"경기도 시흥시 대야동 280-2번지 영남 상가 1동 6호","category":"음식점업 - 분식"},{"name":"명품한돈","tel":"031-520-2267","addr":"경기도 시흥시 대야동 280-2번지","category":"소매업 - 식육즉석판매가공업"},{"name":"씨에프바베큐치킨","tel":"031-317-8292","addr":"경기도 시흥시 대야동 280-2번지","category":"음식점업 - 치킨, 호프"},{"name":"영남방앗간","tel":"","addr":"경기도 시흥시 대야동 280-2번지 열린예능어린이집 상가동 1호","category":"제조업 - 방앗간"},{"name":"지글지글","tel":"031-314-9233","addr":"경기도 시흥시 대야동 280-2번지","category":"음식점업 - 정육식당"}]},{"lat":"37.442515952","long":"126.78533172","items":[{"name":"나주흑염소영양탕","tel":"031-313-1792","addr":"경기도 시흥시 대야동 498-24번지 1층","category":"음식점업 - 한식"}]},{"lat":"37.461100305","long":"126.78357115","items":[{"name":"낙지마당","tel":"031-311-2378","addr":"경기도 시흥시 대야동 14-3번지","category":"음식점업 - 한식"}]},{"lat":"37.448212957","long":"126.78679565","items":[{"name":"남도백합이칼국수","tel":"031-318-1007","addr":"경기도 시흥시 대야동 332-132번지 1층","category":"음식점업 - 한식"}]},{"lat":"37.441543806","long":"126.79080372","items":[{"name":"남도추어탕","tel":"031-315-8850","addr":"경기도 시흥시 대야동 541-17번지 견우프라자 101호","category":"음식점업 - 일반음식점"},{"name":"커피에반하다(대야2호점)","tel":"","addr":"경기도 시흥시 대야동 541-17번지 견우프라자 102,103호","category":"음식점업 - 커피전문점"}]},{"lat":"37.443103942","long":"126.78660694","items":[{"name":"남성커트전문점","tel":"031-312-7943","addr":"경기도 시흥시 대야동 497-6번지 1층","category":"개인서비스업 - 미용업"}]},{"lat":"37.441021573","long":"126.79099729","items":[{"name":"남일 G.A&GEM","tel":"031-314-1594","addr":"경기도 시흥시 대야동 549-4번지","category":"소매업 - 귀금속, 장신구"}]},{"lat":"37.442319704","long":"126.7864058","items":[{"name":"냉면 제면소","tel":"031-362-5887","addr":"경기도 시흥시 대야동 499-14번지 1층","category":"음식점업 - 한식"}]},{"lat":"37.443547904","long":"126.7879617","items":[{"name":"너만멍냥?! 반려동물 수제간식 전문점","tel":"","addr":"경기도 시흥시 대야동 491번지 1동","category":"소매업 - 반려견 수제간식 등"}]},{"lat":"37.445349931","long":"126.79812704","items":[{"name":"네네치킨은행점","tel":"031-404-5551","addr":"경기도 시흥시 대야동 578-3번지 대원빌딩 2층 202호","category":"음식점업 - 일반음식점"},{"name":"신마포갈매기","tel":"031-315-7092","addr":"경기도 시흥시 대야동 578-3번지 대원빌딩 106호","category":"음식점업 - 한식"}]},{"lat":"37.445576723","long":"126.79901917","items":[{"name":"노리터 보호작업장","tel":"031-313-0402","addr":"경기도 시흥시 대야동 580-3번지 세화빌딩 203호","category":"기타 - 요리체험"},{"name":"바나나달","tel":"","addr":"경기도 시흥시 대야동 580-3번지 세화빌딩 4층 1호","category":"개인서비스업 - 키즈카페"},{"name":"카스텔로아마레","tel":"","addr":"경기도 시흥시 대야동 580-3번지 세화빌딩 103호","category":"음식점업 - 커피숍"},{"name":"투명통슬라임카페 시흥대야점","tel":"","addr":"경기도 시흥시 대야동 580-3번지 세화빌딩 3층 301호","category":"음식점업 - 커피,문구"}]},{"lat":"37.449129416","long":"126.79035287","items":[{"name":"녹원할인마트","tel":"","addr":"경기도 시흥시 대야동 440-8번지 녹원할인마트","category":"소매업 - 슈퍼마켓"}]},{"lat":"37.44526933","long":"126.79840977","items":[{"name":"농협은행 ㈜ 시흥시지부 (신토불이 창구)","tel":"031-8084-1308","addr":"경기도 시흥시 대야동 578-2번지","category":"기타 - 은행(여신,수신),위수탁판매"}]},{"lat":"37.445930054","long":"126.79496128","items":[{"name":"늘푸른마트","tel":"031-313-6471","addr":"경기도 시흥시 대야동 570-2번지 상가동 9~11호","category":"소매업 - 슈퍼, 식품, 잡화"}]},{"lat":"37.445930823","long":"126.79032801","items":[{"name":"늘푸른온누리약국","tel":"031-313-3332","addr":"경기도 시흥시 대야동 455-2번지 1층","category":"보건업 - 양약"}]},{"lat":"37.442935945","long":"126.78835895","items":[{"name":"다다커뮤니티","tel":"031-310-4327","addr":"경기도 시흥시 대야동 491-3번지","category":"개인서비스업 - 북카페"}]},{"lat":"37.443654706","long":"126.78723817","items":[{"name":"다도","tel":"031-313-3053","addr":"경기도 시흥시 대야동 492-31번지","category":"음식점업 - 일식"}]},{"lat":"37.445180428","long":"126.78890627","items":[{"name":"닭사부","tel":"031-435-5004","addr":"경기도 시흥시 대야동 471-12번지 1층","category":"음식점업 - 기타음식"}]},{"lat":"37.448402929","long":"126.78721324","items":[{"name":"대박자전거","tel":"031-404-9112","addr":"경기도 시흥시 대야동 333-19번지 C동 1층 101호, 2층 201호","category":"소매업 - 자전거판매"}]},{"lat":"37.445322885","long":"126.78796792","items":[{"name":"대박축산","tel":"031-317-5026","addr":"경기도 시흥시 대야동 473-21번지 우측 상가 전부","category":"소매업 - 식육"}]},{"lat":"37.444322266","long":"126.78768827","items":[{"name":"대야닭한마리","tel":"031-311-0061","addr":"경기도 시흥시 대야동 488-27번지","category":"음식점업 - 한식"}]},{"lat":"37.445852247","long":"126.78674594","items":[{"name":"대야원","tel":"031-315-8583","addr":"경기도 시흥시 대야동 476-1번지 석천파크빌5차 102호","category":"음식점업 - 중식"}]},{"lat":"37.442404153","long":"126.78824747","items":[{"name":"대야전기조명통신","tel":"031-311-8518","addr":"경기도 시흥시 대야동 491-11번지","category":"소매업 - 전기조명재료"}]},{"lat":"37.447185839","long":"126.79179357","items":[{"name":"대야탑독서실","tel":"031-312-2271","addr":"경기도 시흥시 대야동 568-2번지 A&C빌딩 504호","category":"교육서비스업 - 독서실"}]},{"lat":"37.448989722","long":"126.79285081","items":[{"name":"대영이발관","tel":"","addr":"경기도 시흥시 대야동 284-2번지","category":"개인서비스업 - 이발소"},{"name":"디디바바","tel":"031-313-5854","addr":"경기도 시흥시 대야동 284-2번지 지층","category":"소매업 - 슈퍼,문구 등"},{"name":"메밀촌막국수불고기","tel":"031-313-8421","addr":"경기도 시흥시 대야동 284-2번지","category":"음식점업 - 한식"}]},{"lat":"37.447962204","long":"126.78763264","items":[{"name":"대영전기","tel":"031-312-4740","addr":"경기도 시흥시 대야동 450-9번지 우영빌라 101호","category":"소매업 - 전기재료"}]},{"lat":"37.441879332","long":"126.78701727","items":[{"name":"대운공인중개사사무소","tel":"031-316-6700","addr":"경기도 시흥시 대야동 500-3번지","category":"기타 - 부동산중개"}]},{"lat":"37.440347504","long":"126.79193708","items":[{"name":"대원푸드","tel":"031-313-6615","addr":"경기도 시흥시 대야동 553-5번지 1층","category":"소매업 - 김치류"}]},{"lat":"37.446709554","long":"126.78748932","items":[{"name":"대일도기,타일상사","tel":"031-313-6653","addr":"경기도 시흥시 대야동 465번지","category":"소매업 - 위생도기,타일"},{"name":"복음신발","tel":"031-314-2938","addr":"경기도 시흥시 대야동 465번지","category":"소매업 - 구두"}]},{"lat":"37.442713699","long":"126.79002071","items":[{"name":"대청마루","tel":"031-318-6258","addr":"경기도 시흥시 대야동 530-2번지 대야프라자 204-6호","category":"음식점업 - 한식"},{"name":"명가닭찜","tel":"031-312-2525","addr":"경기도 시흥시 대야동 530-2번지","category":"음식점업 - 찜닭, 명태조림"},{"name":"박가네뽈찜,명태찜","tel":"031-311-8799","addr":"경기도 시흥시 대야동 530-2번지 대야프라자 103호","category":"음식점업 - 음식"},{"name":"제주똥돼지","tel":"031-313-5343","addr":"경기도 시흥시 대야동 530-2번지 대야프라자 108호","category":"음식점업 - 한식"}]},{"lat":"37.447491005","long":"126.79113726","items":[{"name":"대추골 숯불갈비","tel":"031-312-8809","addr":"경기도 시흥시 대야동 443-8번지 태원탑스빌","category":"음식점업 - 한식"}]},{"lat":"37.44376611","long":"126.7890459","items":[{"name":"대한페인트잉크상사","tel":"031-313-7704","addr":"경기도 시흥시 대야동 490-2번지","category":"소매업 - 도료, 도장공사"}]},{"lat":"37.446381828","long":"126.79060926","items":[{"name":"댕기모","tel":"031-435-2828","addr":"경기도 시흥시 대야동 455-1번지 금성빌딩 1층 4호","category":"소매업 - 가발"},{"name":"자이언트짐","tel":"070-7510-3558","addr":"경기도 시흥시 대야동 455-1번지 금성빌딩 402호","category":"스포츠및여가관련서비스업 - 체력단련업"},{"name":"정관장홍삼대야점","tel":"031-315-1302","addr":"경기도 시흥시 대야동 455-1번지","category":"소매업 - 홍삼및홍상제품"}]},{"lat":"37.447987046","long":"126.78643467","items":[{"name":"더블유엠디케이(WMDK)시흥(인천)점","tel":"031-404-7564","addr":"경기도 시흥시 대야동 332-92번지 104, 204호","category":"소매업 - 가구소매업"}]},{"lat":"37.441572717","long":"126.79185454","items":[{"name":"더존산모케어","tel":"031-315-3582","addr":"경기도 시흥시 대야동 546-1번지 대명프라자 4층 403-1호","category":"보건업 - 산모도우미"}]},{"lat":"37.446989233","long":"126.78769193","items":[{"name":"더카리스","tel":"","addr":"경기도 시흥시 대야동 460-11번지 1층 우측상가","category":"음식점업 - 카페"}]},{"lat":"37.445823455","long":"126.79074644","items":[{"name":"덕성자동차공업사","tel":"031-312-0151","addr":"경기도 시흥시 대야동 363-9번지 덕성자동차공업사","category":"개인서비스업 - 자동차전문수리"}]},{"lat":"37.452768435","long":"126.8000281","items":[{"name":"데코디토","tel":"031-317-8084","addr":"경기도 시흥시 대야동 665-2번지 은계자족지구 7-3 302,303,304호","category":"소매업 - 가구"},{"name":"세데르(육아대장)","tel":"031-318-8881","addr":"경기도 시흥시 대야동 665-2번지 301호","category":"소매업 - 육아용품"}]},{"lat":"37.446600424","long":"126.7869359","items":[{"name":"도란도란커피","tel":"031-311-0712","addr":"경기도 시흥시 대야동 464-3번지 1층","category":"음식점업 - 휴게음식점"},{"name":"웨딩미용실","tel":"031-312-0723","addr":"경기도 시흥시 대야동 464-3번지","category":"개인서비스업 - 미용업"}]},{"lat":"37.447186029","long":"126.78691161","items":[{"name":"도야족발앤김용례할매아구꽃게찜","tel":"031-315-3157","addr":"경기도 시흥시 대야동 463-37번지 1층","category":"음식점업 - 족발"}]},{"lat":"37.44529245","long":"126.78610342","items":[{"name":"돈까스앤스파게티","tel":"031-312-7777","addr":"경기도 시흥시 대야동 485-1번지","category":"음식점업 - 기타음식"}]},{"lat":"37.447292381","long":"126.79091181","items":[{"name":"동막골감자탕뼈해장국","tel":"031-313-6037","addr":"경기도 시흥시 대야동 454-8번지 행복하우스 B동 102호","category":"음식점업 - 한식"}]},{"lat":"37.446519128","long":"126.78682312","items":[{"name":"동산헤어클럽","tel":"070-7514-8817","addr":"경기도 시흥시 대야동 464-4번지","category":"개인서비스업 - 미용"}]},{"lat":"37.442598868","long":"126.78632589","items":[{"name":"동진축산","tel":"","addr":"경기도 시흥시 대야동 497-20번지","category":"소매업 - 축산"}]},{"lat":"37.44879554","long":"126.79007129","items":[{"name":"동해루","tel":"031-312-0492","addr":"경기도 시흥시 대야동 444-3번지 대현주택 102호","category":"음식점업 - 중식"}]},{"lat":"37.447042778","long":"126.78740926","items":[{"name":"동화 공인중개사 사무소","tel":"031-505-8004","addr":"경기도 시흥시 대야동 461-27번지","category":"개인서비스업 - 부동산업"}]},{"lat":"37.442157617","long":"126.79143479","items":[{"name":"두거리우신탕","tel":"031-404-2533","addr":"경기도 시흥시 대야동 541-2번지 월드프라자 104호","category":"음식점업 - 한식"}]},{"lat":"37.445821503","long":"126.78966159","items":[{"name":"두두림스포츠","tel":"","addr":"경기도 시흥시 대야동 467-28번지 1층","category":"소매업 - 배드민턴"}]},{"lat":"37.445990127","long":"126.79840781","items":[{"name":"디와이(DY)무용학원","tel":"031-313-0316","addr":"경기도 시흥시 대야동 581-5번지 2층 일부","category":"교육서비스업 - 발레,현대무용,방송댄"}]},{"lat":"37.448265597","long":"126.79098817","items":[{"name":"떡앤사랑","tel":"031-318-0486","addr":"경기도 시흥시 대야동 442-9번지 1층 일부호","category":"소매업 - 떡류제조및판매"}]},{"lat":"37.468015773","long":"126.78618477","items":[{"name":"뜰안채한정식","tel":"031-317-3011","addr":"경기도 시흥시 대야동 4-6번지 1층","category":"음식점업 - 한식"}]},{"lat":"37.442014709","long":"126.7921358","items":[{"name":"라라속눈썹","tel":"","addr":"경기도 시흥시 대야동 545-1번지","category":"소매업 - 화장품"},{"name":"비본헤어","tel":"031-313-9803","addr":"경기도 시흥시 대야동 545-1번지 트윈프라자 2층 208호","category":"개인서비스업 - 미용실"},{"name":"샤넬","tel":"","addr":"경기도 시흥시 대야동 545-1번지","category":"소매업 - 의류"},{"name":"카페톨러","tel":"","addr":"경기도 시흥시 대야동 545-1번지 트윈프라자 B동 115호","category":"음식점업 - 카페"}]},{"lat":"37.445160153","long":"126.79779984","items":[{"name":"라벤하임학원","tel":"031-506-0504","addr":"경기도 시흥시 대야동 577-1번지 크리스탈빌딩 403, 404호","category":"교육서비스업 - 보완학습"},{"name":"술독 시흥점","tel":"031-404-3350","addr":"경기도 시흥시 대야동 577-1번지 203~204호","category":"음식점업 - 기타음식"},{"name":"아리따움헤어샵","tel":"031-312-3091","addr":"경기도 시흥시 대야동 577-1번지 크리스탈빌딩 302호","category":"개인서비스업 - 미용업"},{"name":"이브자리 은행점","tel":"031-314-6754","addr":"경기도 시흥시 대야동 577-1번지 크리스탈빌딩 101~104호","category":"소매업 - 이불"},{"name":"포트리스베트남쌀국수","tel":"","addr":"경기도 시흥시 대야동 577-1번지 1층 109~110호","category":"음식점업 - 쌀국수"}]},{"lat":"37.441375727","long":"126.79254439","items":[{"name":"라쿤북 어린이서점","tel":"","addr":"경기도 시흥시 대야동 547번지 청구아파트 상가동 1층 101호","category":"소매업 - 어린이 도서"},{"name":"보리보리쓱쓱","tel":"031-314-3945","addr":"경기도 시흥시 대야동 547번지 청구아파트 103호","category":"음식점업 - 한식"},{"name":"줄리엣","tel":"031-314-2993","addr":"경기도 시흥시 대야동 547번지 청구아파트 상가동 107호","category":"소매업 - 의류"}]},{"lat":"37.445494481","long":"126.79835265","items":[{"name":"라티오수학학원","tel":"031-318-5340","addr":"경기도 시흥시 대야동 578-1번지 선우프라자 7층 702호","category":"교육서비스업 - 보습학원"},{"name":"비전스터디학원","tel":"031-314-4287","addr":"경기도 시흥시 대야동 578-1번지 선우프라자 502호","category":"교육서비스업 - 보습학원"}]},{"lat":"37.443765511","long":"126.79374683","items":[{"name":"라피네뷰티","tel":"","addr":"경기도 시흥시 대야동 563번지 상가 2층","category":"개인서비스업 - 피부미용"},{"name":"모란축산","tel":"031-315-2622","addr":"경기도 시흥시 대야동 563번지 상가동 104호","category":"소매업 - 식육판매"},{"name":"서해할인마트","tel":"031-311-6648","addr":"경기도 시흥시 대야동 563번지","category":"소매업 - 슈퍼마켓"},{"name":"헤어풍경","tel":"031-315-0469","addr":"경기도 시흥시 대야동 563번지 서해@상가 가동204호","category":"개인서비스업 - 미용"}]},{"lat":"37.445854156","long":"126.79793355","items":[{"name":"러블리 헤어샵","tel":"031-314-5253","addr":"경기도 시흥시 대야동 579-1번지 시흥대성학원 106동","category":"개인서비스업 - 미용실"},{"name":"미림해물탕","tel":"031-314-8288","addr":"경기도 시흥시 대야동 579-1번지 1층","category":"음식점업 - 음식점"}]},{"lat":"37.444763301","long":"126.7874384","items":[{"name":"럭키 공인중개사","tel":"031-313-0443","addr":"경기도 시흥시 대야동 487-10번지 1층","category":"개인서비스업 - 부동산"},{"name":"어반카페","tel":"","addr":"경기도 시흥시 대야동 487-10번지 1층 일부호","category":"음식점업 - 커피"},{"name":"장터즉석치킨 대야점","tel":"031-311-3551","addr":"경기도 시흥시 대야동 487-10번지 1층","category":"음식점업 - 치킨"}]},{"lat":"37.441743159","long":"126.79143596","items":[{"name":"렌즈스토리 시흥대야점","tel":"031-317-4199","addr":"경기도 시흥시 대야동 541-13번지 1층 102~105호","category":"소매업 - 안경, 렌즈"}]},{"lat":"37.439880234","long":"126.78763319","items":[{"name":"렛스포","tel":"031-313-2005","addr":"경기도 시흥시 대야동 418-4번지 1층","category":"제조업 - 학생복 등"}]},{"lat":"37.447049038","long":"126.78590624","items":[{"name":"로뎀 영어교습소","tel":"070-7626-0427","addr":"경기도 시흥시 대야동 463번지 1층 일부호","category":"교육서비스업 - 영어교습소"}]},{"lat":"37.442987206","long":"126.78682198","items":[{"name":"로즈베리","tel":"031-507-8609","addr":"경기도 시흥시 대야동 499번지 1층","category":"소매업 - 액세서리"}]},{"lat":"37.446906288","long":"126.79165875","items":[{"name":"롤앤스시","tel":"031-316-4947","addr":"경기도 시흥시 대야동 568-1번지 (CGV)","category":"음식점업 - 일식"},{"name":"맥시헤어","tel":"","addr":"경기도 시흥시 대야동 568-1번지 CGV 101호","category":"개인서비스업 - 미용실"},{"name":"뿌글이네","tel":"031-316-1525","addr":"경기도 시흥시 대야동 568-1번지 씨네마타워 114호","category":"음식점업 - 분식"},{"name":"시네마카페","tel":"031-313-1083","addr":"경기도 시흥시 대야동 568-1번지 CGV 106호","category":"음식점업 - 일반음식"},{"name":"앳더모먼트","tel":"","addr":"경기도 시흥시 대야동 568-1번지 CGV 1층 119호","category":"소매업 - 의류"},{"name":"이디야커피CGV점","tel":"031-435-3001","addr":"경기도 시흥시 대야동 568-1번지 CGV 103호","category":"음식점업 - 커피"},{"name":"해피아트센터(카페벨벳)","tel":"","addr":"경기도 시흥시 대야동 568-1번지 CGV 508호","category":"음식점업 - 제과점"}]},{"lat":"37.445630024","long":"126.78840776","items":[{"name":"루나네일","tel":"","addr":"경기도 시흥시 대야동 472-25번지 1층","category":"개인서비스업 - 네일샾"},{"name":"삼성학원","tel":"031-313-0196","addr":"경기도 시흥시 대야동 472-25번지 2층","category":"교육서비스업 - 보습학원"},{"name":"원더풀숟가락 스시락","tel":"031-315-0425","addr":"경기도 시흥시 대야동 472-25번지 1층","category":"음식점업 - 한식"}]},{"lat":"37.446907319","long":"126.78724014","items":[{"name":"루디아","tel":"031-404-1159","addr":"경기도 시흥시 대야동 464-10번지","category":"소매업 - 의류"}]},{"lat":"37.459983598","long":"126.78877368","items":[{"name":"루헨쇼파&수입매트리스,식탁(인천시흥점)","tel":"031-315-2229","addr":"경기도 시흥시 대야동 65-1번지","category":"소매업 - 가구"}]},{"lat":"37.443655674","long":"126.78776928","items":[{"name":"마산식당","tel":"031-314-5777","addr":"경기도 시흥시 대야동 492-4번지","category":"음식점업 - 한식"}]},{"lat":"37.442850899","long":"126.79116164","items":[{"name":"마시짱바지락칼국수","tel":"031-317-5395","addr":"경기도 시흥시 대야동 535번지 이산프라자2 105호","category":"음식점업 - 한식"},{"name":"초원참숯양꼬치","tel":"031-313-7300","addr":"경기도 시흥시 대야동 535번지 이산프라자2 103호","category":"음식점업 - 일반 음식점업"},{"name":"카툰바이커피","tel":"","addr":"경기도 시흥시 대야동 535번지 이산프라자2 203호","category":"개인서비스업 - 만화대여"}]},{"lat":"37.44471066","long":"126.78821828","items":[{"name":"만능집수리","tel":"031-404-2202","addr":"경기도 시흥시 대야동 470-4번지","category":"개인서비스업 - 집수리"},{"name":"복음각","tel":"031-314-0755","addr":"경기도 시흥시 대야동 470-4번지","category":"음식점업 - 중화요리"}]},{"lat":"37.445963741","long":"126.78859892","items":[{"name":"매일떡집","tel":"031-311-6048","addr":"경기도 시흥시 대야동 467-22번지","category":"제조업 - 즉석제조"}]},{"lat":"37.443602723","long":"126.78837965","items":[{"name":"머리잘헤어","tel":"031-404-6721","addr":"경기도 시흥시 대야동 489-5번지","category":"개인서비스업 - 미용업"}]},{"lat":"37.44571029","long":"126.79810345","items":[{"name":"메이비","tel":"031-317-7539","addr":"경기도 시흥시 대야동 579-2번지 하이베라스텔 106호","category":"소매업 - 숙녀복"},{"name":"슬로푸드","tel":"031-312-2285","addr":"경기도 시흥시 대야동 579-2번지","category":"소매업 - 떡류"},{"name":"이디야커피","tel":"031-313-0336","addr":"경기도 시흥시 대야동 579-2번지 하이베라스텔 1층","category":"음식점업 - 카페"}]},{"lat":"37.444737382","long":"126.7880487","items":[{"name":"메트로공인중개사","tel":"031-315-6660","addr":"경기도 시흥시 대야동 470-8번지","category":"기타 - 부동산중개"},{"name":"미소인테리어","tel":"","addr":"경기도 시흥시 대야동 470-8번지","category":"소매업 - 도배,장판"}]},{"lat":"37.442327553","long":"126.78577297","items":[{"name":"명빈관","tel":"031-314-7333","addr":"경기도 시흥시 대야동 498-18번지 1층","category":"음식점업 - 중식"}]},{"lat":"37.444933254","long":"126.79685122","items":[{"name":"명성손만두전골","tel":"031-316-7177","addr":"경기도 시흥시 대야동 572-1번지 1층","category":"음식점업 - 한식"}]},{"lat":"37.442019179","long":"126.78960458","items":[{"name":"목포삼학도","tel":"031-318-4195","addr":"경기도 시흥시 대야동 529-3번지","category":"음식점업 - 한식"}]},{"lat":"37.443879398","long":"126.78693242","items":[{"name":"몽마르뜨","tel":"031-315-9690","addr":"경기도 시흥시 대야동 493-8번지 1층 코너호","category":"음식점업 - 제과점"}]},{"lat":"37.441854032","long":"126.78796654","items":[{"name":"무림장갑","tel":"031-314-9547","addr":"경기도 시흥시 대야동 501-8번지","category":"소매업 - 장갑"}]},{"lat":"37.448631007","long":"126.7938011","items":[{"name":"무성특공무술체육관","tel":"031-500-7957","addr":"경기도 시흥시 대야동 280-6번지 2층 무성특공무술","category":"교육서비스업 - 특공무술"},{"name":"영남정육점","tel":"031-315-1472","addr":"경기도 시흥시 대야동 280-6번지","category":"소매업 - 정육점"},{"name":"코사마트영남점","tel":"031-311-0382","addr":"경기도 시흥시 대야동 280-6번지","category":"소매업 - 슈퍼마켓"}]},{"lat":"37.451186821","long":"126.79209877","items":[{"name":"무크","tel":"031-404-9381","addr":"경기도 시흥시 대야동 289-17번지 무크","category":"소매업 - 제화, 스포츠화"}]},{"lat":"37.445682633","long":"126.79774191","items":[{"name":"무한장소 시흥점","tel":"031-404-0125","addr":"경기도 시흥시 대야동 579-4번지 청송프라자 2층","category":"음식점업 - 한식"}]},{"lat":"37.442381834","long":"126.79085786","items":[{"name":"문사케","tel":"031-435-3030","addr":"경기도 시흥시 대야동 538번지 신생프라자 102호","category":"음식점업 - 한식"},{"name":"아따보이커피","tel":"","addr":"경기도 시흥시 대야동 538번지 신생프라자 105호","category":"음식점업 - 커피"},{"name":"호우양꼬치","tel":"031-311-6196","addr":"경기도 시흥시 대야동 538번지","category":"음식점업 - 한식"},{"name":"홍콩반점0410 시흥대야점","tel":"031-315-3988","addr":"경기도 시흥시 대야동 538번지 신생프라자 1층 101호","category":"음식점업 - 중화요리"}]},{"lat":"37.445909233","long":"126.79852103","items":[{"name":"뮤엠영어","tel":"031-435-9905","addr":"경기도 시흥시 대야동 581-4번지 한국빌딩 4층","category":"교육서비스업 - 교육서비스"}]},{"lat":"37.445547778","long":"126.79791179","items":[{"name":"미담","tel":"070-4038-6775","addr":"경기도 시흥시 대야동 579-3번지 청송빌딩 102호","category":"음식점업 - 일반음식점"},{"name":"삐까삐까헤어","tel":"031-313-3717","addr":"경기도 시흥시 대야동 579-3번지","category":"개인서비스업 - 미용업"},{"name":"숯돌에누운돼야지","tel":"031-312-9188","addr":"경기도 시흥시 대야동 579-3번지","category":"음식점업 - 음식점"},{"name":"시흥희망의료복지사회적협동조합","tel":"031-311-6655","addr":"경기도 시흥시 대야동 579-3번지","category":"보건업 - 한의원,치과,내과"},{"name":"쥬뗌헤어","tel":"","addr":"경기도 시흥시 대야동 579-3번지 청송빌딩 203호","category":"개인서비스업 - 미용업"},{"name":"효약국","tel":"031-311-1707","addr":"경기도 시흥시 대야동 579-3번지 청솔빌딩 101호","category":"보건업 - 양약,의료기기"}]},{"lat":"37.444271321","long":"126.78940608","items":[{"name":"미소의원","tel":"031-314-7585","addr":"경기도 시흥시 대야동 469-6번지 3층","category":"보건업 - 피부과 등"},{"name":"블럭제빵소 시흥대야","tel":"031-404-3004","addr":"경기도 시흥시 대야동 469-6번지 1층","category":"음식점업 - 제과점"},{"name":"신천그랜드약국","tel":"031-312-0993","addr":"경기도 시흥시 대야동 469-6번지","category":"보건업 - 양약, 의료기기판매업"}]},{"lat":"37.445073778","long":"126.78972021","items":[{"name":"믿음타일","tel":"031-312-2791","addr":"경기도 시흥시 대야동 468-9번지","category":"소매업 - 건축자재"}]},{"lat":"37.44376566","long":"126.7887973","items":[{"name":"바른세상방앗간","tel":"031-313-7115","addr":"경기도 시흥시 대야동 490-5번지 490-2,490-5","category":"소매업 - 방앗간"},{"name":"제일상회","tel":"031-318-1545","addr":"경기도 시흥시 대야동 490-5번지","category":"소매업 - 식품, 잡화"}]},{"lat":"37.445569529","long":"126.78983181","items":[{"name":"박명자헤어라인","tel":"031-312-0046","addr":"경기도 시흥시 대야동 468-2번지","category":"개인서비스업 - 미용실"}]},{"lat":"37.44779595","long":"126.78540684","items":[{"name":"박승광해물손칼국수","tel":"031-313-4256","addr":"경기도 시흥시 대야동 332-83번지 1층","category":"음식점업 - 음식"}]},{"lat":"37.443184571","long":"126.7913302","items":[{"name":"백년회관서서갈비시흥대야점","tel":"","addr":"경기도 시흥시 대야동 534-3번지 2층","category":"음식점업 - 한식"},{"name":"시흥S필라테스 스튜디오","tel":"031-317-0096","addr":"경기도 시흥시 대야동 534-3번지 이산프라자 5층 501호","category":"개인서비스업 - 요가, 체형교정"},{"name":"춘천숯불닭갈비","tel":"031-314-6196","addr":"경기도 시흥시 대야동 534-3번지","category":"음식점업 - 한식"}]},{"lat":"37.471263303","long":"126.78343972","items":[{"name":"버드나무집","tel":"031-313-3113","addr":"경기도 시흥시 대야동 1-32번지","category":"음식점업 - 한식"}]},{"lat":"37.444465973","long":"126.78743925","items":[{"name":"보떼 대야점(화장품백화점)","tel":"031-312-1147","addr":"경기도 시흥시 대야동 487-19번지","category":"소매업 - 화장품, 건강기능식품판매"}]},{"lat":"37.444575281","long":"126.78318997","items":[{"name":"보라네마트","tel":"031-314-0821","addr":"경기도 시흥시 대야동 483번지","category":"소매업 - 슈퍼"}]},{"lat":"37.461569764","long":"126.78407841","items":[{"name":"보미진콩이랑두부랑","tel":"031-311-9895","addr":"경기도 시흥시 대야동 13-2번지","category":"음식점업 - 한식"}]},{"lat":"37.443549073","long":"126.78860581","items":[{"name":"보성만","tel":"031-311-3036","addr":"경기도 시흥시 대야동 490-4번지","category":"음식점업 - 한식"}]},{"lat":"37.443683669","long":"126.78830032","items":[{"name":"부르릉~배달커피","tel":"031-315-6368","addr":"경기도 시흥시 대야동 489-6번지","category":"음식점업 - 커피, 음료"}]},{"lat":"37.442993313","long":"126.78523994","items":[{"name":"북시흥농업협동조합(북시흥농협 하나로마트)","tel":"031-313-9081","addr":"경기도 시흥시 대야동 496-11번지","category":"소매업 - 농협,주류,임대,담배"}]},{"lat":"37.443155696","long":"126.79030196","items":[{"name":"브롱스 시흥대야점","tel":"031-404-7754","addr":"경기도 시흥시 대야동 531-2번지 신주씨티프라자 203호","category":"음식점업 - 수제맥주,호프"},{"name":"옛날즉석우동짜장","tel":"031-404-0288","addr":"경기도 시흥시 대야동 531-2번지 신주씨티프라자 102호","category":"음식점업 - 기타음식"},{"name":"지금보고싶다 시흥대야점","tel":"031-317-7239","addr":"경기도 시흥시 대야동 531-2번지 신주 씨티 프라자 204-5호","category":"음식점업 - 주점"},{"name":"코코펍 (CoCoPub)","tel":"031-404-8050","addr":"경기도 시흥시 대야동 531-2번지 신주씨티프라자 206호","category":"음식점업 - 주점,호프"}]},{"lat":"37.443268246","long":"126.78777039","items":[{"name":"브리제헤어샵","tel":"","addr":"경기도 시흥시 대야동 491-24번지","category":"개인서비스업 - 미용실"}]},{"lat":"37.452885001","long":"126.79970004","items":[{"name":"비브라더스","tel":"070-8899-3069","addr":"경기도 시흥시 대야동 665-1번지 2층 201호","category":"교육서비스업 - 농구교실"}]},{"lat":"37.444989106","long":"126.78774286","items":[{"name":"비치나 안경","tel":"031-315-3210","addr":"경기도 시흥시 대야동 475-22번지 청솔쉐르빌","category":"소매업 - 안경"},{"name":"창포헤어모드","tel":"031-313-6588","addr":"경기도 시흥시 대야동 475-22번지 청솔쉐르빌","category":"개인서비스업 - 미용업"}]},{"lat":"37.440708245","long":"126.79212816","items":[{"name":"비트로 시흥대야점","tel":"031-313-8199","addr":"경기도 시흥시 대야동 551-4번지","category":"소매업 - 스포츠용품"}]},{"lat":"37.444569305","long":"126.78482855","items":[{"name":"뽀글이헤어","tel":"","addr":"경기도 시흥시 대야동 484-9번지 1층","category":"개인서비스업 - 미용업"}]},{"lat":"37.441463102","long":"126.79101865","items":[{"name":"쁘띠몽드","tel":"031-312-3142","addr":"경기도 시흥시 대야동 541-16번지 6층","category":"개인서비스업 - 실내놀이터"},{"name":"정가네","tel":"031-315-8518","addr":"경기도 시흥시 대야동 541-16번지 유영빌딩 102호","category":"음식점업 - 한식"},{"name":"해든약국","tel":"031-314-7764","addr":"경기도 시흥시 대야동 541-16번지 유명빌딩 103호","category":"보건업 - 양약"}]},{"lat":"37.445710724","long":"126.78819282","items":[{"name":"쁘띠헤어","tel":"","addr":"경기도 시흥시 대야동 473-7번지 1층","category":"개인서비스업 - 헤어"}]},{"lat":"37.444597106","long":"126.78524659","items":[{"name":"사계절","tel":"032-652-7370","addr":"경기도 시흥시 대야동 485-30번지","category":"소매업 - 의류, 잡화"},{"name":"솔레일커피전문점","tel":"031-312-5722","addr":"경기도 시흥시 대야동 485-30번지 1층 102호","category":"음식점업 - 커피"},{"name":"엔젤","tel":"031-310-5425","addr":"경기도 시흥시 대야동 485-30번지","category":"소매업 - 의류"}]},{"lat":"37.461402555","long":"126.79121107","items":[{"name":"산울림황금유황오리","tel":"031-313-6119","addr":"경기도 시흥시 대야동 39-10번지","category":"음식점업 - 일반음식점"}]},{"lat":"37.443516439","long":"126.79049305","items":[{"name":"삼대족발 대야점","tel":"031-315-8740","addr":"경기도 시흥시 대야동 532-3번지","category":"음식점업 - 한식"}]},{"lat":"37.446160984","long":"126.79821523","items":[{"name":"삼성영어수학은계학원","tel":"031-311-0203","addr":"경기도 시흥시 대야동 581-7번지 3층","category":"교육서비스업 - 보습학원"}]},{"lat":"37.44640902","long":"126.78573857","items":[{"name":"삼호할인마트","tel":"031-311-0730","addr":"경기도 시흥시 대야동 478번지","category":"소매업 - 슈퍼마켓"}]},{"lat":"37.445877744","long":"126.78590962","items":[{"name":"상경자동차공업사","tel":"031-314-3740","addr":"경기도 시흥시 대야동 477-5번지","category":"개인서비스업 - 카센타"}]},{"lat":"37.440797901","long":"126.79187931","items":[{"name":"생활의달인 문영순 족발보쌈","tel":"031-316-4848","addr":"경기도 시흥시 대야동 551-2번지","category":"음식점업 - 한식"}]},{"lat":"37.444821054","long":"126.79452363","items":[{"name":"서강헤어샵","tel":"031-313-0580","addr":"경기도 시흥시 대야동 564번지","category":"개인서비스업 - 미용"}]},{"lat":"37.444847509","long":"126.78915583","items":[{"name":"서울한방삼계탕","tel":"031-313-6678","addr":"경기도 시흥시 대야동 471-16번지 2층","category":"음식점업 - 한식"}]},{"lat":"37.446714715","long":"126.79541114","items":[{"name":"설렘","tel":"","addr":"경기도 시흥시 대야동 570-1번지 청구아파트 105호","category":"개인서비스업 - 미용업"},{"name":"소리숲음악학원","tel":"031-313-7639","addr":"경기도 시흥시 대야동 570-1번지 2층","category":"교육서비스업 - 음악학원"},{"name":"예랑미술","tel":"","addr":"경기도 시흥시 대야동 570-1번지 청구아파트 203호","category":"교육서비스업 - 미술교습"}]},{"lat":"37.471795873","long":"126.78396948","items":[{"name":"세상을보는갤러리","tel":"","addr":"경기도 시흥시 대야동 1-12번지 2층","category":"음식점업 - 일반찻집"}]},{"lat":"37.444767628","long":"126.78488448","items":[{"name":"소랑돼지랑","tel":"070-7620-4980","addr":"경기도 시흥시 대야동 484-7번지","category":"소매업 - 축산물판매업"},{"name":"한빛약국","tel":"031-312-3610","addr":"경기도 시흥시 대야동 484-7번지","category":"보건업 - 약국"}]},{"lat":"37.445770247","long":"126.78624895","items":[{"name":"소소가배","tel":"","addr":"경기도 시흥시 대야동 476-19번지 1층 좌측상가","category":"음식점업 - 카페"}]},{"lat":"37.454380196","long":"126.78921912","items":[{"name":"소플러스","tel":"031-312-9670","addr":"경기도 시흥시 대야동 147-5번지 1층","category":"음식점업 - 한식"}]},{"lat":"37.444132852","long":"126.78757581","items":[{"name":"손가네 명태 ","tel":"031-404-6802","addr":"경기도 시흥시 대야동 489번지 1층","category":"음식점업 - 한식"}]},{"lat":"37.444465725","long":"126.78730365","items":[{"name":"수산나미용실","tel":"031-313-8688","addr":"경기도 시흥시 대야동 487-20번지","category":"개인서비스업 - 미용"}]},{"lat":"37.446351017","long":"126.78360291","items":[{"name":"수창낚시","tel":"031-314-9787","addr":"경기도 시흥시 대야동 산170-61번지","category":"소매업 - 낚시용품"}]},{"lat":"37.44715579","long":"126.79010983","items":[{"name":"쉐프삼촌 시흥점","tel":"","addr":"경기도 시흥시 대야동 456-20번지 1층","category":"소매업 - 반찬"}]},{"lat":"37.44588273","long":"126.79882622","items":[{"name":"슈앤가비","tel":"031-318-5921","addr":"경기도 시흥시 대야동 580-1번지 송원빌딩 1층 102호","category":"소매업 - 구두"},{"name":"영음푸드.바른안심탕수육","tel":"031-312-2548","addr":"경기도 시흥시 대야동 580-1번지 송원빌딩 1층 101호","category":"음식점업 - 한식"},{"name":"우리동네마트","tel":"","addr":"경기도 시흥시 대야동 580-1번지 송원빌딩 1층 103호","category":"소매업 - 식품, 잡화"},{"name":"정든닭발","tel":"031-315-5111","addr":"경기도 시흥시 대야동 580-1번지 송원빌딩 1층 104호","category":"음식점업 - 닭발"}]},{"lat":"37.440851759","long":"126.79176616","items":[{"name":"슈퍼감자탕","tel":"031-318-8883","addr":"경기도 시흥시 대야동 551-1번지","category":"음식점업 - 한식"}]},{"lat":"37.44540457","long":"126.7882954","items":[{"name":"승원세탁소","tel":"031-311-2062","addr":"경기도 시흥시 대야동 471번지 두산주택 101호","category":"개인서비스업 - 세탁"},{"name":"오땡큐(대야점)","tel":"031-313-9402","addr":"경기도 시흥시 대야동 471번지 두산주택","category":"개인서비스업 - 미용업"}]},{"lat":"37.446319691","long":"126.79112926","items":[{"name":"승진자동차공업사","tel":"031-312-1273","addr":"경기도 시흥시 대야동 363-3번지","category":"개인서비스업 - 자동차경정비"}]},{"lat":"37.444323888","long":"126.788581","items":[{"name":"시대공인중개사사무소","tel":"031-312-6000","addr":"경기도 시흥시 대야동 488-7번지","category":"개인서비스업 - 부동산중개업"}]},{"lat":"37.444520588","long":"126.78774421","items":[{"name":"시루속풍경","tel":"031-311-4412","addr":"경기도 시흥시 대야동 488-26번지","category":"제조업 - 떡류"}]},{"lat":"37.442632457","long":"126.78499238","items":[{"name":"시보당","tel":"031-313-9184","addr":"경기도 시흥시 대야동 498-28번지","category":"소매업 - 귀금속"},{"name":"큐원당구클럽","tel":"","addr":"경기도 시흥시 대야동 498-28번지","category":"스포츠및여가관련서비스업 - 당구장"}]},{"lat":"37.442770677","long":"126.7866644","items":[{"name":"시크허니","tel":"","addr":"경기도 시흥시 대야동 499-24번지 1층","category":"소매업 - 의류,인터넷쇼핑몰"}]},{"lat":"37.451847178","long":"126.79357742","items":[{"name":"시흥꽃직매장","tel":"031-314-9450","addr":"경기도 시흥시 대야동 216-3번지","category":"소매업 - 생화, 분재"}]},{"lat":"37.441382417","long":"126.79124488","items":[{"name":"시흥대야점 엘리트학생복","tel":"031-404-3543","addr":"경기도 시흥시 대야동 541-15번지 우곡프라자 201호","category":"소매업 - 교복"}]},{"lat":"37.442126707","long":"126.78927657","items":[{"name":"시흥더봄요양병원","tel":"031-317-9990","addr":"경기도 시흥시 대야동 529-4번지 1,2,4-8층","category":"보건업 - 요양병원"}]},{"lat":"37.445571551","long":"126.78598961","items":[{"name":"시흥떡팜(Farm)","tel":"031-313-6818","addr":"경기도 시흥시 대야동 476-16번지 1층","category":"제조업 - 떡제조"},{"name":"한결공인중개사무소","tel":"031-314-0004","addr":"경기도 시흥시 대야동 476-16번지","category":"개인서비스업 - 부동산중개업"}]},{"lat":"37.439682095","long":"126.79268473","items":[{"name":"시흥슈퍼","tel":"031-313-3699","addr":"경기도 시흥시 대야동 557-2번지 효정산업 101호","category":"소매업 - 슈퍼마켓"}]},{"lat":"37.447464258","long":"126.79129555","items":[{"name":"시흥스카이재수학원","tel":"","addr":"경기도 시흥시 대야동 443-3번지 3층","category":"교육서비스업 - 학원"},{"name":"시흥안경백화점","tel":"031-312-1714","addr":"경기도 시흥시 대야동 443-3번지","category":"소매업 - 안경"}]},{"lat":"37.444381677","long":"126.78568793","items":[{"name":"시흥액자","tel":"031-318-9511","addr":"경기도 시흥시 대야동 494-5번지","category":"소매업 - 거울, 액자, 유리"}]},{"lat":"37.446682738","long":"126.79773918","items":[{"name":"시흥음악학원","tel":"031-311-7820","addr":"경기도 시흥시 대야동 582-1번지 가은빌딩 2층","category":"교육서비스업 - 음악학원"},{"name":"은계사임당어린이집","tel":"031-311-7727","addr":"경기도 시흥시 대야동 582-1번지","category":"교육서비스업 - 어린이집"}]},{"lat":"37.439627653","long":"126.79247018","items":[{"name":"시흥커피공방","tel":"070-7868-9321","addr":"경기도 시흥시 대야동 555-8번지","category":"소매업 - 커피판매외"}]},{"lat":"37.441347226","long":"126.79171957","items":[{"name":"시흥하타요가원","tel":"","addr":"경기도 시흥시 대야동 546-3번지 동호프라자 405호","category":"개인서비스업 - 요가, 체형교정"},{"name":"점핑 P.T (대야점)","tel":"031-435-7889","addr":"경기도 시흥시 대야동 546-3번지 704~5호","category":"스포츠및여가관련서비스업 - 에어로빅"},{"name":"주식회사 장터마트","tel":"031-315-1601~2","addr":"경기도 시흥시 대야동 546-3번지 1층 101~6호","category":"소매업 - 슈퍼마켓"}]},{"lat":"37.448600966","long":"126.79210602","items":[{"name":"시흥한일자동펌프","tel":"031-315-7278","addr":"경기도 시흥시 대야동 345-12번지","category":"소매업 - 전자기기, 모타"}]},{"lat":"37.444655429","long":"126.78757431","items":[{"name":"신솔닭한마리","tel":"031-503-4873","addr":"경기도 시흥시 대야동 487-11번지 1층","category":"음식점업 - 한식"}]},{"lat":"37.447631621","long":"126.79421071","items":[{"name":"신인숙헤어샵","tel":"031-311-5956","addr":"경기도 시흥시 대야동 569-1 우성@2차상가 105호","category":"개인서비스업 - 미용"}]},{"lat":"37.448130995","long":"126.79129367","items":[{"name":"쌍용카마이스타","tel":"031-312-3398","addr":"경기도 시흥시 대야동 442-1번지","category":"개인서비스업 - 자동차정비"}]},{"lat":"37.445629573","long":"126.78815915","items":[{"name":"아\"고기한판집","tel":"031-435-6585","addr":"경기도 시흥시 대야동 473-8번지 1층","category":"음식점업 - 한식"}]},{"lat":"37.445987148","long":"126.78660994","items":[{"name":"아이꿈터시흥","tel":"031-435-9895","addr":"경기도 시흥시 대야동 476-21번지","category":"소매업 - 교구,교재,임대"}]},{"lat":"37.446098501","long":"126.78838383","items":[{"name":"안녕커피쓰","tel":"031-506-7867","addr":"경기도 시흥시 대야동 466-19번지","category":"음식점업 - 커피"},{"name":"줄리엣","tel":"070-8917-0699","addr":"경기도 시흥시 대야동 466-19번지 1층 4호","category":"소매업 - 셔츠 및 기타의복"}]},{"lat":"37.464683684","long":"126.79204958","items":[{"name":"앞뜰장작구이 마을","tel":"031-317-9252","addr":"경기도 시흥시 대야동 33-3번지","category":"음식점업 - 한식"}]},{"lat":"37.447657734","long":"126.7886619","items":[{"name":"애미네 (AEMINE)","tel":"","addr":"경기도 시흥시 대야동 457번지 1층","category":"개인서비스업 - 요리,떡,빵 등"}]},{"lat":"37.447516995","long":"126.78559976","items":[{"name":"엘마트소래산점","tel":"031-313-0457","addr":"경기도 시흥시 대야동 376-50번지 1층","category":"소매업 - 슈퍼마켓"}]},{"lat":"37.445431107","long":"126.78802411","items":[{"name":"연합떡방앗간","tel":"031-313-0599","addr":"경기도 시흥시 대야동 473-15번지","category":"제조업 - 떡, 기름"}]},{"lat":"37.449041505","long":"126.79157364","items":[{"name":"영신슈퍼","tel":"031-312-2163","addr":"경기도 시흥시 대야동 343-9번지","category":"소매업 - 슈퍼마켓"}]},{"lat":"37.446215835","long":"126.7884965","items":[{"name":"예술을아는공방","tel":"031-314-7228","addr":"경기도 시흥시 대야동 466-8번지 1층","category":"소매업 - 리본, 인테리어 소품"}]},{"lat":"37.44774383","long":"126.79144167","items":[{"name":"예원약국","tel":"031-435-7301","addr":"경기도 시흥시 대야동 442-4번지","category":"보건업 - 약국"}]},{"lat":"37.440573538","long":"126.79237714","items":[{"name":"옛골토성","tel":"031-318-3377","addr":"경기도 시흥시 대야동 551-6번지","category":"음식점업 - 한식"}]},{"lat":"37.445105226","long":"126.78718881","items":[{"name":"오늘도족발","tel":"031-313-1140","addr":"경기도 시흥시 대야동 475-11번지","category":"음식점업 - 일반음식점"},{"name":"옹심이네 닭 내장탕","tel":"031-312-0909","addr":"경기도 시흥시 대야동 475-11번지","category":"음식점업 - 메밀칼국수, 잡화"},{"name":"장마루족발","tel":"031-313-1140","addr":"경기도 시흥시 대야동 475-11번지 1층","category":"음식점업 - 일반음식점"}]},{"lat":"37.445043396","long":"126.79801487","items":[{"name":"오렌지 노래연습장","tel":"031-314-4008","addr":"경기도 시흥시 대야동 577-2번지 3층","category":"개인서비스업 - 노래연습장"},{"name":"일공공일안경원","tel":"031-404-1001","addr":"경기도 시흥시 대야동 577-2번지","category":"소매업 - 안경"}]},{"lat":"37.446684844","long":"126.78876638","items":[{"name":"오렌지헤어","tel":"031-312-8799","addr":"경기도 시흥시 대야동 459-6번지 보강빌라","category":"개인서비스업 - 미용업"}]},{"lat":"37.442715438","long":"126.78602045","items":[{"name":"옥천영양돌솥밥","tel":"031-311-6018","addr":"경기도 시흥시 대야동 497-11번지","category":"음식점업 - 한식"}]},{"lat":"37.442160679","long":"126.78813516","items":[{"name":"온전히 너의 것","tel":"031-435-2200","addr":"경기도 시흥시 대야동 501-2번지","category":"소매업 - 인테리어소품"}]},{"lat":"37.463069209","long":"126.79110464","items":[{"name":"왕대통수라찜","tel":"031-435-2277","addr":"경기도 시흥시 대야동 38-8번지 1층","category":"음식점업 - 한식"}]},{"lat":"37.448184609","long":"126.7910449","items":[{"name":"우리반점","tel":"031-312-2399","addr":"경기도 시흥시 대야동 442-10번지","category":"음식점업 - 중식"}]},{"lat":"37.440105463","long":"126.79262704","items":[{"name":"원조마산아구찜","tel":"031-404-1555","addr":"경기도 시흥시 대야동 556-3번지","category":"음식점업 - 한식"}]},{"lat":"37.444880315","long":"126.79749549","items":[{"name":"윌레나 원어민 영어학원","tel":"070-4204-2282","addr":"경기도 시흥시 대야동 574번지 루비프라자 6층 601호","category":"교육서비스업 - 영어학원"},{"name":"이니스프리 시흥대야점","tel":"031-312-0132","addr":"경기도 시흥시 대야동 574번지 루비프라자 104호","category":"소매업 - 화장품"}]},{"lat":"37.442104746","long":"126.78710702","items":[{"name":"유리미헤어","tel":"031-315-6290","addr":"경기도 시흥시 대야동 500-7번지 1층 102호","category":"개인서비스업 - 미용업"}]},{"lat":"37.444492061","long":"126.79702193","items":[{"name":"윤요가","tel":"031-315-7387","addr":"경기도 시흥시 대야동 573-3번지 남양빌딩 8~9층","category":"스포츠및여가관련서비스업 - 요가"},{"name":"정가네 과일","tel":"031-312-3311","addr":"경기도 시흥시 대야동 573-3번지","category":"소매업 - 과일,야채"}]},{"lat":"37.444708497","long":"126.79713434","items":[{"name":"은행감자탕","tel":"031-313-5237","addr":"경기도 시흥시 대야동 573-1번지 골든라이프 101호","category":"음식점업 - 한식"}]},{"lat":"37.447624694","long":"126.79032322","items":[{"name":"은행감자탕2호점","tel":"031-313-7575","addr":"경기도 시흥시 대야동 453-1번지","category":"음식점업 - 음식"}]},{"lat":"37.447408861","long":"126.79054985","items":[{"name":"의정부솥뚜껑부대찌개","tel":"","addr":"경기도 시흥시 대야동 453-2번지 국원빌딩","category":"음식점업 - 한식"}]},{"lat":"37.445544895","long":"126.78619309","items":[{"name":"이가네순두부","tel":"031-311-4876","addr":"경기도 시흥시 대야동 476-14번지","category":"음식점업 - 한식"}]},{"lat":"37.443879912","long":"126.79220967","items":[{"name":"이지동물병원","tel":"031-314-7975","addr":"경기도 시흥시 대야동 562-5번지 대야하이빌 101호","category":"보건업 - 수의업"},{"name":"폰하우스","tel":"","addr":"경기도 시흥시 대야동 562-5번지 대야하이빌","category":"소매업 - 잡화"},{"name":"흙과사람들","tel":"031-318-3822","addr":"경기도 시흥시 대야동 562-5번지 대야하이빌 2층","category":"음식점업 - 한식"}]},{"lat":"37.443486454","long":"126.78885459","items":[{"name":"인산한의원","tel":"031-316-7975","addr":"경기도 시흥시 대야동 490-3번지 2층","category":"보건업 - 한의원"},{"name":"현미와누룽지","tel":"031-315-2985","addr":"경기도 시흥시 대야동 490-3번지 대야빌딩 1층","category":"제조업 - 곡물가공식품"}]},{"lat":"37.447960816","long":"126.7918592","items":[{"name":"인생포차","tel":"","addr":"경기도 시흥시 대야동 345-10번지 2층","category":"음식점업 - 기타음식"}]},{"lat":"37.444902152","long":"126.78454508","items":[{"name":"인하칡냉면","tel":"031-315-2322","addr":"경기도 시흥시 대야동 484-12번지","category":"음식점업 - 냉면"}]},{"lat":"37.447402371","long":"126.7869675","items":[{"name":"일미왕족발","tel":"","addr":"경기도 시흥시 대야동 461-2번지","category":"음식점업 - 한식"}]},{"lat":"37.44440467","long":"126.78841126","items":[{"name":"일승건강원","tel":"031-315-8686","addr":"경기도 시흥시 대야동 488-6번지 미림아트빌라 101호","category":"제조업 - 건강원"}]},{"lat":"37.446152502","long":"126.79852037","items":[{"name":"장수보양촌","tel":"031-318-0123","addr":"경기도 시흥시 대야동 581-2번지 신화프라자 1층","category":"음식점업 - 음식업"},{"name":"포비엣","tel":"031-311-6318","addr":"경기도 시흥시 대야동 581-2번지 신화프라자 102호","category":"음식점업 - 베트남쌀국수"}]},{"lat":"37.443158911","long":"126.78710399","items":[{"name":"장수사철탕","tel":"031-313-6104","addr":"경기도 시흥시 대야동 492-22번지","category":"음식점업 - 한식"}]},{"lat":"37.464213166","long":"126.79093187","items":[{"name":"장원가든","tel":"031-316-0333","addr":"경기도 시흥시 대야동 31-6번지","category":"음식점업 - 한식"}]},{"lat":"37.443377679","long":"126.78849329","items":[{"name":"전통한복 한올","tel":"031-312-5241","addr":"경기도 시흥시 대야동 491-50번지","category":"소매업 - 한복"}]},{"lat":"37.444015516","long":"126.78746314","items":[{"name":"전흥주헤어샾","tel":"","addr":"경기도 시흥시 대야동 489-10번지","category":"개인서비스업 - 미용실"}]},{"lat":"37.44268194","long":"126.78741047","items":[{"name":"정식품 소래대리점","tel":"031-313-0044","addr":"경기도 시흥시 대야동 491-39번지","category":"소매업 - 청량음료,화장품"}]},{"lat":"37.444961829","long":"126.78760734","items":[{"name":"정윤쌈밥","tel":"","addr":"경기도 시흥시 대야동 475-23번지 청솔쉐르빌3차","category":"음식점업 - 한식"}]},{"lat":"37.443768336","long":"126.78532809","items":[{"name":"제주꽃집","tel":"031-312-1307","addr":"경기도 시흥시 대야동 495-3번지","category":"소매업 - 꽃"},{"name":"튀길래마를래","tel":"","addr":"경기도 시흥시 대야동 495-3번지","category":"음식점업 - 분식"}]},{"lat":"37.447825101","long":"126.79154315","items":[{"name":"조은수산","tel":"031-314-3147","addr":"경기도 시흥시 대야동 442-3번지","category":"음식점업 - 회"}]},{"lat":"37.441129794","long":"126.79105349","items":[{"name":"주식회사 다원푸드(맛찬들왕소금구이)","tel":"031-315-9798","addr":"경기도 시흥시 대야동 549-3번지 기산프라자 1층","category":"음식점업 - 일반음식점"}]},{"lat":"37.470823556","long":"126.78437927","items":[{"name":"주식회사 성화개발","tel":"","addr":"경기도 시흥시 대야동 1-173번지","category":"음식점업 - 제과점업 등"}]},{"lat":"37.443021298","long":"126.79072045","items":[{"name":"주식회사 풋볼아이 스포츠","tel":"031-312-9206","addr":"경기도 시흥시 대야동 536번지 동진빌딩 3층 일부","category":"스포츠및여가관련서비스업 - 축구교실"},{"name":"풋볼아이 (Football eye)","tel":"031-312-9206","addr":"경기도 시흥시 대야동 536번지 동진빌딩 3층 일부","category":"음식점업 - 축구카페"}]},{"lat":"37.452263554","long":"126.7896094","items":[{"name":"주식회사 한국지엠시흥서비스센터","tel":"031-315-4000","addr":"경기도 시흥시 대야동 140-1번지","category":"제조업 - 전문정비업"}]},{"lat":"37.446210436","long":"126.79049673","items":[{"name":"중앙산부인과의원","tel":"031-313-3333","addr":"경기도 시흥시 대야동 455-9번지","category":"보건업 - 산부인과"}]},{"lat":"37.444069081","long":"126.78719178","items":[{"name":"중앙축산물도매센터","tel":"031-315-6700","addr":"경기도 시흥시 대야동 486-4번지","category":"소매업 - 식육"}]},{"lat":"37.448287385","long":"126.78808375","items":[{"name":"지오코퍼레이션","tel":"031-311-4767","addr":"경기도 시흥시 대야동 450번지 현대아트빌 B동 101호","category":"소매업 - 등산용품"}]},{"lat":"37.443683423","long":"126.78816471","items":[{"name":"착한포차","tel":"","addr":"경기도 시흥시 대야동 489-14번지","category":"음식점업 - 음식"}]},{"lat":"37.44713298","long":"126.78746551","items":[{"name":"찬&쿡","tel":"","addr":"경기도 시흥시 대야동 461-26번지 1층 일부호","category":"소매업 - 반찬가게"}]},{"lat":"37.44484953","long":"126.78532496","items":[{"name":"참사랑어머니회 시흥지점","tel":"031-311-0807","addr":"경기도 시흥시 대야동 485-32번지","category":"보건업 - 산모도우미"}]},{"lat":"37.448818432","long":"126.79279478","items":[{"name":"채선당대야점","tel":"031-311-0574","addr":"경기도 시흥시 대야동 281번지 나성아파트13차 201호","category":"음식점업 - 한식"}]},{"lat":"37.445041289","long":"126.78671437","items":[{"name":"최양평해장국","tel":"031-314-8788","addr":"경기도 시흥시 대야동 487번지 1층","category":"음식점업 - 한식"}]},{"lat":"37.443299245","long":"126.78996255","items":[{"name":"친정맘 안산시흥","tel":"031-410-9560","addr":"경기도 시흥시 대야동 531-1번지 국민은행시흥 10층 1001호","category":"보건업 - 산후도우미"},{"name":"탑골프","tel":"031-313-8686","addr":"경기도 시흥시 대야동 531-1번지 국민은행시흥 301호","category":"개인서비스업 - 실내골프연습장"}]},{"lat":"37.440464976","long":"126.79212885","items":[{"name":"카라헤어","tel":"","addr":"경기도 시흥시 대야동 553-2번지 1층","category":"개인서비스업 - 미용"}]},{"lat":"37.440959394","long":"126.79149466","items":[{"name":"카페오브","tel":"070-7755-2500","addr":"경기도 시흥시 대야동 550-1번지 1층","category":"음식점업 - 커피숍"}]},{"lat":"37.449074298","long":"126.78976537","items":[{"name":"카페우물","tel":"","addr":"경기도 시흥시 대야동 440번지 1층 일부호","category":"기타 - 카페,쥬얼리,의류,인테리어"}]},{"lat":"37.445660321","long":"126.79021577","items":[{"name":"코리아스포츠","tel":"031-404-6121","addr":"경기도 시흥시 대야동 468-17번지 현대부품","category":"소매업 - 스포츠용품"}]},{"lat":"37.44554309","long":"126.7901596","items":[{"name":"코리아월드","tel":"","addr":"경기도 시흥시 대야동 468-18번지 2층","category":"소매업 - 스포츠용품"}]},{"lat":"37.444793306","long":"126.78907688","items":[{"name":"코사할인마트","tel":"031-318-8050","addr":"경기도 시흥시 대야동 471-17번지 1층 101호","category":"소매업 - 슈퍼마켓"}]},{"lat":"37.445215074","long":"126.78813774","items":[{"name":"콩순이다방","tel":"","addr":"경기도 시흥시 대야동 471-29번지 1층","category":"음식점업 - 카페"}]},{"lat":"37.446044892","long":"126.78863259","items":[{"name":"탐나짬뽕","tel":"031-313-4678","addr":"경기도 시흥시 대야동 467-23번지","category":"음식점업 - 중식"}]},{"lat":"37.444989558","long":"126.78799147","items":[{"name":"태기산횡선축산","tel":"031-311-4585","addr":"경기도 시흥시 대야동 470번지","category":"소매업 - 식육"},{"name":"한일공인중개사","tel":"031-404-5520","addr":"경기도 시흥시 대야동 470번지 1층","category":"개인서비스업 - 부동산"}]},{"lat":"37.469846157","long":"126.78205344","items":[{"name":"태평","tel":"032-663-3477","addr":"경기도 시흥시 대야동 3-31번지","category":"소매업 - 가공식품"}]},{"lat":"37.440374977","long":"126.7921856","items":[{"name":"탱자","tel":"","addr":"경기도 시흥시 대야동 553-3번지 영신화공 1층 102호","category":"음식점업 - 카페"}]},{"lat":"37.448794705","long":"126.78960794","items":[{"name":"터보 자동차공업사","tel":"031-311-8043","addr":"경기도 시흥시 대야동 447-7번지","category":"개인서비스업 - 카센터, 자동차세차업"}]},{"lat":"37.444707906","long":"126.79679533","items":[{"name":"토피아시흥어학원","tel":"031-313-9997","addr":"경기도 시흥시 대야동 572-3번지 문국프라자","category":"교육서비스업 - 영어학원"}]},{"lat":"37.444045725","long":"126.78921461","items":[{"name":"프롬와이","tel":"031-520-8453","addr":"경기도 시흥시 대야동 490-1번지 1층 일부호","category":"음식점업 - 커피,디저트"}]},{"lat":"37.440518834","long":"126.7920157","items":[{"name":"하구산댁 토종청국장","tel":"031-314-0093","addr":"경기도 시흥시 대야동 553-1번지 1층","category":"음식점업 - 한식"}]},{"lat":"37.448576995","long":"126.78879489","items":[{"name":"하나로농자재센타","tel":"031-311-6666","addr":"경기도 시흥시 대야동 447번지 시흥캡스빌 101호","category":"소매업 - 농약,씨앗,비료,농자재"}]},{"lat":"37.444827235","long":"126.78791283","items":[{"name":"하이트 클래스","tel":"031-312-8892","addr":"경기도 시흥시 대야동 470-5번지","category":"음식점업 - 일반음식점"}]},{"lat":"37.446291143","long":"126.78533209","items":[{"name":"한량이야기","tel":"","addr":"경기도 시흥시 대야동 478-1번지 석윤스카이빌 A동 102호","category":"음식점업 - 일반음식점"}]},{"lat":"37.453681303","long":"126.79137975","items":[{"name":"한신가든","tel":"031-314-5158","addr":"경기도 시흥시 대야동 201-11번지","category":"음식점업 - 한식점업"}]},{"lat":"37.445930274","long":"126.7900229","items":[{"name":"한신부동산","tel":"031-404-9511","addr":"경기도 시흥시 대야동 455-4번지","category":"개인서비스업 - 부동산중개업"},{"name":"한신플러스공인중개사","tel":"031-404-9511","addr":"경기도 시흥시 대야동 455-4번지","category":"개인서비스업 - 부동산중개업"}]},{"lat":"37.443492341","long":"126.78713694","items":[{"name":"한아름 DC 백화점","tel":"031-313-5885","addr":"경기도 시흥시 대야동 492-29번지 1층","category":"소매업 - 슈퍼마켓"}]},{"lat":"37.462185872","long":"126.79090368","items":[{"name":"한우리쭈꾸미","tel":"031-312-0610","addr":"경기도 시흥시 대야동 39-2번지","category":"음식점업 - 일반음식점"}]},{"lat":"37.447433488","long":"126.78921628","items":[{"name":"한울림 석사 태권도","tel":"031-313-1369","addr":"경기도 시흥시 대야동 457-5번지","category":"교육서비스업 - 태권도"}]},{"lat":"37.445576413","long":"126.78374078","items":[{"name":"한화세일마트","tel":"031-312-1178","addr":"경기도 시흥시 대야동 482-1번지","category":"소매업 - 슈퍼마켓"}]},{"lat":"37.444631289","long":"126.78424075","items":[{"name":"해인회집","tel":"","addr":"경기도 시흥시 대야동 483-5번지","category":"음식점업 - 횟집"}]},{"lat":"37.439375857","long":"126.79274208","items":[{"name":"행복나무심리상담센터","tel":"031-499-3264","addr":"경기도 시흥시 대야동 558-4번지 한국빌딩 4층 401호","category":"개인서비스업 - 심리상담"}]},{"lat":"37.443959019","long":"126.78612987","items":[{"name":"행복스토리","tel":"","addr":"경기도 시흥시 대야동 494-16번지","category":"소매업 - 도소매, 문구류외"}]},{"lat":"37.449463028","long":"126.79048754","items":[{"name":"행복을주는식당","tel":"031-404-7603","addr":"경기도 시흥시 대야동 440-14번지 1층","category":"음식점업 - 한식"}]},{"lat":"37.452739671","long":"126.78882823","items":[{"name":"허브나무","tel":"","addr":"경기도 시흥시 대야동 139-13번지 1층","category":"음식점업 - 커피숍,허브용품"}]},{"lat":"37.447350637","long":"126.78824464","items":[{"name":"헤어코코","tel":"031-315-0774","addr":"경기도 시흥시 대야동 460-17번지 1층 헤어코코","category":"개인서비스업 - 미용"}]},{"lat":"37.443935845","long":"126.78824309","items":[{"name":"호식이두마리치킨","tel":"031-311-9908","addr":"경기도 시흥시 대야동 489-2번지 1층 1호","category":"음식점업 - 치킨"}]},{"lat":"37.44399348","long":"126.78527094","items":[{"name":"화푸드화닭발","tel":"","addr":"경기도 시흥시 대야동 495-1번지 1층 화푸드","category":"소매업 - 전자상거래(식품)"}]},{"lat":"37.448159317","long":"126.79201685","items":[{"name":"힐커피","tel":"","addr":"경기도 시흥시 대야동 345-16번지 1층 일부호","category":"음식점업 - 카페"}]}]