[{"lat":"37.410965606","long":"126.91164899","items":[{"name":"(주)건축사사무소 백향목","tel":"031-471-2052","addr":"경기도 안양시 만안구 석수동 325-11번지","category":"용역 서비스 - 사무서비스"},{"name":"벨로드","tel":"070-7786-3606","addr":"경기도 안양시 만안구 석수동 325-11번지","category":"직물 - 옷감·직물"},{"name":"수엔텍","tel":"031-473-7403","addr":"경기도 안양시 만안구 석수동 325-11번지","category":"기타 - 기계공구"},{"name":"카페아냥","tel":"","addr":"경기도 안양시 만안구 석수동 325-11번지","category":"일반휴게음식 - 서양음식"},{"name":"한중무역 (K&C Trading)","tel":"","addr":"경기도 안양시 만안구 석수동 325-11번지","category":"신변잡화 - 액세서리"}]},{"lat":"37.416165557","long":"126.91314508","items":[{"name":"(주)공드린라이프","tel":"031-474-8253","addr":"경기도 안양시 만안구 석수동 178-6번지","category":"용역 서비스 - 가례서비스업"}]},{"lat":"37.419606044","long":"126.92387284","items":[{"name":"(주)근영종합개발","tel":"031-474-5555","addr":"경기도 안양시 만안구 석수동 825-1번지","category":"건축자재 - 부동산 분양"},{"name":"(주)와이케이동그라미 안양지점","tel":"031-471-6610","addr":"경기도 안양시 만안구 석수동 825-1번지","category":"기타의료기관 - 산후조리원"},{"name":"워터랜드매점","tel":"031-471-2356","addr":"경기도 안양시 만안구 석수동 825-1번지","category":"유통업 영리 - 슈퍼마켓"},{"name":"제이홍","tel":"031-346-7677","addr":"경기도 안양시 만안구 석수동 825-1번지","category":"일반휴게음식 - 일반한식"},{"name":"주식회사엘에이에치","tel":"031-474-5555","addr":"경기도 안양시 만안구 석수동 825-1번지","category":"회원제형태 - 레져업소"},{"name":"초록동산","tel":"02-1600-0766","addr":"경기도 안양시 만안구 석수동 825-1번지","category":"용역 서비스 - 종합용역"},{"name":"토스트다우","tel":"031-473-7827","addr":"경기도 안양시 만안구 석수동 825-1번지","category":"일반휴게음식 - 칵테일바"}]},{"lat":"37.421776619","long":"126.91029153","items":[{"name":"(주)뉴서울코리아투어","tel":"031-330-3062","addr":"경기도 안양시 만안구 석수동 93-7번지","category":"자동차정비 유지 - 주차장"},{"name":"합자회사 통일관광","tel":"031-1566-7738","addr":"경기도 안양시 만안구 석수동 93-7번지","category":"여행 - 관광여행"}]},{"lat":"37.415604624","long":"126.91015228","items":[{"name":"(주)대길전기통신","tel":"031-473-1842","addr":"경기도 안양시 만안구 석수동 274-18번지","category":"용역 서비스 - 기타용역서비스"},{"name":"대성사","tel":"031-443-0818","addr":"경기도 안양시 만안구 석수동","category":"자동차정비 유지 - 자동차정비"}]},{"lat":"37.407325434","long":"126.90051668","items":[{"name":"(주)더나누기","tel":"031-742-8781","addr":"경기도 안양시 만안구 석수동 788-1번지","category":"용역 서비스 - 사무서비스"},{"name":"Gino(지노)","tel":"","addr":"경기도 안양시 만안구 석수동 788-1번지","category":"일반휴게음식 - 서양음식"},{"name":"낙지왕자버섯공주","tel":"031-471-4656","addr":"경기도 안양시 만안구 석수동 788-1번지","category":"일반휴게음식 - 일반한식"},{"name":"아이스펀지잉글리시어학원","tel":"031-471-0051","addr":"경기도 안양시 만안구 석수동 788-1번지","category":"학원 - 외국어학원"},{"name":"아트빌","tel":"031-447-7496","addr":"경기도 안양시 만안구 석수동 788-1번지","category":"건축자재 - 기타건축자재"},{"name":"화창태권도 희망신관","tel":"031-474-4455","addr":"경기도 안양시 만안구 석수동 788-1번지","category":"학원 - 예·체능계학원"}]},{"lat":"37.433603061","long":"126.91728222","items":[{"name":"(주)맛드림","tel":"031-474-9270","addr":"경기도 안양시 만안구 석수동 6-8번지","category":"음료식품 - 기타음료식품"},{"name":"(주)맛드림","tel":"031-446-9270","addr":"경기도 안양시 만안구 석수동 6-8번지","category":"일반휴게음식 - 위탁급식업"},{"name":"드론마스터아카데미","tel":"031-455-6363","addr":"경기도 안양시 만안구 석수동 6-8번지","category":"학원 - 기타 교육기관"},{"name":"열린글사랑","tel":"031-472-4784","addr":"경기도 안양시 만안구 석수동 6-8번지","category":"서적문구 - 일반서적"}]},{"lat":"37.411466027","long":"126.90642988","items":[{"name":"(주)서해종합건설","tel":"031-473-9993","addr":"경기도 안양시 만안구 석수동 293-4번지 서해아파트","category":"일반휴게음식 - 일반한식"},{"name":"수스커피","tel":"","addr":"경기도 안양시 만안구 석수동 293-4번지 서해아파트","category":"일반휴게음식 - 서양음식"},{"name":"참나무화로구이","tel":"031-474-9993","addr":"경기도 안양시 만안구 석수동 293-4번지 서해아파트","category":"일반휴게음식 - 일반한식"},{"name":"코어 바디짐","tel":"","addr":"경기도 안양시 만안구 석수동 293-4번지 서해아파트","category":"레저업소 - 헬스클럽"}]},{"lat":"37.41119006","long":"126.91062084","items":[{"name":"(주)에쓰아이","tel":"031-472-2649","addr":"경기도 안양시 만안구 석수동 317번지","category":"기타 - 기계공구"},{"name":"강촌라이브","tel":"031-472-6674","addr":"경기도 안양시 만안구 석수동 317번지","category":"일반휴게음식 - 주점"},{"name":"명랑노래연습장","tel":"031-472-7742","addr":"경기도 안양시 만안구 석수동 317번지","category":"레저업소 - 노 래 방"},{"name":"세븐일레븐안양대교점","tel":"031-1577-0711","addr":"경기도 안양시 만안구 석수동 317번지","category":"유통업 영리 - 편 의 점"},{"name":"피자스쿨석수전화국점","tel":"031-474-2888","addr":"경기도 안양시 만안구 석수동 317번지","category":"일반휴게음식 - 서양음식"}]},{"lat":"37.424490527","long":"126.91272844","items":[{"name":"(주)우양테크","tel":"031-472-3680","addr":"경기도 안양시 만안구 석수동 61번지","category":"기타 - 기타 전문점"},{"name":"얄미운푸줏간","tel":"031-472-1283","addr":"경기도 안양시 만안구 석수동 61번지","category":"일반휴게음식 - 일반한식"}]},{"lat":"37.410749495","long":"126.91181869","items":[{"name":"(주)웅진상사","tel":"031-73-1133","addr":"경기도 안양시 만안구 석수동 325-13번지","category":"전기제품 - 가전제품"},{"name":"고구려방재(주)","tel":"031-473-4911","addr":"경기도 안양시 만안구 석수동 325-13번지","category":"용역 서비스 - 기타용역서비스"},{"name":"다모아당구장","tel":"","addr":"경기도 안양시 만안구 석수동 325-13번지","category":"레저업소 - 당 구 장"},{"name":"송이네포차","tel":"031-473-5156","addr":"경기도 안양시 만안구 석수동 325-13번지","category":"일반휴게음식 - 일반한식"},{"name":"행복한 밥상","tel":"031-474-0308","addr":"경기도 안양시 만안구 석수동 325-13번지","category":"일반휴게음식 - 일반한식"},{"name":"호프광장","tel":"031-472-2377","addr":"경기도 안양시 만안구 석수동 325-13번지","category":"일반휴게음식 - 주점"}]},{"lat":"37.428331073","long":"126.90428422","items":[{"name":"(주)정현금속","tel":"031-473-5100","addr":"경기도 안양시 만안구 석수동 392-11번지","category":"기타 - 기계공구"}]},{"lat":"37.435879043","long":"126.90140434","items":[{"name":"(주)효성펌프테크","tel":"","addr":"경기도 안양시 만안구 석수동 356-3번지","category":"기타 - 기계공구"}]},{"lat":"37.408909637","long":"126.90950542","items":[{"name":"10년타기 정비센타","tel":"031-472-2085","addr":"경기도 안양시 만안구 석수동 297-6번지","category":"자동차정비 유지 - 자동차정비"},{"name":"선일홈오토메이션","tel":"031-449-2649","addr":"경기도 안양시 만안구 석수동 297-6번지","category":"용역 서비스 - 기타용역서비스"},{"name":"오성상사","tel":"031-477-1250","addr":"경기도 안양시 만안구 석수동 297-6번지","category":"기타 - 기계공구"},{"name":"용MTB","tel":"031-474-6763","addr":"경기도 안양시 만안구 석수동 297-6번지","category":"레져용품 - 스포츠·레져용품"}]},{"lat":"37.418354005","long":"126.91184337","items":[{"name":"24시 마음든든동물병원","tel":"031-474-2475","addr":"경기도 안양시 만안구 석수동 168-27번지","category":"기타의료기관 - 동물병원"},{"name":"관악센타빌딩/삼성웰빙사우나","tel":"031-474-4546","addr":"경기도 안양시 만안구 석수동 168-27번지","category":"보건위생 - 사우나"},{"name":"착한김밥집","tel":"031-474-3030","addr":"경기도 안양시 만안구 석수동 168-27번지","category":"일반휴게음식 - 스넥"}]},{"lat":"37.417747112","long":"126.9077548","items":[{"name":"2동공판장","tel":"031-471-0872","addr":"경기도 안양시 만안구 석수동 266-10번지","category":"유통업 영리 - 슈퍼마켓"}]},{"lat":"37.412772097","long":"126.90595379","items":[{"name":"3030영어 석수러닝센터","tel":"031-473-3030","addr":"경기도 안양시 만안구 석수동 341-2번지 삼아연립","category":"학원 - 보습학원"}]},{"lat":"37.41643626","long":"126.91367568","items":[{"name":"33떡볶이안양석수점","tel":"031-473-3395","addr":"경기도 안양시 만안구 석수동 177-6번지","category":"일반휴게음식 - 스넥"},{"name":"교촌치킨 석수1호점","tel":"031-473-9922","addr":"경기도 안양시 만안구 석수동 177-6번지","category":"일반휴게음식 - 스넥"},{"name":"나이스큐 당구장","tel":"","addr":"경기도 안양시 만안구 석수동 177-6번지","category":"레저업소 - 당 구 장"},{"name":"대림전기조명","tel":"031-471-7400","addr":"경기도 안양시 만안구 석수동 177-6번지","category":"건축자재 - 조명기구"},{"name":"바비헤어","tel":"031-473-9107","addr":"경기도 안양시 만안구 석수동 177-6번지","category":"보건위생 - 미용원"},{"name":"별나라푸드잔치","tel":"031-471-3311","addr":"경기도 안양시 만안구 석수동 177-6번지","category":"일반휴게음식 - 일반한식"},{"name":"삼예인터디자인","tel":"031-474-1577","addr":"경기도 안양시 만안구 석수동 177-6번지","category":"건축자재 - 인테리어전문"},{"name":"생명약국","tel":"031-473-2155","addr":"경기도 안양시 만안구 석수동 177-6번지","category":"약국 - 약국"},{"name":"스위트 하트 도그","tel":"031-471-5005","addr":"경기도 안양시 만안구 석수동 177-6번지","category":"문화.취미 - 애완동물"},{"name":"영어숲 윤성생영어 안양 석수","tel":"031-471-1335","addr":"경기도 안양시 만안구 석수동","category":"학원 - 학습지 교육"},{"name":"자연속이야기(쌀눈쌀 현미누룽지)","tel":"031-466-6465","addr":"경기도 안양시 만안구 석수동 177-6번지","category":"음료식품 - 기타음료식품"},{"name":"칠일공사","tel":"031-473-7104","addr":"경기도 안양시 만안구 석수동 177-6번지","category":"건축자재 - 페인트"},{"name":"커피에반하다 안양석수점","tel":"031-342-4647","addr":"경기도 안양시 만안구 석수동 177-6번지","category":"일반휴게음식 - 서양음식"},{"name":"한우리","tel":"031-341-0991","addr":"경기도 안양시 만안구 석수동 177-6번지","category":"회원제형태 - 서적"}]},{"lat":"37.411163723","long":"126.91151321","items":[{"name":"40년전통할머니추어탕","tel":"031-472-1003","addr":"경기도 안양시 만안구 석수동 325-6번지","category":"일반휴게음식 - 일반한식"}]},{"lat":"37.412827087","long":"126.90709458","items":[{"name":"59년왕십리호프치킨","tel":"031-341-0043","addr":"경기도 안양시 만안구 석수동 291-1번지","category":"일반휴게음식 - 주점"},{"name":"SHT산업","tel":"02-808-4544","addr":"경기도 안양시 만안구 석수동 291-1번지","category":"용역 서비스 - 사무서비스"},{"name":"중앙미용실","tel":"031-472-7606","addr":"경기도 안양시 만안구 석수동 291-1번지","category":"보건위생 - 미용원"},{"name":"한우돈블러정육식당","tel":"031-471-3603","addr":"경기도 안양시 만안구 석수동 291-1번지","category":"일반휴게음식 - 일반한식"},{"name":"해인미트","tel":"031-473-1534","addr":"경기도 안양시 만안구 석수동 291-1번지","category":"음료식품 - 정육점"}]},{"lat":"37.410388226","long":"126.91070089","items":[{"name":"B.L메딕스","tel":"031-341-2022","addr":"경기도 안양시 만안구 석수동 311-3번지","category":"보건위생 - 의료용품"},{"name":"큐사랑","tel":"","addr":"경기도 안양시 만안구 석수동 311-3번지","category":"보건위생 - 화장품"},{"name":"호심","tel":"031-473-8244","addr":"경기도 안양시 만안구 석수동 311-3번지","category":"일반휴게음식 - 칵테일바"}]},{"lat":"37.427607639","long":"126.90117825","items":[{"name":"BHC치킨석수행복점","tel":"031-473-9250","addr":"경기도 안양시 만안구 석수동 484번지","category":"일반휴게음식 - 스넥"},{"name":"관인예인음악학원","tel":"031-471-5488","addr":"경기도 안양시 만안구 석수동","category":"학원 - 예·체능계학원"},{"name":"석수사우나","tel":"031-471-6808","addr":"경기도 안양시 만안구 석수동 484번지 석수엘지빌리지","category":"보건위생 - 사우나"},{"name":"석수엘지빌리지입주자대표회의","tel":"031-474-1842","addr":"경기도 안양시 만안구 석수동 484번지 석수엘지빌리지","category":"용역 서비스 - 종합용역"},{"name":"엘지세탁소","tel":"031-474-6555","addr":"경기도 안양시 만안구 석수동 484번지 석수엘지빌리지","category":"수리서비스 - 세탁소"},{"name":"연현로커피","tel":"031-474-4958","addr":"경기도 안양시 만안구 석수동 484번지","category":"일반휴게음식 - 서양음식"},{"name":"연현어린이집[아이행복]","tel":"031-471-5325","addr":"경기도 안양시 만안구 석수동 484번지","category":"학원 - 유아원"},{"name":"용호수산","tel":"031-471-8282","addr":"경기도 안양시 만안구 석수동 484번지","category":"음료식품 - 농·축·수산품"},{"name":"자이슈퍼","tel":"031-471-3350","addr":"경기도 안양시 만안구 석수동","category":"유통업 영리 - 슈퍼마켓"},{"name":"제넥스학원","tel":"031-473-0076","addr":"경기도 안양시 만안구 석수동 484번지","category":"학원 - 기타 교육기관"},{"name":"지니어스학원","tel":"031-472-0590","addr":"경기도 안양시 만안구 석수동","category":"학원 - 보습학원"},{"name":"프라임내과의원","tel":"031-471-6830","addr":"경기도 안양시 만안구 석수동","category":"의원 - 의원"}]},{"lat":"37.410357947","long":"126.90662332","items":[{"name":"CEN스포츠","tel":"031-387-9005","addr":"경기도 안양시 만안구 석수동 294-6번지","category":"레져용품 - 스포츠·레져용품"}]},{"lat":"37.421549984","long":"126.90854078","items":[{"name":"EM 지구를 살리는사람들","tel":"031-123-4567","addr":"경기도 안양시 만안구 석수동 101-60번지","category":"신변잡화 - 기타잡화"},{"name":"무진향","tel":"031-470-3118","addr":"경기도 안양시 만안구 석수동 101-60번지","category":"회원제형태 - 서적"}]},{"lat":"37.41741468","long":"126.90893004","items":[{"name":"FX수산/에프엑스렌트 (주)","tel":"","addr":"경기도 안양시 만안구 석수동 268-1번지","category":"음료식품 - 농·축·수산품"},{"name":"동경전파사","tel":"031-472-4429","addr":"경기도 안양시 만안구 석수동 268-1번지","category":"용역 서비스 - 기타용역서비스"},{"name":"스킨샵","tel":"031-341-5885","addr":"경기도 안양시 만안구 석수동 268-1번지","category":"보건위생 - 화장품"},{"name":"연주네반찬가게","tel":"070-8117-6644","addr":"경기도 안양시 만안구 석수동 268-1번지","category":"음료식품 - 기타음료식품"},{"name":"열린상사","tel":"031-348-5242","addr":"경기도 안양시 만안구 석수동 268-1번지","category":"신변잡화 - 기타잡화"},{"name":"전주식당","tel":"031-471-3052","addr":"경기도 안양시 만안구 석수동 268-1번지","category":"일반휴게음식 - 일반한식"},{"name":"진영식당","tel":"031-471-7750","addr":"경기도 안양시 만안구 석수동 268-1번지","category":"일반휴게음식 - 일반한식"},{"name":"행운전기조명인테리어","tel":"031-444-9886","addr":"경기도 안양시 만안구 석수동 268-1번지","category":"건축자재 - 조명기구"}]},{"lat":"37.415858178","long":"126.91178991","items":[{"name":"GS25안양대림점","tel":"","addr":"경기도 안양시 만안구 석수동 183-45번지","category":"유통업 영리 - 편 의 점"}]},{"lat":"37.415775218","long":"126.90939523","items":[{"name":"GS25안양무림점","tel":"","addr":"경기도 안양시 만안구 석수동 275-2번지","category":"유통업 영리 - 편 의 점"},{"name":"무림슈퍼","tel":"031-471-4610","addr":"경기도 안양시 만안구 석수동 275-2번지","category":"유통업 영리 - 슈퍼마켓"}]},{"lat":"37.42240855","long":"126.91187235","items":[{"name":"GS25안양삼막타운","tel":"","addr":"경기도 안양시 만안구 석수동 94번지","category":"유통업 영리 - 편 의 점"}]},{"lat":"37.433853765","long":"126.90373463","items":[{"name":"GS25안양석수역점","tel":"","addr":"경기도 안양시 만안구 석수동 374-12번지","category":"유통업 영리 - 편 의 점"},{"name":"경인한의원","tel":"031-471-9900","addr":"경기도 안양시 만안구 석수동 374-12번지","category":"의원 - 한의원"},{"name":"비와별닭갈비(석수역점)","tel":"070-8775-9555","addr":"경기도 안양시 만안구 석수동 374-12번지","category":"일반휴게음식 - 일반한식"},{"name":"숨쉬는공방","tel":"","addr":"경기도 안양시 만안구 석수동 374-12번지","category":"신변잡화 - 기타잡화"},{"name":"우리집공인중개사","tel":"031-471-6501","addr":"경기도 안양시 만안구 석수동 374-12번지","category":"용역 서비스 - 부동산 중개·임대"},{"name":"유용재치과의원","tel":"031-342-6930","addr":"경기도 안양시 만안구 석수동 374-12번지","category":"의원 - 치과의원"}]},{"lat":"37.415162446","long":"126.90928303","items":[{"name":"GnB영어전문교육","tel":"031-474-9557","addr":"경기도 안양시 만안구 석수동 274-48번지","category":"회원제형태 - 서적"},{"name":"젬마머리마루미용실","tel":"031-472-8418","addr":"경기도 안양시 만안구 석수동 274-48번지","category":"보건위생 - 미용원"}]},{"lat":"37.423491719","long":"126.91445812","items":[{"name":"Go Too Shop","tel":"070-7560-1411","addr":"경기도 안양시 만안구 석수동 산49-3번지","category":"회원제형태 - 기타4"}]},{"lat":"37.414053436","long":"126.90831297","items":[{"name":"HD현대광고기획","tel":"031-473-9608","addr":"경기도 안양시 만안구 석수동 281-4번지","category":"용역 서비스 - 종합용역"},{"name":"골프로마트","tel":"031-472-3311","addr":"경기도 안양시 만안구 석수동 281-4번지","category":"음료식품 - 기타음료식품"},{"name":"금산인삼건강원","tel":"","addr":"경기도 안양시 만안구 석수동 281-4번지","category":"건강식품 - 기타건강식품"},{"name":"노세(노가리세상)","tel":"031-472-3535","addr":"경기도 안양시 만안구 석수동 281-4번지","category":"일반휴게음식 - 일반한식"},{"name":"알레프(aleph coperation)","tel":"031-687-8797","addr":"경기도 안양시 만안구 석수동 281-4번지","category":"신변잡화 - 기타잡화"},{"name":"오블리뷰티","tel":"031-472-9777","addr":"경기도 안양시 만안구 석수동 281-4번지","category":"보건위생 - 피부미용실"},{"name":"주식회사육송이엔지","tel":"031-474-4751","addr":"경기도 안양시 만안구 석수동 281-4번지","category":"건축자재 - 기타건축자재"},{"name":"한일상사","tel":"031-471-0044","addr":"경기도 안양시 만안구 석수동 281-4번지","category":"수리서비스 - 기타수리서비스"},{"name":"현대기획","tel":"031-473-5008","addr":"경기도 안양시 만안구 석수동 281-4번지","category":"용역 서비스 - 종합용역"}]},{"lat":"37.41652246","long":"126.90864875","items":[{"name":"HERA헤어샵","tel":"","addr":"경기도 안양시 만안구 석수동 275-1번지","category":"보건위생 - 미용원"},{"name":"경희한의원","tel":"031-473-7790","addr":"경기도 안양시 만안구 석수동 275-1번지","category":"의원 - 한의원"},{"name":"광성프린테크(주)","tel":"02-2285-2042","addr":"경기도 안양시 만안구 석수동 275-1번지 현대아파트","category":"서적문구 - 출판 및 인쇄물"},{"name":"꽃방미용실","tel":"031-472-7573","addr":"경기도 안양시 만안구 석수동 275-1번지","category":"보건위생 - 미용원"},{"name":"꿈꾸는 스케치북 미술교습소","tel":"031-472-6703","addr":"경기도 안양시 만안구 석수동 275-1번지 현대아파트","category":"학원 - 예·체능계학원"},{"name":"덩덕쿵음악교습소","tel":"031-473-1686","addr":"경기도 안양시 만안구 석수동 275-1번지","category":"학원 - 예·체능계학원"},{"name":"미즈포스","tel":"031-473-8254","addr":"경기도 안양시 만안구 석수동 275-1번지 현대아파트","category":"사무통신 - 통신기기"},{"name":"별하네일","tel":"070-7798-1591","addr":"경기도 안양시 만안구 석수동 275-1번지","category":"보건위생 - 피부미용실"},{"name":"브랑제리과자점","tel":"031-474-0804","addr":"경기도 안양시 만안구 석수동 275-1번지","category":"음료식품 - 제과점"},{"name":"삼성영어현대영어교습소","tel":"070-4001-0567","addr":"경기도 안양시 만안구 석수동 275-1번지","category":"회원제형태 - 학원"},{"name":"석수음악학원","tel":"","addr":"경기도 안양시 만안구 석수동 275-1번지","category":"학원 - 예·체능계학원"},{"name":"석수체육관","tel":"031-472-0402","addr":"경기도 안양시 만안구 석수동 275-1번지","category":"학원 - 예·체능계학원"},{"name":"쉽게푸는해법수학교습소","tel":"031-471-3646","addr":"경기도 안양시 만안구 석수동 275-1번지","category":"회원제형태 - 학원"},{"name":"인피니티","tel":"031-471-2786","addr":"경기도 안양시 만안구 석수동 275-1번지","category":"수리서비스 - 세탁소"},{"name":"잉크블루","tel":"031-473-3838","addr":"경기도 안양시 만안구 석수동","category":"사무통신 - 기타 사무용품"},{"name":"정피아노 음악교습소","tel":"031-471-6303","addr":"경기도 안양시 만안구 석수동 275-1번지","category":"학원 - 예·체능계학원"},{"name":"초롱서희","tel":"031-446-6600","addr":"경기도 안양시 만안구 석수동 275-1번지","category":"보건위생 - 화장품"},{"name":"현대 토탈인테리어","tel":"063-284-0477","addr":"경기도 안양시 만안구 석수동 275-1번지","category":"건축자재 - 인테리어전문"},{"name":"현대문구","tel":"031-474-1919","addr":"경기도 안양시 만안구 석수동","category":"서적문구 - 문구용품"},{"name":"현대한우촌","tel":"031-473-7003","addr":"경기도 안양시 만안구 석수동 275-1번지 현대아파트","category":"음료식품 - 정육점"},{"name":"홍가위미용실","tel":"031-471-0679","addr":"경기도 안양시 만안구 석수동 275-1번지","category":"보건위생 - 미용원"}]},{"lat":"37.412771642","long":"126.9054003","items":[{"name":"J.R카이스트study","tel":"031-472-8634","addr":"경기도 안양시 만안구 석수동 345-7번지 경은빌라","category":"회원제형태 - 학원"}]},{"lat":"37.414332058","long":"126.90745413","items":[{"name":"KD케미칼","tel":"031-474-1125","addr":"경기도 안양시 만안구 석수동","category":"신변잡화 - 기타잡화"},{"name":"대안자동차공업사","tel":"031-474-5564","addr":"경기도 안양시 만안구 석수동 283-16번지","category":"자동차정비 유지 - 자동차정비"}]},{"lat":"37.411746682","long":"126.90808996","items":[{"name":"LG공인중개사사무소","tel":"031-473-5050","addr":"경기도 안양시 만안구 석수동","category":"용역 서비스 - 부동산 중개·임대"}]},{"lat":"37.429437458","long":"126.90209092","items":[{"name":"LG헤어갤러리","tel":"031-472-1910","addr":"경기도 안양시 만안구 석수동 415-2번지 석수엘지빌리지","category":"보건위생 - 미용원"},{"name":"미원떡방아간","tel":"031-474-8775","addr":"경기도 안양시 만안구 석수동","category":"음료식품 - 제과점"},{"name":"별난속눈썹","tel":"070-4102-1035","addr":"경기도 안양시 만안구 석수동 415-2번지","category":"보건위생 - 기타대인서비스"},{"name":"보보스헤어클럽","tel":"031-473-6509","addr":"경기도 안양시 만안구 석수동 415-2번지","category":"보건위생 - 미용원"},{"name":"서연고학원","tel":"031-474-5940","addr":"경기도 안양시 만안구 석수동 415-2번지","category":"학원 - 보습학원"},{"name":"아이꼬모디자인미술교습소","tel":"031-474-0788","addr":"경기도 안양시 만안구 석수동 415-2번지","category":"학원 - 예·체능계학원"},{"name":"처갓집양념치킨 석수엘지점","tel":"031-474-5592","addr":"경기도 안양시 만안구 석수동 415-2번지","category":"일반휴게음식 - 스넥"},{"name":"크리스탈","tel":"031-473-1276","addr":"경기도 안양시 만안구 석수동","category":"보건위생 - 화장품"},{"name":"허밍케이크(Humming cake)","tel":"","addr":"경기도 안양시 만안구 석수동 415-2번지","category":"음료식품 - 기타음료식품"}]},{"lat":"37.414913893","long":"126.91411803","items":[{"name":"NOLL PC방","tel":"031-555-7896","addr":"경기도 안양시 만안구 석수동 182-2번지 석수e-편한세상아파트","category":"레저업소 - 기타레져업소"},{"name":"김밥천국","tel":"031-471-9915","addr":"경기도 안양시 만안구 석수동","category":"일반휴게음식 - 스넥"},{"name":"대림고려태권도체육관","tel":"031-474-7844","addr":"경기도 안양시 만안구 석수동","category":"학원 - 예·체능계학원"},{"name":"대림떡집","tel":"031-471-6063","addr":"경기도 안양시 만안구 석수동","category":"음료식품 - 제과점"},{"name":"대림문구","tel":"031-471-0520","addr":"경기도 안양시 만안구 석수동 182-2번지","category":"서적문구 - 문구용품"},{"name":"대림어린이집[아이행복]","tel":"031-347-5656","addr":"경기도 안양시 만안구 석수동 182-2번지 석수e-편한세상아파트","category":"학원 - 유아원"},{"name":"또봉이통닭","tel":"031-472-6288","addr":"경기도 안양시 만안구 석수동 182-2번지","category":"일반휴게음식 - 스넥"},{"name":"미래리더스학원","tel":"031-472-5237","addr":"경기도 안양시 만안구 석수동 182-2번지","category":"학원 - 보습학원"},{"name":"미래리더스학원","tel":"031-472-0579","addr":"경기도 안양시 만안구 석수동 182-2번지","category":"학원 - 보습학원"},{"name":"밝은햇살어린이집[아이행복]","tel":"031-474-2028","addr":"경기도 안양시 만안구 석수동 182-2번지 석수e-편한세상아파트","category":"학원 - 유아원"},{"name":"삼아약국","tel":"031-474-1077","addr":"경기도 안양시 만안구 석수동 182-2번지","category":"약국 - 약국"},{"name":"샘물반찬","tel":"031-474-8100","addr":"경기도 안양시 만안구 석수동 182-2번지 석수e-편한세상아파트","category":"음료식품 - 기타음료식품"},{"name":"쉬즈헤어","tel":"031-474-2486","addr":"경기도 안양시 만안구 석수동 182-2번지","category":"보건위생 - 미용원"},{"name":"신연세음악학원","tel":"031-471-3545","addr":"경기도 안양시 만안구 석수동 182-2번지 석수e-편한세상아파트","category":"학원 - 예·체능계학원"},{"name":"에디슨아트랩미술교습소","tel":"","addr":"경기도 안양시 만안구 석수동 182-2번지","category":"학원 - 예·체능계학원"},{"name":"에프엑스대림수산","tel":"","addr":"경기도 안양시 만안구 석수동 182-2번지","category":"음료식품 - 농·축·수산품"},{"name":"엠엔이학원","tel":"031-474-6545","addr":"경기도 안양시 만안구 석수동 182-2번지","category":"학원 - 보습학원"},{"name":"오즈헤어","tel":"031-472-3303","addr":"경기도 안양시 만안구 석수동 182-2번지","category":"보건위생 - 미용원"},{"name":"요런떡볶이(석수1호점)","tel":"","addr":"경기도 안양시 만안구 석수동 182-2번지","category":"일반휴게음식 - 일반한식"},{"name":"자유국어교습소","tel":"031-472-0911","addr":"경기도 안양시 만안구 석수동 182-2번지","category":"학원 - 보습학원"},{"name":"크린나라 이편안점","tel":"031-474-1202","addr":"경기도 안양시 만안구 석수동 182-2번지","category":"수리서비스 - 세탁소"},{"name":"투투떡볶이","tel":"031-360-2232","addr":"경기도 안양시 만안구 석수동 182-2번지","category":"일반휴게음식 - 스넥"},{"name":"하우스터디 안양석수스터디카페","tel":"031-454-2233","addr":"경기도 안양시 만안구 석수동 182-2번지","category":"용역 서비스 - 사무서비스"},{"name":"한우한돈 정육마을","tel":"031-474-2800","addr":"경기도 안양시 만안구 석수동 182-2번지","category":"음료식품 - 정육점"},{"name":"해와솔독서실","tel":"031-474-4747","addr":"경기도 안양시 만안구 석수동 182-2번지","category":"학원 - 독서실"}]},{"lat":"37.417133891","long":"126.90708909","items":[{"name":"TMI","tel":"031-474-8245","addr":"경기도 안양시 만안구 석수동 265-11번지","category":"레져용품 - 스포츠·레져용품"},{"name":"나래미용가구","tel":"031-424-6189","addr":"경기도 안양시 만안구 석수동 265-11번지","category":"보건위생 - 미용재료"}]},{"lat":"37.416021712","long":"126.91356321","items":[{"name":"e-좋은한우","tel":"031-472-1533","addr":"경기도 안양시 만안구 석수동 178-16번지","category":"음료식품 - 정육점"}]},{"lat":"37.412359483","long":"126.90823603","items":[{"name":"가 도어락","tel":"031-473-5999","addr":"경기도 안양시 만안구 석수동 289-19번지 다미안","category":"수리서비스 - 기타수리서비스"}]},{"lat":"37.407439552","long":"126.89709418","items":[{"name":"가넷헤어","tel":"031-473-4492","addr":"경기도 안양시 만안구 석수동 753-7번지","category":"보건위생 - 미용원"},{"name":"시티칸","tel":"031-473-6764","addr":"경기도 안양시 만안구 석수동 753-7번지","category":"일반휴게음식 - 주점"},{"name":"예향","tel":"031-473-9195","addr":"경기도 안양시 만안구 석수동 753-7번지","category":"일반휴게음식 - 일반한식"}]},{"lat":"37.421912501","long":"126.91122902","items":[{"name":"가마구이찌","tel":"031-473-4337","addr":"경기도 안양시 만안구 석수동 96-1번지","category":"일반휴게음식 - 일반한식"}]},{"lat":"37.406800533","long":"126.89787442","items":[{"name":"가마솥순대국","tel":"","addr":"경기도 안양시 만안구 석수동 785-10번지","category":"일반휴게음식 - 일반한식"},{"name":"광명전기","tel":"031-471-4955","addr":"경기도 안양시 만안구 석수동 785-10번지","category":"전기제품 - 기타전기제품"},{"name":"민족사관보습학원","tel":"031-473-3377","addr":"경기도 안양시 만안구 석수동","category":"학원 - 기타 교육기관"},{"name":"부산어묵","tel":"","addr":"경기도 안양시 만안구 석수동 785-10번지","category":"일반휴게음식 - 스넥"},{"name":"충훈부로지","tel":"","addr":"경기도 안양시 만안구 석수동 785-10번지","category":"일반휴게음식 - 일식·회집"}]},{"lat":"37.405828305","long":"126.89884712","items":[{"name":"가위이야기(관악지사)","tel":"031-212-9080","addr":"경기도 안양시 만안구 석수동 781-8번지","category":"보건위생 - 미용재료"},{"name":"유화겸","tel":"070-4256-3152","addr":"경기도 안양시 만안구 석수동 781-8번지","category":"일반휴게음식 - 일반한식"},{"name":"유화겸","tel":"070-4256-3152","addr":"경기도 안양시 만안구 석수동 781-8번지","category":"일반휴게음식 - 일반한식"}]},{"lat":"37.417189671","long":"126.90923533","items":[{"name":"가족할인마트","tel":"031-474-7080","addr":"경기도 안양시 만안구 석수동 268-9번지","category":"유통업 영리 - 슈퍼마켓"},{"name":"포럼경영컨설팅(주)","tel":"031-472-7794","addr":"경기도 안양시 만안구 석수동 268-9번지","category":"회원제형태 - 기타4"}]},{"lat":"37.410964914","long":"126.91075666","items":[{"name":"가톨릭성모의원","tel":"031-473-5005","addr":"경기도 안양시 만안구 석수동 317-5번지","category":"의원 - 의원"},{"name":"큰사랑약국","tel":"031-473-6354","addr":"경기도 안양시 만안구 석수동 317-5번지","category":"약국 - 약국"}]},{"lat":"37.407359157","long":"126.89787364","items":[{"name":"가향","tel":"031-472-5511","addr":"경기도 안양시 만안구 석수동 785-14번지","category":"일반휴게음식 - 중국식"},{"name":"김쌤 바른 국어 교습소","tel":"","addr":"경기도 안양시 만안구 석수동 785-14번지","category":"학원 - 보습학원"},{"name":"생피자생","tel":"031-471-0875","addr":"경기도 안양시 만안구 석수동 785-14번지","category":"일반휴게음식 - 서양음식"},{"name":"시온독서실","tel":"070-7518-9622","addr":"경기도 안양시 만안구 석수동 785-14번지","category":"학원 - 독서실"},{"name":"아트스토밍미술학원","tel":"070-8836-4952","addr":"경기도 안양시 만안구 석수동 785-14번지","category":"학원 - 예·체능계학원"},{"name":"이디야커피 안양충훈부점","tel":"031-474-6765","addr":"경기도 안양시 만안구 석수동 785-14번지","category":"일반휴게음식 - 서양음식"},{"name":"하늘소리음악학원","tel":"031-471-4177","addr":"경기도 안양시 만안구 석수동","category":"학원 - 예·체능계학원"}]},{"lat":"37.419521342","long":"126.91864256","items":[{"name":"갈멜산기도동산","tel":"070-4171-8920","addr":"경기도 안양시 만안구 석수동 238-23번지","category":"음료식품 - 기타음료식품"},{"name":"갈멜산기도동산","tel":"070-4171-8920","addr":"경기도 안양시 만안구 석수동 238-23번지","category":"음료식품 - 기타음료식품"}]},{"lat":"37.415994434","long":"126.91323565","items":[{"name":"감각의논리미술교습소","tel":"031-471-0882","addr":"경기도 안양시 만안구 석수동 178-12번지","category":"학원 - 예·체능계학원"},{"name":"김나경헤어플렌","tel":"031-474-3373","addr":"경기도 안양시 만안구 석수동 178-12번지","category":"보건위생 - 미용원"},{"name":"제일닭집","tel":"031-472-4135","addr":"경기도 안양시 만안구 석수동 178-12번지","category":"음료식품 - 정육점"}]},{"lat":"37.412968615","long":"126.90389772","items":[{"name":"감나무집영양탕","tel":"031-474-0760","addr":"경기도 안양시 만안구 석수동 349-3번지","category":"일반휴게음식 - 일반한식"}]},{"lat":"37.406217985","long":"126.90143306","items":[{"name":"감탄떡볶이","tel":"031-474-5889","addr":"경기도 안양시 만안구 석수동 794번지","category":"일반휴게음식 - 스넥"},{"name":"아이파크자연어린이집[아이행복]","tel":"031-473-7842","addr":"경기도 안양시 만안구 석수동 794번지","category":"학원 - 유아원"},{"name":"엔퍼플헤어샵","tel":"031-471-5239","addr":"경기도 안양시 만안구 석수동 794번지","category":"보건위생 - 미용원"},{"name":"욜로펍","tel":"","addr":"경기도 안양시 만안구 석수동 794번지","category":"일반휴게음식 - 일반한식"}]},{"lat":"37.42510357","long":"126.9132022","items":[{"name":"갑오징어랑낙지랑","tel":"031-473-7487","addr":"경기도 안양시 만안구 석수동 54-6번지","category":"일반휴게음식 - 일반한식"}]},{"lat":"37.406909074","long":"126.89834865","items":[{"name":"강남공인중개사무소","tel":"031-471-0040","addr":"경기도 안양시 만안구 석수동 785-29번지","category":"용역 서비스 - 부동산 중개·임대"},{"name":"뚱보신발","tel":"031-472-8961","addr":"경기도 안양시 만안구 석수동 785-29번지","category":"신변잡화 - 신발"},{"name":"엡실론델타수학학원","tel":"031-474-6138","addr":"경기도 안양시 만안구 석수동 785-29번지","category":"회원제형태 - 학원"},{"name":"화장품백화점","tel":"031-471-4175","addr":"경기도 안양시 만안구 석수동 785-29번지","category":"보건위생 - 화장품"}]},{"lat":"37.409415789","long":"126.91153792","items":[{"name":"강변포차","tel":"031-471-3048","addr":"경기도 안양시 만안구 석수동 313-22번지","category":"일반휴게음식 - 주점"},{"name":"샤론헤어클럽","tel":"031-473-5887","addr":"경기도 안양시 만안구 석수동 313-22번지","category":"보건위생 - 미용원"}]},{"lat":"37.416891845","long":"126.9086144","items":[{"name":"강아지풀어린이집[아이행복]","tel":"031-344-1900","addr":"경기도 안양시 만안구 석수동 275-1번지 현대아파트","category":"학원 - 유아원"}]},{"lat":"37.414242358","long":"126.90795126","items":[{"name":"강정구 피자 생각","tel":"031-474-8599","addr":"경기도 안양시 만안구 석수동 281-1번지 삼우수피아아파트","category":"일반휴게음식 - 서양음식"},{"name":"다코기 (석수시장점)","tel":"031-473-3770","addr":"경기도 안양시 만안구 석수동 281-1번지 삼우수피아아파트","category":"일반휴게음식 - 스넥"},{"name":"라미샵 (Rami #)","tel":"070-7576-1810","addr":"경기도 안양시 만안구 석수동 281-1번지 삼우수피아아파트","category":"보건위생 - 미용원"},{"name":"막퍼주는집","tel":"031-466-6285","addr":"경기도 안양시 만안구 석수동 281-1번지 삼우수피아아파트","category":"음료식품 - 농·축·수산품"},{"name":"바푸리포 안양석수점","tel":"070-4155-0530","addr":"경기도 안양시 만안구 석수동 281-1번지 삼우수피아아파트","category":"일반휴게음식 - 서양음식"},{"name":"스마일꽈배기","tel":"031-472-2001","addr":"경기도 안양시 만안구 석수동 281-1번지 삼우수피아아파트","category":"음료식품 - 기타음료식품"},{"name":"요거프레소안양석수점","tel":"031-472-7770","addr":"경기도 안양시 만안구 석수동 281-1번지 삼우수피아아파트","category":"일반휴게음식 - 서양음식"},{"name":"포미 에이.엔","tel":"031-245-1909","addr":"경기도 안양시 만안구 석수동 281-1번지 삼우수피아아파트","category":"보건위생 - 화장품"}]},{"lat":"37.41602161","long":"126.91342766","items":[{"name":"개념원리석수제일학원","tel":"031-473-7749","addr":"경기도 안양시 만안구 석수동 178-15번지","category":"학원 - 보습학원"},{"name":"밝은눈안경 관악역점","tel":"031-471-3223","addr":"경기도 안양시 만안구 석수동 178-15번지","category":"보건위생 - 안경"},{"name":"지오지아미용실","tel":"031-464-0012","addr":"경기도 안양시 만안구 석수동 178-15번지","category":"보건위생 - 미용원"}]},{"lat":"37.424274312","long":"126.91276259","items":[{"name":"개맘대로(행복이랑 장수랑 신나게)","tel":"","addr":"경기도 안양시 만안구 석수동 63-3번지","category":"문화.취미 - 애완동물"},{"name":"상큼한하루","tel":"031-472-7001","addr":"경기도 안양시 만안구 석수동 63-3번지","category":"일반휴게음식 - 일반한식"},{"name":"원주옻닭전문점","tel":"031-471-3111","addr":"경기도 안양시 만안구 석수동 63-3번지","category":"일반휴게음식 - 일반한식"}]},{"lat":"37.40666494","long":"126.89737764","items":[{"name":"개성연출","tel":"","addr":"경기도 안양시 만안구 석수동 759-7번지","category":"보건위생 - 미용원"},{"name":"세진전자","tel":"031-471-5096","addr":"경기도 안양시 만안구 석수동 759-7번지","category":"전기제품 - 기타전기제품"},{"name":"진미아구랑고기랑전문","tel":"031-471-6877","addr":"경기도 안양시 만안구 석수동 759-7번지","category":"일반휴게음식 - 일반한식"}]},{"lat":"37.418215889","long":"126.90807051","items":[{"name":"갤러리","tel":"031-471-5854","addr":"경기도 안양시 만안구 석수동 263-12번지 아트파크","category":"보건위생 - 미용원"}]},{"lat":"37.425636753","long":"126.90390364","items":[{"name":"건강하고 바른운동 GYM","tel":"031-474-2910","addr":"경기도 안양시 만안구 석수동 494-3번지","category":"레저업소 - 헬스클럽"},{"name":"쎄이학원","tel":"031-473-0127","addr":"경기도 안양시 만안구 석수동 494-3번지","category":"학원 - 예·체능계학원"},{"name":"참뜻푸드","tel":"031-474-6106","addr":"경기도 안양시 만안구 석수동 494-3번지","category":"음료식품 - 정육점"},{"name":"키트(kit)","tel":"031-471-0501","addr":"경기도 안양시 만안구 석수동 494-3번지","category":"일반휴게음식 - 일반한식"},{"name":"힐탑스크린골프","tel":"031-471-0787","addr":"경기도 안양시 만안구 석수동 494-3번지","category":"레저업소 - 스크린골프"}]},{"lat":"37.413827832","long":"126.90787272","items":[{"name":"건국우유 석수보급소","tel":"031-475-4636","addr":"경기도 안양시 만안구 석수동","category":"음료식품 - 기타음료식품"}]},{"lat":"37.421298251","long":"126.90923021","items":[{"name":"건형ENG","tel":"031-474-7728","addr":"경기도 안양시 만안구 석수동 101-8번지","category":"용역 서비스 - 기타용역서비스"}]},{"lat":"37.409415658","long":"126.9113685","items":[{"name":"걷다보면","tel":"070-7806-1919","addr":"경기도 안양시 만안구 석수동 313-18번지","category":"일반휴게음식 - 서양음식"}]},{"lat":"37.416741085","long":"126.91168717","items":[{"name":"경남","tel":"","addr":"경기도 안양시 만안구 석수동 168-4번지 석수경남아너스빌","category":"음료식품 - 농·축·수산품"}]},{"lat":"37.420686378","long":"126.91025899","items":[{"name":"경희대 올림픽 태권도장","tel":"031-473-7337","addr":"경기도 안양시 만안구 석수동 805번지","category":"학원 - 예·체능계학원"},{"name":"그린빌어린이집[아이행복]","tel":"031-471-1034","addr":"경기도 안양시 만안구 석수동 805번지","category":"학원 - 유아원"},{"name":"닛시어학원","tel":"031-474-0508","addr":"경기도 안양시 만안구 석수동 805번지","category":"회원제형태 - 학원"},{"name":"삼성철물","tel":"031-472-8111","addr":"경기도 안양시 만안구 석수동 805번지","category":"건축자재 - 목재·석재·철물"},{"name":"서해를품다","tel":"031-471-3104","addr":"경기도 안양시 만안구 석수동 805번지","category":"일반휴게음식 - 스넥"},{"name":"수다앤커피","tel":"031-472-3607","addr":"경기도 안양시 만안구 석수동 805번지","category":"일반휴게음식 - 서양음식"},{"name":"스시빈에스","tel":"070-7011-9163","addr":"경기도 안양시 만안구 석수동 805번지","category":"일반휴게음식 - 일식·회집"},{"name":"으뜸그림미술교습소","tel":"031-474-6565","addr":"경기도 안양시 만안구 석수동","category":"회원제형태 - 학원"},{"name":"이정헤어샵","tel":"031-346-7989","addr":"경기도 안양시 만안구 석수동","category":"보건위생 - 미용원"},{"name":"크린토피아 안양구룡그린빌점","tel":"031-471-8410","addr":"경기도 안양시 만안구 석수동 805번지","category":"수리서비스 - 세탁소"},{"name":"태후사랑","tel":"070-8960-7574","addr":"경기도 안양시 만안구 석수동 805번지","category":"보건위생 - 이용원"},{"name":"튜터신의 수학교습소","tel":"","addr":"경기도 안양시 만안구 석수동 805번지","category":"학원 - 보습학원"},{"name":"한마음한의원","tel":"031-473-8978","addr":"경기도 안양시 만안구 석수동 805번지","category":"의원 - 한의원"}]},{"lat":"37.430914493","long":"126.90137714","items":[{"name":"고고블럭","tel":"031-472-9937","addr":"경기도 안양시 만안구 석수동 425-28번지","category":"학원 - 기타 교육기관"},{"name":"브라운영어학원","tel":"031-471-1567","addr":"경기도 안양시 만안구 석수동 425-28번지","category":"학원 - 보습학원"},{"name":"에이치씨영수학원","tel":"031-471-8400","addr":"경기도 안양시 만안구 석수동 425-28번지","category":"학원 - 보습학원"},{"name":"엘린헤어","tel":"031-474-3700","addr":"경기도 안양시 만안구 석수동 425-28번지","category":"보건위생 - 미용원"},{"name":"오창수소아청소년과의원","tel":"031-472-6651","addr":"경기도 안양시 만안구 석수동 425-28번지","category":"의원 - 의원"},{"name":"용인대신성태권도","tel":"031-474-0698","addr":"경기도 안양시 만안구 석수동 425-28번지","category":"학원 - 예·체능계학원"},{"name":"장충효자왕족발","tel":"031-474-9007","addr":"경기도 안양시 만안구 석수동 425-28번지","category":"일반휴게음식 - 일반한식"},{"name":"튼튼치과의원","tel":"031-473-2876","addr":"경기도 안양시 만안구 석수동 425-28번지","category":"의원 - 치과의원"},{"name":"해법멘토학원","tel":"031-472-9999","addr":"경기도 안양시 만안구 석수동 425-28번지","category":"회원제형태 - 학원"}]},{"lat":"37.413188045","long":"126.90778316","items":[{"name":"고기나라","tel":"031-471-5186","addr":"경기도 안양시 만안구 석수동 287번지","category":"음료식품 - 정육점"},{"name":"군산아구동태찜,탕전문","tel":"031-472-0209","addr":"경기도 안양시 만안구 석수동 287번지","category":"일반휴게음식 - 일반한식"},{"name":"둘이먹다하나죽어도","tel":"031-471-2999","addr":"경기도 안양시 만안구 석수동 287번지","category":"일반휴게음식 - 일반한식"},{"name":"또와감자탕","tel":"031-471-9700","addr":"경기도 안양시 만안구 석수동 287번지","category":"일반휴게음식 - 일반한식"},{"name":"민지상회","tel":"031-472-3121","addr":"경기도 안양시 만안구 석수동 287번지","category":"음료식품 - 농·축·수산품"},{"name":"반찬세상","tel":"031-472-2817","addr":"경기도 안양시 만안구 석수동 287번지","category":"음료식품 - 기타음료식품"},{"name":"백양식당","tel":"031-471-7423","addr":"경기도 안양시 만안구 석수동 287번지","category":"일반휴게음식 - 일반한식"},{"name":"불나방","tel":"031-472-2886","addr":"경기도 안양시 만안구 석수동 287번지","category":"일반휴게음식 - 스넥"},{"name":"불나방","tel":"","addr":"경기도 안양시 만안구 석수동 287번지","category":"일반휴게음식 - 일반한식"},{"name":"서산상회","tel":"031-471-3368","addr":"경기도 안양시 만안구 석수동 287번지","category":"음료식품 - 농·축·수산품"},{"name":"용인그릇","tel":"031-471-7243","addr":"경기도 안양시 만안구 석수동 287번지","category":"주방용구 - 주방용식기"},{"name":"이지비아카인스톨","tel":"031-471-4564","addr":"경기도 안양시 만안구 석수동 287번지","category":"자동차정비 유지 - 카인테리어"},{"name":"인천수산","tel":"031-472-4214","addr":"경기도 안양시 만안구 석수동 287번지","category":"일반휴게음식 - 일반한식"},{"name":"지수네","tel":"031-472-2787","addr":"경기도 안양시 만안구 석수동 287번지","category":"일반휴게음식 - 일반한식"},{"name":"치킨더멤버","tel":"031-474-8999","addr":"경기도 안양시 만안구 석수동 287번지","category":"일반휴게음식 - 일반한식"},{"name":"케이제이 (KJ)스크린","tel":"031-473-5678","addr":"경기도 안양시 만안구 석수동 287번지","category":"레저업소 - 스크린골프"},{"name":"통큰고기","tel":"031-474-6070","addr":"경기도 안양시 만안구 석수동 287번지","category":"일반휴게음식 - 일반한식"},{"name":"퉁이기름집","tel":"031-472-1399","addr":"경기도 안양시 만안구 석수동 287번지","category":"음료식품 - 기타음료식품"},{"name":"피어나 화장품","tel":"031-471-1589","addr":"경기도 안양시 만안구 석수동 287번지","category":"보건위생 - 화장품"},{"name":"혜정이네곱창","tel":"031-405-4404","addr":"경기도 안양시 만안구 석수동 287번지","category":"일반휴게음식 - 일반한식"},{"name":"화성닭집","tel":"031-471-2008","addr":"경기도 안양시 만안구 석수동 287번지","category":"음료식품 - 정육점"},{"name":"황금국수냉면","tel":"031-472-5693","addr":"경기도 안양시 만안구 석수동 287번지","category":"일반휴게음식 - 일반한식"},{"name":"황해수산","tel":"031-471-0603","addr":"경기도 안양시 만안구 석수동 287번지","category":"음료식품 - 농·축·수산품"},{"name":"황해수산","tel":"031-471-0603","addr":"경기도 안양시 만안구 석수동 287번지","category":"일반휴게음식 - 일식·회집"}]},{"lat":"37.406638592","long":"126.89814572","items":[{"name":"고기나라.COM","tel":"031-472-3339","addr":"경기도 안양시 만안구 석수동 780-1번지","category":"음료식품 - 농·축·수산품"},{"name":"두부이야기","tel":"031-472-9272","addr":"경기도 안양시 만안구 석수동 780-1번지","category":"일반휴게음식 - 일반한식"}]},{"lat":"37.412468529","long":"126.90939934","items":[{"name":"고기백화점","tel":"","addr":"경기도 안양시 만안구 석수동 319-1번지","category":"음료식품 - 정육점"},{"name":"듀팡","tel":"031-447-3227","addr":"경기도 안양시 만안구 석수동 319-1번지","category":"음료식품 - 제과점"},{"name":"명성치과","tel":"031-471-2784","addr":"경기도 안양시 만안구 석수동 319-1번지","category":"의원 - 치과의원"},{"name":"진양개발","tel":"031-471-2595","addr":"경기도 안양시 만안구 석수동 319-1번지","category":"자동차정비 유지 - 주차장"}]},{"lat":"37.406827241","long":"126.89751295","items":[{"name":"고깃간","tel":"031-472-5062","addr":"경기도 안양시 만안구 석수동 759-5번지","category":"일반휴게음식 - 일반한식"}]},{"lat":"37.42679894","long":"126.91517729","items":[{"name":"고래미풍천민물장어","tel":"031-472-0068","addr":"경기도 안양시 만안구 석수동 114번지","category":"일반휴게음식 - 일반한식"}]},{"lat":"37.412361517","long":"126.91081143","items":[{"name":"고요한잔","tel":"","addr":"경기도 안양시 만안구 석수동 320-37번지","category":"일반휴게음식 - 일반한식"}]},{"lat":"37.409693762","long":"126.90982071","items":[{"name":"고투엔터테인먼트","tel":"","addr":"경기도 안양시 만안구 석수동 298-24번지","category":"용역 서비스 - 종합용역"},{"name":"비엔나미용실","tel":"031-472-8631","addr":"경기도 안양시 만안구 석수동 298-24번지","category":"보건위생 - 미용원"}]},{"lat":"37.413495738","long":"126.90947714","items":[{"name":"고향세차장","tel":"031-472-3300","addr":"경기도 안양시 만안구 석수동 279-18번지","category":"자동차정비 유지 - 세차장"},{"name":"고향카세차장","tel":"031-472-3300","addr":"경기도 안양시 만안구 석수동 279-18번지","category":"자동차정비 유지 - 세차장"}]},{"lat":"37.413468143","long":"126.90876554","items":[{"name":"고향집 마포숯불갈비","tel":"031-472-3301","addr":"경기도 안양시 만안구 석수동 280-3번지","category":"일반휴게음식 - 일반한식"},{"name":"오페라당구클럽","tel":"070-7108-4718","addr":"경기도 안양시 만안구 석수동 280-3번지","category":"레저업소 - 당 구 장"},{"name":"이룸독서실","tel":"031-472-4343","addr":"경기도 안양시 만안구 석수동 280-3번지","category":"학원 - 독서실"}]},{"lat":"37.417387028","long":"126.90815063","items":[{"name":"고향집식당","tel":"031-472-8553","addr":"경기도 안양시 만안구 석수동 266-13번지 관악아파트","category":"일반휴게음식 - 일반한식"},{"name":"굽네치킨","tel":"031-474-9292","addr":"경기도 안양시 만안구 석수동 266-13번지 관악아파트","category":"일반휴게음식 - 주점"},{"name":"머리사랑","tel":"","addr":"경기도 안양시 만안구 석수동 266-13번지 관악아파트","category":"보건위생 - 미용원"},{"name":"미스터엠몰이엘","tel":"070-8113-2125","addr":"경기도 안양시 만안구 석수동 266-13번지 관악아파트","category":"신변잡화 - 기타잡화"},{"name":"바람난촌닭숯불바베큐","tel":"031-471-5200","addr":"경기도 안양시 만안구 석수동 266-13번지 관악아파트","category":"일반휴게음식 - 스넥"},{"name":"수선쌀롱","tel":"031-472-0434","addr":"경기도 안양시 만안구 석수동 266-13번지 관악아파트","category":"수리서비스 - 세탁소"},{"name":"스시가게","tel":"031-472-7879","addr":"경기도 안양시 만안구 석수동 266-13번지 관악아파트","category":"일반휴게음식 - 일식·회집"},{"name":"압구정구제가게","tel":"","addr":"경기도 안양시 만안구 석수동 266-13번지 관악아파트","category":"의류 - 정장"},{"name":"우리세탁","tel":"031-472-9600","addr":"경기도 안양시 만안구 석수동 266-13번지 관악아파트","category":"수리서비스 - 세탁소"},{"name":"진국식당","tel":"031-471-0496","addr":"경기도 안양시 만안구 석수동 266-13번지 관악아파트","category":"일반휴게음식 - 일반한식"},{"name":"차또르떡볶기","tel":"031-466-7977","addr":"경기도 안양시 만안구 석수동 266-13번지 관악아파트","category":"일반휴게음식 - 스넥"},{"name":"하나쇼캅","tel":"031-624-2469","addr":"경기도 안양시 만안구 석수동 266-13번지 관악아파트","category":"전기제품 - 기타전기제품"}]},{"lat":"37.413828185","long":"126.90831325","items":[{"name":"고향축산","tel":"031-473-1734","addr":"경기도 안양시 만안구 석수동 281-3번지","category":"음료식품 - 정육점"},{"name":"다래당구장","tel":"","addr":"경기도 안양시 만안구 석수동 281-3번지","category":"레저업소 - 당 구 장"},{"name":"밥맛나는세상 석수점","tel":"031-472-3100","addr":"경기도 안양시 만안구 석수동 281-3번지","category":"일반휴게음식 - 일반한식"},{"name":"석수","tel":"031-472-4289","addr":"경기도 안양시 만안구 석수동 281-3번지","category":"레저업소 - 노 래 방"},{"name":"카페501","tel":"031-471-2345","addr":"경기도 안양시 만안구 석수동 281-3번지","category":"일반휴게음식 - 서양음식"}]},{"lat":"37.421830759","long":"126.91039314","items":[{"name":"곤드레밥","tel":"031-472-9595","addr":"경기도 안양시 만안구 석수동 93-6번지","category":"일반휴게음식 - 일반한식"}]},{"lat":"37.406999543","long":"126.89876643","items":[{"name":"골드 주얼리","tel":"031-471-8940","addr":"경기도 안양시 만안구 석수동 785-26번지","category":"신변잡화 - 귀금속"},{"name":"머리못하는집","tel":"031-473-9146","addr":"경기도 안양시 만안구 석수동 785-26번지","category":"보건위생 - 미용원"},{"name":"쉐마영수2관학원","tel":"031-472-0491","addr":"경기도 안양시 만안구 석수동 785-26번지","category":"학원 - 보습학원"},{"name":"카페엔불토스트","tel":"031-443-1003","addr":"경기도 안양시 만안구 석수동 785-26번지","category":"일반휴게음식 - 서양음식"},{"name":"형제떡집","tel":"031-471-7107","addr":"경기도 안양시 만안구 석수동 785-26번지","category":"음료식품 - 제과점"},{"name":"화궁중화요리","tel":"031-473-2630","addr":"경기도 안양시 만안구 석수동 785-26번지","category":"일반휴게음식 - 중국식"}]},{"lat":"37.412774585","long":"126.9090375","items":[{"name":"골드당구장","tel":"","addr":"경기도 안양시 만안구 석수동 280-6번지","category":"레저업소 - 당 구 장"},{"name":"샤크짐","tel":"031-473-2429","addr":"경기도 안양시 만안구 석수동 280-6번지","category":"레저업소 - 헬스클럽"},{"name":"서울한의원","tel":"031-473-6432","addr":"경기도 안양시 만안구 석수동 280-6번지","category":"의원 - 한의원"},{"name":"석수숯불갈비","tel":"031-473-3143","addr":"경기도 안양시 만안구 석수동 280-6번지","category":"일반휴게음식 - 일반한식"}]},{"lat":"37.407278556","long":"126.8984272","items":[{"name":"골드당구클럽","tel":"031-344-9292","addr":"경기도 안양시 만안구 석수동 785-21번지","category":"레저업소 - 당 구 장"},{"name":"구뜰집","tel":"031-385-0660","addr":"경기도 안양시 만안구 석수동 785-21번지","category":"일반휴게음식 - 일반한식"},{"name":"김영란헤어스토리","tel":"031-471-6956","addr":"경기도 안양시 만안구 석수동 785-21번지","category":"보건위생 - 미용원"},{"name":"달맞이24시","tel":"031-471-5271","addr":"경기도 안양시 만안구 석수동 785-21번지","category":"일반휴게음식 - 일반한식"}]},{"lat":"37.407249397","long":"126.89604403","items":[{"name":"골드라인애드","tel":"031-445-0404","addr":"경기도 안양시 만안구 석수동 757-5번지 골든빌라","category":"건축자재 - 인테리어전문"},{"name":"행운마트","tel":"031-473-4578","addr":"경기도 안양시 만안구 석수동 757-5번지 골든빌라","category":"유통업 영리 - 슈퍼마켓"}]},{"lat":"37.415081248","long":"126.90914758","items":[{"name":"곰약국","tel":"031-472-0606","addr":"경기도 안양시 만안구 석수동 274-1번지","category":"약국 - 약국"},{"name":"미림정육점","tel":"031-471-5755","addr":"경기도 안양시 만안구 석수동 274-1번지","category":"음료식품 - 정육점"},{"name":"샤인","tel":"","addr":"경기도 안양시 만안구 석수동 274-1번지","category":"보건위생 - 피부미용실"},{"name":"이레","tel":"031-472-1921","addr":"경기도 안양시 만안구 석수동 274-1번지","category":"의류 - 기타의류"}]},{"lat":"37.420527566","long":"126.9277015","items":[{"name":"공간 생","tel":"","addr":"경기도 안양시 만안구 석수동 831번지","category":"용역 서비스 - 사무서비스"},{"name":"세월이가면","tel":"","addr":"경기도 안양시 만안구 석수동 831번지","category":"일반휴게음식 - 주점"},{"name":"풍천민물장어","tel":"031-473-4774","addr":"경기도 안양시 만안구 석수동 831번지","category":"일반휴게음식 - 일반한식"}]},{"lat":"37.427821884","long":"126.89888448","items":[{"name":"공방애","tel":"070-4107-8451","addr":"경기도 안양시 만안구 석수동 473-15번지","category":"가구 - 일반가구"}]},{"lat":"37.418548298","long":"126.93248191","items":[{"name":"공원매점","tel":"031-471-8656","addr":"경기도 안양시 만안구 석수동 841-2번지","category":"음료식품 - 기타음료식품"},{"name":"촌골닷컴(.com)","tel":"031-472-5292","addr":"경기도 안양시 만안구 석수동 841-2번지","category":"일반휴게음식 - 스넥"}]},{"lat":"37.428528136","long":"126.9029056","items":[{"name":"공항밴 서비스","tel":"","addr":"경기도 안양시 만안구 석수동 484-8번지 석수엘지빌리지","category":"여행 - 기타교통수단"}]},{"lat":"37.410271184","long":"126.91081399","items":[{"name":"과천식당","tel":"031-473-8430","addr":"경기도 안양시 만안구 석수동 311-4번지","category":"일반휴게음식 - 일반한식"},{"name":"버터페이스","tel":"031-469-7460","addr":"경기도 안양시 만안구 석수동 311-4번지","category":"일반휴게음식 - 일반한식"}]},{"lat":"37.419658468","long":"126.90928874","items":[{"name":"관악가정의학과의원","tel":"031-472-1175","addr":"경기도 안양시 만안구 석수동 104-150번지","category":"의원 - 의원"},{"name":"관악약국","tel":"031-472-3214","addr":"경기도 안양시 만안구 석수동 104-150번지","category":"약국 - 약국"},{"name":"월드치과의원","tel":"031-471-8827","addr":"경기도 안양시 만안구 석수동 104-150번지","category":"의원 - 치과의원"},{"name":"케이투(K2)노래연습장","tel":"031-472-0700","addr":"경기도 안양시 만안구 석수동 104-150번지","category":"레저업소 - 노 래 방"}]},{"lat":"37.418549766","long":"126.9087027","items":[{"name":"관악가판","tel":"031-474-9126","addr":"경기도 안양시 만안구 석수동 262-19번지","category":"음료식품 - 기타음료식품"},{"name":"너만두나진빵","tel":"031-437-5602","addr":"경기도 안양시 만안구 석수동 262-19번지","category":"일반휴게음식 - 스넥"},{"name":"전설의 옛날통닭","tel":"070-7551-9215","addr":"경기도 안양시 만안구 석수동 262-19번지","category":"음료식품 - 농·축·수산품"}]},{"lat":"37.419523496","long":"126.90951484","items":[{"name":"관악감자탕","tel":"031-471-9603","addr":"경기도 안양시 만안구 석수동 104-7번지","category":"일반휴게음식 - 일반한식"},{"name":"뉴튼수학교습소","tel":"031-471-5262","addr":"경기도 안양시 만안구 석수동 104-7번지","category":"학원 - 보습학원"},{"name":"매직영어교습소","tel":"031-471-5262","addr":"경기도 안양시 만안구 석수동 104-7번지","category":"회원제형태 - 학원"}]},{"lat":"37.418270679","long":"126.90898546","items":[{"name":"관악곱창볶음","tel":"031-422-6667","addr":"경기도 안양시 만안구 석수동 267-14번지","category":"일반휴게음식 - 일반한식"}]},{"lat":"37.420468662","long":"126.90839528","items":[{"name":"관악당구클럽","tel":"031-474-7010","addr":"경기도 안양시 만안구 석수동 104-53번지","category":"레저업소 - 당 구 장"},{"name":"멜랑커피","tel":"","addr":"경기도 안양시 만안구 석수동 104-53번지","category":"일반휴게음식 - 서양음식"},{"name":"선흥인테리어","tel":"","addr":"경기도 안양시 만안구 석수동 104-53번지","category":"용역 서비스 - 기타용역서비스"},{"name":"솔잎시루","tel":"031-472-2458","addr":"경기도 안양시 만안구 석수동 104-53번지","category":"음료식품 - 기타음료식품"},{"name":"우리형제수산","tel":"031-471-1128","addr":"경기도 안양시 만안구 석수동 104-53번지","category":"일반휴게음식 - 일반한식"}]},{"lat":"37.419189946","long":"126.90928932","items":[{"name":"관악마운틴","tel":"031-471-5955","addr":"경기도 안양시 만안구 석수동 104-301번지","category":"일반휴게음식 - 주점"}]},{"lat":"37.424970943","long":"126.91659161","items":[{"name":"관악산펜션","tel":"","addr":"경기도 안양시 만안구 석수동 139-3번지","category":"숙박업 - 여관/기타숙박업"},{"name":"관악산펜션","tel":"031-471-6161","addr":"경기도 안양시 만안구 석수동 139-3번지","category":"보건위생 - 기타대인서비스"},{"name":"관악산펜션","tel":"031-471-6161","addr":"경기도 안양시 만안구 석수동 139-3번지","category":"음료식품 - 농·축·수산품"},{"name":"관악산펜션","tel":"031-472-6161","addr":"경기도 안양시 만안구 석수동 139-3번지","category":"숙박업 - 여관/기타숙박업"}]},{"lat":"37.420687824","long":"126.91212297","items":[{"name":"관악산현대마트","tel":"031-471-8763","addr":"경기도 안양시 만안구 석수동 166번지","category":"유통업 영리 - 슈퍼마켓"}]},{"lat":"37.413801955","long":"126.90931861","items":[{"name":"관악연세의원","tel":"031-474-8275","addr":"경기도 안양시 만안구 석수동 279-1번지","category":"의원 - 의원"}]},{"lat":"37.409808938","long":"126.90736951","items":[{"name":"관악열쇠","tel":"","addr":"경기도 안양시 만안구 석수동 296번지 럭키아파트","category":"수리서비스 - 기타수리서비스"}]},{"lat":"37.412249763","long":"126.90625944","items":[{"name":"관악자동차정비","tel":"031-474-8080","addr":"경기도 안양시 만안구 석수동 292-6번지","category":"자동차정비 유지 - 자동차정비"},{"name":"주식회사 미트온","tel":"","addr":"경기도 안양시 만안구 석수동 292-6번지","category":"음료식품 - 정육점"}]},{"lat":"37.413190363","long":"126.91070875","items":[{"name":"관악정육점","tel":"031-473-7962","addr":"경기도 안양시 만안구 석수동 321-41번지","category":"음료식품 - 정육점"},{"name":"관악하이퍼마트","tel":"031-473-7962","addr":"경기도 안양시 만안구 석수동 321-41번지","category":"유통업 영리 - 슈퍼마켓"},{"name":"동일고등수학교습소","tel":"031-457-3309","addr":"경기도 안양시 만안구 석수동 321-41번지","category":"학원 - 보습학원"}]},{"lat":"37.416658364","long":"126.90959747","items":[{"name":"관악지물포","tel":"031-471-3228","addr":"경기도 안양시 만안구 석수동 268-46번지","category":"직물 - 카페트,커튼,천막,지물"}]},{"lat":"37.420108665","long":"126.90890408","items":[{"name":"관악한의원","tel":"031-473-8333","addr":"경기도 안양시 만안구 석수동","category":"의원 - 한의원"},{"name":"위(We)","tel":"031-448-3711","addr":"경기도 안양시 만안구 석수동 104-98번지","category":"의류 - 정장"},{"name":"카페테로","tel":"","addr":"경기도 안양시 만안구 석수동 104-98번지","category":"일반휴게음식 - 서양음식"}]},{"lat":"37.419298352","long":"126.90965068","items":[{"name":"광장노래연습장","tel":"031-473-3624","addr":"경기도 안양시 만안구 석수동 110-25번지","category":"레저업소 - 노 래 방"},{"name":"기찻길옆포장마차","tel":"031-471-8989","addr":"경기도 안양시 만안구 석수동 110-25번지","category":"일반휴게음식 - 일반한식"},{"name":"나주곰탕","tel":"","addr":"경기도 안양시 만안구 석수동 110-25번지","category":"일반휴게음식 - 일반한식"},{"name":"나주곰탕","tel":"","addr":"경기도 안양시 만안구 석수동 110-25번지","category":"일반휴게음식 - 일반한식"},{"name":"일층커피","tel":"031-473-6678","addr":"경기도 안양시 만안구 석수동 110-25번지","category":"일반휴게음식 - 서양음식"}]},{"lat":"37.405692636","long":"126.89825998","items":[{"name":"구구비어","tel":"","addr":"경기도 안양시 만안구 석수동 780-11번지","category":"일반휴게음식 - 일반한식"},{"name":"현대종합카센타","tel":"031-473-9988","addr":"경기도 안양시 만안구 석수동 780-11번지","category":"자동차정비 유지 - 자동차정비"}]},{"lat":"37.422138119","long":"126.91170322","items":[{"name":"구복스시","tel":"031-343-4700","addr":"경기도 안양시 만안구 석수동 95-4번지","category":"일반휴게음식 - 일식·회집"}]},{"lat":"37.418074971","long":"126.91220519","items":[{"name":"구포잔치국수","tel":"031-474-2224","addr":"경기도 안양시 만안구 석수동 169-9번지","category":"일반휴게음식 - 일반한식"}]},{"lat":"37.416581276","long":"126.91481643","items":[{"name":"국수나무맥주나라","tel":"031-472-3812","addr":"경기도 안양시 만안구 석수동 203-3번지","category":"일반휴게음식 - 일반한식"},{"name":"신데렐라","tel":"031-471-7177","addr":"경기도 안양시 만안구 석수동 203-3번지","category":"회원제형태 - 기타4"},{"name":"족발전문가","tel":"031-472-2331","addr":"경기도 안양시 만안구 석수동 203-3번지","category":"일반휴게음식 - 일반한식"},{"name":"지산공인중개사사무소","tel":"031-474-5588","addr":"경기도 안양시 만안구 석수동 203-3번지","category":"용역 서비스 - 부동산 중개·임대"}]},{"lat":"37.415687878","long":"126.91295362","items":[{"name":"국수생각","tel":"031-473-1515","addr":"경기도 안양시 만안구 석수동 183-97번지","category":"일반휴게음식 - 일반한식"}]},{"lat":"37.405882534","long":"126.89903905","items":[{"name":"국시랑볶음이랑","tel":"031-472-0322","addr":"경기도 안양시 만안구 석수동 782-10번지","category":"일반휴게음식 - 일반한식"},{"name":"미나네(minane)","tel":"031-341-8338","addr":"경기도 안양시 만안구 석수동 782-10번지","category":"보건위생 - 피부미용실"}]},{"lat":"37.423354587","long":"126.91184861","items":[{"name":"국제갈비","tel":"","addr":"경기도 안양시 만안구 석수동 72-4번지","category":"일반휴게음식 - 일반한식"}]},{"lat":"37.411360906","long":"126.91018011","items":[{"name":"굴다리갈비","tel":"031-471-2302","addr":"경기도 안양시 만안구 석수동 318-11번지","category":"일반휴게음식 - 일반한식"}]},{"lat":"37.409993136","long":"126.91245214","items":[{"name":"굴세상굴명태어장","tel":"031-473-6480","addr":"경기도 안양시 만안구 석수동 326-11번지","category":"일반휴게음식 - 일반한식"},{"name":"미소커피숍","tel":"031-466-6285","addr":"경기도 안양시 만안구 석수동 326-11번지","category":"일반휴게음식 - 서양음식"}]},{"lat":"37.416137958","long":"126.91239956","items":[{"name":"굿바디","tel":"070-8265-2906","addr":"경기도 안양시 만안구 석수동 180-4번지","category":"건강식품 - 기타건강식품"},{"name":"카페에잇","tel":"070-8621-0691","addr":"경기도 안양시 만안구 석수동 180-4번지","category":"일반휴게음식 - 서양음식"}]},{"lat":"37.406855333","long":"126.89871016","items":[{"name":"굿아이스크림","tel":"","addr":"경기도 안양시 만안구 석수동 785-27번지","category":"음료식품 - 기타음료식품"},{"name":"노랑머리","tel":"031-471-6176","addr":"경기도 안양시 만안구 석수동 785-27번지","category":"보건위생 - 미용원"},{"name":"미스터뚱양념불곱창","tel":"031-473-8777","addr":"경기도 안양시 만안구 석수동 785-27번지","category":"일반휴게음식 - 일반한식"},{"name":"일루일루안양충훈부점","tel":"031-471-0063","addr":"경기도 안양시 만안구 석수동 785-27번지","category":"일반휴게음식 - 서양음식"},{"name":"정반찬","tel":"","addr":"경기도 안양시 만안구 석수동 785-27번지","category":"음료식품 - 기타음료식품"},{"name":"충훈부점핑","tel":"031-348-1135","addr":"경기도 안양시 만안구 석수동 785-27번지","category":"레저업소 - 헬스클럽"},{"name":"호기획","tel":"070-8733-4498","addr":"경기도 안양시 만안구 석수동 785-27번지","category":"유통업 영리 - 기타유통업"}]},{"lat":"37.406521731","long":"126.89845084","items":[{"name":"굿헤어","tel":"","addr":"경기도 안양시 만안구 석수동 781-15번지","category":"보건위생 - 미용원"}]},{"lat":"37.411718869","long":"126.90711858","items":[{"name":"규카센타","tel":"031-473-8942","addr":"경기도 안양시 만안구 석수동 290-10번지","category":"자동차정비 유지 - 자동차정비"},{"name":"화인컴퓨터","tel":"031-471-8690","addr":"경기도 안양시 만안구 석수동 290-10번지","category":"사무통신 - 컴퓨터"}]},{"lat":"37.421352534","long":"126.90951257","items":[{"name":"그때그집","tel":"031-471-9884","addr":"경기도 안양시 만안구 석수동 101-6번지","category":"일반휴게음식 - 일반한식"}]},{"lat":"37.418441185","long":"126.90812671","items":[{"name":"그랜드가구","tel":"031-471-7120","addr":"경기도 안양시 만안구 석수동 262-13번지","category":"가구 - 일반가구"}]},{"lat":"37.406910097","long":"126.89951201","items":[{"name":"그런카페","tel":"070-8820-5118","addr":"경기도 안양시 만안구 석수동 784번지","category":"일반휴게음식 - 서양음식"},{"name":"디와이 (DY)미용실","tel":"031-472-0812","addr":"경기도 안양시 만안구 석수동 784번지","category":"보건위생 - 미용원"},{"name":"석수성신음악학원","tel":"031-445-2287","addr":"경기도 안양시 만안구 석수동 784번지","category":"학원 - 예·체능계학원"},{"name":"석수창논술교습소","tel":"031-344-7897","addr":"경기도 안양시 만안구 석수동 784번지","category":"학원 - 보습학원"},{"name":"석수한마음해법영어교습소","tel":"031-474-0579","addr":"경기도 안양시 만안구 석수동 784번지","category":"회원제형태 - 학원"},{"name":"아트드림미술교습소","tel":"031-473-7555","addr":"경기도 안양시 만안구 석수동 784번지","category":"학원 - 예·체능계학원"},{"name":"홈유통","tel":"031-471-8943","addr":"경기도 안양시 만안구 석수동","category":"음료식품 - 정육점"}]},{"lat":"37.412466032","long":"126.90629305","items":[{"name":"그린그린티룸","tel":"","addr":"경기도 안양시 만안구 석수동 292-5번지","category":"문화.취미 - 문화취미기타"}]},{"lat":"37.406826067","long":"126.89620276","items":[{"name":"그린양복점","tel":"031-72-0381","addr":"경기도 안양시 만안구 석수동 761-6번지","category":"의류 - 맞춤복점"}]},{"lat":"37.417326555","long":"126.91144924","items":[{"name":"그림과토우미술","tel":"031-473-1503","addr":"경기도 안양시 만안구 석수동 168-4번지 석수경남아너스빌","category":"학원 - 예·체능계학원"},{"name":"대아세탁소","tel":"031-474-7433","addr":"경기도 안양시 만안구 석수동 168-4번지","category":"수리서비스 - 세탁소"},{"name":"바로크피아노교습소","tel":"031-474-7911","addr":"경기도 안양시 만안구 석수동 168-4번지 석수경남아너스빌","category":"학원 - 예·체능계학원"},{"name":"베스트골프연습장","tel":"031-471-3635","addr":"경기도 안양시 만안구 석수동 168-4번지","category":"회원제형태 - 레져업소"},{"name":"신바람난찐빵집손만두(관악점)","tel":"031-473-1233","addr":"경기도 안양시 만안구 석수동","category":"일반휴게음식 - 일반한식"},{"name":"정관장 석수점","tel":"031-471-2304","addr":"경기도 안양시 만안구 석수동 168-4번지","category":"건강식품 - 홍삼제품"},{"name":"헤어스타일난다","tel":"031-471-5551","addr":"경기도 안양시 만안구 석수동 168-4번지","category":"보건위생 - 미용원"},{"name":"화동어린이집[아이행복]","tel":"031-473-0331","addr":"경기도 안양시 만안구 석수동 168-4번지 석수경남아너스빌","category":"학원 - 유아원"},{"name":"황실유럽자수 (석수점)","tel":"031-447-6040","addr":"경기도 안양시 만안구 석수동 168-4번지","category":"직물 - 침구·수예점"}]},{"lat":"37.405549991","long":"126.89998825","items":[{"name":"그림애드","tel":"031-444-7889","addr":"경기도 안양시 만안구 석수동 792번지","category":"용역 서비스 - 종합용역"}]},{"lat":"37.433684049","long":"126.90550877","items":[{"name":"그림일기","tel":"031-345-5731","addr":"경기도 안양시 만안구 석수동 375-1번지","category":"주방용구 - 주방용식기"},{"name":"만남의광장","tel":"031-473-3339","addr":"경기도 안양시 만안구 석수동","category":"일반휴게음식 - 일반한식"},{"name":"제주올레","tel":"","addr":"경기도 안양시 만안구 석수동 375-1번지","category":"일반휴게음식 - 일반한식"},{"name":"피아노과외교습소","tel":"031-471-0838","addr":"경기도 안양시 만안구 석수동","category":"학원 - 예·체능계학원"},{"name":"한양인","tel":"031-472-0131","addr":"경기도 안양시 만안구 석수동 375-1번지","category":"주방용구 - 기타주방용구"},{"name":"혜성미용실","tel":"031-471-8462","addr":"경기도 안양시 만안구 석수동","category":"보건위생 - 미용원"}]},{"lat":"37.407413926","long":"126.8986755","items":[{"name":"글라스박스석수점","tel":"031-471-7247","addr":"경기도 안양시 만안구 석수동 785-17번지","category":"보건위생 - 안경"},{"name":"엔젤메디칼","tel":"031-471-6424","addr":"경기도 안양시 만안구 석수동 785-17번지","category":"건강식품 - 기타건강식품"},{"name":"엔젤메디칼의원","tel":"031-471-6424","addr":"경기도 안양시 만안구 석수동 785-17번지","category":"의원 - 의원"}]},{"lat":"37.426429494","long":"126.90373313","items":[{"name":"글로벌 한GLO","tel":"","addr":"경기도 안양시 만안구 석수동 485-8번지 안양석수하우스토리아파트","category":"서적문구 - 기타서적문구"},{"name":"사랑샘어린이집[아이행복]","tel":"031-472-7008","addr":"경기도 안양시 만안구 석수동 485-8번지 안양석수하우스토리아파트","category":"학원 - 유아원"}]},{"lat":"37.412187884","long":"126.90772795","items":[{"name":"금강산녹두리","tel":"031-474-5059","addr":"경기도 안양시 만안구 석수동 290-15번지","category":"일반휴게음식 - 일반한식"}]},{"lat":"37.417856262","long":"126.90904246","items":[{"name":"금강스튜디오","tel":"031-471-4281","addr":"경기도 안양시 만안구 석수동","category":"광학제품 - 사진관"},{"name":"꼬마동이어린이집[아이행복]","tel":"031-472-0703","addr":"경기도 안양시 만안구 석수동 267-27번지","category":"학원 - 유아원"},{"name":"동이애견","tel":"031-472-8281","addr":"경기도 안양시 만안구 석수동 267-27번지","category":"문화.취미 - 애완동물"},{"name":"에코전기조명","tel":"031-346-2333","addr":"경기도 안양시 만안구 석수동 267-27번지","category":"건축자재 - 조명기구"},{"name":"자연인의숯","tel":"031-8033-7500","addr":"경기도 안양시 만안구 석수동 267-27번지","category":"보건위생 - 의료용품"},{"name":"코스모스시스템","tel":"031-472-8335","addr":"경기도 안양시 만안구 석수동 267-27번지","category":"사무통신 - 컴퓨터"}]},{"lat":"37.427774692","long":"126.89647808","items":[{"name":"금영상사","tel":"02-804-8282","addr":"경기도 안양시 만안구 석수동 706-52번지","category":"기타 - 기계공구"}]},{"lat":"37.411943061","long":"126.90581931","items":[{"name":"금호사","tel":"031-461-1173","addr":"경기도 안양시 만안구 석수동 315-21번지","category":"용역 서비스 - 기타용역서비스"}]},{"lat":"37.416247338","long":"126.91405997","items":[{"name":"긋시아 피부관리","tel":"031-469-5852","addr":"경기도 안양시 만안구 석수동 177-34번지","category":"보건위생 - 피부미용실"},{"name":"다이나믹드럼교습소","tel":"031-473-1106","addr":"경기도 안양시 만안구 석수동 177-34번지","category":"학원 - 예·체능계학원"},{"name":"마더 앤 베이비","tel":"031-471-3590","addr":"경기도 안양시 만안구 석수동 177-34번지","category":"보건위생 - 기타대인서비스"},{"name":"브링웰피자석수점","tel":"031-471-0408","addr":"경기도 안양시 만안구 석수동 177-34번지","category":"일반휴게음식 - 서양음식"},{"name":"속초장터본닭강정(석수점)","tel":"031-474-3164","addr":"경기도 안양시 만안구 석수동 177-34번지","category":"일반휴게음식 - 스넥"},{"name":"오렉스","tel":"031-474-9700","addr":"경기도 안양시 만안구 석수동 177-34번지","category":"건축자재 - 인테리어전문"},{"name":"원스에듀학원","tel":"031-474-2528","addr":"경기도 안양시 만안구 석수동 177-34번지","category":"학원 - 보습학원"},{"name":"이쌤영어교습소","tel":"070-1016-3373","addr":"경기도 안양시 만안구 석수동 177-34번지","category":"회원제형태 - 학원"},{"name":"핫플레이스","tel":"","addr":"경기도 안양시 만안구 석수동 177-34번지","category":"일반휴게음식 - 일반한식"}]},{"lat":"37.433572904","long":"126.9019046","items":[{"name":"기손아로마피부관리","tel":"031-472-5350","addr":"경기도 안양시 만안구 석수동 424번지","category":"회원제형태 - 기타4"},{"name":"남진노래연습장","tel":"031-474-8511","addr":"경기도 안양시 만안구 석수동 424번지","category":"레저업소 - 노 래 방"},{"name":"너먹집숯불구이","tel":"031-473-2833","addr":"경기도 안양시 만안구 석수동 424번지","category":"일반휴게음식 - 일반한식"},{"name":"마리꼬끄","tel":"031-473-3670","addr":"경기도 안양시 만안구 석수동 424번지","category":"일반휴게음식 - 스넥"},{"name":"석수생고기","tel":"031-471-2649","addr":"경기도 안양시 만안구 석수동 424번지","category":"일반휴게음식 - 일반한식"},{"name":"석수역 2번출구","tel":"031-473-3902","addr":"경기도 안양시 만안구 석수동 424번지","category":"일반휴게음식 - 일반한식"},{"name":"석수우리들한의원","tel":"031-472-9119","addr":"경기도 안양시 만안구 석수동 424번지","category":"의원 - 한의원"},{"name":"청년싸롱","tel":"","addr":"경기도 안양시 만안구 석수동 424번지","category":"일반휴게음식 - 일반한식"},{"name":"크린토피아 안양석수동점","tel":"031-471-9598","addr":"경기도 안양시 만안구 석수동 424번지","category":"수리서비스 - 세탁소"},{"name":"킹 당구클럽","tel":"031-474-6891","addr":"경기도 안양시 만안구 석수동 424번지","category":"레저업소 - 당 구 장"},{"name":"태영생막창","tel":"","addr":"경기도 안양시 만안구 석수동 424번지","category":"일반휴게음식 - 일반한식"},{"name":"훌랄라숯불바베큐석수역점","tel":"031-474-7866","addr":"경기도 안양시 만안구 석수동 424번지","category":"일반휴게음식 - 주점"}]},{"lat":"37.41988528","long":"126.92375958","items":[{"name":"길성이백숙","tel":"031-472-5539","addr":"경기도 안양시 만안구 석수동 824-1번지","category":"일반휴게음식 - 일반한식"}]},{"lat":"37.419937537","long":"126.90898338","items":[{"name":"김가네(안양관악역점)","tel":"031-473-7779","addr":"경기도 안양시 만안구 석수동 104-121번지 석수빌딩","category":"일반휴게음식 - 스넥"},{"name":"멋이랑","tel":"031-471-0655","addr":"경기도 안양시 만안구 석수동 104-121번지 석수빌딩","category":"보건위생 - 화장품"},{"name":"의류할인매장","tel":"031-474-6282","addr":"경기도 안양시 만안구 석수동 104-121번지 석수빌딩","category":"의류 - 정장"}]},{"lat":"37.409334287","long":"126.91100715","items":[{"name":"김민순헤어샵","tel":"031-472-2183","addr":"경기도 안양시 만안구 석수동 313-15번지","category":"보건위생 - 미용원"},{"name":"마실","tel":"","addr":"경기도 안양시 만안구 석수동 313-15번지","category":"일반휴게음식 - 일반한식"}]},{"lat":"37.406854764","long":"126.89806636","items":[{"name":"김밥천국","tel":"031-474-2225","addr":"경기도 안양시 만안구 석수동 785-11번지","category":"일반휴게음식 - 일반한식"},{"name":"대륙식품","tel":"031-472-2995","addr":"경기도 안양시 만안구 석수동 785-11번지","category":"음료식품 - 기타음료식품"},{"name":"뚱스밥버거","tel":"031-474-0624","addr":"경기도 안양시 만안구 석수동 785-11번지","category":"일반휴게음식 - 일반한식"},{"name":"사랑채식당","tel":"031-471-6969","addr":"경기도 안양시 만안구 석수동 785-11번지","category":"일반휴게음식 - 일반한식"},{"name":"생선프라자","tel":"","addr":"경기도 안양시 만안구 석수동 785-11번지","category":"음료식품 - 농·축·수산품"},{"name":"애니랩미술교습소","tel":"","addr":"경기도 안양시 만안구 석수동 785-11번지","category":"학원 - 예·체능계학원"},{"name":"에바다종합의류","tel":"031-446-9456","addr":"경기도 안양시 만안구 석수동 785-11번지","category":"의류 - 아동의류"},{"name":"옛날닭개장","tel":"031-442-7511","addr":"경기도 안양시 만안구 석수동 785-11번지","category":"일반휴게음식 - 일반한식"},{"name":"충훈음악학원","tel":"070-4922-1261","addr":"경기도 안양시 만안구 석수동 785-11번지","category":"학원 - 예·체능계학원"},{"name":"행복한정육점","tel":"031-441-3344","addr":"경기도 안양시 만안구 석수동 785-11번지","category":"음료식품 - 정육점"}]},{"lat":"37.418631955","long":"126.91009207","items":[{"name":"김밥천국","tel":"031-473-0420","addr":"경기도 안양시 만안구 석수동 110-20번지","category":"일반휴게음식 - 일반한식"},{"name":"삼막골옛날통닭","tel":"031-472-9994","addr":"경기도 안양시 만안구 석수동 110-20번지","category":"일반휴게음식 - 일반한식"},{"name":"셀렉토커피","tel":"031-471-7778","addr":"경기도 안양시 만안구 석수동 110-20번지","category":"일반휴게음식 - 서양음식"},{"name":"재동골순대","tel":"031-472-0663","addr":"경기도 안양시 만안구 석수동 110-20번지","category":"일반휴게음식 - 일반한식"}]},{"lat":"37.411108837","long":"126.91045151","items":[{"name":"김밥천국 석수점","tel":"031-472-8400","addr":"경기도 안양시 만안구 석수동 317-1번지","category":"일반휴게음식 - 스넥"},{"name":"복양꼬치","tel":"070-7543-5198","addr":"경기도 안양시 만안구 석수동 317-1번지","category":"일반휴게음식 - 일반한식"},{"name":"행운남성헤어전문","tel":"031-471-6549","addr":"경기도 안양시 만안구 석수동 317-1번지","category":"보건위생 - 미용원"},{"name":"호남순대국밥","tel":"","addr":"경기도 안양시 만안구 석수동 317-1번지","category":"일반휴게음식 - 일반한식"},{"name":"히든","tel":"031-472-3358","addr":"경기도 안양시 만안구 석수동 317-1번지","category":"일반휴게음식 - 주점"}]},{"lat":"37.412666285","long":"126.90881172","items":[{"name":"김병수내과의원","tel":"031-473-3575","addr":"경기도 안양시 만안구 석수동 289-8번지","category":"의원 - 의원"},{"name":"동아당약국","tel":"031-472-0329","addr":"경기도 안양시 만안구 석수동 289-8번지","category":"약국 - 약국"},{"name":"석수DC마트","tel":"031-496-8989","addr":"경기도 안양시 만안구 석수동 289-8번지","category":"신변잡화 - 기타잡화"},{"name":"원모텔","tel":"031-471-3030","addr":"경기도 안양시 만안구 석수동 289-8번지","category":"숙박업 - 여관/기타숙박업"},{"name":"테마노래연습장","tel":"","addr":"경기도 안양시 만안구 석수동 289-8번지","category":"레저업소 - 노 래 방"},{"name":"트리니티시스템즈","tel":"031-427-1800","addr":"경기도 안양시 만안구 석수동 289-8번지","category":"가구 - 일반가구"}]},{"lat":"37.424048551","long":"126.91209631","items":[{"name":"김영희동태찜앤코다리냉면","tel":"031-471-1146","addr":"경기도 안양시 만안구 석수동 67-2번지","category":"일반휴게음식 - 일반한식"}]},{"lat":"37.410162913","long":"126.9106221","items":[{"name":"김정숙헤어아트","tel":"031-473-8687","addr":"경기도 안양시 만안구 석수동 311-8번지","category":"보건위생 - 미용원"}]},{"lat":"37.415000202","long":"126.90920416","items":[{"name":"김현지아트뮤직학원","tel":"031-473-2000","addr":"경기도 안양시 만안구 석수동 274-41번지","category":"학원 - 예·체능계학원"}]},{"lat":"37.411910996","long":"126.91078939","items":[{"name":"김형식내과의원","tel":"031-472-2006","addr":"경기도 안양시 만안구 석수동 320-20번지","category":"의원 - 의원"}]},{"lat":"37.4134402","long":"126.9076247","items":[{"name":"까꼬뽀꼬헤어샵","tel":"031-471-7421","addr":"경기도 안양시 만안구 석수동 286-15번지","category":"보건위생 - 미용원"},{"name":"석수칼국수","tel":"031-471-5501","addr":"경기도 안양시 만안구 석수동 286-15번지","category":"일반휴게음식 - 일반한식"},{"name":"이넬화장품수원대리점","tel":"070-8226-7703","addr":"경기도 안양시 만안구 석수동 286-15번지","category":"보건위생 - 화장품"}]},{"lat":"37.418189634","long":"126.90904204","items":[{"name":"까망토끼브레드","tel":"","addr":"경기도 안양시 만안구 석수동 267-17번지","category":"일반휴게음식 - 서양음식"},{"name":"청정흑우촌","tel":"031-473-7484","addr":"경기도 안양시 만안구 석수동 267-17번지","category":"일반휴게음식 - 일반한식"},{"name":"카라노래연습장","tel":"031-472-6223","addr":"경기도 안양시 만안구 석수동 267-17번지","category":"레저업소 - 노 래 방"}]},{"lat":"37.412079836","long":"126.90781845","items":[{"name":"껍데기내가쏜다","tel":"031-464-7904","addr":"경기도 안양시 만안구 석수동 290-24번지","category":"일반휴게음식 - 일반한식"},{"name":"유니넷 PC존 석수점","tel":"031-471-5789","addr":"경기도 안양시 만안구 석수동 290-24번지","category":"레저업소 - 기타레져업소"}]},{"lat":"37.415939564","long":"126.91217388","items":[{"name":"꼬꼬마을숯불바베큐","tel":"031-474-5479","addr":"경기도 안양시 만안구 석수동 183-80번지","category":"일반휴게음식 - 일반한식"}]},{"lat":"37.429841999","long":"126.90102835","items":[{"name":"꼬마사랑어린이집[아이행복]","tel":"031-471-7202","addr":"경기도 안양시 만안구 석수동 415-1번지 석수엘지빌리지","category":"학원 - 유아원"}]},{"lat":"37.405494484","long":"126.89833932","items":[{"name":"꼬망쎄어린이집[아이행복]","tel":"031-473-3366","addr":"경기도 안양시 만안구 석수동 779번지","category":"학원 - 유아원"},{"name":"쉘비네","tel":"","addr":"경기도 안양시 만안구 석수동 779번지","category":"일반휴게음식 - 일반한식"},{"name":"현대종합설비","tel":"031-73-4982","addr":"경기도 안양시 만안구 석수동 779번지","category":"건축자재 - 보일러·펌프·샷시"}]},{"lat":"37.413386891","long":"126.90856231","items":[{"name":"꽃님이네","tel":"031-471-3405","addr":"경기도 안양시 만안구 석수동 280-7번지","category":"직물 - 침구·수예점"},{"name":"엠제이(MJ)클리닉","tel":"031-689-3141","addr":"경기도 안양시 만안구 석수동 280-7번지","category":"보건위생 - 기타대인서비스"},{"name":"힐링퓨전포차","tel":"","addr":"경기도 안양시 만안구 석수동 280-7번지","category":"일반휴게음식 - 주점"}]},{"lat":"37.42144292","long":"126.90987396","items":[{"name":"꽃들의이야기","tel":"031-471-0720","addr":"경기도 안양시 만안구 석수동 101-2번지","category":"문화.취미 - 화원"},{"name":"들꽃향기","tel":"070-8962-0117","addr":"경기도 안양시 만안구 석수동 101-2번지","category":"문화.취미 - 화원"}]},{"lat":"37.40657616","long":"126.89886867","items":[{"name":"꽃들이랑","tel":"031-473-1688","addr":"경기도 안양시 만안구 석수동 783번지","category":"문화.취미 - 화원"},{"name":"오나르","tel":"031-472-6421","addr":"경기도 안양시 만안구 석수동 783번지","category":"의류 - 정장"},{"name":"원헤어라인","tel":"031-473-3363","addr":"경기도 안양시 만안구 석수동 783번지","category":"보건위생 - 미용원"}]},{"lat":"37.407214351","long":"126.89715097","items":[{"name":"꾸미지오미용실","tel":"031-471-9383","addr":"경기도 안양시 만안구 석수동 759번지","category":"보건위생 - 미용원"},{"name":"나이스가이충훈부점","tel":"","addr":"경기도 안양시 만안구 석수동 759번지","category":"보건위생 - 미용원"},{"name":"닥터PC","tel":"031-387-7770","addr":"경기도 안양시 만안구 석수동 759번지","category":"사무통신 - 컴퓨터"},{"name":"더보이 컷트컬러","tel":"031-473-8081","addr":"경기도 안양시 만안구 석수동 759번지","category":"보건위생 - 미용원"}]},{"lat":"37.407493784","long":"126.89728612","items":[{"name":"꿈꾸는영어학원","tel":"031-349-0573","addr":"경기도 안양시 만안구 석수동 753-6번지","category":"회원제형태 - 학원"},{"name":"봄비학원","tel":"031-473-9364","addr":"경기도 안양시 만안구 석수동 753-6번지","category":"학원 - 보습학원"},{"name":"해연포차","tel":"031-471-1544","addr":"경기도 안양시 만안구 석수동 753-6번지","category":"일반휴게음식 - 주점"}]},{"lat":"37.409523014","long":"126.89950842","items":[{"name":"꿈이있는어린이집[아이행복]","tel":"031-472-9176","addr":"경기도 안양시 만안구 석수동 621-5번지","category":"학원 - 유아원"}]},{"lat":"37.413658559","long":"126.91029023","items":[{"name":"나무","tel":"","addr":"경기도 안양시 만안구 석수동 271-31번지","category":"의류 - 정장"}]},{"lat":"37.416275529","long":"126.91561882","items":[{"name":"나우그래픽","tel":"031-474-8241","addr":"경기도 안양시 만안구 석수동 199-24번지","category":"용역 서비스 - 종합용역"}]},{"lat":"37.414575575","long":"126.90775881","items":[{"name":"나주곰탕","tel":"","addr":"경기도 안양시 만안구 석수동 283-4번지","category":"일반휴게음식 - 일반한식"},{"name":"아이센스PC방석수점","tel":"070-8336-2468","addr":"경기도 안양시 만안구 석수동 283-4번지","category":"레저업소 - 기타레져업소"}]},{"lat":"37.414133946","long":"126.90758993","items":[{"name":"낙원식당","tel":"031-472-9898","addr":"경기도 안양시 만안구 석수동 285-2번지 대흥빌라","category":"일반휴게음식 - 일반한식"}]},{"lat":"37.423552782","long":"126.91181448","items":[{"name":"낙지섬","tel":"031-473-8900","addr":"경기도 안양시 만안구 석수동 72-1번지","category":"일반휴게음식 - 일반한식"}]},{"lat":"37.420963661","long":"126.90770554","items":[{"name":"남경카센타","tel":"031-396-0470","addr":"경기도 안양시 만안구 석수동 102-11번지","category":"자동차정비 유지 - 자동차정비"}]},{"lat":"37.410853362","long":"126.90645326","items":[{"name":"남부자동차공업사","tel":"031-471-2359","addr":"경기도 안양시 만안구 석수동 294-37번지","category":"자동차정비 유지 - 자동차정비"}]},{"lat":"37.408329866","long":"126.89522926","items":[{"name":"남양엔지니어링","tel":"031-472-8872","addr":"경기도 안양시 만안구 석수동 750-10번지","category":"전기제품 - 냉열기기"}]},{"lat":"37.413576703","long":"126.90931889","items":[{"name":"냉면마을칼국수","tel":"031-471-0466","addr":"경기도 안양시 만안구 석수동 279-2번지","category":"일반휴게음식 - 일반한식"},{"name":"비타민약국","tel":"031-349-6676","addr":"경기도 안양시 만안구 석수동 279-2번지","category":"약국 - 약국"},{"name":"해피스토리 방방","tel":"031-345-5595","addr":"경기도 안양시 만안구 석수동 279-2번지","category":"레저업소 - 기타레져업소"}]},{"lat":"37.411998591","long":"126.90762652","items":[{"name":"네네치킨점","tel":"031-474-7200","addr":"경기도 안양시 만안구 석수동 290-37번지","category":"일반휴게음식 - 주점"}]},{"lat":"37.417303553","long":"126.91681504","items":[{"name":"네모의미학경기지사","tel":"031-471-0405","addr":"경기도 안양시 만안구 석수동 210-23번지","category":"용역 서비스 - 종합용역"}]},{"lat":"37.415913043","long":"126.91284039","items":[{"name":"네일도반짝","tel":"031-474-8509","addr":"경기도 안양시 만안구 석수동 180-2번지","category":"보건위생 - 피부미용실"},{"name":"늘사랑찬","tel":"031-474-3389","addr":"경기도 안양시 만안구 석수동 180-2번지","category":"음료식품 - 기타음료식품"},{"name":"석수건강원","tel":"031-472-4474","addr":"경기도 안양시 만안구 석수동 180-2번지","category":"건강식품 - 기타건강식품"}]},{"lat":"37.407304946","long":"126.89770429","items":[{"name":"네일샵","tel":"031-472-0258","addr":"경기도 안양시 만안구 석수동 785번지","category":"보건위생 - 피부미용실"},{"name":"미강애강","tel":"031-472-0303","addr":"경기도 안양시 만안구 석수동 785번지","category":"문화.취미 - 애완동물"},{"name":"성모의원","tel":"031-474-8050","addr":"경기도 안양시 만안구 석수동 785번지","category":"의원 - 의원"},{"name":"에덴세탁소","tel":"031-471-8572","addr":"경기도 안양시 만안구 석수동 785번지","category":"수리서비스 - 세탁소"},{"name":"오치과의원","tel":"031-471-6878","addr":"경기도 안양시 만안구 석수동 785번지","category":"의원 - 치과의원"},{"name":"유앤미영어학원","tel":"031-473-6888","addr":"경기도 안양시 만안구 석수동 785번지","category":"학원 - 보습학원"},{"name":"주식회사 에스에스메디케어","tel":"031-473-5171","addr":"경기도 안양시 만안구 석수동 785번지","category":"보건위생 - 의료용품"},{"name":"쥴리어드음악학원","tel":"031-472-0576","addr":"경기도 안양시 만안구 석수동 785번지","category":"회원제형태 - 학원"},{"name":"피자마루 충훈부점","tel":"031-471-1082","addr":"경기도 안양시 만안구 석수동 785번지","category":"일반휴게음식 - 일반한식"},{"name":"하우디","tel":"031-472-6314","addr":"경기도 안양시 만안구 석수동 785번지","category":"일반휴게음식 - 일반한식"}]},{"lat":"37.413438339","long":"126.90534296","items":[{"name":"넷피플","tel":"070-7532-4434","addr":"경기도 안양시 만안구 석수동 350-17번지","category":"용역 서비스 - 종합용역"}]},{"lat":"37.432106189","long":"126.90417758","items":[{"name":"농축산판매장마트","tel":"031-471-2325","addr":"경기도 안양시 만안구 석수동 382-12번지","category":"음료식품 - 정육점"},{"name":"정읍시농축산물판매장","tel":"031-471-2325","addr":"경기도 안양시 만안구 석수동 382-12번지","category":"음료식품 - 농·축·수산품"}]},{"lat":"37.407467768","long":"126.89842694","items":[{"name":"농협홍삼한삼인안양석수점","tel":"031-447-5057","addr":"경기도 안양시 만안구 석수동 785-16번지","category":"건강식품 - 홍삼제품"},{"name":"동의보감한의원","tel":"031-474-3375","addr":"경기도 안양시 만안구 석수동 785-16번지","category":"의원 - 한의원"},{"name":"설아할인마트","tel":"031-474-5987","addr":"경기도 안양시 만안구 석수동 785-16번지","category":"유통업 영리 - 슈퍼마켓"},{"name":"숙헤어박스","tel":"031-471-8374","addr":"경기도 안양시 만안구 석수동 785-16번지","category":"보건위생 - 미용원"},{"name":"신용공인중개사","tel":"031-474-7888","addr":"경기도 안양시 만안구 석수동 785-16번지","category":"용역 서비스 - 부동산 중개·임대"},{"name":"엠비시(MBC)노래연습장","tel":"031-473-6937","addr":"경기도 안양시 만안구 석수동 785-16번지","category":"레저업소 - 노 래 방"},{"name":"오레시피안양석수점","tel":"031-471-5010","addr":"경기도 안양시 만안구 석수동 785-16번지","category":"음료식품 - 기타음료식품"},{"name":"오호라","tel":"031-474-4888","addr":"경기도 안양시 만안구 석수동 785-16번지","category":"음료식품 - 제과점"},{"name":"준킥복싱(J-GYM)","tel":"070-5044-1024","addr":"경기도 안양시 만안구 석수동 785-16번지","category":"레저업소 - 헬스클럽"}]},{"lat":"37.418324587","long":"126.90879335","items":[{"name":"뉴대호공인중개사사무소","tel":"031-474-5900","addr":"경기도 안양시 만안구 석수동 267-11번지","category":"용역 서비스 - 부동산 중개·임대"}]},{"lat":"37.432518151","long":"126.9012281","items":[{"name":"뉴욕티파니","tel":"031-474-5689","addr":"경기도 안양시 만안구 석수동","category":"의류 - 정장"},{"name":"바른영어교습소","tel":"031-471-0326","addr":"경기도 안양시 만안구 석수동 417-3번지","category":"학원 - 외국어학원"},{"name":"바른치킨(안양석수역점)","tel":"031-474-8292","addr":"경기도 안양시 만안구 석수동 417-3번지","category":"일반휴게음식 - 스넥"},{"name":"바모스","tel":"031-471-2286","addr":"경기도 안양시 만안구 석수동","category":"일반휴게음식 - 일반한식"},{"name":"바이브PC석수역점","tel":"070-2090-1962","addr":"경기도 안양시 만안구 석수동 417-3번지","category":"레저업소 - 기타레져업소"},{"name":"바이크인커피","tel":"070-8624-4102","addr":"경기도 안양시 만안구 석수동 417-3번지","category":"일반휴게음식 - 서양음식"},{"name":"밝은미소안경원","tel":"031-474-1199","addr":"경기도 안양시 만안구 석수동","category":"보건위생 - 안경"},{"name":"비비큐치킨앤비어","tel":"031-474-0303","addr":"경기도 안양시 만안구 석수동 417-3번지","category":"일반휴게음식 - 스넥"},{"name":"석수동물병원","tel":"031-474-1275","addr":"경기도 안양시 만안구 석수동 417-3번지 석수두산위브아파트","category":"기타의료기관 - 동물병원"},{"name":"석수두산위브아파트 입주자대표회의","tel":"031-471-0617","addr":"경기도 안양시 만안구 석수동 417-3번지 석수두산위브아파트","category":"레저업소 - 헬스클럽"},{"name":"석수비타학원","tel":"031-474-1580","addr":"경기도 안양시 만안구 석수동 417-3번지","category":"학원 - 보습학원"},{"name":"아이들 코딩교습소","tel":"","addr":"경기도 안양시 만안구 석수동 417-3번지","category":"학원 - 컴퓨터학원"},{"name":"아이몰랑","tel":"070-4243-7979","addr":"경기도 안양시 만안구 석수동 417-3번지","category":"일반휴게음식 - 서양음식"},{"name":"초콜렛헤어","tel":"031-472-0054","addr":"경기도 안양시 만안구 석수동","category":"보건위생 - 미용원"},{"name":"코지COZY","tel":"031-472-0275","addr":"경기도 안양시 만안구 석수동 417-3번지","category":"보건위생 - 피부미용실"},{"name":"클래식앤재즈음악학원","tel":"031-471-9887","addr":"경기도 안양시 만안구 석수동 417-3번지","category":"학원 - 예·체능계학원"},{"name":"토박이","tel":"031-474-3939","addr":"경기도 안양시 만안구 석수동 417-3번지","category":"일반휴게음식 - 일반한식"},{"name":"회랑구이랑","tel":"031-471-5658","addr":"경기도 안양시 만안구 석수동 417-3번지","category":"일반휴게음식 - 일반한식"}]},{"lat":"37.415328787","long":"126.91469364","items":[{"name":"뉴햇빛플러스어린이집[아이행복]","tel":"031-344-0579","addr":"경기도 안양시 만안구 석수동 182-2번지 석수e-편한세상아파트","category":"학원 - 유아원"},{"name":"보리 샵","tel":"","addr":"경기도 안양시 만안구 석수동 182-2번지 석수e-편한세상아파트","category":"문화.취미 - 애완동물"}]},{"lat":"37.433052543","long":"126.9045379","items":[{"name":"늘사랑어린이집[아이행복]","tel":"031-471-2939","addr":"경기도 안양시 만안구 석수동 374-5번지","category":"학원 - 유아원"},{"name":"다인치과","tel":"031-472-2820","addr":"경기도 안양시 만안구 석수동","category":"의원 - 치과의원"},{"name":"레드헤어살롱석수푸르지오점","tel":"031-472-2700","addr":"경기도 안양시 만안구 석수동 374-5번지","category":"보건위생 - 미용원"},{"name":"백조재가장기요양센터","tel":"031-471-3477","addr":"경기도 안양시 만안구 석수동 374-5번지 석수역푸르지오아파트","category":"기타의료기관 - 기타의료기관 및 기타"},{"name":"석수해법수학학원","tel":"070-8626-3694","addr":"경기도 안양시 만안구 석수동","category":"학원 - 보습학원"},{"name":"안양생고기","tel":"031-474-0520","addr":"경기도 안양시 만안구 석수동 374-5번지 석수역푸르지오아파트","category":"일반휴게음식 - 일반한식"},{"name":"안양정육점","tel":"031-4744-4660","addr":"경기도 안양시 만안구 석수동 374-5번지","category":"음료식품 - 정육점"},{"name":"에스비에스당구클럽","tel":"","addr":"경기도 안양시 만안구 석수동 374-5번지 석수역푸르지오아파트","category":"레저업소 - 당 구 장"},{"name":"푸르지오세탁소","tel":"031-471-7848","addr":"경기도 안양시 만안구 석수동 374-5번지","category":"수리서비스 - 세탁소"}]},{"lat":"37.410577745","long":"126.91109599","items":[{"name":"늘푸른수산","tel":"031-473-5429","addr":"경기도 안양시 만안구 석수동 317-14번지","category":"일반휴게음식 - 일식·회집"},{"name":"디케이비(DKB)체육관","tel":"031-472-0103","addr":"경기도 안양시 만안구 석수동 317-14번지","category":"학원 - 예·체능계학원"}]},{"lat":"37.414936494","long":"126.90840223","items":[{"name":"다나약국","tel":"031-471-1599","addr":"경기도 안양시 만안구 석수동 277-2번지","category":"약국 - 약국"},{"name":"대용보습학원","tel":"031-472-2554","addr":"경기도 안양시 만안구 석수동 277-2번지","category":"학원 - 기타 교육기관"},{"name":"미골드","tel":"031-474-6619","addr":"경기도 안양시 만안구 석수동 277-2번지","category":"신변잡화 - 귀금속"},{"name":"사랑으로치과의원","tel":"031-474-2882","addr":"경기도 안양시 만안구 석수동 277-2번지","category":"의원 - 치과의원"},{"name":"서영음악학원","tel":"031-349-7003","addr":"경기도 안양시 만안구 석수동 277-2번지","category":"학원 - 예·체능계학원"},{"name":"석사경희화창태권도장","tel":"031-472-3493","addr":"경기도 안양시 만안구 석수동 277-2번지","category":"학원 - 예·체능계학원"},{"name":"슬로우커피","tel":"031-471-5760","addr":"경기도 안양시 만안구 석수동 277-2번지","category":"일반휴게음식 - 서양음식"},{"name":"어린음악대어린화가들 서영원음악미술학원","tel":"031-349-7003","addr":"경기도 안양시 만안구 석수동 277-2번지","category":"학원 - 예·체능계학원"},{"name":"어린화가들서영원미술학원","tel":"","addr":"경기도 안양시 만안구 석수동 277-2번지","category":"학원 - 예·체능계학원"},{"name":"에이원문구","tel":"031-471-5704","addr":"경기도 안양시 만안구 석수동 277-2번지","category":"서적문구 - 문구용품"},{"name":"이슈헤어","tel":"031-472-5737","addr":"경기도 안양시 만안구 석수동 277-2번지","category":"보건위생 - 미용원"},{"name":"이자르","tel":"031-72-0019","addr":"경기도 안양시 만안구 석수동 277-2번지","category":"유통업 영리 - 기타유통업"},{"name":"자매보쌈","tel":"031-471-5405","addr":"경기도 안양시 만안구 석수동 277-2번지","category":"일반휴게음식 - 일반한식"},{"name":"코튼월드","tel":"031-474-0659","addr":"경기도 안양시 만안구 석수동 277-2번지","category":"직물 - 옷감·직물"},{"name":"픽미아이스크림 석수점","tel":"","addr":"경기도 안양시 만안구 석수동 277-2번지","category":"음료식품 - 기타음료식품"}]},{"lat":"37.411667292","long":"126.91023621","items":[{"name":"다빈치당구클럽","tel":"031-472-3949","addr":"경기도 안양시 만안구 석수동 318-10번지","category":"레저업소 - 당 구 장"},{"name":"본가동태찜백반","tel":"031-472-3060","addr":"경기도 안양시 만안구 석수동 318-10번지","category":"일반휴게음식 - 일반한식"},{"name":"해동검도석수도장","tel":"031-473-2005","addr":"경기도 안양시 만안구 석수동 318-10번지","category":"학원 - 예·체능계학원"}]},{"lat":"37.412638095","long":"126.90736591","items":[{"name":"다성철물","tel":"031-471-4624","addr":"경기도 안양시 만안구 석수동 291-6번지","category":"건축자재 - 목재·석재·철물"},{"name":"세일세일타운","tel":"031-471-7116","addr":"경기도 안양시 만안구 석수동 291-6번지","category":"의류 - 정장"}]},{"lat":"37.419493281","long":"126.91720791","items":[{"name":"다세한","tel":"031-348-8904","addr":"경기도 안양시 만안구 석수동 221-14번지","category":"전기제품 - 냉열기기"}]},{"lat":"37.419469841","long":"126.92231404","items":[{"name":"다온","tel":"031-472-4402","addr":"경기도 안양시 만안구 석수동 814-5번지","category":"일반휴게음식 - 일반한식"},{"name":"코코파파","tel":"031-466-3804","addr":"경기도 안양시 만안구 석수동 814-5번지","category":"일반휴게음식 - 서양음식"}]},{"lat":"37.407025905","long":"126.89800964","items":[{"name":"다이소","tel":"031-471-6064","addr":"경기도 안양시 만안구 석수동 785-12번지","category":"신변잡화 - 기타잡화"},{"name":"석수아동복","tel":"031-3-0650","addr":"경기도 안양시 만안구 석수동 785-12번지","category":"의류 - 아동의류"},{"name":"스타","tel":"031-472-8023","addr":"경기도 안양시 만안구 석수동 785-12번지","category":"레저업소 - 노 래 방"},{"name":"휴앤미","tel":"031-473-5795","addr":"경기도 안양시 만안구 석수동 785-12번지","category":"보건위생 - 화장품"}]},{"lat":"37.405306088","long":"126.89926574","items":[{"name":"다해디자인","tel":"031-382-1377","addr":"경기도 안양시 만안구 석수동 777-11번지 선일빌라","category":"건축자재 - 인테리어전문"}]},{"lat":"37.410299201","long":"126.91209032","items":[{"name":"다홍","tel":"","addr":"경기도 안양시 만안구 석수동 326-13번지","category":"일반휴게음식 - 중국식"}]},{"lat":"37.433539562","long":"126.9051135","items":[{"name":"달덩이마켓","tel":"","addr":"경기도 안양시 만안구 석수동 374-5번지 석수역푸르지오아파트","category":"신변잡화 - 액세서리"}]},{"lat":"37.426185219","long":"126.91378839","items":[{"name":"담은샤브샤브칼국수","tel":"","addr":"경기도 안양시 만안구 석수동 34-7번지","category":"일반휴게음식 - 일반한식"}]},{"lat":"37.412242189","long":"126.90803286","items":[{"name":"당구짱","tel":"031-444-8573","addr":"경기도 안양시 만안구 석수동 289-14번지","category":"레저업소 - 당 구 장"},{"name":"대박집","tel":"031-471-2299","addr":"경기도 안양시 만안구 석수동 289-14번지","category":"일반휴게음식 - 일반한식"},{"name":"세창문구팬시","tel":"031-471-7350","addr":"경기도 안양시 만안구 석수동 289-14번지","category":"서적문구 - 문구용품"},{"name":"헌터PC 안양석수점","tel":"070-2211-0319","addr":"경기도 안양시 만안구 석수동 289-14번지","category":"레저업소 - 기타레져업소"},{"name":"훌랄라숯불바베큐치킨","tel":"031-471-2462","addr":"경기도 안양시 만안구 석수동 289-14번지","category":"일반휴게음식 - 주점"}]},{"lat":"37.413856674","long":"126.91015444","items":[{"name":"대박미용실","tel":"031-474-1616","addr":"경기도 안양시 만안구 석수동 271-1번지","category":"보건위생 - 미용원"},{"name":"동안스킨케어","tel":"031-471-7344","addr":"경기도 안양시 만안구 석수동 271-1번지","category":"보건위생 - 화장품"},{"name":"한뫼스포츠","tel":"031-471-7870","addr":"경기도 안양시 만안구 석수동 271-1번지","category":"레져용품 - 스포츠·레져용품"}]},{"lat":"37.411189627","long":"126.91006736","items":[{"name":"대박보신탕","tel":"031-473-4455","addr":"경기도 안양시 만안구 석수동 308-7번지","category":"일반휴게음식 - 일반한식"},{"name":"탑시스템(TOP system)","tel":"031-474-4119","addr":"경기도 안양시 만안구 석수동 308-7번지","category":"수리서비스 - 사무·통신기기수리"}]},{"lat":"37.412745362","long":"126.90631528","items":[{"name":"대성 OA 솔루션","tel":"031-474-2709","addr":"경기도 안양시 만안구 석수동 292-15번지 원진아파트","category":"사무통신 - 사무용 OA기기"},{"name":"쁘띠교육","tel":"031-473-0618","addr":"경기도 안양시 만안구 석수동 292-15번지 원진아파트","category":"학원 - 예·체능계학원"}]},{"lat":"37.418026542","long":"126.9079013","items":[{"name":"대신","tel":"031-474-4007","addr":"경기도 안양시 만안구 석수동 263-9번지","category":"신변잡화 - 기타잡화"},{"name":"라울카페 (Laundry House)","tel":"070-7853-0878","addr":"경기도 안양시 만안구 석수동 263-9번지","category":"일반휴게음식 - 서양음식"},{"name":"모두모아","tel":"070-5123-9159","addr":"경기도 안양시 만안구 석수동 263-9번지","category":"직물 - 침구·수예점"},{"name":"옛날토종순대국","tel":"031-472-4753","addr":"경기도 안양시 만안구 석수동 263-9번지","category":"일반휴게음식 - 일반한식"}]},{"lat":"37.411520354","long":"126.90675738","items":[{"name":"대신보습,컴퓨터,외국어학원","tel":"031-472-0515","addr":"경기도 안양시 만안구 석수동 293-8번지","category":"회원제형태 - 학원"},{"name":"면가든","tel":"","addr":"경기도 안양시 만안구 석수동 293-8번지","category":"일반휴게음식 - 일반한식"}]},{"lat":"37.406693022","long":"126.89856355","items":[{"name":"대양 푸줏간","tel":"031-472-4391","addr":"경기도 안양시 만안구 석수동 781-1번지","category":"일반휴게음식 - 일반한식"},{"name":"대양정육점","tel":"031-472-4391","addr":"경기도 안양시 만안구 석수동 781-1번지","category":"음료식품 - 정육점"},{"name":"민속떡집","tel":"031-472-4262","addr":"경기도 안양시 만안구 석수동 781-1번지","category":"음료식품 - 제과점"},{"name":"블럭&키즈","tel":"031-342-3424","addr":"경기도 안양시 만안구 석수동 781-1번지","category":"학원 - 기타 교육기관"},{"name":"엄마김밥","tel":"031-474-3889","addr":"경기도 안양시 만안구 석수동 781-1번지","category":"일반휴게음식 - 스넥"},{"name":"행복한 뜨개작업실","tel":"031-449-5692","addr":"경기도 안양시 만안구 석수동 781-1번지","category":"직물 - 침구·수예점"},{"name":"희라유통","tel":"","addr":"경기도 안양시 만안구 석수동 781-1번지","category":"신변잡화 - 기타잡화"}]},{"lat":"37.416137577","long":"126.91190253","items":[{"name":"대영상사","tel":"031-472-6318","addr":"경기도 안양시 만안구 석수동 180-5번지","category":"주방용구 - 주방용구"}]},{"lat":"37.4112724","long":"126.91223599","items":[{"name":"대우컴퓨터랜드","tel":"031-472-2031","addr":"경기도 안양시 만안구 석수동 324-16번지","category":"사무통신 - 컴퓨터"}]},{"lat":"37.418880475","long":"126.91703916","items":[{"name":"대일슈퍼","tel":"031-473-6393","addr":"경기도 안양시 만안구 석수동 219번지 삼호그린빌라","category":"유통업 영리 - 슈퍼마켓"}]},{"lat":"37.413858051","long":"126.91192788","items":[{"name":"대한공조기계","tel":"031-472-4640","addr":"경기도 안양시 만안구 석수동 321-20번지","category":"전기제품 - 냉열기기"}]},{"lat":"37.432053002","long":"126.90522842","items":[{"name":"대한신학대학원대학교","tel":"031-470-3328","addr":"경기도 안양시 만안구 석수동 381-1번지","category":"학원 - 대학등록금"},{"name":"대한신학대학원대학교","tel":"031-470-3328","addr":"경기도 안양시 만안구 석수동 381-1번지","category":"학원 - 대학등록금"},{"name":"대한예수교장로회총회","tel":"02-430-9107","addr":"경기도 안양시 만안구 석수동 381-1번지","category":"학원 - 기타 교육기관"},{"name":"카다쉬","tel":"","addr":"경기도 안양시 만안구 석수동 381-1번지","category":"음료식품 - 기타음료식품"}]},{"lat":"37.413659464","long":"126.9114537","items":[{"name":"대한아이앤에스","tel":"031-473-7523","addr":"경기도 안양시 만안구 석수동 321-1번지","category":"사무통신 - 기타 사무용품"}]},{"lat":"37.407215835","long":"126.89882261","items":[{"name":"대한예수교장로회길교회(VC)","tel":"031-474-5333","addr":"경기도 안양시 만안구 석수동 785-19번지","category":"기타 - 비영리/대상"},{"name":"무지개물고기미술학원","tel":"031-474-8555","addr":"경기도 안양시 만안구 석수동 785-19번지","category":"학원 - 예·체능계학원"},{"name":"베이글","tel":"031-473-3979","addr":"경기도 안양시 만안구 석수동 785-19번지","category":"의류 - 정장"},{"name":"스템놀이터","tel":"031-472-7210","addr":"경기도 안양시 만안구 석수동 785-19번지","category":"학원 - 기타 교육기관"},{"name":"울타리","tel":"","addr":"경기도 안양시 만안구 석수동 785-19번지","category":"일반휴게음식 - 일반한식"},{"name":"태영생막창 충훈부점","tel":"031-343-0753","addr":"경기도 안양시 만안구 석수동 785-19번지","category":"일반휴게음식 - 일반한식"}]},{"lat":"37.412217681","long":"126.91122954","items":[{"name":"대한종합건축전기공사","tel":"031-472-8276","addr":"경기도 안양시 만안구 석수동 320-24번지","category":"건축자재 - 보일러·펌프·샷시"}]},{"lat":"37.432573828","long":"126.90312619","items":[{"name":"대한종합목재","tel":"031-473-5151","addr":"경기도 안양시 만안구 석수동 368-3번지","category":"건축자재 - 목재·석재·철물"},{"name":"명성목재","tel":"031-473-8988","addr":"경기도 안양시 만안구 석수동 368-3번지","category":"건축자재 - 목재·석재·철물"}]},{"lat":"37.409830998","long":"126.91250881","items":[{"name":"대한종합카인테리어","tel":"031-471-3254","addr":"경기도 안양시 만안구 석수동 326-12번지","category":"자동차정비 유지 - 카인테리어"}]},{"lat":"37.418415971","long":"126.91041993","items":[{"name":"대화","tel":"031-237-1404","addr":"경기도 안양시 만안구 석수동 110-20번지 안양석수대주파크빌","category":"직물 - 카페트,커튼,천막,지물"}]},{"lat":"37.417582922","long":"126.91689379","items":[{"name":"대흥슈퍼","tel":"031-471-0976","addr":"경기도 안양시 만안구 석수동 210-58번지 대흥빌라","category":"유통업 영리 - 슈퍼마켓"}]},{"lat":"37.415291367","long":"126.91286372","items":[{"name":"더 릭스 (The Rick's)","tel":"031-472-4849","addr":"경기도 안양시 만안구 석수동 182-2번지 석수e-편한세상아파트","category":"광학제품 - 사진관"}]},{"lat":"37.411388149","long":"126.91045116","items":[{"name":"더끌린통신","tel":"070-7539-9547","addr":"경기도 안양시 만안구 석수동 318-13번지","category":"사무통신 - 통신기기"},{"name":"쇼킹노래연습장","tel":"","addr":"경기도 안양시 만안구 석수동 318-13번지","category":"레저업소 - 노 래 방"},{"name":"요가","tel":"","addr":"경기도 안양시 만안구 석수동 318-13번지","category":"레저업소 - 헬스클럽"},{"name":"이화결혼상담소,쑥좌훈방","tel":"031-472-2033","addr":"경기도 안양시 만안구 석수동 318-13번지","category":"회원제형태 - 기타4"},{"name":"헬로우컷석수점","tel":"031-473-6070","addr":"경기도 안양시 만안구 석수동 318-13번지","category":"보건위생 - 미용원"},{"name":"호박한의원","tel":"031-474-5008","addr":"경기도 안양시 만안구 석수동 318-13번지","category":"의원 - 한의원"}]},{"lat":"37.411857732","long":"126.91181735","items":[{"name":"더비스킷스튜디오","tel":"031-471-7600","addr":"경기도 안양시 만안구 석수동 324-1번지","category":"일반휴게음식 - 서양음식"},{"name":"헤어체인지","tel":"031-474-7191","addr":"경기도 안양시 만안구 석수동 324-1번지","category":"보건위생 - 미용원"}]},{"lat":"37.41354852","long":"126.90787307","items":[{"name":"더서은헤어","tel":"","addr":"경기도 안양시 만안구 석수동 286-11번지 지성주택","category":"보건위생 - 미용원"},{"name":"루디아주단","tel":"031-472-6433","addr":"경기도 안양시 만안구 석수동 286-11번지 지성주택","category":"직물 - 침구·수예점"}]},{"lat":"37.417691647","long":"126.9177296","items":[{"name":"더테라스","tel":"031-689-4540","addr":"경기도 안양시 만안구 석수동 212-1번지","category":"일반휴게음식 - 서양음식"},{"name":"천진난만","tel":"","addr":"경기도 안양시 만안구 석수동 212-1번지","category":"일반휴게음식 - 서양음식"}]},{"lat":"37.411386478","long":"126.90833891","items":[{"name":"더헤어","tel":"031-471-1155","addr":"경기도 안양시 만안구 석수동 303-14번지","category":"보건위생 - 미용원"}]},{"lat":"37.410110102","long":"126.91223739","items":[{"name":"덕성건축설비공사","tel":"031-473-3646","addr":"경기도 안양시 만안구 석수동 326-17번지","category":"용역 서비스 - 종합용역"},{"name":"예쁜꽃","tel":"031-471-8331","addr":"경기도 안양시 만안구 석수동 326-17번지","category":"문화.취미 - 화원"},{"name":"임마누엘인쇄문구백화점","tel":"031-472-7374","addr":"경기도 안양시 만안구 석수동 326-17번지","category":"서적문구 - 문구용품"}]},{"lat":"37.41369279","long":"126.90800844","items":[{"name":"덕영설비","tel":"","addr":"경기도 안양시 만안구 석수동 286-5번지","category":"건축자재 - 인테리어전문"},{"name":"신성아구찜","tel":"031-472-3535","addr":"경기도 안양시 만안구 석수동 286-5번지","category":"일반휴게음식 - 일반한식"}]},{"lat":"37.419135993","long":"126.90942495","items":[{"name":"데니스커피(관악역점)","tel":"031-473-1655","addr":"경기도 안양시 만안구 석수동 104-188번지","category":"일반휴게음식 - 서양음식"},{"name":"마이힐링테라피","tel":"031-424-7727","addr":"경기도 안양시 만안구 석수동 104-188번지","category":"보건위생 - 기타대인서비스"},{"name":"아딸","tel":"031-471-7038","addr":"경기도 안양시 만안구 석수동 104-188번지","category":"일반휴게음식 - 스넥"},{"name":"팡팡노래연습장","tel":"031-472-5016","addr":"경기도 안양시 만안구 석수동 104-188번지","category":"레저업소 - 노 래 방"},{"name":"하늘간병","tel":"031-689-3395","addr":"경기도 안양시 만안구 석수동 104-188번지","category":"회원제형태 - 기타4"}]},{"lat":"37.411407186","long":"126.91176141","items":[{"name":"덴덴 컴퍼니","tel":"070-7867-4016","addr":"경기도 안양시 만안구 석수동 325-4번지 그린파크빌라","category":"서적문구 - 완구점"}]},{"lat":"37.424076657","long":"126.91350845","items":[{"name":"도채가비","tel":"","addr":"경기도 안양시 만안구 석수동 680-89번지","category":"일반휴게음식 - 서양음식"}]},{"lat":"37.409749379","long":"126.9118199","items":[{"name":"독도는우리땅약국","tel":"031-474-1221","addr":"경기도 안양시 만안구 석수동 314-10번지","category":"약국 - 약국"},{"name":"붐PC방","tel":"031-471-8626","addr":"경기도 안양시 만안구 석수동 314-10번지","category":"레저업소 - 기타레져업소"},{"name":"에스엘씨엠씨","tel":"050-4417-4706","addr":"경기도 안양시 만안구 석수동","category":"사무통신 - 통신기기"},{"name":"큰맘할매순대국석수점","tel":"031-348-4691","addr":"경기도 안양시 만안구 석수동 314-10번지","category":"일반휴게음식 - 일반한식"}]},{"lat":"37.407161006","long":"126.89795298","items":[{"name":"돈치돈치수제돈까스전문","tel":"031-474-2146","addr":"경기도 안양시 만안구 석수동 785-13번지","category":"일반휴게음식 - 서양음식"},{"name":"벽산건설","tel":"031-473-5533","addr":"경기도 안양시 만안구 석수동 785-13번지","category":"기타 - 기계공구"},{"name":"약발테라피","tel":"031-473-1104","addr":"경기도 안양시 만안구 석수동 785-13번지","category":"보건위생 - 기타대인서비스"},{"name":"이보영의토킹클럽석수이분원어학원","tel":"031-472-8801","addr":"경기도 안양시 만안구 석수동 785-13번지","category":"학원 - 외국어학원"},{"name":"제이다헤어","tel":"031-368-2528","addr":"경기도 안양시 만안구 석수동 785-13번지","category":"보건위생 - 미용원"},{"name":"중앙태권도합기도교육관","tel":"031-472-0304","addr":"경기도 안양시 만안구 석수동 785-13번지","category":"학원 - 예·체능계학원"},{"name":"충훈미소이비인후과","tel":"031-471-5550","addr":"경기도 안양시 만안구 석수동 785-13번지","category":"의원 - 의원"},{"name":"파워에어로빅","tel":"031-474-2760","addr":"경기도 안양시 만안구 석수동 785-13번지","category":"회원제형태 - 레져업소"}]},{"lat":"37.41583172","long":"126.91253549","items":[{"name":"동경구락부","tel":"031-472-3885","addr":"경기도 안양시 만안구 석수동 183-28번지","category":"일반휴게음식 - 일반한식"},{"name":"엠디1040카페콩","tel":"070-4128-1359","addr":"경기도 안양시 만안구 석수동 183-28번지","category":"일반휴게음식 - 일반한식"}]},{"lat":"37.405611255","long":"126.89793255","items":[{"name":"동아철물","tel":"031-471-5609","addr":"경기도 안양시 만안구 석수동 764-9번지","category":"기타 - 기계공구"}]},{"lat":"37.411800115","long":"126.9073105","items":[{"name":"동양지물상사","tel":"031-474-8500","addr":"경기도 안양시 만안구 석수동 290-12번지","category":"직물 - 카페트,커튼,천막,지물"},{"name":"신라주단","tel":"02-899-8719","addr":"경기도 안양시 만안구 석수동 290-12번지","category":"직물 - 침구·수예점"}]},{"lat":"37.408275579","long":"126.89498084","items":[{"name":"동원슈퍼","tel":"031-472-2050","addr":"경기도 안양시 만안구 석수동 749-9번지","category":"유통업 영리 - 슈퍼마켓"}]},{"lat":"37.404638478","long":"126.89828404","items":[{"name":"동은카클리닉","tel":"031-472-5797","addr":"경기도 안양시 만안구 석수동 774-8번지","category":"자동차정비 유지 - 자동차정비"}]},{"lat":"37.41346948","long":"126.9104599","items":[{"name":"동일보습학원","tel":"031-471-6933","addr":"경기도 안양시 만안구 석수동 271-33번지","category":"학원 - 기타 교육기관"},{"name":"아트인 네일전문학원","tel":"031-473-4141","addr":"경기도 안양시 만안구 석수동 271-33번지","category":"보건위생 - 피부미용실"},{"name":"쥴리","tel":"031-471-3695","addr":"경기도 안양시 만안구 석수동 271-33번지","category":"의류 - 정장"},{"name":"커피하이","tel":"070-4233-7799","addr":"경기도 안양시 만안구 석수동 271-33번지","category":"일반휴게음식 - 서양음식"}]},{"lat":"37.422324983","long":"126.90870926","items":[{"name":"동화상회","tel":"031-471-4237","addr":"경기도 안양시 만안구 석수동 101-48번지 동화연립1차","category":"유통업 영리 - 슈퍼마켓"}]},{"lat":"37.423940595","long":"126.91231109","items":[{"name":"동흥관수타짜장","tel":"031-471-5413","addr":"경기도 안양시 만안구 석수동 67-3번지","category":"일반휴게음식 - 중국식"}]},{"lat":"37.417996922","long":"126.91626072","items":[{"name":"두드림나무공방","tel":"070-8116-5150","addr":"경기도 안양시 만안구 석수동 218-7번지","category":"문화.취미 - 민예·공예품"}]},{"lat":"37.433468715","long":"126.90661633","items":[{"name":"두루치기","tel":"","addr":"경기도 안양시 만안구 석수동 378-7번지 석수동근생주택","category":"일반휴게음식 - 일반한식"}]},{"lat":"37.414783467","long":"126.90858316","items":[{"name":"두유라이크","tel":"","addr":"경기도 안양시 만안구 석수동 278-1번지","category":"일반휴게음식 - 서양음식"},{"name":"랑랑","tel":"","addr":"경기도 안양시 만안구 석수동 278-1번지","category":"음료식품 - 제과점"},{"name":"미꼬먹꼬","tel":"031-471-1233","addr":"경기도 안양시 만안구 석수동 278-1번지","category":"일반휴게음식 - 스넥"}]},{"lat":"37.405223148","long":"126.89717636","items":[{"name":"두창F&B","tel":"031-471-4665","addr":"경기도 안양시 만안구 석수동 770-5번지","category":"음료식품 - 기타음료식품"}]},{"lat":"37.407917136","long":"126.89714999","items":[{"name":"둘리오락실","tel":"031-472-5562","addr":"경기도 안양시 만안구 석수동 753-2번지 영광빌라","category":"레저업소 - 기타레져업소"}]},{"lat":"37.408169901","long":"126.89769179","items":[{"name":"둥이공조","tel":"","addr":"경기도 안양시 만안구 석수동 786번지 석수코오롱하늘채","category":"용역 서비스 - 기타용역서비스"}]},{"lat":"37.423824777","long":"126.91403973","items":[{"name":"둥지스튜디오","tel":"031-472-2242","addr":"경기도 안양시 만안구 석수동 157-1번지","category":"광학제품 - 사진관"},{"name":"아미가","tel":"031-471-0190","addr":"경기도 안양시 만안구 석수동 157-1번지","category":"일반휴게음식 - 일반한식"}]},{"lat":"37.428915146","long":"126.90240797","items":[{"name":"드림교육","tel":"031-472-0620","addr":"경기도 안양시 만안구 석수동 415-2번지 석수엘지빌리지","category":"학원 - 예·체능계학원"}]},{"lat":"37.428077098","long":"126.90227351","items":[{"name":"드림열쇠","tel":"031-474-7444","addr":"경기도 안양시 만안구 석수동 484-8번지 석수엘지빌리지","category":"수리서비스 - 기타수리서비스"}]},{"lat":"37.40644082","long":"126.89865426","items":[{"name":"디씨아울렛마트","tel":"031-474-4171","addr":"경기도 안양시 만안구 석수동 781번지","category":"유통업 영리 - 슈퍼마켓"},{"name":"예지어린이집[아이행복]","tel":"031-474-2218","addr":"경기도 안양시 만안구 석수동 781-3번지","category":"학원 - 유아원"}]},{"lat":"37.416075858","long":"126.91367611","items":[{"name":"디에치모바일","tel":"031-342-7793","addr":"경기도 안양시 만안구 석수동 178-3번지","category":"사무통신 - 통신기기"},{"name":"라온","tel":"","addr":"경기도 안양시 만안구 석수동 178-3번지","category":"일반휴게음식 - 서양음식"},{"name":"수학의눈학원","tel":"031-473-8464","addr":"경기도 안양시 만안구 석수동 178-3번지","category":"학원 - 보습학원"},{"name":"아이엔아이영어학원","tel":"031-472-1110","addr":"경기도 안양시 만안구 석수동 178-3번지","category":"회원제형태 - 학원"}]},{"lat":"37.417692477","long":"126.9070432","items":[{"name":"디자인두","tel":"02-2272-3556","addr":"경기도 안양시 만안구 석수동 265-1번지","category":"용역 서비스 - 사무서비스"}]},{"lat":"37.407610895","long":"126.89726337","items":[{"name":"또가네야채곱창","tel":"031-471-1230","addr":"경기도 안양시 만안구 석수동 753-5번지","category":"일반휴게음식 - 일반한식"}]},{"lat":"37.418189274","long":"126.90859018","items":[{"name":"뚝배기육칼","tel":"031-474-8245","addr":"경기도 안양시 만안구 석수동 267-5번지","category":"일반휴게음식 - 일반한식"},{"name":"조선일보석수지국","tel":"031-471-5318","addr":"경기도 안양시 만안구 석수동 267-5번지","category":"서적문구 - 정기간행물"}]},{"lat":"37.406971674","long":"126.89781771","items":[{"name":"라스베가스","tel":"031-472-5217","addr":"경기도 안양시 만안구 석수동 785-9번지","category":"일반휴게음식 - 주점"},{"name":"순흥골돼지갈비","tel":"031-474-2520","addr":"경기도 안양시 만안구 석수동 785-9번지","category":"일반휴게음식 - 일반한식"},{"name":"오페라 당구클럽","tel":"031-472-1285","addr":"경기도 안양시 만안구 석수동 785-9번지","category":"레저업소 - 당 구 장"},{"name":"프랜즈팡","tel":"031-471-7942","addr":"경기도 안양시 만안구 석수동 785-9번지","category":"레저업소 - 기타레져업소"}]},{"lat":"37.411163144","long":"126.91076771","items":[{"name":"라이또 피씨(PC)방 안양본점","tel":"070-3562-8987","addr":"경기도 안양시 만안구 석수동 317-18번지","category":"레저업소 - 기타레져업소"}]},{"lat":"37.429751313","long":"126.90035058","items":[{"name":"라임애드","tel":"02-2261-0775","addr":"경기도 안양시 만안구 석수동 415-1번지 석수엘지빌리지","category":"서적문구 - 출판 및 인쇄물"}]},{"lat":"37.411186982","long":"126.9067578","items":[{"name":"라임오렌지","tel":"031-474-1895","addr":"경기도 안양시 만안구 석수동 294-52번지","category":"문화.취미 - 민예·공예품"},{"name":"워시프렌즈 셀프빨래방 안양 석수동점","tel":"","addr":"경기도 안양시 만안구 석수동 294-52번지","category":"수리서비스 - 세탁소"}]},{"lat":"37.410443301","long":"126.91201108","items":[{"name":"라파대리점","tel":"031-346-5030","addr":"경기도 안양시 만안구 석수동 326-5번지","category":"전기제품 - 기타전기제품"},{"name":"보일러할인플라자","tel":"031-473-3233","addr":"경기도 안양시 만안구 석수동 326-5번지","category":"수리서비스 - 기타수리서비스"},{"name":"서울유엔이치과","tel":"031-472-8282","addr":"경기도 안양시 만안구 석수동 326-5번지","category":"의원 - 치과의원"},{"name":"티앤비보습학원","tel":"031-472-4711","addr":"경기도 안양시 만안구 석수동 326-5번지","category":"학원 - 보습학원"}]},{"lat":"37.426717142","long":"126.91422837","items":[{"name":"락천수타","tel":"031-474-3355","addr":"경기도 안양시 만안구 석수동 32-14번지","category":"일반휴게음식 - 중국식"}]},{"lat":"37.409250669","long":"126.90781073","items":[{"name":"럭키음악학원","tel":"031-471-3305","addr":"경기도 안양시 만안구 석수동 296번지","category":"학원 - 예·체능계학원"},{"name":"럭키인테리어","tel":"031-474-1300","addr":"경기도 안양시 만안구 석수동 296번지","category":"용역 서비스 - 기타용역서비스"},{"name":"럭키청과","tel":"031-472-3389","addr":"경기도 안양시 만안구 석수동 296번지","category":"음료식품 - 농·축·수산품"},{"name":"럭키태권도장","tel":"031-472-1070","addr":"경기도 안양시 만안구 석수동 296번지","category":"학원 - 예·체능계학원"},{"name":"매쓰잉글루학원","tel":"031-473-9123","addr":"경기도 안양시 만안구 석수동 296번지","category":"학원 - 보습학원"},{"name":"산동성중화요리","tel":"031-472-9932","addr":"경기도 안양시 만안구 석수동 296번지","category":"일반휴게음식 - 중국식"},{"name":"스듀디오피앤피","tel":"","addr":"경기도 안양시 만안구 석수동 296번지 럭키아파트","category":"광학제품 - 사진관"},{"name":"아르떼음악학원","tel":"031-471-0020","addr":"경기도 안양시 만안구 석수동 296번지","category":"학원 - 예·체능계학원"},{"name":"안녕아가","tel":"031-472-0595","addr":"경기도 안양시 만안구 석수동 296번지","category":"의류 - 정장"},{"name":"엠제이푸드","tel":"031-426-5596","addr":"경기도 안양시 만안구 석수동 296번지","category":"일반휴게음식 - 일반한식"},{"name":"진스영어교습소","tel":"","addr":"경기도 안양시 만안구 석수동 296번지 럭키아파트","category":"학원 - 외국어학원"},{"name":"홍익어린이집[아이행복]","tel":"031-471-2356","addr":"경기도 안양시 만안구 석수동 296번지","category":"학원 - 유아원"}]},{"lat":"37.410412071","long":"126.90670232","items":[{"name":"레더마마(reather mama)","tel":"031-347-0400","addr":"경기도 안양시 만안구 석수동 294-29번지","category":"신변잡화 - 가방"}]},{"lat":"37.416166214","long":"126.91401488","items":[{"name":"레드헤어쿨","tel":"031-471-2966","addr":"경기도 안양시 만안구 석수동 177-7번지","category":"보건위생 - 미용원"},{"name":"민트래빗","tel":"031-471-0580","addr":"경기도 안양시 만안구 석수동 177-7번지","category":"의류 - 정장"}]},{"lat":"37.405908827","long":"126.89820321","items":[{"name":"레아헤어","tel":"031-471-5128","addr":"경기도 안양시 만안구 석수동 780-13번지","category":"보건위생 - 미용원"}]},{"lat":"37.405666392","long":"126.89915229","items":[{"name":"로얄슈퍼","tel":"031-473-3464","addr":"경기도 안양시 만안구 석수동 777번지","category":"유통업 영리 - 슈퍼마켓"}]},{"lat":"37.410774155","long":"126.9087915","items":[{"name":"루비","tel":"031-435-2129","addr":"경기도 안양시 만안구 석수동 301-13번지 예가빌2차","category":"보건위생 - 화장품"}]},{"lat":"37.433852283","long":"126.90198331","items":[{"name":"루씨르","tel":"070-8962-8945","addr":"경기도 안양시 만안구 석수동 422-1번지","category":"보건위생 - 피부미용실"},{"name":"브링웰피자앤치킨사냥(석수역점)","tel":"031-471-0222","addr":"경기도 안양시 만안구 석수동 422-1번지","category":"일반휴게음식 - 서양음식"},{"name":"석수부대찌개앤두루치기","tel":"031-471-2022","addr":"경기도 안양시 만안구 석수동 422-1번지","category":"일반휴게음식 - 스넥"},{"name":"엠에스 (ms)모바일","tel":"070-8882-7530","addr":"경기도 안양시 만안구 석수동 422-1번지","category":"사무통신 - 통신기기"},{"name":"영진이발소","tel":"031-471-6317","addr":"경기도 안양시 만안구 석수동 422-1번지","category":"보건위생 - 미용원"},{"name":"지수헤어클럽","tel":"031-471-0991","addr":"경기도 안양시 만안구 석수동 422-1번지","category":"보건위생 - 미용원"}]},{"lat":"37.411082972","long":"126.91195383","items":[{"name":"리듬아이교육","tel":"031-472-0620","addr":"경기도 안양시 만안구 석수동 325-10번지 골든트리","category":"학원 - 예·체능계학원"},{"name":"신동양상사","tel":"031-471-5556","addr":"경기도 안양시 만안구 석수동 325-10번지 골든트리","category":"직물 - 카페트,커튼,천막,지물"}]},{"lat":"37.412999657","long":"126.90881131","items":[{"name":"리빙마트","tel":"031-472-8831","addr":"경기도 안양시 만안구 석수동 280-13번지","category":"음료식품 - 기타음료식품"}]},{"lat":"37.416075353","long":"126.91300963","items":[{"name":"리스펙트 멀티짐","tel":"031-474-2014","addr":"경기도 안양시 만안구 석수동 179-1번지","category":"학원 - 예·체능계학원"}]},{"lat":"37.413136099","long":"126.91044902","items":[{"name":"리스펙트텔레콤","tel":"","addr":"경기도 안양시 만안구 석수동 320-27번지","category":"사무통신 - 통신기기"}]},{"lat":"37.419831776","long":"126.92459559","items":[{"name":"리오커피","tel":"","addr":"경기도 안양시 만안구 석수동 825-6번지","category":"일반휴게음식 - 서양음식"},{"name":"카페리오","tel":"","addr":"경기도 안양시 만안구 석수동 825-6번지","category":"일반휴게음식 - 서양음식"}]},{"lat":"37.413041495","long":"126.90485775","items":[{"name":"리유플라워","tel":"02-546-1634","addr":"경기도 안양시 만안구 석수동 346-3번지 영풍마드레빌아파트","category":"문화.취미 - 화원"}]},{"lat":"37.433698764","long":"126.90157676","items":[{"name":"리틀베베어린이집[아이행복]","tel":"031-349-1070","addr":"경기도 안양시 만안구 석수동 417-3번지 석수두산위브아파트","category":"학원 - 유아원"}]},{"lat":"37.416634122","long":"126.913201","items":[{"name":"마구아","tel":"031-476-9592","addr":"경기도 안양시 만안구 석수동 177-32번지","category":"일반휴게음식 - 일반한식"},{"name":"석수검도관","tel":"031-473-7579","addr":"경기도 안양시 만안구 석수동 177-32번지","category":"학원 - 예·체능계학원"},{"name":"어썸(AWESOME)","tel":"070-4312-1312","addr":"경기도 안양시 만안구 석수동 177-32번지","category":"의류 - 정장"}]},{"lat":"37.412494026","long":"126.90747905","items":[{"name":"마운틴","tel":"031-473-0099","addr":"경기도 안양시 만안구 석수동 291-8번지","category":"일반휴게음식 - 일반한식"}]},{"lat":"37.407278387","long":"126.89823519","items":[{"name":"마을공인중개사사무소","tel":"02-830-4662","addr":"경기도 안양시 만안구 석수동 785-22번지","category":"용역 서비스 - 부동산 중개·임대"},{"name":"브런치소반","tel":"031-473-5871","addr":"경기도 안양시 만안구 석수동 785-22번지","category":"일반휴게음식 - 일반한식"},{"name":"석수한우마을","tel":"031-471-2876","addr":"경기도 안양시 만안구 석수동 785-22번지","category":"음료식품 - 정육점"},{"name":"엠스토리음악학원","tel":"031-472-6640","addr":"경기도 안양시 만안구 석수동 785-22번지","category":"회원제형태 - 학원"}]},{"lat":"37.410775861","long":"126.91096021","items":[{"name":"만다린","tel":"031-471-3310","addr":"경기도 안양시 만안구 석수동 317-10번지","category":"일반휴게음식 - 중국식"},{"name":"서울정호프","tel":"031-472-7197","addr":"경기도 안양시 만안구 석수동 317-10번지","category":"일반휴게음식 - 주점"}]},{"lat":"37.429688233","long":"126.90033936","items":[{"name":"만안꼬꼬마어린이집[아이행복]","tel":"031-472-1171","addr":"경기도 안양시 만안구 석수동 415-1번지 석수엘지빌리지","category":"학원 - 유아원"},{"name":"맛나반찬","tel":"031-474-0468","addr":"경기도 안양시 만안구 석수동 415-1번지 석수엘지빌리지","category":"음료식품 - 기타음료식품"},{"name":"통통어린이집[아이행복]","tel":"031-471-0077","addr":"경기도 안양시 만안구 석수동 415-1번지 석수엘지빌리지","category":"학원 - 유아원"},{"name":"튼튼북","tel":"031-474-4012","addr":"경기도 안양시 만안구 석수동","category":"서적문구 - 전문서적"}]},{"lat":"37.407360065","long":"126.89890147","items":[{"name":"맘스터치 안양석수점","tel":"031-471-6070","addr":"경기도 안양시 만안구 석수동 785-18번지","category":"일반휴게음식 - 서양음식"},{"name":"베비라석수전문점","tel":"031-472-8216","addr":"경기도 안양시 만안구 석수동 785-18번지","category":"의류 - 아동의류"},{"name":"세종치과의원","tel":"031-474-2804","addr":"경기도 안양시 만안구 석수동 785-18번지","category":"의원 - 치과의원"},{"name":"인디오븐","tel":"031-472-5259","addr":"경기도 안양시 만안구 석수동 785-18번지","category":"음료식품 - 제과점"}]},{"lat":"37.418665179","long":"126.93206383","items":[{"name":"맛고을","tel":"031-472-3382","addr":"경기도 안양시 만안구 석수동 839-5번지","category":"일반휴게음식 - 일반한식"}]},{"lat":"37.416527543","long":"126.91525704","items":[{"name":"맛보기","tel":"031-447-0203","addr":"경기도 안양시 만안구 석수동 201-1번지 석수연립","category":"일반휴게음식 - 일반한식"},{"name":"향 수놓다","tel":"","addr":"경기도 안양시 만안구 석수동 201-1번지 석수연립","category":"직물 - 침구·수예점"}]},{"lat":"37.423382318","long":"126.91276366","items":[{"name":"멧돌녹두빈대떡","tel":"031-471-3332","addr":"경기도 안양시 만안구 석수동 80-5번지","category":"일반휴게음식 - 일반한식"},{"name":"민준식쌀찐빵","tel":"031-473-1112","addr":"경기도 안양시 만안구 석수동 80-5번지","category":"일반휴게음식 - 스넥"},{"name":"중국요리태양","tel":"031-471-1157","addr":"경기도 안양시 만안구 석수동 80-5번지","category":"일반휴게음식 - 중국식"}]},{"lat":"37.412521908","long":"126.90854081","items":[{"name":"명가참치","tel":"031-471-3785","addr":"경기도 안양시 만안구 석수동 289-6번지","category":"일반휴게음식 - 일식·회집"},{"name":"영진전자","tel":"031-441-1128","addr":"경기도 안양시 만안구 석수동 289-6번지","category":"전기제품 - 가전제품"},{"name":"예림산업","tel":"","addr":"경기도 안양시 만안구 석수동 289-6번지","category":"직물 - 침구·수예점"},{"name":"황제곱창전골","tel":"031-471-7225","addr":"경기도 안양시 만안구 석수동 289-6번지","category":"일반휴게음식 - 일반한식"}]},{"lat":"37.423192398","long":"126.91183751","items":[{"name":"명작 노래 뮤비방","tel":"","addr":"경기도 안양시 만안구 석수동 73-1번지","category":"용역 서비스 - 종합용역"}]},{"lat":"37.407242686","long":"126.89861926","items":[{"name":"명태골","tel":"031-473-3010","addr":"경기도 안양시 만안구 석수동 785-20번지","category":"일반휴게음식 - 일반한식"},{"name":"짝태이야기","tel":"","addr":"경기도 안양시 만안구 석수동 785-20번지","category":"일반휴게음식 - 일반한식"},{"name":"최강이스턴영어학원","tel":"031-474-1605","addr":"경기도 안양시 만안구 석수동 785-20번지","category":"학원 - 외국어학원"}]},{"lat":"37.434239646","long":"126.9019037","items":[{"name":"모모와인포차","tel":"070-7862-1697","addr":"경기도 안양시 만안구 석수동 423-59번지","category":"일반휴게음식 - 칵테일바"},{"name":"씨유안양석수역점","tel":"031-471-8743","addr":"경기도 안양시 만안구 석수동 423-59번지","category":"유통업 영리 - 편 의 점"},{"name":"탑클래스수학교습소","tel":"031-471-4532","addr":"경기도 안양시 만안구 석수동 423-59번지","category":"학원 - 보습학원"}]},{"lat":"37.415769072","long":"126.91308907","items":[{"name":"무극합기도해동검도","tel":"031-473-2577","addr":"경기도 안양시 만안구 석수동 183-22번지","category":"회원제형태 - 학원"},{"name":"신나는점핑다이어트","tel":"031-348-5553","addr":"경기도 안양시 만안구 석수동 183-22번지","category":"건강식품 - 기타건강식품"}]},{"lat":"37.417748097","long":"126.90898611","items":[{"name":"무지개다방","tel":"070-8918-0080","addr":"경기도 안양시 만안구 석수동 267-25번지","category":"일반휴게음식 - 서양음식"}]},{"lat":"37.414450517","long":"126.90911448","items":[{"name":"미래치재","tel":"02-778-2820","addr":"경기도 안양시 만안구 석수동 278-1번지 관악역우방유쉘아파트","category":"보건위생 - 의료용품"}]},{"lat":"37.410135183","long":"126.90972981","items":[{"name":"미미카페","tel":"","addr":"경기도 안양시 만안구 석수동 310-26번지","category":"일반휴게음식 - 서양음식"}]},{"lat":"37.416103075","long":"126.91392459","items":[{"name":"미스터브리즈","tel":"031-473-6071","addr":"경기도 안양시 만안구 석수동 178-4번지","category":"일반휴게음식 - 서양음식"},{"name":"블루밍그림터 미술학원","tel":"031-474-7792","addr":"경기도 안양시 만안구 석수동 178-4번지","category":"학원 - 예·체능계학원"},{"name":"한돌바둑교습소","tel":"031-471-1101","addr":"경기도 안양시 만안구 석수동 178-4번지","category":"학원 - 기타 교육기관"}]},{"lat":"37.40633235","long":"126.89825909","items":[{"name":"미앤미","tel":"031-473-0707","addr":"경기도 안양시 만안구 석수동 780-4번지","category":"보건위생 - 피부미용실"}]},{"lat":"37.406772687","long":"126.89695958","items":[{"name":"민&구PC","tel":"031-474-2692","addr":"경기도 안양시 만안구 석수동 763-7번지 목화빌라","category":"수리서비스 - 사무·통신기기수리"}]},{"lat":"37.412602727","long":"126.90820184","items":[{"name":"민성식품","tel":"031-472-3630","addr":"경기도 안양시 만안구 석수동 289-3번지","category":"음료식품 - 기타음료식품"}]},{"lat":"37.410306044","long":"126.90931167","items":[{"name":"밍밍(Ming-Ming)","tel":"031-342-2229","addr":"경기도 안양시 만안구 석수동 300-11번지","category":"의류 - 정장"},{"name":"푸른ENG","tel":"070-4531-9003","addr":"경기도 안양시 만안구 석수동 300-11번지","category":"수리서비스 - 기타수리서비스"}]},{"lat":"37.409605322","long":"126.91195561","items":[{"name":"바로기술","tel":"031-431-2242","addr":"경기도 안양시 만안구 석수동","category":"용역 서비스 - 소프트웨어"},{"name":"석수약국","tel":"031-473-0510","addr":"경기도 안양시 만안구 석수동 314-9번지","category":"약국 - 약국"},{"name":"이기철여성의원","tel":"031-473-0181","addr":"경기도 안양시 만안구 석수동 314-9번지","category":"의원 - 의원"},{"name":"치아사랑치과의원","tel":"031-441-2858","addr":"경기도 안양시 만안구 석수동 314-9번지","category":"의원 - 치과의원"},{"name":"포시즌","tel":"031-472-0443","addr":"경기도 안양시 만안구 석수동 314-9번지","category":"직물 - 침구·수예점"},{"name":"한양무용학원","tel":"031-473-5004","addr":"경기도 안양시 만안구 석수동 314-9번지","category":"학원 - 예·체능계학원"}]},{"lat":"37.408827106","long":"126.90769831","items":[{"name":"바른사랑어린이집[아이행복]","tel":"031-472-2717","addr":"경기도 안양시 만안구 석수동 296번지 럭키아파트","category":"학원 - 유아원"}]},{"lat":"37.429074655","long":"126.89931207","items":[{"name":"바바헤어","tel":"031-471-0502","addr":"경기도 안양시 만안구 석수동 442-5번지","category":"보건위생 - 미용원"},{"name":"연현중학교","tel":"031-474-1186","addr":"경기도 안양시 만안구 석수동 442-5번지","category":"학원 - 초중고교육기관"}]},{"lat":"37.410720445","long":"126.90923208","items":[{"name":"바비헤어","tel":"031-472-7220","addr":"경기도 안양시 만안구 석수동 307-10번지","category":"보건위생 - 미용원"}]},{"lat":"37.416190188","long":"126.9100386","items":[{"name":"밥묵자","tel":"031-472-7948","addr":"경기도 안양시 만안구 석수동 269-20번지 기봉주택","category":"일반휴게음식 - 일반한식"},{"name":"안산방앗간","tel":"031-472-4519","addr":"경기도 안양시 만안구 석수동 269-20번지 기봉주택","category":"음료식품 - 제과점"}]},{"lat":"37.406466759","long":"126.8974231","items":[{"name":"방카","tel":"","addr":"경기도 안양시 만안구 석수동 764번지","category":"일반휴게음식 - 서양음식"}]},{"lat":"37.427798448","long":"126.90305344","items":[{"name":"배움담고","tel":"070-7612-0885","addr":"경기도 안양시 만안구 석수동 484-8번지 석수엘지빌리지","category":"회원제형태 - 학원"}]},{"lat":"37.404440337","long":"126.89837467","items":[{"name":"배터리마트","tel":"031-473-2590","addr":"경기도 안양시 만안구 석수동 775-6번지 우성다세대","category":"자동차정비 유지 - 자동차부품"},{"name":"팔부자슈퍼","tel":"031-472-6658","addr":"경기도 안양시 만안구 석수동 775-6번지 우성다세대","category":"유통업 영리 - 슈퍼마켓"}]},{"lat":"37.423463133","long":"126.91240205","items":[{"name":"백년회관서서갈비 삼막점","tel":"031-472-4492","addr":"경기도 안양시 만안구 석수동 78-3번지","category":"일반휴게음식 - 일반한식"}]},{"lat":"37.412028066","long":"126.91071017","items":[{"name":"백제의원","tel":"031-471-7171","addr":"경기도 안양시 만안구 석수동 320-13번지","category":"의원 - 의원"}]},{"lat":"37.406719171","long":"126.89756958","items":[{"name":"백조시스템","tel":"031-471-8934","addr":"경기도 안양시 만안구 석수동 759-6번지","category":"주방용구 - 주방용구"},{"name":"안성깍두기","tel":"","addr":"경기도 안양시 만안구 석수동 759-6번지","category":"일반휴게음식 - 일반한식"},{"name":"제일유리","tel":"031-471-7591","addr":"경기도 안양시 만안구 석수동 759-6번지","category":"건축자재 - 유리"},{"name":"쿨노래연습장","tel":"031-471-1666","addr":"경기도 안양시 만안구 석수동 759-6번지","category":"레저업소 - 노 래 방"}]},{"lat":"37.407160513","long":"126.89739954","items":[{"name":"백조헤어갤러리","tel":"031-472-7853","addr":"경기도 안양시 만안구 석수동 759-2번지","category":"보건위생 - 미용원"},{"name":"샤인","tel":"031-474-7540","addr":"경기도 안양시 만안구 석수동 759-2번지","category":"의류 - 정장"}]},{"lat":"37.415775575","long":"126.90984708","items":[{"name":"베이비월드","tel":"031-388-5999","addr":"경기도 안양시 만안구 석수동","category":"수리서비스 - 가정용품수리"}]},{"lat":"37.421885707","long":"126.91153407","items":[{"name":"별꽃","tel":"031-474-0569","addr":"경기도 안양시 만안구 석수동 95-5번지","category":"일반휴게음식 - 서양음식"}]},{"lat":"37.433167646","long":"126.90213112","items":[{"name":"별난만두","tel":"031-474-0505","addr":"경기도 안양시 만안구 석수동 425-1번지 연현씨티빌","category":"일반휴게음식 - 스넥"}]},{"lat":"37.412331981","long":"126.90764869","items":[{"name":"별빛노래연습장","tel":"031-471-7621","addr":"경기도 안양시 만안구 석수동 290-14번지","category":"레저업소 - 노 래 방"},{"name":"석수 싱싱 야채","tel":"031-472-9557","addr":"경기도 안양시 만안구 석수동 290-14번지","category":"음료식품 - 농·축·수산품"},{"name":"화창당구클럽","tel":"","addr":"경기도 안양시 만안구 석수동 290-14번지","category":"레저업소 - 당 구 장"}]},{"lat":"37.412413344","long":"126.90798746","items":[{"name":"별장여인숙","tel":"031-471-5798","addr":"경기도 안양시 만안구 석수동 289-15번지","category":"숙박업 - 여관/기타숙박업"}]},{"lat":"37.413103879","long":"126.90403309","items":[{"name":"보리타작","tel":"031-474-1110","addr":"경기도 안양시 만안구 석수동","category":"일반휴게음식 - 일반한식"}]},{"lat":"37.432690154","long":"126.90217695","items":[{"name":"보인당","tel":"031-472-4007","addr":"경기도 안양시 만안구 석수동 421-8번지","category":"신변잡화 - 귀금속"},{"name":"비욘드어드밴스트어학원","tel":"031-474-1580","addr":"경기도 안양시 만안구 석수동 421-8번지","category":"학원 - 외국어학원"},{"name":"오늘네일","tel":"031-474-0438","addr":"경기도 안양시 만안구 석수동 421-8번지","category":"보건위생 - 피부미용실"},{"name":"주식회사에스제이렌트카안양엽업소","tel":"031-454-6767","addr":"경기도 안양시 만안구 석수동 421-8번지","category":"여행 - 렌터카"},{"name":"크린데이","tel":"031-347-2002","addr":"경기도 안양시 만안구 석수동 421-8번지","category":"수리서비스 - 세탁소"}]},{"lat":"37.427470552","long":"126.89895275","items":[{"name":"복돈우리 돼지국밥","tel":"031-474-8255","addr":"경기도 안양시 만안구 석수동 473-2번지","category":"일반휴게음식 - 일반한식"},{"name":"액티브존(ACTIVEZONE)","tel":"070-7760-8968","addr":"경기도 안양시 만안구 석수동 473-2번지","category":"용역 서비스 - 종합용역"}]},{"lat":"37.424381775","long":"126.91190386","items":[{"name":"본가장수촌","tel":"031-471-1188","addr":"경기도 안양시 만안구 석수동 67-1번지","category":"일반휴게음식 - 일반한식"}]},{"lat":"37.433104519","long":"126.90206341","items":[{"name":"본죽","tel":"031-474-9100","addr":"경기도 안양시 만안구 석수동 425-1번지 연현씨티빌","category":"일반휴게음식 - 일반한식"},{"name":"이디야커피 안양석수역점","tel":"031-471-1417","addr":"경기도 안양시 만안구 석수동 425-1번지 연현씨티빌","category":"일반휴게음식 - 서양음식"},{"name":"청산","tel":"070-7500-3133","addr":"경기도 안양시 만안구 석수동 425-1번지 연현씨티빌","category":"수리서비스 - 사무·통신기기수리"}]},{"lat":"37.417186439","long":"126.91683776","items":[{"name":"봄 커피숍","tel":"031-472-7776","addr":"경기도 안양시 만안구 석수동 210-11번지","category":"일반휴게음식 - 서양음식"}]},{"lat":"37.409412886","long":"126.89723825","items":[{"name":"봄뜰","tel":"031-472-0075","addr":"경기도 안양시 만안구 석수동 607-4번지","category":"일반휴게음식 - 일반한식"},{"name":"온누리종합대행","tel":"031-472-8075","addr":"경기도 안양시 만안구 석수동 607-4번지","category":"자동차정비 유지 - 자동차부품"}]},{"lat":"37.405909683","long":"126.89917455","items":[{"name":"봄비네교실","tel":"031-473-9364","addr":"경기도 안양시 만안구 석수동 782-9번지","category":"학원 - 보습학원"},{"name":"윤학준로스팅하우스","tel":"","addr":"경기도 안양시 만안구 석수동 782-9번지","category":"일반휴게음식 - 서양음식"}]},{"lat":"37.419691641","long":"126.91739973","items":[{"name":"부띠끄코리아","tel":"070-8703-1715","addr":"경기도 안양시 만안구 석수동 221-56번지","category":"신변잡화 - 액세서리"},{"name":"북앤스쿨","tel":"031-343-7079","addr":"경기도 안양시 만안구 석수동 221-56번지","category":"서적문구 - 일반서적"}]},{"lat":"37.413107732","long":"126.90875469","items":[{"name":"부산제분소","tel":"031-471-8142","addr":"경기도 안양시 만안구 석수동 280-9번지","category":"음료식품 - 기타음료식품"}]},{"lat":"37.413609939","long":"126.90583975","items":[{"name":"부영정밀/원격지","tel":"031-472-4244","addr":"경기도 안양시 만안구 석수동 351-9번지","category":"기타 - 기타 전문점"},{"name":"영도메디칼","tel":"031-421-0196","addr":"경기도 안양시 만안구 석수동 351-9번지","category":"보건위생 - 의료용품"}]},{"lat":"37.412909403","long":"126.90861939","items":[{"name":"부용한중식품","tel":"070-7514-1777","addr":"경기도 안양시 만안구 석수동 289-11번지","category":"음료식품 - 기타음료식품"}]},{"lat":"37.415714865","long":"126.9128971","items":[{"name":"분홍무지개 안양 만안점","tel":"031-360-6271","addr":"경기도 안양시 만안구 석수동 183-7번지","category":"신변잡화 - 기타잡화"},{"name":"태영생막창","tel":"031-472-9867","addr":"경기도 안양시 만안구 석수동 183-7번지","category":"일반휴게음식 - 일반한식"}]},{"lat":"37.422715083","long":"126.91212052","items":[{"name":"블랙콩 삼막사점","tel":"070-454-7345","addr":"경기도 안양시 만안구 석수동 83-7번지","category":"일반휴게음식 - 서양음식"}]},{"lat":"37.411773021","long":"126.90723147","items":[{"name":"블랙콩 석수점","tel":"031-471-3838","addr":"경기도 안양시 만안구 석수동 290-11번지","category":"일반휴게음식 - 서양음식"}]},{"lat":"37.406243352","long":"126.89951293","items":[{"name":"비누자루천연비누","tel":"031-427-8859","addr":"경기도 안양시 만안구 석수동 782-16번지 우성빌라","category":"신변잡화 - 기타잡화"}]},{"lat":"37.4114938","long":"126.90734478","items":[{"name":"비비큐 석수점","tel":"031-427-9282","addr":"경기도 안양시 만안구 석수동 304-23번지","category":"일반휴게음식 - 스넥"}]},{"lat":"37.406187718","long":"126.89772845","items":[{"name":"비비큐 충훈박달점","tel":"031-472-4401","addr":"경기도 안양시 만안구 석수동 764-4번지","category":"일반휴게음식 - 스넥"},{"name":"석수철물","tel":"031-443-4344","addr":"경기도 안양시 만안구 석수동 764-4번지","category":"건축자재 - 목재·석재·철물"}]},{"lat":"37.430437696","long":"126.90223646","items":[{"name":"비앤에스복싱짐석수점(B&S BOXING GYM)","tel":"031-473-1001","addr":"경기도 안양시 만안구 석수동 413-2번지","category":"레저업소 - 헬스클럽"}]},{"lat":"37.413054929","long":"126.91034745","items":[{"name":"비에이치씨(BHC)치킨 (석수중앙점)","tel":"031-474-8900","addr":"경기도 안양시 만안구 석수동 320-18번지","category":"일반휴게음식 - 스넥"}]},{"lat":"37.418520631","long":"126.93142006","items":[{"name":"비파종합유통","tel":"02-6004-5406","addr":"경기도 안양시 만안구 석수동 850-5번지","category":"음료식품 - 농·축·수산품"},{"name":"원보틀","tel":"031-471-3271","addr":"경기도 안양시 만안구 석수동 850-5번지","category":"일반휴게음식 - 일반한식"},{"name":"좋은곳소호","tel":"031-472-7006","addr":"경기도 안양시 만안구 석수동 850-5번지","category":"일반휴게음식 - 서양음식"}]},{"lat":"37.411244743","long":"126.91142275","items":[{"name":"빛나리6000냥갈비","tel":"031-471-9371","addr":"경기도 안양시 만안구 석수동 325-3번지","category":"일반휴게음식 - 일반한식"}]},{"lat":"37.41180066","long":"126.90798823","items":[{"name":"빠사시","tel":"031-472-7720","addr":"경기도 안양시 만안구 석수동 304-28번지 수진연립","category":"일반휴게음식 - 스넥"}]},{"lat":"37.421271068","long":"126.9090382","items":[{"name":"뽕나무집","tel":"031-471-7766","addr":"경기도 안양시 만안구 석수동 101-9번지","category":"일반휴게음식 - 일반한식"}]},{"lat":"37.433394424","long":"126.90393862","items":[{"name":"쁘띠아토","tel":"031-8836-8885","addr":"경기도 안양시 만안구 석수동 374-5번지 석수역푸르지오아파트","category":"의류 - 정장"}]},{"lat":"37.406611392","long":"126.89795375","items":[{"name":"사랑이네맛있는김밥","tel":"031-348-5445","addr":"경기도 안양시 만안구 석수동 780번지","category":"일반휴게음식 - 일반한식"},{"name":"와와노래연습장","tel":"031-472-4417","addr":"경기도 안양시 만안구 석수동 780번지","category":"레저업소 - 노 래 방"}]},{"lat":"37.431466873","long":"126.90465296","items":[{"name":"사일런트 필라테스","tel":"","addr":"경기도 안양시 만안구 석수동 382번지","category":"레저업소 - 헬스클럽"},{"name":"피자나라치킨공주","tel":"031-471-5206","addr":"경기도 안양시 만안구 석수동 382번지","category":"일반휴게음식 - 서양음식"}]},{"lat":"37.42005206","long":"126.91742192","items":[{"name":"산들애어린이집[아이행복]","tel":"031-471-9993","addr":"경기도 안양시 만안구 석수동 221-3번지 산들에빌","category":"학원 - 유아원"}]},{"lat":"37.424887603","long":"126.91356398","items":[{"name":"산책","tel":"031-471-6800","addr":"경기도 안양시 만안구 석수동 39-3번지","category":"일반휴게음식 - 일반한식"},{"name":"아메리카노","tel":"031-471-9800","addr":"경기도 안양시 만안구 석수동 39-3번지","category":"일반휴게음식 - 서양음식"}]},{"lat":"37.418638251","long":"126.9322333","items":[{"name":"산천초목","tel":"031-1899-3272","addr":"경기도 안양시 만안구 석수동 839-6번지","category":"일반휴게음식 - 일반한식"},{"name":"아이스빈","tel":"031-474-4898","addr":"경기도 안양시 만안구 석수동 839-6번지","category":"일반휴게음식 - 서양음식"}]},{"lat":"37.408271559","long":"126.90059446","items":[{"name":"살맛나는세상","tel":"031-471-8776","addr":"경기도 안양시 만안구 석수동 631-1번지","category":"일반휴게음식 - 일반한식"}]},{"lat":"37.425906779","long":"126.91495238","items":[{"name":"삼막골옛영양탕","tel":"031-472-9592","addr":"경기도 안양시 만안구 석수동 133-1번지","category":"일반휴게음식 - 일반한식"}]},{"lat":"37.425076076","long":"126.91259217","items":[{"name":"삼막농원","tel":"031-471-5656","addr":"경기도 안양시 만안구 석수동 57-2번지","category":"일반휴게음식 - 일반한식"},{"name":"차오불쭈꾸미","tel":"031-474-2220","addr":"경기도 안양시 만안구 석수동 57-2번지","category":"일반휴게음식 - 일반한식"}]},{"lat":"37.424491247","long":"126.91367742","items":[{"name":"삼막상회","tel":"031-472-0642","addr":"경기도 안양시 만안구 석수동 147번지","category":"회원제형태 - 기타4"}]},{"lat":"37.419714287","long":"126.91153671","items":[{"name":"삼성초등학교","tel":"070-7114-6009","addr":"경기도 안양시 만안구 석수동 167-4번지","category":"학원 - 초중고교육기관"}]},{"lat":"37.415939434","long":"126.91200444","items":[{"name":"삼천리자전거 석수점","tel":"","addr":"경기도 안양시 만안구 석수동 183-59번지","category":"레져용품 - 스포츠·레져용품"}]},{"lat":"37.419331855","long":"126.90648757","items":[{"name":"삼천유압기계","tel":"031-473-0754","addr":"경기도 안양시 만안구 석수동 254-3번지","category":"기타 - 기계공구"},{"name":"에프엠시스템","tel":"031-471-1414","addr":"경기도 안양시 만안구 석수동 254-3번지","category":"건축자재 - 목재·석재·철물"}]},{"lat":"37.412387153","long":"126.90903798","items":[{"name":"삼호스튜디오","tel":"031-474-1188","addr":"경기도 안양시 만안구 석수동 305-19번지","category":"광학제품 - 사진관"},{"name":"스타일","tel":"070-8724-6313","addr":"경기도 안양시 만안구 석수동 305-19번지","category":"의류 - 정장"},{"name":"원희네장충왕족발","tel":"031-442-7011","addr":"경기도 안양시 만안구 석수동 305-19번지","category":"일반휴게음식 - 일반한식"}]},{"lat":"37.416242243","long":"126.90751948","items":[{"name":"상보커뮤니케이션","tel":"031-473-0282","addr":"경기도 안양시 만안구 석수동 275-1번지 현대아파트","category":"사무통신 - 통신기기"},{"name":"헨젤어린이집[아이행복]","tel":"031-341-7608","addr":"경기도 안양시 만안구 석수동 275-1번지 현대아파트","category":"학원 - 유아원"}]},{"lat":"37.425214296","long":"126.9167043","items":[{"name":"샤이닝브로","tel":"","addr":"경기도 안양시 만안구 석수동 139-1번지 삼성타운3차","category":"광학제품 - 사진관"}]},{"lat":"37.418853701","long":"126.9309227","items":[{"name":"샵앤플랫","tel":"031-457-0340","addr":"경기도 안양시 만안구 석수동 850-2번지","category":"일반휴게음식 - 주점"},{"name":"장어애홍삼민물장어","tel":"031-474-4445","addr":"경기도 안양시 만안구 석수동","category":"일반휴게음식 - 일반한식"}]},{"lat":"37.418360465","long":"126.90858997","items":[{"name":"서가네1번출구","tel":"031-344-0862","addr":"경기도 안양시 만안구 석수동 262-22번지","category":"음료식품 - 제과점"}]},{"lat":"37.411082001","long":"126.91070004","items":[{"name":"서울정텔레콤","tel":"031-472-7197","addr":"경기도 안양시 만안구 석수동 317-18번지","category":"사무통신 - 통신기기"},{"name":"신흥ENG","tel":"031-471-6060","addr":"경기도 안양시 만안구 석수동 317-18번지","category":"전기제품 - 냉열기기"},{"name":"신흥기획(어울터밴드)","tel":"031-471-6060","addr":"경기도 안양시 만안구 석수동 317-18번지","category":"용역 서비스 - 종합용역"},{"name":"청명","tel":"","addr":"경기도 안양시 만안구 석수동 317-18번지","category":"신변잡화 - 기타잡화"}]},{"lat":"37.420690897","long":"126.92953142","items":[{"name":"서울휘트니스야외수영장","tel":"","addr":"경기도 안양시 만안구 석수동 241-43번지","category":"레저업소 - 수 영 장"},{"name":"작은박물관","tel":"031-471-2020","addr":"경기도 안양시 만안구 석수동 241-43번지","category":"일반휴게음식 - 서양음식"}]},{"lat":"37.410190357","long":"126.91115294","items":[{"name":"서정호이비인후과의원","tel":"031-472-7800","addr":"경기도 안양시 만안구 석수동 314번지","category":"의원 - 의원"},{"name":"장군의 아들","tel":"031-473-7243","addr":"경기도 안양시 만안구 석수동 314번지","category":"일반휴게음식 - 일반한식"},{"name":"장군종로빈대떡","tel":"031-472-1868","addr":"경기도 안양시 만안구 석수동 314번지","category":"일반휴게음식 - 일반한식"}]},{"lat":"37.419242333","long":"126.90719937","items":[{"name":"서해레지던스","tel":"031-474-8204","addr":"경기도 안양시 만안구 석수동 259-11번지","category":"학원 - 독서실"}]},{"lat":"37.414107352","long":"126.90813217","items":[{"name":"서현골프스쿨","tel":"031-708-6037","addr":"경기도 안양시 만안구 석수동 281-2번지 범우연립","category":"레저업소 - 골프연습장"}]},{"lat":"37.410883912","long":"126.91086971","items":[{"name":"석수","tel":"031-474-6040","addr":"경기도 안양시 만안구 석수동 317-6번지","category":"보건위생 - 피부미용실"},{"name":"아이원모텔","tel":"031-471-5296","addr":"경기도 안양시 만안구 석수동 317-6번지","category":"숙박업 - 여관/기타숙박업"},{"name":"캘리포니아석수점","tel":"031-472-8549","addr":"경기도 안양시 만안구 석수동 317-6번지","category":"일반휴게음식 - 서양음식"},{"name":"테라스","tel":"031-471-2233","addr":"경기도 안양시 만안구 석수동 317-6번지","category":"일반휴게음식 - 스넥"}]},{"lat":"37.409077608","long":"126.89512653","items":[{"name":"석수3동주민자치위원회","tel":"031-8045-3759","addr":"경기도 안양시 만안구 석수동 600-3번지","category":"문화.취미 - 문화취미기타"}]},{"lat":"37.408053859","long":"126.8989231","items":[{"name":"석수경희한의원","tel":"031-471-3300","addr":"경기도 안양시 만안구 석수동","category":"의원 - 한의원"},{"name":"요거프레소안양석수3동점","tel":"031-471-4713","addr":"경기도 안양시 만안구 석수동 787번지","category":"일반휴게음식 - 서양음식"}]},{"lat":"37.43277108","long":"126.90198477","items":[{"name":"석수김밥","tel":"031-345-5552","addr":"경기도 안양시 만안구 석수동 425-40번지 연현씨티빌","category":"일반휴게음식 - 스넥"},{"name":"카페고집","tel":"031-473-3683","addr":"경기도 안양시 만안구 석수동 425-40번지 연현씨티빌","category":"일반휴게음식 - 서양음식"},{"name":"하이목장석수점","tel":"031-474-4336","addr":"경기도 안양시 만안구 석수동 425-40번지 연현씨티빌","category":"음료식품 - 정육점"}]},{"lat":"37.421352641","long":"126.90964813","items":[{"name":"석수동커피","tel":"070-4145-1985","addr":"경기도 안양시 만안구 석수동 101번지","category":"일반휴게음식 - 서양음식"}]},{"lat":"37.406494291","long":"126.8979878","items":[{"name":"석수보쌈","tel":"031-471-2023","addr":"경기도 안양시 만안구 석수동 780-18번지","category":"일반휴게음식 - 일반한식"},{"name":"예쁜옷방","tel":"031-465-1960","addr":"경기도 안양시 만안구 석수동 780-18번지","category":"의류 - 정장"}]},{"lat":"37.409497054","long":"126.91176373","items":[{"name":"석수아이네트보습","tel":"031-472-6572","addr":"경기도 안양시 만안구 석수동 314-8번지","category":"학원 - 기타 교육기관"},{"name":"오성상사","tel":"031-473-7704","addr":"경기도 안양시 만안구 석수동 314-8번지","category":"건축자재 - 페인트"}]},{"lat":"37.433655591","long":"126.90379139","items":[{"name":"석수연합의원","tel":"031-474-7575","addr":"경기도 안양시 만안구 석수동 374-7번지","category":"의원 - 의원"},{"name":"성원약국","tel":"070-8833-1704","addr":"경기도 안양시 만안구 석수동 374-7번지","category":"약국 - 약국"}]},{"lat":"37.413576102","long":"126.90856208","items":[{"name":"석수열쇠","tel":"031-474-0011","addr":"경기도 안양시 만안구 석수동 280-16번지 더파인타운","category":"기타 - 기타 전문점"},{"name":"순헤어","tel":"031-346-6672","addr":"경기도 안양시 만안구 석수동 280-16번지 더파인타운","category":"보건위생 - 미용원"},{"name":"자유공간","tel":"031-473-9888","addr":"경기도 안양시 만안구 석수동 280-16번지 더파인타운","category":"일반휴게음식 - 일반한식"},{"name":"천리성","tel":"031-472-7277","addr":"경기도 안양시 만안구 석수동 280-16번지 더파인타운","category":"일반휴게음식 - 중국식"}]},{"lat":"37.411719434","long":"126.9078189","items":[{"name":"석수오토바이","tel":"031-473-6839","addr":"경기도 안양시 만안구 석수동 304-9번지","category":"자동차판매 - 이륜차판매"},{"name":"오닭꼬치","tel":"070-8918-7702","addr":"경기도 안양시 만안구 석수동 304-9번지","category":"일반휴게음식 - 일반한식"}]},{"lat":"37.40630664","long":"126.89976133","items":[{"name":"석수음악교습소","tel":"031-472-8353","addr":"경기도 안양시 만안구 석수동 782-2번지","category":"학원 - 예·체능계학원"}]},{"lat":"37.406492949","long":"126.8964856","items":[{"name":"석수자전거","tel":"031-471-8615","addr":"경기도 안양시 만안구 석수동 763-14번지","category":"레져용품 - 스포츠·레져용품"}]},{"lat":"37.411664763","long":"126.90706217","items":[{"name":"석수종합카센타","tel":"031-471-0102","addr":"경기도 안양시 만안구 석수동 290-9번지","category":"자동차정비 유지 - 세차장"}]},{"lat":"37.422023017","long":"126.90306111","items":[{"name":"석수체육공원매점","tel":"031-387-2266","addr":"경기도 안양시 만안구 석수동 251-1번지","category":"음료식품 - 기타음료식품"},{"name":"안양시시설관리공단/석수체육공원","tel":"031-389-5288","addr":"경기도 안양시 만안구 석수동 251-1번지","category":"용역 서비스 - 종합용역"}]},{"lat":"37.406190596","long":"126.90101519","items":[{"name":"석수초등학교","tel":"031-474-0487","addr":"경기도 안양시 만안구 석수동 655-75번지","category":"학원 - 초중고교육기관"},{"name":"석수초등학교_수업료","tel":"031-474-0487","addr":"경기도 안양시 만안구 석수동 655-75번지","category":"학원 - 초중고교육기관"},{"name":"석수초등학교병설유치원[아이행복]","tel":"031-474-0492","addr":"경기도 안양시 만안구 석수동 655-75번지","category":"학원 - 유치원"}]},{"lat":"37.408494524","long":"126.89798501","items":[{"name":"석수축산","tel":"031-473-1176","addr":"경기도 안양시 만안구 석수동 786번지","category":"음료식품 - 정육점"},{"name":"엠플랜학원","tel":"031-472-6114","addr":"경기도 안양시 만안구 석수동 786번지","category":"학원 - 기타 교육기관"},{"name":"코오롱꿈나무어린이집[아이행복]","tel":"031-343-6399","addr":"경기도 안양시 만안구 석수동 786번지 석수코오롱하늘채","category":"학원 - 유아원"}]},{"lat":"37.411749699","long":"126.91193043","items":[{"name":"석수할인마트","tel":"031-472-0588","addr":"경기도 안양시 만안구 석수동 324-5번지","category":"유통업 영리 - 슈퍼마켓"}]},{"lat":"37.423770962","long":"126.91436741","items":[{"name":"선일금고(안양점)","tel":"031-473-9388","addr":"경기도 안양시 만안구 석수동 152-9번지","category":"가구 - 철제가구"},{"name":"티엔엠상사(T&M상사)","tel":"070-4239-2919","addr":"경기도 안양시 만안구 석수동 152-9번지","category":"가구 - 철제가구"}]},{"lat":"37.41305175","long":"126.90637137","items":[{"name":"선화미용실","tel":"031-472-2906","addr":"경기도 안양시 만안구 석수동 284-16번지","category":"보건위생 - 미용원"}]},{"lat":"37.419802494","long":"126.90911911","items":[{"name":"설화수","tel":"031-347-5550","addr":"경기도 안양시 만안구 석수동 103-5번지","category":"보건위생 - 화장품"}]},{"lat":"37.412687134","long":"126.9124376","items":[{"name":"성실유통","tel":"02-826-8888","addr":"경기도 안양시 만안구 석수동 322-3번지 경일아파트","category":"유통업 영리 - 기타유통업"},{"name":"작은별리본","tel":"","addr":"경기도 안양시 만안구 석수동 322-3번지 경일아파트","category":"신변잡화 - 액세서리"}]},{"lat":"37.410827502","long":"126.9078991","items":[{"name":"성실하이퍼","tel":"031-473-5884","addr":"경기도 안양시 만안구 석수동 302-1번지","category":"유통업 영리 - 슈퍼마켓"},{"name":"성실하이퍼마켓","tel":"031-473-5884","addr":"경기도 안양시 만안구 석수동 302-1번지","category":"유통업 영리 - 슈퍼마켓"}]},{"lat":"37.413024859","long":"126.90654084","items":[{"name":"성은","tel":"","addr":"경기도 안양시 만안구 석수동 284-3번지","category":"음료식품 - 농·축·수산품"}]},{"lat":"37.420859378","long":"126.91259723","items":[{"name":"성준종합유통","tel":"","addr":"경기도 안양시 만안구 석수동 166번지 관악산현대홈타운","category":"음료식품 - 기타음료식품"}]},{"lat":"37.41254804","long":"126.90742251","items":[{"name":"세계과자수입맥주할인점","tel":"031-469-7463","addr":"경기도 안양시 만안구 석수동 291-7번지","category":"음료식품 - 기타음료식품"}]},{"lat":"37.406610556","long":"126.89701629","items":[{"name":"세모네모어린이집[아이행복]","tel":"031-472-3558","addr":"경기도 안양시 만안구 석수동 763-10번지","category":"학원 - 유아원"}]},{"lat":"37.407555463","long":"126.89573863","items":[{"name":"세븐아이티","tel":"","addr":"경기도 안양시 만안구 석수동 755-9번지 파크빌라","category":"사무통신 - 컴퓨터"}]},{"lat":"37.419610289","long":"126.91703833","items":[{"name":"세일상사","tel":"","addr":"경기도 안양시 만안구 석수동 221-54번지","category":"자동차정비 유지 - 자동차부품"}]},{"lat":"37.429628818","long":"126.90464406","items":[{"name":"세진","tel":"031-471-2277","addr":"경기도 안양시 만안구 석수동 389-13번지","category":"건축자재 - 기타건축자재"},{"name":"주식회사 위너스타이어","tel":"031-346-0990","addr":"경기도 안양시 만안구 석수동 389-13번지","category":"자동차정비 유지 - 자동차시트·타이어"}]},{"lat":"37.410496716","long":"126.91117516","items":[{"name":"세화약국","tel":"031-471-4122","addr":"경기도 안양시 만안구 석수동 317-15번지","category":"약국 - 약국"},{"name":"찐빵만두","tel":"031-471-6851","addr":"경기도 안양시 만안구 석수동 317-15번지","category":"일반휴게음식 - 일반한식"}]},{"lat":"37.405881085","long":"126.89740133","items":[{"name":"셀링팩토리","tel":"","addr":"경기도 안양시 만안구 석수동 768-10번지","category":"음료식품 - 기타음료식품"},{"name":"핑크플라워","tel":"","addr":"경기도 안양시 만안구 석수동 768-10번지","category":"문화.취미 - 화원"},{"name":"행복인테리어","tel":"031-472-1282","addr":"경기도 안양시 만안구 석수동 768-10번지","category":"건축자재 - 인테리어전문"}]},{"lat":"37.412333137","long":"126.90909453","items":[{"name":"소망꽃화원","tel":"031-471-1077","addr":"경기도 안양시 만안구 석수동 305-20번지 삼호빌라","category":"문화.취미 - 화원"}]},{"lat":"37.408743492","long":"126.89431376","items":[{"name":"소망유통","tel":"070-9744-3665","addr":"경기도 안양시 만안구 석수동 749-2번지 진주빌라","category":"음료식품 - 농·축·수산품"}]},{"lat":"37.407277593","long":"126.8973429","items":[{"name":"소풍","tel":"031-474-9900","addr":"경기도 안양시 만안구 석수동 759-1번지","category":"일반휴게음식 - 스넥"},{"name":"주원전자","tel":"031-473-8685","addr":"경기도 안양시 만안구 석수동 759-1번지","category":"사무통신 - 컴퓨터"},{"name":"토담","tel":"031-474-2588","addr":"경기도 안양시 만안구 석수동 759-1번지","category":"일반휴게음식 - 일반한식"}]},{"lat":"37.420605694","long":"126.91077874","items":[{"name":"송하정보통신","tel":"031-388-8254","addr":"경기도 안양시 만안구 석수동 805번지 주공그린빌","category":"사무통신 - 통신기기"},{"name":"초록나라어린이집[아이행복]","tel":"031-344-3030","addr":"경기도 안양시 만안구 석수동 805번지 주공그린빌","category":"학원 - 유아원"},{"name":"초록나라어린이집[아이행복]","tel":"031-344-3030","addr":"경기도 안양시 만안구 석수동 805번지 주공그린빌","category":"학원 - 유아원"},{"name":"핸내모바일 유통","tel":"050-4474-4136","addr":"경기도 안양시 만안구 석수동 805번지 주공그린빌","category":"신변잡화 - 기타잡화"}]},{"lat":"37.418636817","long":"126.9165085","items":[{"name":"수대박","tel":"031-915-1096","addr":"경기도 안양시 만안구 석수동 221-20번지","category":"음료식품 - 농·축·수산품"}]},{"lat":"37.418970784","long":"126.93084351","items":[{"name":"수목원가는길","tel":"031-473-9626","addr":"경기도 안양시 만안구 석수동 850-1번지","category":"일반휴게음식 - 서양음식"}]},{"lat":"37.424102333","long":"126.91173473","items":[{"name":"수아빈","tel":"031-474-4760","addr":"경기도 안양시 만안구 석수동 69번지","category":"일반휴게음식 - 스넥"}]},{"lat":"37.419773412","long":"126.90656608","items":[{"name":"수지동태탕동태찜전문점","tel":"031-474-5125","addr":"경기도 안양시 만안구 석수동 254-1번지","category":"일반휴게음식 - 일반한식"}]},{"lat":"37.410667282","long":"126.91037298","items":[{"name":"수진헤어아트","tel":"031-455-1921","addr":"경기도 안양시 만안구 석수동 310-15번지 로체그랑","category":"보건위생 - 미용원"}]},{"lat":"37.406622561","long":"126.90041599","items":[{"name":"숲속어린이집[아이행복]","tel":"031-348-8801","addr":"경기도 안양시 만안구 석수동 788번지 석수아이파크","category":"학원 - 유아원"}]},{"lat":"37.423994872","long":"126.91259346","items":[{"name":"쉬어가는누각","tel":"031-471-0995","addr":"경기도 안양시 만안구 석수동 66-1번지","category":"일반휴게음식 - 서양음식"}]},{"lat":"37.411243838","long":"126.91025932","items":[{"name":"스킨벨","tel":"031-443-1615","addr":"경기도 안양시 만안구 석수동 318-6번지","category":"사무통신 - 통신기기"},{"name":"장터즉석치킨","tel":"031-471-7890","addr":"경기도 안양시 만안구 석수동 318-6번지","category":"일반휴게음식 - 스넥"},{"name":"흰돌이네야채","tel":"031-473-7321","addr":"경기도 안양시 만안구 석수동 318-6번지","category":"음료식품 - 농·축·수산품"}]},{"lat":"37.40627812","long":"126.89806716","items":[{"name":"스토리","tel":"031-471-8301","addr":"경기도 안양시 만안구 석수동 780-16번지","category":"일반휴게음식 - 주점"},{"name":"헤어모드","tel":"031-473-3579","addr":"경기도 안양시 만안구 석수동 780-16번지","category":"보건위생 - 미용원"}]},{"lat":"37.415912681","long":"126.91236595","items":[{"name":"스토리화장품","tel":"031-471-4141","addr":"경기도 안양시 만안구 석수동 183-82번지","category":"보건위생 - 화장품"},{"name":"조음악학원","tel":"031-472-7303","addr":"경기도 안양시 만안구 석수동 183-82번지","category":"학원 - 예·체능계학원"}]},{"lat":"37.418243118","long":"126.908319","items":[{"name":"스파클","tel":"","addr":"경기도 안양시 만안구 석수동 262-27번지","category":"주방용구 - 정수기"},{"name":"연변양꼬치","tel":"031-447-3000","addr":"경기도 안양시 만안구 석수동 262-27번지","category":"일반휴게음식 - 일반한식"}]},{"lat":"37.412216444","long":"126.90964816","items":[{"name":"스피드메이트 목련점","tel":"031-472-6051","addr":"경기도 안양시 만안구 석수동 319-3번지","category":"자동차정비 유지 - 자동차정비"}]},{"lat":"37.411494563","long":"126.9082936","items":[{"name":"시가통","tel":"031-473-2464","addr":"경기도 안양시 만안구 석수동 303-15번지","category":"신변잡화 - 기타잡화"},{"name":"일등급 영수학원","tel":"031-472-6038","addr":"경기도 안양시 만안구 석수동 303-15번지","category":"학원 - 보습학원"},{"name":"일팔오 (185)","tel":"070-8279-8600","addr":"경기도 안양시 만안구 석수동 303-15번지","category":"일반휴게음식 - 일반한식"},{"name":"하하치킨포차","tel":"031-471-9214","addr":"경기도 안양시 만안구 석수동 303-15번지","category":"일반휴게음식 - 주점"}]},{"lat":"37.407053155","long":"126.89825809","items":[{"name":"시매쓰사고력수학학원","tel":"031-473-8806","addr":"경기도 안양시 만안구 석수동 785-23번지","category":"학원 - 보습학원"},{"name":"옛날통닭","tel":"031-473-9297","addr":"경기도 안양시 만안구 석수동 785-23번지","category":"일반휴게음식 - 스넥"},{"name":"월드크리닝 안양석수점","tel":"031-472-8462","addr":"경기도 안양시 만안구 석수동 785-23번지","category":"수리서비스 - 세탁소"},{"name":"점핑클럽","tel":"031-342-8886","addr":"경기도 안양시 만안구 석수동 785-23번지","category":"레저업소 - 헬스클럽"}]},{"lat":"37.417583307","long":"126.91742472","items":[{"name":"시애틀","tel":"031-473-1003","addr":"경기도 안양시 만안구 석수동 212-2번지","category":"일반휴게음식 - 주점"}]},{"lat":"37.415967018","long":"126.91272736","items":[{"name":"시카고치킨","tel":"031-472-3885","addr":"경기도 안양시 만안구 석수동 180-3번지","category":"일반휴게음식 - 스넥"}]},{"lat":"37.423020972","long":"126.9115327","items":[{"name":"신나라유통","tel":"031-472-8981","addr":"경기도 안양시 만안구 석수동 85번지","category":"음료식품 - 기타음료식품"}]},{"lat":"37.416660817","long":"126.91276042","items":[{"name":"신비오카리나","tel":"031-469-1619","addr":"경기도 안양시 만안구 석수동 174-18번지","category":"레져용품 - 악기점"}]},{"lat":"37.411051611","long":"126.90648689","items":[{"name":"신아자동차공업사","tel":"031-473-0467","addr":"경기도 안양시 만안구 석수동 294-50번지","category":"자동차정비 유지 - 자동차정비"}]},{"lat":"37.411215206","long":"126.90823747","items":[{"name":"신우코리아","tel":"031-472-1366","addr":"경기도 안양시 만안구 석수동 303-12번지 그린빌","category":"신변잡화 - 기타잡화"}]},{"lat":"37.421713478","long":"126.91020124","items":[{"name":"신원","tel":"031-471-5547","addr":"경기도 안양시 만안구 석수동 93-8번지","category":"음료식품 - 정육점"},{"name":"신원식당","tel":"031-471-5547","addr":"경기도 안양시 만안구 석수동 93-8번지","category":"일반휴게음식 - 일반한식"}]},{"lat":"37.413829794","long":"126.9103465","items":[{"name":"실크스토리","tel":"031-471-3334","addr":"경기도 안양시 만안구 석수동 271-37번지","category":"보건위생 - 화장품"}]},{"lat":"37.419217599","long":"126.92237079","items":[{"name":"싸리골마을","tel":"031-472-2233","addr":"경기도 안양시 만안구 석수동 820-6번지","category":"일반휴게음식 - 일반한식"}]},{"lat":"37.421304916","long":"126.90631559","items":[{"name":"싸인플러스","tel":"031-424-7777","addr":"경기도 안양시 만안구 석수동 251-9번지","category":"건축자재 - 인테리어전문"},{"name":"안양밧데리","tel":"031-444-8828","addr":"경기도 안양시 만안구 석수동 251-9번지","category":"자동차정비 유지 - 자동차부품"}]},{"lat":"37.411744496","long":"126.90540163","items":[{"name":"씨에이치","tel":"031-341-5531","addr":"경기도 안양시 만안구 석수동 315-2번지","category":"용역 서비스 - 소프트웨어"}]},{"lat":"37.410658792","long":"126.91103942","items":[{"name":"아레나피씨방","tel":"031-471-0613","addr":"경기도 안양시 만안구 석수동 317-11번지","category":"레저업소 - 기타레져업소"},{"name":"연세S치과의원","tel":"031-474-2875","addr":"경기도 안양시 만안구 석수동 317-11번지","category":"의원 - 치과의원"},{"name":"최소아과의원","tel":"031-472-4132","addr":"경기도 안양시 만안구 석수동 317-11번지","category":"의원 - 의원"}]},{"lat":"37.406909244","long":"126.89854066","items":[{"name":"아르첼음악학원","tel":"031-474-0012","addr":"경기도 안양시 만안구 석수동 785-28번지","category":"학원 - 예·체능계학원"},{"name":"충훈한의원","tel":"031-472-0179","addr":"경기도 안양시 만안구 석수동 785-28번지","category":"의원 - 한의원"}]},{"lat":"37.410388578","long":"126.9111527","items":[{"name":"아름다운사람들","tel":"031-473-5161","addr":"경기도 안양시 만안구 석수동 317-16번지","category":"보건위생 - 미용원"}]},{"lat":"37.408221447","long":"126.89490186","items":[{"name":"아울렛마트","tel":"031-471-2982","addr":"경기도 안양시 만안구 석수동 749-8번지","category":"유통업 영리 - 슈퍼마켓"}]},{"lat":"37.415021963","long":"126.91405012","items":[{"name":"아이들어린이집[아이행복]","tel":"031-471-8790","addr":"경기도 안양시 만안구 석수동 182-2번지 석수e-편한세상아파트","category":"학원 - 유아원"},{"name":"천사나라어린이집[아이행복]","tel":"031-474-9790","addr":"경기도 안양시 만안구 석수동 182-2번지 석수e-편한세상아파트","category":"학원 - 유아원"}]},{"lat":"37.414930974","long":"126.91287545","items":[{"name":"아이엔에이치글로벌(I&H Global)/원격지","tel":"","addr":"경기도 안양시 만안구 석수동 182-2번지 석수e-편한세상아파트","category":"기타 - 기타 전문점"}]},{"lat":"37.416858805","long":"126.91245518","items":[{"name":"아이파스3030학원","tel":"031-473-3031","addr":"경기도 안양시 만안구 석수동 174-35번지","category":"학원 - 보습학원"},{"name":"양쌤수학학원","tel":"031-473-4370","addr":"경기도 안양시 만안구 석수동 174-35번지","category":"학원 - 보습학원"},{"name":"은피아노음악교습소","tel":"031-473-1084","addr":"경기도 안양시 만안구 석수동 174-35번지","category":"학원 - 예·체능계학원"}]},{"lat":"37.406946403","long":"126.89981692","items":[{"name":"아이파크영재어린이집[아이행복]","tel":"031-474-7198","addr":"경기도 안양시 만안구 석수동 784번지 석수아이파크","category":"학원 - 유아원"}]},{"lat":"37.411581969","long":"126.90498391","items":[{"name":"아인스케치인","tel":"031-474-9497","addr":"경기도 안양시 만안구 석수동 315-25번지","category":"건축자재 - 인테리어전문"},{"name":"아인인테리어","tel":"031-474-9497","addr":"경기도 안양시 만안구 석수동 315-25번지","category":"건축자재 - 인테리어전문"}]},{"lat":"37.406548911","long":"126.89862023","items":[{"name":"아진유통","tel":"031-473-8582","addr":"경기도 안양시 만안구 석수동 781-2번지","category":"음료식품 - 정육점"},{"name":"오늘반찬","tel":"031-471-3440","addr":"경기도 안양시 만안구 석수동 781-2번지","category":"음료식품 - 기타음료식품"},{"name":"홍주네아동복","tel":"031-472-9375","addr":"경기도 안양시 만안구 석수동 781-2번지","category":"의류 - 아동의류"}]},{"lat":"37.413830917","long":"126.91179237","items":[{"name":"안양대림바스","tel":"031-407-7966","addr":"경기도 안양시 만안구 석수동 321-18번지","category":"전기제품 - 기타전기제품"},{"name":"안양대림바스","tel":"031-348-8202","addr":"경기도 안양시 만안구 석수동 321-18번지","category":"전기제품 - 기타전기제품"}]},{"lat":"37.422160435","long":"126.90578353","items":[{"name":"안양자동차극장","tel":"031-471-3003","addr":"경기도 안양시 만안구 석수동 249-6번지","category":"문화.취미 - 문화취미기타"}]},{"lat":"37.408772595","long":"126.89659533","items":[{"name":"안양중학교","tel":"070-7090-3190","addr":"경기도 안양시 만안구 석수동 752번지","category":"학원 - 초중고교육기관"}]},{"lat":"37.434717091","long":"126.91295345","items":[{"name":"안양해솔학교","tel":"031-471-7567","addr":"경기도 안양시 만안구 석수동 1-3번지","category":"학원 - 초중고교육기관"},{"name":"안양해솔학교_수업료","tel":"031-471-7567","addr":"경기도 안양시 만안구 석수동 1-3번지","category":"학원 - 초중고교육기관"}]},{"lat":"37.420691107","long":"126.91650614","items":[{"name":"안양호암초등학교","tel":"070-7114-3707","addr":"경기도 안양시 만안구 석수동 221-40번지","category":"학원 - 초중고교육기관"},{"name":"안양호암초등학교병설유치원[아이행복]","tel":"070-7114-3710","addr":"경기도 안양시 만안구 석수동 221-40번지","category":"학원 - 유치원"}]},{"lat":"37.411358448","long":"126.90709645","items":[{"name":"야아드 네일앤왁싱","tel":"031-473-0205","addr":"경기도 안양시 만안구 석수동 304-1번지","category":"보건위생 - 피부미용실"}]},{"lat":"37.408415406","long":"126.90023283","items":[{"name":"양지자동차공업사","tel":"031-449-0982","addr":"경기도 안양시 만안구 석수동 631-3번지","category":"자동차정비 유지 - 자동차정비"}]},{"lat":"37.409179128","long":"126.89780333","items":[{"name":"어반보타닉","tel":"031-366-7380","addr":"경기도 안양시 만안구 석수동 786번지 석수코오롱하늘채","category":"직물 - 침구·수예점"}]},{"lat":"37.406521","long":"126.89762633","items":[{"name":"어울림","tel":"031-341-8988","addr":"경기도 안양시 만안구 석수동 764-1번지","category":"일반휴게음식 - 일반한식"},{"name":"제이나포장마차","tel":"031-473-7725","addr":"경기도 안양시 만안구 석수동 764-1번지","category":"일반휴게음식 - 일반한식"}]},{"lat":"37.410082078","long":"126.91094976","items":[{"name":"어쭈구리 석수1호점","tel":"031-474-5006","addr":"경기도 안양시 만안구 석수동 312-8번지","category":"일반휴게음식 - 주점"}]},{"lat":"37.409224101","long":"126.90838681","items":[{"name":"엄마더하기어린이집[아이행복]","tel":"031-472-8883","addr":"경기도 안양시 만안구 석수동 296번지 럭키아파트","category":"학원 - 유아원"}]},{"lat":"37.413187489","long":"126.90709412","items":[{"name":"엄마보쌈","tel":"031-473-8596","addr":"경기도 안양시 만안구 석수동 286-2번지","category":"일반휴게음식 - 일반한식"}]},{"lat":"37.420075085","long":"126.92465182","items":[{"name":"엄마의봄","tel":"","addr":"경기도 안양시 만안구 석수동 824-8번지","category":"일반휴게음식 - 서양음식"}]},{"lat":"37.405051309","long":"126.89645375","items":[{"name":"에듀바이크","tel":"031-383-5350","addr":"경기도 안양시 만안구 석수동 770번지","category":"레져용품 - 스포츠·레져용품"}]},{"lat":"37.427050635","long":"126.90307703","items":[{"name":"에듀프라임","tel":"031-471-0117","addr":"경기도 안양시 만안구 석수동 484-8번지 석수엘지빌리지","category":"학원 - 학습지 교육"}]},{"lat":"37.428697316","long":"126.90055538","items":[{"name":"에스에이치 솔루션(SH SOLUTION)","tel":"","addr":"경기도 안양시 만안구 석수동 415-1번지 석수엘지빌리지","category":"수리서비스 - 사무·통신기기수리"}]},{"lat":"37.411513678","long":"126.90967162","items":[{"name":"에스엠(SM)인테리어","tel":"031-471-7768","addr":"경기도 안양시 만안구 석수동 308-5번지 석수아파트","category":"건축자재 - 인테리어전문"}]},{"lat":"37.432328941","long":"126.90122835","items":[{"name":"에이랑 케이크","tel":"","addr":"경기도 안양시 만안구 석수동 417-3번지 석수두산위브아파트","category":"문화.취미 - 문화취미기타"}]},{"lat":"37.418936954","long":"126.9083972","items":[{"name":"에잇팔문/(주)우리가","tel":"031-471-4076","addr":"경기도 안양시 만안구 석수동 262-8번지 유성빌라","category":"일반휴게음식 - 서양음식"}]},{"lat":"37.406026108","long":"126.89837247","items":[{"name":"엔-퍼플","tel":"031-471-5239","addr":"경기도 안양시 만안구 석수동 780-7번지","category":"보건위생 - 화장품"}]},{"lat":"37.409271067","long":"126.91081521","items":[{"name":"엔에스알 안양점","tel":"","addr":"경기도 안양시 만안구 석수동 313-14번지 로체그랑","category":"의류 - 스포츠의류"}]},{"lat":"37.406556263","long":"126.89675658","items":[{"name":"엔젤어린이집[아이행복]","tel":"031-472-8930","addr":"경기도 안양시 만안구 석수동 763-12번지","category":"학원 - 유아원"}]},{"lat":"37.419298156","long":"126.90940215","items":[{"name":"엘에이(LA)호프","tel":"031-471-9618","addr":"경기도 안양시 만안구 석수동 104-325번지","category":"일반휴게음식 - 주점"}]},{"lat":"37.410442004","long":"126.91033937","items":[{"name":"엠아이유(miu)","tel":"031-516-2792","addr":"경기도 안양시 만안구 석수동 310-20번지 인화하이츠빌라","category":"회원제형태 - 기타4"}]},{"lat":"37.410551335","long":"126.91189799","items":[{"name":"엠투엠","tel":"031-472-0620","addr":"경기도 안양시 만안구 석수동 326-1번지","category":"학원 - 예·체능계학원"},{"name":"지혜교육","tel":"031-472-0620","addr":"경기도 안양시 만안구 석수동 326-1번지","category":"학원 - 예·체능계학원"},{"name":"튼튼영어안양만안지사","tel":"031-471-2505","addr":"경기도 안양시 만안구 석수동 326-1번지","category":"회원제형태 - 서적"}]},{"lat":"37.415912473","long":"126.91209484","items":[{"name":"여주방아간","tel":"031-471-4120","addr":"경기도 안양시 만안구 석수동 183-61번지","category":"음료식품 - 제과점"}]},{"lat":"37.407330905","long":"126.896507","items":[{"name":"역산메디칼","tel":"031-471-3133","addr":"경기도 안양시 만안구 석수동 758-9번지","category":"보건위생 - 의료용품"}]},{"lat":"37.425464391","long":"126.90251426","items":[{"name":"연현초등학교","tel":"031-474-0245","addr":"경기도 안양시 만안구 석수동 485-16번지","category":"학원 - 초중고교육기관"},{"name":"연현초등학교[아이행복]","tel":"031-474-0245","addr":"경기도 안양시 만안구 석수동 485-16번지","category":"학원 - 유치원"}]},{"lat":"37.434213318","long":"126.90272856","items":[{"name":"연희네편의점","tel":"","addr":"경기도 안양시 만안구 석수동","category":"유통업 영리 - 슈퍼마켓"}]},{"lat":"37.424104274","long":"126.91428794","items":[{"name":"영광수산","tel":"031-472-6247","addr":"경기도 안양시 만안구 석수동 153번지","category":"음료식품 - 농·축·수산품"},{"name":"친정집","tel":"031-472-6541","addr":"경기도 안양시 만안구 석수동 153번지","category":"일반휴게음식 - 일반한식"}]},{"lat":"37.404829058","long":"126.89984241","items":[{"name":"영광슈퍼","tel":"031-472-3034","addr":"경기도 안양시 만안구 석수동 792-9번지 영광빌라","category":"유통업 영리 - 슈퍼마켓"}]},{"lat":"37.413304848","long":"126.90737636","items":[{"name":"영구네식당","tel":"031-472-8083","addr":"경기도 안양시 만안구 석수동 286-17번지","category":"일반휴게음식 - 일반한식"},{"name":"홍짬뽕","tel":"031-472-9909","addr":"경기도 안양시 만안구 석수동 286-17번지","category":"일반휴게음식 - 중국식"}]},{"lat":"37.416523293","long":"126.9096993","items":[{"name":"영어작문영어교습소","tel":"031-472-0972","addr":"경기도 안양시 만안구 석수동 269-1번지","category":"학원 - 외국어학원"},{"name":"호식이두마리치킨석수점","tel":"031-473-9595","addr":"경기도 안양시 만안구 석수동 269-1번지","category":"일반휴게음식 - 주점"}]},{"lat":"37.406000081","long":"126.89951326","items":[{"name":"영이네부엌","tel":"070-8181-9913","addr":"경기도 안양시 만안구 석수동 782-6번지","category":"일반휴게음식 - 일반한식"},{"name":"크린에이드 석수점","tel":"031-473-7783","addr":"경기도 안양시 만안구 석수동 782-6번지","category":"수리서비스 - 세탁소"}]},{"lat":"37.412942328","long":"126.90479011","items":[{"name":"영풍마트","tel":"031-471-4662","addr":"경기도 안양시 만안구 석수동 346-3번지 영풍마드레빌아파트","category":"유통업 영리 - 슈퍼마켓"}]},{"lat":"37.424076152","long":"126.91284191","items":[{"name":"영화목공인테리어","tel":"","addr":"경기도 안양시 만안구 석수동 680-97번지","category":"건축자재 - 인테리어전문"}]},{"lat":"37.406242867","long":"126.89895949","items":[{"name":"예린코스메틱","tel":"02-6052-5255","addr":"경기도 안양시 만안구 석수동 783-8번지","category":"보건위생 - 화장품"},{"name":"제이네트웍스","tel":"02-897-7896","addr":"경기도 안양시 만안구 석수동 783-8번지","category":"전기제품 - 기타전기제품"}]},{"lat":"37.406461663","long":"126.90190711","items":[{"name":"예림어린이집[아이행복]","tel":"031-472-3261","addr":"경기도 안양시 만안구 석수동","category":"학원 - 유아원"}]},{"lat":"37.413271576","long":"126.91086679","items":[{"name":"예쁜동화나라어린이집[아이행복]","tel":"031-471-5001","addr":"경기도 안양시 만안구 석수동 321-40번지","category":"학원 - 유아원"}]},{"lat":"37.40706311","long":"126.89933109","items":[{"name":"예쁜손천연비누","tel":"","addr":"경기도 안양시 만안구 석수동 784번지 석수아이파크","category":"신변잡화 - 기타잡화"},{"name":"참여연극연구소","tel":"031-348-6021","addr":"경기도 안양시 만안구 석수동 784번지 석수아이파크","category":"문화.취미 - 티켓"},{"name":"카앤피플 안양만안구점","tel":"","addr":"경기도 안양시 만안구 석수동 784번지 석수아이파크","category":"자동차정비 유지 - 세차장"},{"name":"행복한 공부방","tel":"031-472-8615","addr":"경기도 안양시 만안구 석수동 784번지 석수아이파크","category":"학원 - 기타 교육기관"}]},{"lat":"37.408305573","long":"126.89827894","items":[{"name":"예쁜햇살어린이집[아이행복]","tel":"031-474-9828","addr":"경기도 안양시 만안구 석수동 786번지 석수코오롱하늘채","category":"학원 - 유아원"}]},{"lat":"37.419243502","long":"126.92073275","items":[{"name":"예원스크린골프존","tel":"031-473-9955","addr":"경기도 안양시 만안구 석수동 814번지","category":"레저업소 - 스크린골프"},{"name":"예원파파양","tel":"031-424-8448","addr":"경기도 안양시 만안구 석수동 814번지","category":"일반휴게음식 - 중국식"}]},{"lat":"37.424157773","long":"126.91354225","items":[{"name":"오드리","tel":"031-474-6247","addr":"경기도 안양시 만안구 석수동","category":"일반휴게음식 - 일반한식"}]},{"lat":"37.42404984","long":"126.91379092","items":[{"name":"오드리마루","tel":"031-474-6246","addr":"경기도 안양시 만안구 석수동","category":"일반휴게음식 - 일반한식"},{"name":"함평한우촌","tel":"031-471-8548","addr":"경기도 안양시 만안구 석수동 155번지","category":"일반휴게음식 - 일반한식"},{"name":"함평한우촌","tel":"031-471-8547","addr":"경기도 안양시 만안구 석수동 155번지","category":"일반휴게음식 - 일반한식"}]},{"lat":"37.407053305","long":"126.89842751","items":[{"name":"오땡큐안양석수점","tel":"031-342-7324","addr":"경기도 안양시 만안구 석수동 785-24번지","category":"보건위생 - 미용원"},{"name":"춘천2.5닭갈비","tel":"031-473-7318","addr":"경기도 안양시 만안구 석수동 785-24번지","category":"일반휴게음식 - 일반한식"},{"name":"키움학원","tel":"031-474-4262","addr":"경기도 안양시 만안구 석수동 785-24번지","category":"학원 - 보습학원"}]},{"lat":"37.409647348","long":"126.9081039","items":[{"name":"오렌지구두수선","tel":"031-342-1774","addr":"경기도 안양시 만안구 석수동 296번지 럭키아파트","category":"회원제형태 - 기타4"}]},{"lat":"37.418856164","long":"126.92086873","items":[{"name":"오장동 함흥냉면","tel":"","addr":"경기도 안양시 만안구 석수동 820번지","category":"일반휴게음식 - 일반한식"},{"name":"털보꽃게아구해물전문점해무울/주식회사 해","tel":"031-472-2938","addr":"경기도 안양시 만안구 석수동 820번지","category":"일반휴게음식 - 일반한식"},{"name":"통파이브(예술공원점)","tel":"031-474-0289","addr":"경기도 안양시 만안구 석수동 820번지","category":"일반휴게음식 - 서양음식"}]},{"lat":"37.425329867","long":"126.91459153","items":[{"name":"오제뉴어리","tel":"070-7739-3733","addr":"경기도 안양시 만안구 석수동 132-1번지","category":"일반휴게음식 - 서양음식"},{"name":"한양갈비","tel":"031-471-9266","addr":"경기도 안양시 만안구 석수동 132-1번지","category":"일반휴게음식 - 일반한식"}]},{"lat":"37.408449273","long":"126.89775917","items":[{"name":"오케이클린","tel":"031-469-4326","addr":"경기도 안양시 만안구 석수동 786번지 석수코오롱하늘채","category":"용역 서비스 - 종합용역"}]},{"lat":"37.409991916","long":"126.9108708","items":[{"name":"오토덴주식회사","tel":"031-449-2828","addr":"경기도 안양시 만안구 석수동 312-7번지","category":"보건위생 - 의료용품"}]},{"lat":"37.416827531","long":"126.90706689","items":[{"name":"오토자동차티-스테이션","tel":"031-473-6677","addr":"경기도 안양시 만안구 석수동 265-13번지","category":"자동차정비 유지 - 자동차부품"}]},{"lat":"37.409286509","long":"126.90756219","items":[{"name":"오픈스타코리아","tel":"031-399-8200","addr":"경기도 안양시 만안구 석수동","category":"회원제형태 - 기타4"}]},{"lat":"37.413270994","long":"126.91012127","items":[{"name":"옥이네황소곱창","tel":"","addr":"경기도 안양시 만안구 석수동 279-34번지","category":"일반휴게음식 - 일반한식"},{"name":"진인테리어","tel":"031-474-8367","addr":"경기도 안양시 만안구 석수동 279-34번지","category":"건축자재 - 인테리어전문"},{"name":"하늘땅","tel":"031-471-3555","addr":"경기도 안양시 만안구 석수동 279-34번지","category":"일반휴게음식 - 주점"}]},{"lat":"37.41152181","long":"126.90856465","items":[{"name":"온나라씨에스환경","tel":"031-473-3182","addr":"경기도 안양시 만안구 석수동 306-6번지","category":"용역 서비스 - 종합용역"},{"name":"유진세탁소","tel":"031-471-0140","addr":"경기도 안양시 만안구 석수동 306-6번지","category":"수리서비스 - 세탁소"},{"name":"중원대박가","tel":"","addr":"경기도 안양시 만안구 석수동 306-6번지","category":"일반휴게음식 - 중국식"},{"name":"진주네애견샵","tel":"031-474-1044","addr":"경기도 안양시 만안구 석수동 306-6번지","category":"문화.취미 - 애완동물"},{"name":"청이네분식","tel":"031-421-6399","addr":"경기도 안양시 만안구 석수동 306-6번지","category":"일반휴게음식 - 스넥"},{"name":"청이네분식","tel":"031-421-6399","addr":"경기도 안양시 만안구 석수동 306-6번지","category":"일반휴게음식 - 일반한식"},{"name":"한나헤어","tel":"","addr":"경기도 안양시 만안구 석수동 306-6번지","category":"보건위생 - 미용원"}]},{"lat":"37.427692698","long":"126.90590066","items":[{"name":"온누리장작구이 안양점","tel":"031-472-9293","addr":"경기도 안양시 만안구 석수동 394-7번지","category":"일반휴게음식 - 일반한식"}]},{"lat":"37.416388303","long":"126.9099028","items":[{"name":"온헤어","tel":"070-4922-1261","addr":"경기도 안양시 만안구 석수동 269-39번지","category":"보건위생 - 미용원"}]},{"lat":"37.415741792","long":"126.91276152","items":[{"name":"올마켓","tel":"031-474-8944","addr":"경기도 안양시 만안구 석수동 184번지","category":"유통업 영리 - 슈퍼마켓"}]},{"lat":"37.419159926","long":"126.93073036","items":[{"name":"올토갤러리카페도자기공방","tel":"031-471-5111","addr":"경기도 안양시 만안구 석수동 850번지","category":"일반휴게음식 - 서양음식"}]},{"lat":"37.407413487","long":"126.89817853","items":[{"name":"완이네텔레콤","tel":"031-471-8010","addr":"경기도 안양시 만안구 석수동 785-15번지","category":"사무통신 - 통신기기"},{"name":"윤선생우리집앞영어교실충훈영어교습소","tel":"031-471-0594","addr":"경기도 안양시 만안구 석수동 785-15번지","category":"학원 - 보습학원"},{"name":"임쌤수학교습소","tel":"031-472-2277","addr":"경기도 안양시 만안구 석수동 785-15번지","category":"회원제형태 - 학원"},{"name":"제이제이텔레콤(JJ텔레콤)","tel":"031-474-2111","addr":"경기도 안양시 만안구 석수동 785-15번지","category":"사무통신 - 통신기기"},{"name":"충훈태원도장","tel":"031-471-7698","addr":"경기도 안양시 만안구 석수동 785-15번지","category":"학원 - 예·체능계학원"}]},{"lat":"37.413137542","long":"126.91231281","items":[{"name":"우리농수산","tel":"070-7797-8237","addr":"경기도 안양시 만안구 석수동 322-20번지 우주타운","category":"음료식품 - 농·축·수산품"},{"name":"유일식품","tel":"031-472-5654","addr":"경기도 안양시 만안구 석수동 322-20번지 우주타운","category":"음료식품 - 기타음료식품"}]},{"lat":"37.409162708","long":"126.91051037","items":[{"name":"우리동네국수","tel":"031-473-9529","addr":"경기도 안양시 만안구 석수동 313-12번지","category":"일반휴게음식 - 일반한식"}]},{"lat":"37.405493622","long":"126.89736799","items":[{"name":"우주어린이집[아이행복]","tel":"031-472-5448","addr":"경기도 안양시 만안구 석수동 769-10번지","category":"학원 - 유아원"}]},{"lat":"37.406079648","long":"126.89778507","items":[{"name":"워시큐 석수점","tel":"02-1670-4090","addr":"경기도 안양시 만안구 석수동 764-5번지","category":"수리서비스 - 세탁소"}]},{"lat":"37.417242513","long":"126.90771025","items":[{"name":"원광어린이집[아이행복]","tel":"031-473-0524","addr":"경기도 안양시 만안구 석수동 266-19번지","category":"학원 - 유아원"}]},{"lat":"37.419350736","long":"126.90754943","items":[{"name":"원농산","tel":"031-472-1399","addr":"경기도 안양시 만안구 석수동 259-20번지","category":"음료식품 - 농·축·수산품"}]},{"lat":"37.407053454","long":"126.89859694","items":[{"name":"원투복싱클럽","tel":"070-7548-9281","addr":"경기도 안양시 만안구 석수동 785-25번지","category":"회원제형태 - 레져업소"},{"name":"카스톡스","tel":"031-471-4417","addr":"경기도 안양시 만안구 석수동 785-25번지","category":"일반휴게음식 - 스넥"}]},{"lat":"37.4167489","long":"126.91015087","items":[{"name":"월드그린","tel":"031-473-9976","addr":"경기도 안양시 만안구 석수동 269-7번지","category":"신변잡화 - 기타잡화"}]},{"lat":"37.41190898","long":"126.9082366","items":[{"name":"위자네","tel":"","addr":"경기도 안양시 만안구 석수동 305-3번지","category":"일반휴게음식 - 일반한식"},{"name":"제이에이치(J.H)","tel":"031-382-4600","addr":"경기도 안양시 만안구 석수동 305-3번지","category":"건축자재 - 인테리어전문"}]},{"lat":"37.420813651","long":"126.91171613","items":[{"name":"위즈엄","tel":"070-8866-2233","addr":"경기도 안양시 만안구 석수동 166번지 관악산현대홈타운","category":"광학제품 - 사진관"}]},{"lat":"37.416741571","long":"126.91231976","items":[{"name":"윈짐","tel":"031-472-8686","addr":"경기도 안양시 만안구 석수동 174-5번지","category":"레져용품 - 스포츠·레져용품"},{"name":"진이케이크(JINECAKE)","tel":"","addr":"경기도 안양시 만안구 석수동 174-5번지","category":"음료식품 - 기타음료식품"},{"name":"효연헤어스토리","tel":"031-473-0011","addr":"경기도 안양시 만안구 석수동 174-5번지","category":"보건위생 - 미용원"}]},{"lat":"37.406498309","long":"126.90261863","items":[{"name":"유경화의주산교습소","tel":"031-473-4491","addr":"경기도 안양시 만안구 석수동","category":"회원제형태 - 학원"},{"name":"홍짜장","tel":"070-8807-4626","addr":"경기도 안양시 만안구 석수동 788번지 석수아이파크","category":"일반휴게음식 - 중국식"}]},{"lat":"37.409333377","long":"126.90984375","items":[{"name":"유로쿡","tel":"031-1666-3778","addr":"경기도 안양시 만안구 석수동 297-12번지","category":"주방용구 - 주방용구"}]},{"lat":"37.41734501","long":"126.91201404","items":[{"name":"유미테크","tel":"031-342-8260","addr":"경기도 안양시 만안구 석수동 168-4번지 석수경남아너스빌","category":"회원제형태 - 기타4"}]},{"lat":"37.417827169","long":"126.9064782","items":[{"name":"유성전기","tel":"02-804-1320","addr":"경기도 안양시 만안구 석수동 256-4번지","category":"전기제품 - 기타전기제품"}]},{"lat":"37.414495943","long":"126.90958885","items":[{"name":"유진HC","tel":"031-473-8255","addr":"경기도 안양시 만안구 석수동","category":"건축자재 - 목재·석재·철물"}]},{"lat":"37.409361492","long":"126.91123302","items":[{"name":"육대장","tel":"031-474-8008","addr":"경기도 안양시 만안구 석수동 313-17번지","category":"일반휴게음식 - 일반한식"}]},{"lat":"37.410911798","long":"126.91197663","items":[{"name":"윤병숙헤어염색","tel":"031-471-8170","addr":"경기도 안양시 만안구 석수동 325-14번지","category":"보건위생 - 미용원"}]},{"lat":"37.412405253","long":"126.90913962","items":[{"name":"은정디자인","tel":"031-471-1077","addr":"경기도 안양시 만안구 석수동 305-20번지 삼호빌라","category":"수리서비스 - 세탁소"}]},{"lat":"37.405547813","long":"126.89751474","items":[{"name":"은혜상회","tel":"031-471-4212","addr":"경기도 안양시 만안구 석수동 769-9번지","category":"음료식품 - 기타음료식품"}]},{"lat":"37.405584044","long":"126.89772929","items":[{"name":"은혜지물포","tel":"031-471-4212","addr":"경기도 안양시 만안구 석수동 764-10번지","category":"직물 - 카페트,커튼,천막,지물"}]},{"lat":"37.41599397","long":"126.91262566","items":[{"name":"이끌림헤어","tel":"031-473-5070","addr":"경기도 안양시 만안구 석수동 180-8번지","category":"보건위생 - 미용원"},{"name":"청현보석","tel":"031-474-8853","addr":"경기도 안양시 만안구 석수동 180-8번지","category":"신변잡화 - 액세서리"}]},{"lat":"37.405746376","long":"126.89789848","items":[{"name":"이마트24 안양충훈점","tel":"","addr":"경기도 안양시 만안구 석수동 764-8번지","category":"유통업 영리 - 편 의 점"}]},{"lat":"37.409774281","long":"126.90909772","items":[{"name":"이벤트클릭","tel":"070-7454-6282","addr":"경기도 안양시 만안구 석수동 299-2번지","category":"용역 서비스 - 종합용역"}]},{"lat":"37.41049307","long":"126.90658926","items":[{"name":"이쁜이옷장","tel":"031-474-8637","addr":"경기도 안양시 만안구 석수동 294-4번지 오성빌라","category":"의류 - 정장"}]},{"lat":"37.423742591","long":"126.91259377","items":[{"name":"이산찰누룽지닭백숙&부대찌개","tel":"031-474-0300","addr":"경기도 안양시 만안구 석수동 78-1번지","category":"일반휴게음식 - 일반한식"},{"name":"중앙화원","tel":"02-534-6631","addr":"경기도 안양시 만안구 석수동 78-1번지","category":"문화.취미 - 화원"}]},{"lat":"37.411856388","long":"126.91008913","items":[{"name":"이재승탁구교실","tel":"031-471-3959","addr":"경기도 안양시 만안구 석수동 318-8번지","category":"레저업소 - 기타레져업소"}]},{"lat":"37.406441009","long":"126.89886886","items":[{"name":"이정희헤어라인","tel":"031-473-1110","addr":"경기도 안양시 만안구 석수동 783-10번지","category":"보건위생 - 미용원"},{"name":"태백산건강원","tel":"031-472-4735","addr":"경기도 안양시 만안구 석수동 783-10번지","category":"건강식품 - 기타건강식품"}]},{"lat":"37.409549707","long":"126.90995643","items":[{"name":"일광세탁소","tel":"031-472-1788","addr":"경기도 안양시 만안구 석수동 297-9번지 금아트빌","category":"수리서비스 - 세탁소"}]},{"lat":"37.417657834","long":"126.90878289","items":[{"name":"일신감정평가사무소","tel":"031-472-1125","addr":"경기도 안양시 만안구 석수동","category":"용역 서비스 - 사무서비스"},{"name":"현대커텐,열쇠","tel":"031-471-8267","addr":"경기도 안양시 만안구 석수동 267-23번지","category":"직물 - 카페트,커튼,천막,지물"}]},{"lat":"37.42458086","long":"126.91303336","items":[{"name":"임가네보리밥잔치국수","tel":"031-471-3577","addr":"경기도 안양시 만안구 석수동 41-2번지","category":"일반휴게음식 - 일반한식"}]},{"lat":"37.413215772","long":"126.9086529","items":[{"name":"자매막걸리","tel":"031-471-8828","addr":"경기도 안양시 만안구 석수동 280-8번지","category":"일반휴게음식 - 스넥"},{"name":"형제식당","tel":"031-471-4119","addr":"경기도 안양시 만안구 석수동 280-8번지","category":"일반휴게음식 - 일반한식"}]},{"lat":"37.416424343","long":"126.90990276","items":[{"name":"자연소년","tel":"070-8269-2464","addr":"경기도 안양시 만안구 석수동 269-39번지","category":"신변잡화 - 기타잡화"},{"name":"주식회사에스씨메디칼(SC Medical,Inc)","tel":"031-349-7886","addr":"경기도 안양시 만안구 석수동 269-39번지","category":"보건위생 - 의료용품"}]},{"lat":"37.419079958","long":"126.93259438","items":[{"name":"자연식당","tel":"031-471-6696","addr":"경기도 안양시 만안구 석수동","category":"일반휴게음식 - 일반한식"}]},{"lat":"37.433463657","long":"126.90059409","items":[{"name":"자연어린이집[아이행복]","tel":"031-472-0843","addr":"경기도 안양시 만안구 석수동 423-24번지","category":"학원 - 유아원"}]},{"lat":"37.41677545","long":"126.90954084","items":[{"name":"자유시간 헤어샵","tel":"","addr":"경기도 안양시 만안구 석수동 268-44번지","category":"보건위생 - 미용원"}]},{"lat":"37.413052045","long":"126.90673283","items":[{"name":"잔칫날","tel":"031-471-1856","addr":"경기도 안양시 만안구 석수동 284-13번지","category":"일반휴게음식 - 일반한식"},{"name":"카라헤어샵","tel":"031-471-3588","addr":"경기도 안양시 만안구 석수동 284-13번지","category":"보건위생 - 미용원"}]},{"lat":"37.410163493","long":"126.91136759","items":[{"name":"장원식당","tel":"031-471-3519","addr":"경기도 안양시 만안구 석수동","category":"일반휴게음식 - 일반한식"}]},{"lat":"37.412772687","long":"126.90667671","items":[{"name":"장인가구","tel":"031-463-6675","addr":"경기도 안양시 만안구 석수동 292-2번지 혜동아파트","category":"가구 - 일반가구"}]},{"lat":"37.422994585","long":"126.91236872","items":[{"name":"전라도옛맛손칼국수","tel":"031-472-8875","addr":"경기도 안양시 만안구 석수동 82-7번지","category":"일반휴게음식 - 일반한식"}]},{"lat":"37.420018403","long":"126.90870086","items":[{"name":"전주집","tel":"031-473-3800","addr":"경기도 안양시 만안구 석수동 104-100번지","category":"일반휴게음식 - 일반한식"}]},{"lat":"37.412413208","long":"126.90781803","items":[{"name":"정용희음악학원","tel":"031-472-7082","addr":"경기도 안양시 만안구 석수동 289-13번지","category":"학원 - 예·체능계학원"},{"name":"취해","tel":"","addr":"경기도 안양시 만안구 석수동 289-13번지","category":"일반휴게음식 - 일식·회집"}]},{"lat":"37.41905142","long":"126.91670007","items":[{"name":"정우","tel":"031-473-2402","addr":"경기도 안양시 만안구 석수동 221-52번지","category":"직물 - 침구·수예점"}]},{"lat":"37.405304612","long":"126.89759415","items":[{"name":"제노 PC방","tel":"070-2598-3329","addr":"경기도 안양시 만안구 석수동 770-8번지","category":"레저업소 - 기타레져업소"}]},{"lat":"37.431996276","long":"126.9020536","items":[{"name":"제이에이치서비스","tel":"020-111-1111","addr":"경기도 안양시 만안구 석수동 420-9번지 명지빌라","category":"수리서비스 - 기타수리서비스"}]},{"lat":"37.41144043","long":"126.9082033","items":[{"name":"제이엔케이","tel":"070-4401-9266","addr":"경기도 안양시 만안구 석수동 303-26번지","category":"레져용품 - 스포츠·레져용품"}]},{"lat":"37.411409125","long":"126.90300743","items":[{"name":"제이엘푸드","tel":"070-7556-3641","addr":"경기도 안양시 만안구 석수동 산159-23번지","category":"일반휴게음식 - 일반한식"},{"name":"체크엠(주)/안양시립석수도서관구내식당","tel":"031-494-1254","addr":"경기도 안양시 만안구 석수동 산159-23번지","category":"일반휴게음식 - 위탁급식업"}]},{"lat":"37.419206912","long":"126.90796759","items":[{"name":"제이케이통상","tel":"032-831-2425","addr":"경기도 안양시 만안구 석수동 259-44번지 대광빌라","category":"회원제형태 - 기타4"}]},{"lat":"37.410387072","long":"126.9092325","items":[{"name":"제이호프","tel":"031-466-6285","addr":"경기도 안양시 만안구 석수동 300-7번지","category":"일반휴게음식 - 일반한식"}]},{"lat":"37.43562768","long":"126.90247809","items":[{"name":"제일공업/원격지","tel":"031-472-2088","addr":"경기도 안양시 만안구 석수동 361-3번지","category":"기타 - 기타 전문점"}]},{"lat":"37.4173522","long":"126.90967568","items":[{"name":"제일유통","tel":"031-474-7404","addr":"경기도 안양시 만안구 석수동 268-27번지","category":"보건위생 - 의료용품"}]},{"lat":"37.416743927","long":"126.91544883","items":[{"name":"젬에스","tel":"","addr":"경기도 안양시 만안구 석수동 206-7번지","category":"신변잡화 - 기념품점"}]},{"lat":"37.419078934","long":"126.91736654","items":[{"name":"조은생활","tel":"","addr":"경기도 안양시 만안구 석수동 221-22번지","category":"주방용구 - 주방용구"}]},{"lat":"37.41604858","long":"126.91334855","items":[{"name":"종로떡방앗간","tel":"031-472-0005","addr":"경기도 안양시 만안구 석수동 178-8번지","category":"음료식품 - 제과점"},{"name":"종로떡집","tel":"031-472-0005","addr":"경기도 안양시 만안구 석수동 178-8번지","category":"음료식품 - 제과점"}]},{"lat":"37.413216783","long":"126.90992931","items":[{"name":"종인","tel":"031-474-4989","addr":"경기도 안양시 만안구 석수동 279-27번지","category":"전기제품 - 기타전기제품"}]},{"lat":"37.411242678","long":"126.90879091","items":[{"name":"좋은아침","tel":"031-471-4196","addr":"경기도 안양시 만안구 석수동 307-1번지","category":"음료식품 - 기타음료식품"}]},{"lat":"37.415562642","long":"126.91415115","items":[{"name":"좋은친구어린이집[아이행복]","tel":"031-473-3100","addr":"경기도 안양시 만안구 석수동 182-2번지 석수e-편한세상아파트","category":"학원 - 유아원"}]},{"lat":"37.417242011","long":"126.90708896","items":[{"name":"주식회사 경기그리에이트","tel":"031-471-4402","addr":"경기도 안양시 만안구 석수동 265-10번지","category":"보건위생 - 미용재료"}]},{"lat":"37.419243097","long":"126.90814829","items":[{"name":"주식회사 연우파킹","tel":"","addr":"경기도 안양시 만안구 석수동 259-34번지 스카이빌","category":"자동차정비 유지 - 주차장"}]},{"lat":"37.424886441","long":"126.91203882","items":[{"name":"주식회사 종가푸드시스템","tel":"031-474-5878","addr":"경기도 안양시 만안구 석수동 59-3번지","category":"일반휴게음식 - 서양음식"}]},{"lat":"37.418303487","long":"126.91656537","items":[{"name":"주식회사 파트너유통","tel":"031-443-6067","addr":"경기도 안양시 만안구 석수동 218-9번지","category":"신변잡화 - 기타잡화"}]},{"lat":"37.419800304","long":"126.9063966","items":[{"name":"주식회사쿡클레스","tel":"031-471-1130","addr":"경기도 안양시 만안구 석수동 254-5번지","category":"일반휴게음식 - 일반한식"}]},{"lat":"37.411134359","long":"126.90854255","items":[{"name":"준헤어","tel":"031-473-2560","addr":"경기도 안양시 만안구 석수동 302-13번지","category":"보건위생 - 미용원"}]},{"lat":"37.411665255","long":"126.90767213","items":[{"name":"즉석김밥","tel":"031-474-0888","addr":"경기도 안양시 만안구 석수동 304-8번지 다성빌라","category":"일반휴게음식 - 일반한식"}]},{"lat":"37.409937767","long":"126.91075792","items":[{"name":"지인무용학원","tel":"031-473-6333","addr":"경기도 안양시 만안구 석수동 312-6번지","category":"학원 - 예·체능계학원"},{"name":"지인스포츠아카데미","tel":"031-473-6333","addr":"경기도 안양시 만안구 석수동 312-6번지","category":"학원 - 기타 교육기관"}]},{"lat":"37.416998969","long":"126.90737167","items":[{"name":"진로마트정육","tel":"031-473-7441","addr":"경기도 안양시 만안구 석수동 265-8번지","category":"음료식품 - 정육점"}]},{"lat":"37.408791771","long":"126.90857937","items":[{"name":"진영통신","tel":"031-382-6880","addr":"경기도 안양시 만안구 석수동 296번지 럭키아파트","category":"전기제품 - 기타전기제품"},{"name":"현진수학","tel":"031-472-2589","addr":"경기도 안양시 만안구 석수동 296번지 럭키아파트","category":"학원 - 기타 교육기관"}]},{"lat":"37.415912768","long":"126.91247891","items":[{"name":"진이찬방안양석수점","tel":"031-471-5461","addr":"경기도 안양시 만안구 석수동 183-11번지","category":"음료식품 - 기타음료식품"}]},{"lat":"37.421911938","long":"126.91050601","items":[{"name":"진주독서실","tel":"070-8246-5205","addr":"경기도 안양시 만안구 석수동 93-5번지","category":"학원 - 독서실"}]},{"lat":"37.414467318","long":"126.90758951","items":[{"name":"채연","tel":"","addr":"경기도 안양시 만안구 석수동 283-6번지","category":"보건위생 - 피부미용실"}]},{"lat":"37.415297837","long":"126.90958786","items":[{"name":"천성카센타","tel":"031-471-7744","addr":"경기도 안양시 만안구 석수동 274-57번지","category":"자동차정비 유지 - 자동차정비"}]},{"lat":"37.42846947","long":"126.93437069","items":[{"name":"천연식당","tel":"031-471-4492","addr":"경기도 안양시 만안구 석수동 241-52번지","category":"일반휴게음식 - 일반한식"}]},{"lat":"37.409270767","long":"126.91043117","items":[{"name":"청명 시스템 에어컨","tel":"","addr":"경기도 안양시 만안구 석수동 313-2번지","category":"전기제품 - 냉열기기"}]},{"lat":"37.416137785","long":"126.91217364","items":[{"name":"청송안동사과도매","tel":"031-471-0399","addr":"경기도 안양시 만안구 석수동","category":"음료식품 - 농·축·수산품"},{"name":"현대인테리어","tel":"031-471-7173","addr":"경기도 안양시 만안구 석수동 180-6번지","category":"건축자재 - 인테리어전문"}]},{"lat":"37.416886111","long":"126.91281663","items":[{"name":"청송플라워","tel":"031-471-1327","addr":"경기도 안양시 만안구 석수동 172-9번지","category":"문화.취미 - 화원"}]},{"lat":"37.419442316","long":"126.90940197","items":[{"name":"촌닭숯불바베큐","tel":"031-472-0066","addr":"경기도 안양시 만안구 석수동 104-158번지","category":"일반휴게음식 - 스넥"},{"name":"코리아노래연습장","tel":"031-472-0888","addr":"경기도 안양시 만안구 석수동 104-158번지","category":"레저업소 - 노 래 방"},{"name":"코리아당구장","tel":"031-474-0919","addr":"경기도 안양시 만안구 석수동 104-158번지","category":"레저업소 - 당 구 장"}]},{"lat":"37.407998004","long":"126.89690138","items":[{"name":"총각과일","tel":"","addr":"경기도 안양시 만안구 석수동 753번지 신동아빌라","category":"음료식품 - 농·축·수산품"}]},{"lat":"37.40638775","long":"126.8997838","items":[{"name":"최군맥주안양석수점","tel":"031-471-7531","addr":"경기도 안양시 만안구 석수동 782-1번지","category":"일반휴게음식 - 주점"},{"name":"키움영어교습소","tel":"031-471-1319","addr":"경기도 안양시 만안구 석수동 782-1번지","category":"학원 - 외국어학원"}]},{"lat":"37.434744178","long":"126.90186913","items":[{"name":"최우수에어컨","tel":"031-472-1819","addr":"경기도 안양시 만안구 석수동 423-13번지 풍년빌라","category":"용역 서비스 - 기타용역서비스"}]},{"lat":"37.411909269","long":"126.90859805","items":[{"name":"춘천화로닭갈비","tel":"031-417-5007","addr":"경기도 안양시 만안구 석수동 305-11번지","category":"일반휴게음식 - 일반한식"}]},{"lat":"37.413189619","long":"126.90975991","items":[{"name":"충북카독크","tel":"031-472-7777","addr":"경기도 안양시 만안구 석수동 279-25번지","category":"자동차정비 유지 - 자동차시트·타이어"}]},{"lat":"37.410688253","long":"126.89278608","items":[{"name":"충훈고 학교매점","tel":"","addr":"경기도 안양시 만안구 석수동 595-3번지","category":"음료식품 - 기타음료식품"},{"name":"충훈고등학교","tel":"031-472-5382","addr":"경기도 안양시 만안구 석수동 595-3번지","category":"학원 - 초중고교육기관"},{"name":"충훈고등학교_수업료","tel":"031-472-5382","addr":"경기도 안양시 만안구 석수동 595-3번지","category":"학원 - 초중고교육기관"},{"name":"충훈고매점","tel":"","addr":"경기도 안양시 만안구 석수동 595-3번지","category":"음료식품 - 기타음료식품"}]},{"lat":"37.407133805","long":"126.89776101","items":[{"name":"충훈시그니처독서실","tel":"031-471-1554","addr":"경기도 안양시 만안구 석수동 785-8번지","category":"학원 - 독서실"},{"name":"충훈회관","tel":"031-471-3612","addr":"경기도 안양시 만안구 석수동 785-8번지","category":"일반휴게음식 - 일반한식"},{"name":"코바짐,코바메디컬필라테스IFTA,B-BOX코바","tel":"031-348-9191","addr":"경기도 안양시 만안구 석수동 785-8번지","category":"보건위생 - 피부미용실"},{"name":"훌랄라숯불바베큐","tel":"070-8785-7142","addr":"경기도 안양시 만안구 석수동 785-8번지","category":"일반휴게음식 - 스넥"}]},{"lat":"37.432728772","long":"126.90525014","items":[{"name":"카드기협회 씨아이밴","tel":"02-1600-3100","addr":"경기도 안양시 만안구 석수동 374-5번지 석수역푸르지오아파트","category":"사무통신 - 통신기기"}]},{"lat":"37.41485731","long":"126.91081967","items":[{"name":"카리스","tel":"031-474-9992","addr":"경기도 안양시 만안구 석수동 272-7번지","category":"일반휴게음식 - 서양음식"}]},{"lat":"37.418324299","long":"126.90843186","items":[{"name":"카스토크","tel":"031-473-1147","addr":"경기도 안양시 만안구 석수동 262-23번지","category":"일반휴게음식 - 주점"}]},{"lat":"37.412386667","long":"126.90842802","items":[{"name":"카츠카야","tel":"070-7839-8600","addr":"경기도 안양시 만안구 석수동 289-5번지","category":"일반휴게음식 - 주점"}]},{"lat":"37.413776253","long":"126.91101302","items":[{"name":"카페 트러커즈","tel":"070-5110-2414","addr":"경기도 안양시 만안구 석수동 271-6번지","category":"일반휴게음식 - 서양음식"}]},{"lat":"37.409639612","long":"126.90970783","items":[{"name":"카페455","tel":"070-7807-5310","addr":"경기도 안양시 만안구 석수동 298-18번지","category":"일반휴게음식 - 서양음식"}]},{"lat":"37.418441004","long":"126.90790078","items":[{"name":"카페모랑모락","tel":"031-474-5354","addr":"경기도 안양시 만안구 석수동 263-3번지","category":"일반휴게음식 - 서양음식"}]},{"lat":"37.418579169","long":"126.91173013","items":[{"name":"카페에게네떼","tel":"070-4221-8999","addr":"경기도 안양시 만안구 석수동 168-13번지","category":"일반휴게음식 - 서양음식"}]},{"lat":"37.409022627","long":"126.89412134","items":[{"name":"카페인썸","tel":"031-471-7354","addr":"경기도 안양시 만안구 석수동 748-7번지","category":"일반휴게음식 - 서양음식"}]},{"lat":"37.412414648","long":"126.90962532","items":[{"name":"카페첼로","tel":"031-471-4289","addr":"경기도 안양시 만안구 석수동 319-2번지","category":"일반휴게음식 - 서양음식"}]},{"lat":"37.424355126","long":"126.91240097","items":[{"name":"카페테라스","tel":"031-474-2901","addr":"경기도 안양시 만안구 석수동 63-1번지","category":"일반휴게음식 - 서양음식"},{"name":"테라스빌리아드(TERRACE BILLIARD)","tel":"031-474-8700","addr":"경기도 안양시 만안구 석수동 63-1번지","category":"레저업소 - 당 구 장"}]},{"lat":"37.425049886","long":"126.91369935","items":[{"name":"카페히노","tel":"","addr":"경기도 안양시 만안구 석수동 39-2번지","category":"일반휴게음식 - 서양음식"}]},{"lat":"37.42685351","long":"126.91586639","items":[{"name":"커피볶는정","tel":"031-471-7773","addr":"경기도 안양시 만안구 석수동","category":"일반휴게음식 - 서양음식"}]},{"lat":"37.41619142","long":"126.91162006","items":[{"name":"케이엠유통","tel":"031-347-3566","addr":"경기도 안양시 만안구 석수동 177-59번지","category":"음료식품 - 정육점"}]},{"lat":"37.412020399","long":"126.9124497","items":[{"name":"코코넷치킨","tel":"031-471-9898","addr":"경기도 안양시 만안구 석수동 324-31번지","category":"일반휴게음식 - 스넥"}]},{"lat":"37.422796234","long":"126.9121995","items":[{"name":"콩닥콩닭","tel":"031-465-0222","addr":"경기도 안양시 만안구 석수동 83-6번지","category":"일반휴게음식 - 일반한식"}]},{"lat":"37.419687503","long":"126.92442629","items":[{"name":"쿠(COO)","tel":"031-471-8084","addr":"경기도 안양시 만안구 석수동 825-7번지","category":"일반휴게음식 - 일반한식"},{"name":"쿠(COO)","tel":"","addr":"경기도 안양시 만안구 석수동 825-7번지","category":"일반휴게음식 - 서양음식"}]},{"lat":"37.413388777","long":"126.91095701","items":[{"name":"크린코리아","tel":"031-473-1797","addr":"경기도 안양시 만안구 석수동 321-39번지","category":"용역 서비스 - 종합용역"}]},{"lat":"37.416193074","long":"126.91378893","items":[{"name":"크린토피아","tel":"031-471-3482","addr":"경기도 안양시 만안구 석수동 178-19번지","category":"수리서비스 - 세탁소"},{"name":"한솔주니어랩보습학원","tel":"031-471-5107","addr":"경기도 안양시 만안구 석수동 178-19번지","category":"학원 - 기타 교육기관"}]},{"lat":"37.417665958","long":"126.90767583","items":[{"name":"클라우드솔루션(주)","tel":"031-471-1119","addr":"경기도 안양시 만안구 석수동 266-26번지","category":"사무통신 - 사무용 OA기기"},{"name":"클라우드오에이","tel":"","addr":"경기도 안양시 만안구 석수동 266-26번지","category":"사무통신 - 컴퓨터"}]},{"lat":"37.43153602","long":"126.90118423","items":[{"name":"키즈카니발","tel":"070-7554-3124","addr":"경기도 안양시 만안구 석수동 417-3번지 석수두산위브아파트","category":"회원제형태 - 기타4"}]},{"lat":"37.417576591","long":"126.90859095","items":[{"name":"타임텔레콤","tel":"031-473-5900","addr":"경기도 안양시 만안구 석수동 266-15번지","category":"사무통신 - 통신기기"},{"name":"호남식당","tel":"031-473-6272","addr":"경기도 안양시 만안구 석수동 266-15번지","category":"일반휴게음식 - 일반한식"}]},{"lat":"37.406665852","long":"126.89840546","items":[{"name":"태광유리","tel":"031-472-9915","addr":"경기도 안양시 만안구 석수동 781번지","category":"건축자재 - 유리"}]},{"lat":"37.413754682","long":"126.9065512","items":[{"name":"태산ENE","tel":"02-783-6382","addr":"경기도 안양시 만안구 석수동 284-1번지 적성아파트","category":"건축자재 - 인테리어전문"}]},{"lat":"37.406039149","long":"126.90303714","items":[{"name":"태양유통","tel":"","addr":"경기도 안양시 만안구 석수동 788번지 석수아이파크","category":"음료식품 - 기타음료식품"}]},{"lat":"37.417631333","long":"126.90944941","items":[{"name":"태양카서비스","tel":"031-445-2421","addr":"경기도 안양시 만안구 석수동 268-22번지","category":"자동차정비 유지 - 자동차정비"}]},{"lat":"37.412330965","long":"126.90639488","items":[{"name":"태영","tel":"","addr":"경기도 안양시 만안구 석수동 292-20번지","category":"음료식품 - 농·축·수산품"}]},{"lat":"37.405826802","long":"126.89715292","items":[{"name":"태현농수산물","tel":"031-472-4993","addr":"경기도 안양시 만안구 석수동 768-12번지 우성빌라","category":"음료식품 - 미곡상"}]},{"lat":"37.412383376","long":"126.90439549","items":[{"name":"토브키즈어린이집[아이행복]","tel":"031-474-3004","addr":"경기도 안양시 만안구 석수동 348-5번지","category":"학원 - 유아원"}]},{"lat":"37.411105781","long":"126.90662236","items":[{"name":"토스트굽는사람들","tel":"031-473-2016","addr":"경기도 안양시 만안구 석수동 294-51번지","category":"일반휴게음식 - 스넥"},{"name":"헤어천국","tel":"031-473-4752","addr":"경기도 안양시 만안구 석수동 294-51번지","category":"보건위생 - 미용원"}]},{"lat":"37.427740734","long":"126.8988168","items":[{"name":"토탈멀티샵 TM&S","tel":"02-1600-8381","addr":"경기도 안양시 만안구 석수동 473-15번지","category":"레져용품 - 스포츠·레져용품"}]},{"lat":"37.425357622","long":"126.90411866","items":[{"name":"통큰집","tel":"031-472-8592","addr":"경기도 안양시 만안구 석수동 494-13번지","category":"일반휴게음식 - 일반한식"}]},{"lat":"37.4133612","long":"126.91025671","items":[{"name":"트러커즈","tel":"070-5110-2414","addr":"경기도 안양시 만안구 석수동 279-35번지","category":"자동차판매 - 기타운송"}]},{"lat":"37.409162053","long":"126.90967453","items":[{"name":"티니천재어린이집[아이행복]","tel":"031-473-6475","addr":"경기도 안양시 만안구 석수동 297-1번지 동신벨로스","category":"학원 - 유아원"}]},{"lat":"37.410115798","long":"126.90801295","items":[{"name":"파란꿈나무어린이집[아이행복]","tel":"031-468-1225","addr":"경기도 안양시 만안구 석수동 296번지 럭키아파트","category":"학원 - 유아원"}]},{"lat":"37.410468118","long":"126.90917592","items":[{"name":"파레스미용실","tel":"031-473-5789","addr":"경기도 안양시 만안구 석수동 300-6번지","category":"보건위생 - 미용원"}]},{"lat":"37.414522445","long":"126.90892236","items":[{"name":"파스텔화장품","tel":"031-473-5519","addr":"경기도 안양시 만안구 석수동","category":"보건위생 - 화장품"},{"name":"피자마루","tel":"031-472-0041","addr":"경기도 안양시 만안구 석수동 278-1번지","category":"일반휴게음식 - 서양음식"}]},{"lat":"37.413297015","long":"126.90884482","items":[{"name":"퍼니토이","tel":"031-473-7894","addr":"경기도 안양시 만안구 석수동 280-4번지","category":"서적문구 - 완구점"}]},{"lat":"37.406053358","long":"126.89862091","items":[{"name":"평화열쇠","tel":"031-471-1382","addr":"경기도 안양시 만안구 석수동 781-11번지 유경빌라11차","category":"기타 - 기계공구"}]},{"lat":"37.416074992","long":"126.91253519","items":[{"name":"포르테","tel":"031-474-2423","addr":"경기도 안양시 만안구 석수동 180-14번지","category":"의류 - 정장"}]},{"lat":"37.418718667","long":"126.93111487","items":[{"name":"폭포수식당","tel":"031-471-5570","addr":"경기도 안양시 만안구 석수동 850-3번지","category":"일반휴게음식 - 일반한식"}]},{"lat":"37.413134942","long":"126.90898057","items":[{"name":"프로영농복지조합","tel":"031-471-6136","addr":"경기도 안양시 만안구 석수동 280-5번지","category":"음료식품 - 기타음료식품"}]},{"lat":"37.429914845","long":"126.90192081","items":[{"name":"플러스냉난방","tel":"","addr":"경기도 안양시 만안구 석수동 415-2번지 석수엘지빌리지","category":"용역 서비스 - 기타용역서비스"}]},{"lat":"37.412991965","long":"126.91048308","items":[{"name":"핌 아이 어린이집[아이행복]","tel":"031-471-1290","addr":"경기도 안양시 만안구 석수동 320-19번지 명품하이츠","category":"학원 - 유아원"}]},{"lat":"37.413942837","long":"126.90526323","items":[{"name":"하나로시스템","tel":"070-8547-0658","addr":"경기도 안양시 만안구 석수동 351-14번지","category":"용역 서비스 - 기타용역서비스"}]},{"lat":"37.419352082","long":"126.90923263","items":[{"name":"하남돼지집","tel":"031-347-9619","addr":"경기도 안양시 만안구 석수동 104-159번지","category":"일반휴게음식 - 일반한식"}]},{"lat":"37.433530018","long":"126.90446948","items":[{"name":"하늘수레어린이집[아이행복]","tel":"","addr":"경기도 안양시 만안구 석수동 374-5번지 석수역푸르지오아파트","category":"학원 - 유아원"},{"name":"해냄수학","tel":"02-899-1102","addr":"경기도 안양시 만안구 석수동 374-5번지 석수역푸르지오아파트","category":"회원제형태 - 학원"}]},{"lat":"37.415912603","long":"126.91226428","items":[{"name":"하루","tel":"031-474-7014","addr":"경기도 안양시 만안구 석수동 183-21번지","category":"일반휴게음식 - 일반한식"}]},{"lat":"37.407691935","long":"126.89720678","items":[{"name":"하우슬로(HOWSLOW)","tel":"070-7781-5555","addr":"경기도 안양시 만안구 석수동 753-4번지","category":"가구 - 기타가구"}]},{"lat":"37.409828404","long":"126.90917672","items":[{"name":"한글자연에너지이름연구소","tel":"031-443-8889","addr":"경기도 안양시 만안구 석수동 299-5번지","category":"보건위생 - 기타대인서비스"}]},{"lat":"37.421521046","long":"126.90617975","items":[{"name":"한독(석수점)","tel":"","addr":"경기도 안양시 만안구 석수동 251-4번지","category":"의류 - 정장"}]},{"lat":"37.411055646","long":"126.91156982","items":[{"name":"한방전주콩나물국밥","tel":"031-318-1001","addr":"경기도 안양시 만안구 석수동 325-7번지","category":"일반휴게음식 - 일반한식"}]},{"lat":"37.408969023","long":"126.89461841","items":[{"name":"한밭신림","tel":"0331-473-9062","addr":"경기도 안양시 만안구 석수동 750-1번지 우진빌라","category":"음료식품 - 농·축·수산품"}]},{"lat":"37.418521958","long":"126.90773123","items":[{"name":"한솔","tel":"","addr":"경기도 안양시 만안구 석수동 263-1번지","category":"보건위생 - 화장품"}]},{"lat":"37.407298794","long":"126.90096851","items":[{"name":"한우리 독서논술","tel":"031-449-8624","addr":"경기도 안양시 만안구 석수동 788번지 석수아이파크","category":"회원제형태 - 학원"}]},{"lat":"37.406053706","long":"126.89901622","items":[{"name":"한울난방관리","tel":"031-471-8380","addr":"경기도 안양시 만안구 석수동 782-11번지 궁전빌라","category":"용역 서비스 - 기타용역서비스"}]},{"lat":"37.412658875","long":"126.91084495","items":[{"name":"한일상사","tel":"031-445-1026","addr":"경기도 안양시 만안구 석수동 320-30번지","category":"자동차판매 - 이륜차판매"}]},{"lat":"37.426239865","long":"126.90323628","items":[{"name":"합기도 검무관","tel":"031-474-1273","addr":"경기도 안양시 만안구 석수동 485-8번지 안양석수하우스토리아파트","category":"학원 - 예·체능계학원"}]},{"lat":"37.4178311","long":"126.91142603","items":[{"name":"해솔어린이집[아이행복]","tel":"031-473-4343","addr":"경기도 안양시 만안구 석수동 168-4번지 석수경남아너스빌","category":"학원 - 유아원"}]},{"lat":"37.416523427","long":"126.90986874","items":[{"name":"행거(HANGER)","tel":"","addr":"경기도 안양시 만안구 석수동 269-3번지","category":"의류 - 정장"}]},{"lat":"37.408024108","long":"126.89587351","items":[{"name":"행복나라 칼마트","tel":"","addr":"경기도 안양시 만안구 석수동 754-21번지","category":"수리서비스 - 기타수리서비스"}]},{"lat":"37.415584901","long":"126.90800605","items":[{"name":"행복한 가정 어린이집[아이행복]","tel":"031-472-0407","addr":"경기도 안양시 만안구 석수동 275-1번지 현대아파트","category":"학원 - 유아원"}]},{"lat":"37.415965087","long":"126.91023091","items":[{"name":"향림인삼","tel":"031-444-1514","addr":"경기도 안양시 만안구 석수동 269-26번지","category":"건강식품 - 인삼제품"}]},{"lat":"37.413729345","long":"126.90865225","items":[{"name":"헤라","tel":"031-474-8629","addr":"경기도 안양시 만안구 석수동 280-16번지 더파인타운","category":"신변잡화 - 기타잡화"}]},{"lat":"37.416271216","long":"126.90995943","items":[{"name":"헤어봄","tel":"070-8112-9326","addr":"경기도 안양시 만안구 석수동 269-12번지","category":"보건위생 - 미용원"}]},{"lat":"37.426338479","long":"126.90264867","items":[{"name":"헤어홀릭","tel":"031-471-1245","addr":"경기도 안양시 만안구 석수동 485-8번지 안양석수하우스토리아파트","category":"보건위생 - 미용원"}]},{"lat":"37.405801146","long":"126.89870032","items":[{"name":"헨리","tel":"031-474-9556","addr":"경기도 안양시 만안구 석수동 781-9번지","category":"의류 - 정장"},{"name":"희래네 애견미용실","tel":"031-346-1185","addr":"경기도 안양시 만안구 석수동 781-9번지","category":"문화.취미 - 애완동물"}]},{"lat":"37.406025908","long":"126.89814657","items":[{"name":"헬로우고기백화점","tel":"","addr":"경기도 안양시 만안구 석수동 780-14번지","category":"음료식품 - 정육점"}]},{"lat":"37.416522172","long":"126.90828727","items":[{"name":"현대사랑샘어린이집[아이행복]","tel":"031-342-1099","addr":"경기도 안양시 만안구 석수동 275-1번지 현대아파트","category":"학원 - 유아원"}]},{"lat":"37.417442238","long":"126.9095965","items":[{"name":"현대타이어","tel":"031-442-8204","addr":"경기도 안양시 만안구 석수동 268-26번지","category":"자동차정비 유지 - 자동차시트·타이어"}]},{"lat":"37.415999932","long":"126.90871718","items":[{"name":"현대해오름어린이집[아이행복]","tel":"031-341-6077","addr":"경기도 안양시 만안구 석수동 275-1번지 현대아파트","category":"학원 - 유아원"}]},{"lat":"37.43070816","long":"126.90242817","items":[{"name":"현진어린이집[아이행복]","tel":"031-472-3243","addr":"경기도 안양시 만안구 석수동 413-2번지 현진에버빌","category":"학원 - 유아원"}]},{"lat":"37.414191118","long":"126.91153212","items":[{"name":"현진유통","tel":"02-302-2984","addr":"경기도 안양시 만안구 석수동 271-57번지","category":"자동차정비 유지 - 자동차부품"}]},{"lat":"37.418991798","long":"126.92156898","items":[{"name":"협동조합스페이스크리오","tel":"070-4224-9711","addr":"경기도 안양시 만안구 석수동 820-3번지","category":"문화.취미 - 티켓"}]},{"lat":"37.410522331","long":"126.90936788","items":[{"name":"협진인테리어","tel":"031-472-0040","addr":"경기도 안양시 만안구 석수동 309-1번지","category":"직물 - 카페트,커튼,천막,지물"}]},{"lat":"37.415580237","long":"126.91358633","items":[{"name":"형제상회","tel":"031-474-3557","addr":"경기도 안양시 만안구 석수동 182-2번지 석수e-편한세상아파트","category":"회원제형태 - 기타1"}]},{"lat":"37.406799818","long":"126.89707249","items":[{"name":"홀릭슈즈(Holic Shoes)","tel":"031-347-1567","addr":"경기도 안양시 만안구 석수동 763-8번지 우성빌라","category":"신변잡화 - 신발"}]},{"lat":"37.410854885","long":"126.90833958","items":[{"name":"홈케어 나무","tel":"","addr":"경기도 안양시 만안구 석수동 302-9번지","category":"용역 서비스 - 종합용역"}]},{"lat":"37.42139065","long":"126.9121786","items":[{"name":"홈타운어린이집[아이행복]","tel":"031-472-9618","addr":"경기도 안양시 만안구 석수동 166번지 관악산현대홈타운","category":"학원 - 유아원"},{"name":"홈타운어린이집[아이행복]","tel":"031-472-9618","addr":"경기도 안양시 만안구 석수동 166번지 관악산현대홈타운","category":"학원 - 유아원"}]},{"lat":"37.412243081","long":"126.90915112","items":[{"name":"홍구기획","tel":"070-4237-1008","addr":"경기도 안양시 만안구 석수동 305-13번지","category":"회원제형태 - 기타4"}]},{"lat":"37.410856449","long":"126.91031627","items":[{"name":"홍어전문점","tel":"031-474-9201","addr":"경기도 안양시 만안구 석수동 309-10번지","category":"일반휴게음식 - 일반한식"}]},{"lat":"37.433746577","long":"126.90485336","items":[{"name":"화이트바스","tel":"031-473-5012","addr":"경기도 안양시 만안구 석수동 374-5번지 석수역푸르지오아파트","category":"회원제형태 - 기타4"}]},{"lat":"37.411775995","long":"126.91098158","items":[{"name":"화진가든","tel":"031-472-6262","addr":"경기도 안양시 만안구 석수동 320-14번지","category":"일반휴게음식 - 일반한식"}]},{"lat":"37.411914325","long":"126.90376356","items":[{"name":"화창초등학교","tel":"031-474-8982","addr":"경기도 안양시 만안구 석수동 348-7번지","category":"학원 - 초중고교육기관"}]},{"lat":"37.411493937","long":"126.90751421","items":[{"name":"화창태권도장","tel":"031-472-3493","addr":"경기도 안양시 만안구 석수동 304-2번지","category":"학원 - 예·체능계학원"}]},{"lat":"37.418575543","long":"126.93284338","items":[{"name":"황제백숙","tel":"031-471-2344","addr":"경기도 안양시 만안구 석수동 843-1번지","category":"일반휴게음식 - 일반한식"}]},{"lat":"37.423608135","long":"126.91350901","items":[{"name":"황토","tel":"031-473-7700","addr":"경기도 안양시 만안구 석수동 156-3번지","category":"일반휴게음식 - 일반한식"}]},{"lat":"37.411468983","long":"126.9101235","items":[{"name":"희경헤어필","tel":"031-474-9112","addr":"경기도 안양시 만안구 석수동","category":"보건위생 - 미용원"}]}]