[{"lat":"37.313309334","long":"126.61270326","items":[{"name":"(주)대청산업개발 시화조력문화관휴게소","tel":"031-509-4941","addr":"경기도 안산시 단원구 대부동동 2098번지","category":"음료식품 - 기타음료식품"}]},{"lat":"37.239404881","long":"126.6174008","items":[{"name":"(주)우이당","tel":"031-403-2131","addr":"경기도 안산시 단원구 대부동동 85-1번지","category":"음료식품 - 기타음료식품"}]},{"lat":"37.239150097","long":"126.60573801","items":[{"name":"26호까치할머니(본관)","tel":"032-886-0334","addr":"경기도 안산시 단원구 대부동동 578-2번지 힐하우스모텔 1층","category":"일반휴게음식 - 일반한식"}]},{"lat":"37.230732905","long":"126.60526382","items":[{"name":"K1한국바다낚시터","tel":"032-887-1555","addr":"경기도 안산시 단원구 대부동동 643-12번지","category":"레저업소 - 기타레져업소"},{"name":"케이3","tel":"032-885-5225","addr":"경기도 안산시 단원구 대부동동 643-12번지","category":"레져용품 - 스포츠·레져용품"}]},{"lat":"37.241702279","long":"126.59318109","items":[{"name":"가보고싶은집","tel":"032-891-2007","addr":"경기도 안산시 단원구 대부동동 1525번지 1층","category":"일반휴게음식 - 일반한식"}]},{"lat":"37.2417022790","long":"126.5931810903","items":[{"name":"가보고싶은집","tel":"032-891-2007","addr":"경기도 안산시 단원구 대부동동 1525번지","category":"숙박 및 음식점업 - 한식"}]},{"lat":"37.238320081","long":"126.61082492","items":[{"name":"구워구워치킨","tel":"031-885-0233","addr":"경기도 안산시 단원구 대부동동 200-4번지","category":"일반휴게음식 - 스넥"}]},{"lat":"37.241400244","long":"126.58923823","items":[{"name":"군자농협대부경제사업소","tel":"032-886-6100","addr":"경기도 안산시 단원구 대부동동 1490-2번지","category":"농업 - 비료,사료,종자"}]},{"lat":"37.246262634","long":"126.59613187","items":[{"name":"군자농협대부포도직거래판매점","tel":"032-886-6097","addr":"경기도 안산시 단원구 대부동동 1001-3번지","category":"음료식품 - 농·축·수산품"}]},{"lat":"37.24273178","long":"126.6180488","items":[{"name":"그랜비 캐터리","tel":"","addr":"경기도 안산시 단원구 대부동동 34-9번지","category":"문화.취미 - 애완동물"}]},{"lat":"37.245039052","long":"126.59404213","items":[{"name":"그린노래연습장","tel":"070-4176-5036","addr":"경기도 안산시 단원구 대부동동 1375번지 1층 대부북동","category":"레저업소 - 노 래 방"}]},{"lat":"37.241229341","long":"126.59191015","items":[{"name":"김가네","tel":"032-884-8255","addr":"경기도 안산시 단원구 대부동동 1517번지","category":"주방용구 - 정수기"}]},{"lat":"37.23851004","long":"126.61104933","items":[{"name":"김민국마늘곱창","tel":"032-887-9900","addr":"경기도 안산시 단원구 대부동동 198-7번지 1층","category":"일반휴게음식 - 일반한식"}]},{"lat":"37.2381769261","long":"126.6111299403","items":[{"name":"김여사네 칼국수","tel":"032-886-2139","addr":"경기도 안산시 단원구 대부동동 200-3번지","category":"숙박 및 음식점업 - 한식"}]},{"lat":"37.238176926","long":"126.61112994","items":[{"name":"김여사네칼국수","tel":"032-886-2139","addr":"경기도 안산시 단원구 대부동동 200-3번지 2층","category":"일반휴게음식 - 일반한식"}]},{"lat":"37.2402313720","long":"126.6030726676","items":[{"name":"꽃이야기카페","tel":"","addr":"경기도 안산시 단원구 대부동동 568-5번지","category":"숙박 및 음식점업 - 기타음식,수공예"}]},{"lat":"37.240231372","long":"126.60307267","items":[{"name":"꽃이야기카페","tel":"001-0000-0000","addr":"경기도 안산시 단원구 대부동동 568-5번지","category":"일반휴게음식 - 서양음식"},{"name":"은행나무집","tel":"032-887-8859","addr":"경기도 안산시 단원구 대부동동 568-5번지","category":"일반휴게음식 - 일반한식"}]},{"lat":"37.240063827","long":"126.60415545","items":[{"name":"나무숲","tel":"032-890-4297","addr":"경기도 안산시 단원구 대부동동 571-4번지","category":"건축자재 - 인테리어전문"},{"name":"애터샵","tel":"032-880-0586","addr":"경기도 안산시 단원구 대부동동 571-4번지 2층","category":"보건위생 - 피부미용실"}]},{"lat":"37.238264895","long":"126.61321435","items":[{"name":"난갤러리","tel":"032-888-8226","addr":"경기도 안산시 단원구 대부동동 99-14번지","category":"문화.취미 - 화랑"}]},{"lat":"37.236126737","long":"126.58852328","items":[{"name":"농업회사법인 주식회사 새로미","tel":"032-809-4151","addr":"경기도 안산시 단원구 대부동동 1567-70번지","category":"문화.취미 - 화원"}]},{"lat":"37.250763693","long":"126.59757295","items":[{"name":"뉴현대자동차운전학원","tel":"031-1566-8379","addr":"경기도 안산시 단원구 대부동동 1210-3번지","category":"회원제형태 - 학원"}]},{"lat":"37.2374597564","long":"126.6177375170","items":[{"name":"니네집가자","tel":"032-883-2505","addr":"경기도 안산시 단원구 대부동동 123-6번지","category":"숙박 및 음식점업 - 한식"}]},{"lat":"37.237459756","long":"126.61773752","items":[{"name":"니네집가자","tel":"032-883-2505","addr":"경기도 안산시 단원구 대부동동 123-6번지 1층","category":"일반휴게음식 - 일반한식"}]},{"lat":"37.239038911","long":"126.60482576","items":[{"name":"다옴능이백숙","tel":"","addr":"경기도 안산시 단원구 대부동동 575-2번지 1층","category":"일반휴게음식 - 일반한식"}]},{"lat":"37.240233919","long":"126.60382773","items":[{"name":"달맞이유통","tel":"032-883-6073","addr":"경기도 안산시 단원구 대부동동 571-1번지","category":"음료식품 - 기타음료식품"},{"name":"유성관","tel":"032-887-6453","addr":"경기도 안산시 단원구 대부동동 571-1번지","category":"일반휴게음식 - 일반한식"}]},{"lat":"37.240924385","long":"126.60018391","items":[{"name":"대동초등학교","tel":"031-886-9485","addr":"경기도 안산시 단원구 대부동동 838번지 대동초등학교","category":"학원 - 초중고교육기관"},{"name":"대동초병설유치원[아이행복]","tel":"032-886-9485","addr":"경기도 안산시 단원구 대부동동 838번지 대동초등학교","category":"학원 - 유치원"}]},{"lat":"37.247874309","long":"126.59318149","items":[{"name":"대부공업사","tel":"032-886-2336","addr":"경기도 안산시 단원구 대부동동 1256-2번지","category":"용역 서비스 - 종합용역"}]},{"lat":"37.23920415","long":"126.60843118","items":[{"name":"대부과일","tel":"031-5686-4882","addr":"경기도 안산시 단원구 대부동동 221-4번지 (외222-6번지)","category":"음료식품 - 농·축·수산품"}]},{"lat":"37.241153235","long":"126.60124207","items":[{"name":"대부과일","tel":"","addr":"경기도 안산시 단원구 대부동동 555-3번지","category":"음료식품 - 농·축·수산품"},{"name":"대부과일","tel":"070-8943-3642","addr":"경기도 안산시 단원구 대부동동 555-3번지","category":"음료식품 - 농·축·수산품"},{"name":"오구옛날통닭","tel":"032-887-3975","addr":"경기도 안산시 단원구 대부동동 555-3번지 1층","category":"일반휴게음식 - 일반한식"}]},{"lat":"37.23895503","long":"126.61484489","items":[{"name":"대부도로이팜농원","tel":"070-4415-7531","addr":"경기도 안산시 단원구 대부동동 94-4번지","category":"회원제형태 - 기타1"}]},{"lat":"37.236238324","long":"126.58951436","items":[{"name":"대부도수산","tel":"032-887-6625","addr":"경기도 안산시 단원구 대부동동 1567-77번지","category":"음료식품 - 농·축·수산품"}]},{"lat":"37.24331612","long":"126.59871732","items":[{"name":"대부버섯농원","tel":"032-886-7292","addr":"경기도 안산시 단원구 대부동동 859-1","category":"음료식품 - 농·축·수산품"}]},{"lat":"37.241069859","long":"126.59009655","items":[{"name":"대부수산","tel":"032-885-9996","addr":"경기도 안산시 단원구 대부동동 1492-1번지 대한아트빌 401호","category":"음료식품 - 농·축·수산품"}]},{"lat":"37.2394849824","long":"126.6061870449","items":[{"name":"대부종합건재","tel":"032-886-1803","addr":"경기도 안산시 단원구 대부동동 576-1번지","category":"도매 및 소매업 - 철물,건재,목재"}]},{"lat":"37.239484982","long":"126.60618704","items":[{"name":"대부종합건재","tel":"032-886-1803","addr":"경기도 안산시 단원구 대부동동 576-1번지","category":"기타 - 기계공구"}]},{"lat":"37.2412063402","long":"126.6009600377","items":[{"name":"대정식당","tel":"032-882-9400","addr":"경기도 안산시 단원구 대부동동 556-2번지","category":"숙박 및 음식점업 - 한식"},{"name":"엔씨마트 대부도점","tel":"032-888-8391","addr":"경기도 안산시 단원구 대부동동 556-2번지","category":"도매 및 소매업 - 슈퍼"}]},{"lat":"37.24078596","long":"126.60187513","items":[{"name":"대현자동자정비","tel":"031-882-2963","addr":"경기도 안산시 단원구 대부동동 551-4번지","category":"자동차정비 유지 - 자동차정비"}]},{"lat":"37.249479059","long":"126.59085094","items":[{"name":"대흥레저","tel":"032-882-7701","addr":"경기도 안산시 단원구 대부동동 1252-1번지","category":"레져용품 - 스포츠·레져용품"}]},{"lat":"37.24453521","long":"126.59687373","items":[{"name":"돈통마늘보쌈(대부도점)","tel":"032-887-5382","addr":"경기도 안산시 단원구 대부동동 942-1번지 1층","category":"일반휴게음식 - 일반한식"}]},{"lat":"37.2411474984","long":"126.6185189205","items":[{"name":"동동알라딘펜션","tel":"032-888-5316","addr":"경기도 안산시 단원구 대부동동 37-2번지","category":"숙박 및 음식점업 - 전대"}]},{"lat":"37.241039999","long":"126.61871106","items":[{"name":"동림테크","tel":"032-885-2781","addr":"경기도 안산시 단원구 대부동동 37-3번지","category":"용역 서비스 - 기타용역서비스"}]},{"lat":"37.238401785","long":"126.60026495","items":[{"name":"동주염전","tel":"070-8882-9902","addr":"경기도 안산시 단원구 대부동동 657","category":"회원제형태 - 기타4"}]},{"lat":"37.233544534","long":"126.60271357","items":[{"name":"동주염전영어조합법인","tel":"032-886-0900","addr":"경기도 안산시 단원구 대부동동 산 253","category":"음료식품 - 기타음료식품"}]},{"lat":"37.236452376","long":"126.62106707","items":[{"name":"동환네","tel":"032-886-6464","addr":"경기도 안산시 단원구 대부동동 79-65번지","category":"음료식품 - 농·축·수산품"},{"name":"바다수산","tel":"032-886-3737","addr":"경기도 안산시 단원구 대부동동 79-65번지 바다횟집 1층 113호","category":"음료식품 - 농·축·수산품"},{"name":"바다수산","tel":"032-886-3737","addr":"경기도 안산시 단원구 대부동동 79-65번지 바다횟집 13호","category":"일반휴게음식 - 일반한식"}]},{"lat":"37.238679553","long":"126.61054132","items":[{"name":"두루두루","tel":"032-888-2672","addr":"경기도 안산시 단원구 대부동동 198-1번지 1층","category":"일반휴게음식 - 일반한식"},{"name":"임가네추어탕","tel":"032-886-5869","addr":"경기도 안산시 단원구 대부동동 198-1번지","category":"일반휴게음식 - 일반한식"}]},{"lat":"37.2386795530","long":"126.6105413214","items":[{"name":"두루두루","tel":"032-888-2672","addr":"경기도 안산시 단원구 대부동동 198-1번지","category":"숙박 및 음식점업 - 일반음식점"}]},{"lat":"37.239176183","long":"126.60545614","items":[{"name":"똘이네회집","tel":"032-886-2666","addr":"경기도 안산시 단원구 대부동동 577번지 1층","category":"일반휴게음식 - 일식·회집"}]},{"lat":"37.239008964","long":"126.60934503","items":[{"name":"명동노래연습장","tel":"032-882-4448","addr":"경기도 안산시 단원구 대부동동 222-1번지 2층","category":"레저업소 - 노 래 방"},{"name":"월드24시마트","tel":"032-882-7011","addr":"경기도 안산시 단원구 대부동동 222-1번지 101호","category":"유통업 영리 - 슈퍼마켓"}]},{"lat":"37.238234663","long":"126.61498381","items":[{"name":"목포산낙지","tel":"031-882-7974","addr":"경기도 안산시 단원구 대부동동 100-9번지","category":"일반휴게음식 - 일반한식"}]},{"lat":"37.2412083134","long":"126.5884616571","items":[{"name":"바다향기","tel":"032-886-6570","addr":"경기도 안산시 단원구 대부동동 1704-3번지","category":"숙박 및 음식점업 - 건강원"}]},{"lat":"37.242373192","long":"126.59438336","items":[{"name":"바다향기대부포도농장","tel":"032-886-1421","addr":"경기도 안산시 단원구 대부동동 1424-2번지","category":"음료식품 - 농·축·수산품"}]},{"lat":"37.246841032","long":"126.59402112","items":[{"name":"반바우 다육","tel":"032-886-0559","addr":"경기도 안산시 단원구 대부동동 1395-2번지","category":"문화.취미 - 화원"},{"name":"전통옹기마당","tel":"032-886-0559","addr":"경기도 안산시 단원구 대부동동 1395-2번지","category":"건축자재 - 유리"}]},{"lat":"37.238402122","long":"126.61384473","items":[{"name":"버섯생농장","tel":"032-888-0045","addr":"경기도 안산시 단원구 대부동동 99-9번지 1층","category":"일반휴게음식 - 일반한식"}]},{"lat":"37.2384021220","long":"126.6138447328","items":[{"name":"버섯생농장","tel":"032-888-0045","addr":"경기도 안산시 단원구 대부동동 99-9번지","category":"숙박 및 음식점업 - 한식"}]},{"lat":"37.241979311","long":"126.58735297","items":[{"name":"비비큐치킨","tel":"032-886-1166","addr":"경기도 안산시 단원구 대부동동 1720-1번지 1층 일부","category":"일반휴게음식 - 스넥"},{"name":"천연담배","tel":"032-890-4109","addr":"경기도 안산시 단원구 대부동동 1720-1번지 101호","category":"음료식품 - 기타음료식품"}]},{"lat":"37.23818024","long":"126.61213291","items":[{"name":"뿌리칼국수","tel":"032-883-0871","addr":"경기도 안산시 단원구 대부동동 110-1번지","category":"일반휴게음식 - 일반한식"}]},{"lat":"37.246007309","long":"126.60051753","items":[{"name":"산속에토종닭","tel":"031-886-1338","addr":"경기도 안산시 단원구 대부동동 914번지 1층","category":"일반휴게음식 - 일반한식"}]},{"lat":"37.238071199","long":"126.61735124","items":[{"name":"서래가든","tel":"032-886-4842","addr":"경기도 안산시 단원구 대부동동 81-29번지","category":"일반휴게음식 - 일반한식"},{"name":"서래가든","tel":"031-886-4842","addr":"경기도 안산시 단원구 대부동동 81-29번지","category":"일반휴게음식 - 일반한식"}]},{"lat":"37.2380711985","long":"126.6173512438","items":[{"name":"서래가든","tel":"032-886-4842","addr":"경기도 안산시 단원구 대부동동 81-29번지","category":"숙박 및 음식점업 - 한식"}]},{"lat":"37.23698123","long":"126.61743568","items":[{"name":"세종도예원","tel":"032-325-6699","addr":"경기도 안산시 단원구 대부동동 123-16번지 101호","category":"학원 - 기타 교육기관"}]},{"lat":"37.23893163","long":"126.60776769","items":[{"name":"소정세탁소","tel":"032-884-9597","addr":"경기도 안산시 단원구 대부동동 215-18번지","category":"수리서비스 - 세탁소"}]},{"lat":"37.247234983","long":"126.59329766","items":[{"name":"소풍","tel":"031-887-6671","addr":"경기도 안산시 단원구 대부동동 1391번지","category":"일반휴게음식 - 일반한식"}]},{"lat":"37.238870588","long":"126.60837657","items":[{"name":"승지농원","tel":"032-881-1851","addr":"경기도 안산시 단원구 대부동동 216-3","category":"문화.취미 - 화원"}]},{"lat":"37.23526519","long":"126.61618228","items":[{"name":"시흥,안산대동대리점","tel":"032-883-5205","addr":"경기도 안산시 단원구 대부동동 123-5번지","category":"농업 - 농기계"}]},{"lat":"37.243067819","long":"126.58943199","items":[{"name":"신일유압기계","tel":"032-886-9684","addr":"경기도 안산시 단원구 대부동동 1683-3번지","category":"기타 - 기계공구"}]},{"lat":"37.249401728","long":"126.59193339","items":[{"name":"씨엘관광농원","tel":"032-881-0750","addr":"경기도 안산시 단원구 대부동동 1241번지","category":"음료식품 - 기타음료식품"}]},{"lat":"37.24120634","long":"126.60096004","items":[{"name":"씨유대부황금점","tel":"080-080-3663","addr":"경기도 안산시 단원구 대부동동 556-2번지 103호","category":"유통업 영리 - 편 의 점"},{"name":"엔씨마트 대부도점","tel":"032-888-8391","addr":"경기도 안산시 단원구 대부동동 556-2번지 103호","category":"유통업 영리 - 슈퍼마켓"}]},{"lat":"37.233873068","long":"126.58820882","items":[{"name":"씨티가든","tel":"032-887-0500","addr":"경기도 안산시 단원구 대부동동 1567-162번지 1층","category":"일반휴게음식 - 일반한식"}]},{"lat":"37.242511045","long":"126.60043468","items":[{"name":"아름다운 요양원","tel":"032-881-0605","addr":"경기도 안산시 단원구 대부동동 853번지","category":"기타의료기관 - 기타의료기관 및 기타"}]},{"lat":"37.242596518","long":"126.61801568","items":[{"name":"아모레","tel":"031-407-9722","addr":"경기도 안산시 단원구 대부동동 34-10번지","category":"보건위생 - 화장품"}]},{"lat":"37.253014228","long":"126.61307077","items":[{"name":"안산건강원","tel":"032-529-2626","addr":"경기도 안산시 단원구 대부동동 348-2번지","category":"건강식품 - 기타건강식품"}]},{"lat":"37.247065505","long":"126.59379449","items":[{"name":"엉터리다육이","tel":"032-884-3943","addr":"경기도 안산시 단원구 대부동동 1394-2번지","category":"문화.취미 - 화원"}]},{"lat":"37.241009723","long":"126.60143442","items":[{"name":"에코앤씨","tel":"032-880-0589","addr":"경기도 안산시 단원구 대부동동 554-3번지","category":"건축자재 - 인테리어전문"}]},{"lat":"37.239427562","long":"126.6078778","items":[{"name":"여러분칼국수","tel":"032-882-1250","addr":"경기도 안산시 단원구 대부동동 220-3번지 1층","category":"일반휴게음식 - 일반한식"},{"name":"여러분칼국수","tel":"032-882-1250","addr":"경기도 안산시 단원구 대부동동 220-3번지 1층","category":"일반휴게음식 - 일반한식"}]},{"lat":"37.240652877","long":"126.62159811","items":[{"name":"오딧세이","tel":"032-886-2233","addr":"경기도 안산시 단원구 대부동동 68-3번지","category":"음료식품 - 농·축·수산품"}]},{"lat":"37.242177456","long":"126.5951057","items":[{"name":"와인 앤","tel":"","addr":"경기도 안산시 단원구 대부동동 1425-1번지","category":"음료식품 - 주류 판매점"},{"name":"카페디썸","tel":"032-890-4203","addr":"경기도 안산시 단원구 대부동동 1425-1번지","category":"일반휴게음식 - 서양음식"}]},{"lat":"37.241288927","long":"126.5909068","items":[{"name":"윤헤어","tel":"031-000-0000","addr":"경기도 안산시 단원구 대부동동 1474-1번지 1층 일부호","category":"보건위생 - 미용원"}]},{"lat":"37.248090006","long":"126.59302253","items":[{"name":"장수보신탕","tel":"032-881-6668","addr":"경기도 안산시 단원구 대부동동 1255-5번지 1층","category":"일반휴게음식 - 일반한식"}]},{"lat":"37.241071233","long":"126.59049099","items":[{"name":"장수포도즙건강원","tel":"032-888-1824","addr":"경기도 안산시 단원구 대부동동 1476-1번지","category":"음료식품 - 기타음료식품"}]},{"lat":"37.243123732","long":"126.60043143","items":[{"name":"제로갤러리","tel":"070-8654-3308","addr":"경기도 안산시 단원구 대부동동 산189-16번지","category":"문화.취미 - 화랑"}]},{"lat":"37.239455356","long":"126.61081904","items":[{"name":"주식회사 대부도아일랜드 골프연습장","tel":"032-880-2055","addr":"경기도 안산시 단원구 대부동동 198-19번지","category":"레저업소 - 골프연습장"},{"name":"준인터네셔날","tel":"032-886-0055","addr":"경기도 안산시 단원구 대부동동 198-19번지","category":"레저업소 - 골프연습장"}]},{"lat":"37.2362383239","long":"126.5895143611","items":[{"name":"주식회사 대부도펜션시티","tel":"","addr":"경기도 안산시 단원구 대부동동 1567-77번지","category":"예술, 스포츠 및 여가관련 서비스업"},{"name":"펜션마트","tel":"1577-0616","addr":"경기도 안산시 단원구 대부동동 1567-77번지","category":"도매 및 소매업 - 슈퍼마켓"}]},{"lat":"37.2380917924","long":"126.6153789781","items":[{"name":"주식회사농협회사법인상록수된장마을","tel":"032-888-0706","addr":"경기도 안산시 단원구 대부동동 81-45번지","category":"도매 및 소매업 - 장류"}]},{"lat":"37.247815288","long":"126.59435399","items":[{"name":"주식회사디망","tel":"032-880-2009","addr":"경기도 안산시 단원구 대부동동 1230-2번지","category":"음료식품 - 제과점"}]},{"lat":"37.238735423","long":"126.61382048","items":[{"name":"진짜원조소나무집","tel":"032-886-2450","addr":"경기도 안산시 단원구 대부동동 96-10번지","category":"일반휴게음식 - 일반한식"}]},{"lat":"37.2382929265","long":"126.6135184779","items":[{"name":"진천토종순대국","tel":"032-888-5551","addr":"경기도 안산시 단원구 대부동동 99-7번지","category":"숙박 및 음식점업 - 한식"}]},{"lat":"37.238292927","long":"126.61351848","items":[{"name":"진천토종순대국","tel":"032-888-5551","addr":"경기도 안산시 단원구 대부동동 99-7번지 1층","category":"일반휴게음식 - 일반한식"}]},{"lat":"37.241042396","long":"126.60310219","items":[{"name":"청기와또오리","tel":"032-888-5289","addr":"경기도 안산시 단원구 대부동동 570-4번지","category":"일반휴게음식 - 일반한식"}]},{"lat":"37.253009023","long":"126.61149276","items":[{"name":"청원카페","tel":"","addr":"경기도 안산시 단원구 대부동동 346-4번지 1층","category":"일반휴게음식 - 서양음식"}]},{"lat":"37.24637239","long":"126.59398984","items":[{"name":"초가정","tel":"032-887-2020","addr":"경기도 안산시 단원구 대부동동 1386-2번지","category":"일반휴게음식 - 일반한식"}]},{"lat":"37.2409324984","long":"126.6189031893","items":[{"name":"콘서트","tel":"","addr":"경기도 안산시 단원구 대부동동 37-4번지","category":"숙박 및 음식점업 - 펜션"}]},{"lat":"37.243621276","long":"126.61451667","items":[{"name":"타임중공업","tel":"032-880-9986","addr":"경기도 안산시 단원구 대부동동 255-4번지","category":"자동차판매 - 기타운송"}]},{"lat":"37.236147279","long":"126.5892444","items":[{"name":"펜션마트","tel":"032-886-4647","addr":"경기도 안산시 단원구 대부동동 1567-81번지","category":"유통업 영리 - 슈퍼마켓"}]},{"lat":"37.238817353","long":"126.60862478","items":[{"name":"프로방스","tel":"031-883-3393","addr":"경기도 안산시 단원구 대부동동 216-2번지","category":"의류 - 정장"}]},{"lat":"37.231932942","long":"126.60845779","items":[{"name":"하늘바다낚시터","tel":"032-888-6662","addr":"경기도 안산시 단원구 대부동동 643-9번지","category":"레저업소 - 기타레져업소"}]},{"lat":"37.245679469","long":"126.59424154","items":[{"name":"한우전자상사","tel":"02-2273-8121","addr":"경기도 안산시 단원구 대부동동 1380번지","category":"기타 - 기타 전문점"}]},{"lat":"37.2473753873","long":"126.5948184677","items":[{"name":"한우타운황금목장","tel":"","addr":"경기도 안산시 단원구 대부동동 1229-7번지","category":"숙박 및 음식점업 - 한식"},{"name":"황금목장","tel":"","addr":"경기도 안산시 단원구 대부동동 1229-7번지","category":"도매 및 소매업 - 식육"}]},{"lat":"37.247375387","long":"126.59481847","items":[{"name":"한우타운황금목장","tel":"031-882-0600","addr":"경기도 안산시 단원구 대부동동 1229-7번지 102호","category":"일반휴게음식 - 일반한식"},{"name":"황금목장","tel":"032-882-0600","addr":"경기도 안산시 단원구 대부동동 1229-7번지","category":"음료식품 - 정육점"}]},{"lat":"37.2413445101","long":"126.6018496316","items":[{"name":"할머니소머리국밥&속초코다리냉면","tel":"032-888-9869","addr":"경기도 안산시 단원구 대부동동 515-4번지","category":"숙박 및 음식점업 - 한식"}]},{"lat":"37.24134451","long":"126.60184963","items":[{"name":"할머니소머리국밥&속초코다리냉면","tel":"032-888-9869","addr":"경기도 안산시 단원구 대부동동 515-4번지","category":"일반휴게음식 - 일반한식"}]},{"lat":"37.237204352","long":"126.62234798","items":[{"name":"해송수산","tel":"032-882-8477","addr":"경기도 안산시 단원구 대부동동 74-11","category":"음료식품 - 농·축·수산품"}]},{"lat":"37.241791364","long":"126.58771464","items":[{"name":"화정식당","tel":"032-883-3007","addr":"경기도 안산시 단원구 대부동동 1719-1번지 1층","category":"일반휴게음식 - 일반한식"}]},{"lat":"37.2417913641","long":"126.5877146430","items":[{"name":"화정식당","tel":"032-883-3007","addr":"경기도 안산시 단원구 대부동동 1719-1번지","category":"숙박 및 음식점업 - 한식"}]},{"lat":"37.243595685","long":"126.59354276","items":[{"name":"화평진흙구이","tel":"032-888-9252","addr":"경기도 안산시 단원구 대부동동 1421-4번지 1층","category":"일반휴게음식 - 일반한식"}]},{"lat":"37.240929931","long":"126.60181802","items":[{"name":"흑룡강","tel":"032-886-0485","addr":"경기도 안산시 단원구 대부동동 551-3번지","category":"일반휴게음식 - 중국식"}]},{"lat":"37.249066829","long":"126.59149564","items":[{"name":"힘센장어","tel":"032-886-9918","addr":"경기도 안산시 단원구 대부동동 1252-4번지","category":"일반휴게음식 - 일반한식"}]}]