[{"lat":"37.522499355","long":"127.61144113","items":[{"name":"(주)이음커뮤니케이션","tel":"031-000-0000","addr":"경기도 양평군 용문면 조현리 190-2번지","category":"가구 - 일반가구"}]},{"lat":"37.514555826","long":"127.60379837","items":[{"name":"GS25양평용문진점","tel":"","addr":"경기도 양평군 용문면 조현리 513-2번지","category":"유통업 영리 - 편 의 점"},{"name":"본스치킨","tel":"031-774-1400","addr":"경기도 양평군 용문면 조현리 513-2번지 1층","category":"일반휴게음식 - 스넥"},{"name":"비아지오베이커리/주식회사 벗","tel":"031-774-7212","addr":"경기도 양평군 용문면 조현리 513-2번지 102호","category":"음료식품 - 제과점"}]},{"lat":"37.524610062","long":"127.60921843","items":[{"name":"가온들참빛 교육농장","tel":"031-771-7630","addr":"경기도 양평군 용문면 조현리 346번지","category":"학원 - 기타 교육기관"}]},{"lat":"37.524242721","long":"127.60352537","items":[{"name":"고래이야기","tel":"031-771-7863","addr":"경기도 양평군 용문면 조현리 448-19번지 1층","category":"서적문구 - 일반서적"}]},{"lat":"37.51705001","long":"127.60232529","items":[{"name":"뉘뫼주","tel":"031-773-9166","addr":"경기도 양평군 용문면 조현리 496-2번지","category":"일반휴게음식 - 일반한식"}]},{"lat":"37.526687367","long":"127.6238512","items":[{"name":"느티나무 펜션","tel":"031-774-7106","addr":"경기도 양평군 용문면 조현리 4번지","category":"숙박업 - 여관/기타숙박업"},{"name":"느티나무펜션","tel":"031-774-7106","addr":"경기도 양평군 용문면 조현리 4","category":"숙박업 - 여관/기타숙박업"}]},{"lat":"37.526852449","long":"127.62329825","items":[{"name":"로그인 조현스토리","tel":"","addr":"경기도 양평군 용문면 조현리 6-2번지","category":"유통업 영리 - 슈퍼마켓"},{"name":"마루 조현스토리","tel":"031-774-4409","addr":"경기도 양평군 용문면 조현리 6-2번지 1-2층","category":"일반휴게음식 - 서양음식"}]},{"lat":"37.520273064","long":"127.61335735","items":[{"name":"세븐일레븐양평조현리점","tel":"031-1577-0711","addr":"경기도 양평군 용문면 조현리 208-2번지","category":"유통업 영리 - 편 의 점"},{"name":"아이지에이(IGA) 마트 용문점","tel":"","addr":"경기도 양평군 용문면 조현리 208-2번지","category":"유통업 영리 - 편 의 점"}]},{"lat":"37.519770105","long":"127.6024941","items":[{"name":"양평군블루베리협동조합","tel":"031-774-8922","addr":"경기도 양평군 용문면 조현리 497-5번지","category":"음료식품 - 농·축·수산품"},{"name":"용문산블루베리","tel":"031-774-8922","addr":"경기도 양평군 용문면 조현리 497-5번지","category":"음료식품 - 농·축·수산품"}]},{"lat":"37.523495654","long":"127.60691304","items":[{"name":"온새미로365체험농장","tel":"031-772-3457","addr":"경기도 양평군 용문면 조현리 334-2호","category":"학원 - 기타 교육기관"}]},{"lat":"37.526912304","long":"127.62390963","items":[{"name":"조현스토리 마루","tel":"031-775-1109","addr":"경기도 양평군 용문면 조현리 6번지","category":"숙박업 - 여관/기타숙박업"}]},{"lat":"37.522665858","long":"127.61583156","items":[{"name":"조현초등학교","tel":"031-772-4944","addr":"경기도 양평군 용문면 조현리 174-1번지 조현초등학교","category":"학원 - 초중고교육기관"},{"name":"조현초병설유치원[아이행복]","tel":"031-774-2934","addr":"경기도 양평군 용문면 조현리 174-1번지 조현초등학교","category":"학원 - 유치원"}]},{"lat":"37.514888196","long":"127.60399332","items":[{"name":"촌장골","tel":"031-774-0566","addr":"경기도 양평군 용문면 조현리 513-7번지","category":"일반휴게음식 - 일반한식"}]},{"lat":"37.517908716","long":"127.6017779","items":[{"name":"핏제리아 루카","tel":"031-772-3589","addr":"경기도 양평군 용문면 조현리 497-4번지 1층","category":"일반휴게음식 - 일반한식"}]}]