[{"lat":"37.285371657","long":"127.0128956","items":[{"name":"13월봄","tel":"","addr":"경기도 수원시 팔달구 장안동 283번지 1층","category":"의류 - 정장"},{"name":"라 발랑스 플라워","tel":"070-8879-7427","addr":"경기도 수원시 팔달구 장안동 283번지","category":"문화.취미 - 화원"},{"name":"리코드엠(record:M)","tel":"","addr":"경기도 수원시 팔달구 장안동 283번지","category":"신변잡화 - 액세서리"},{"name":"이누네꼬야","tel":"070-4064-0124","addr":"경기도 수원시 팔달구 장안동 283번지 1층","category":"문화.취미 - 애완동물"}]},{"lat":"37.285731907","long":"127.01464353","items":[{"name":"awot","tel":"031-258-2248","addr":"경기도 수원시 팔달구 장안동 78-6번지","category":"의류 - 정장"},{"name":"꽃담공방","tel":"031-204-8628","addr":"경기도 수원시 팔달구 장안동 78-6번지 1층","category":"문화.취미 - 민예·공예품"},{"name":"나이스","tel":"031-207-2674","addr":"경기도 수원시 팔달구 장안동 78-6번지","category":"일반휴게음식 - 일반한식"}]},{"lat":"37.286597057","long":"127.01283938","items":[{"name":"가배당","tel":"031-0000-0000","addr":"경기도 수원시 팔달구 장안동 89-1번지 101호","category":"일반휴게음식 - 서양음식"},{"name":"마르멜로(MARMELO)","tel":"031-256-9653","addr":"경기도 수원시 팔달구 장안동 89-1번지 102호","category":"문화.취미 - 문화취미기타"},{"name":"에어홀피자","tel":"","addr":"경기도 수원시 팔달구 장안동 89-1번지 2층","category":"일반휴게음식 - 서양음식"}]},{"lat":"37.285704893","long":"127.01447437","items":[{"name":"가이아","tel":"","addr":"경기도 수원시 팔달구 장안동 78-5번지 1층","category":"의류 - 정장"},{"name":"누리촌","tel":"031-296-6741","addr":"경기도 수원시 팔달구 장안동 78-5번지","category":"일반휴게음식 - 일반한식"},{"name":"러블리 몬스터","tel":"031-247-5045","addr":"경기도 수원시 팔달구 장안동 78-5번지","category":"문화.취미 - 화원"},{"name":"바늘공작소","tel":"070-4401-0122","addr":"경기도 수원시 팔달구 장안동 78-5번지","category":"문화.취미 - 문화취미기타"},{"name":"소요","tel":"031-223-5214","addr":"경기도 수원시 팔달구 장안동 78-5번지","category":"문화.취미 - 문화취미기타"}]},{"lat":"37.2879305","long":"127.0136966","items":[{"name":"개풍상사","tel":"031-255-4305","addr":"경기도 수원시 팔달구 장안동 22-2번지","category":"자동차정비 유지 - 자동차부품"},{"name":"달달창고","tel":"031-252-5770","addr":"경기도 수원시 팔달구 장안동 22-2번지 1층","category":"일반휴게음식 - 일반한식"}]},{"lat":"37.287038558","long":"127.01286199","items":[{"name":"건영마트","tel":"031-258-9162","addr":"경기도 수원시 팔달구 장안동 27-6번지 칠성연립","category":"유통업 영리 - 슈퍼마켓"}]},{"lat":"37.285461834","long":"127.01197093","items":[{"name":"경안당","tel":"","addr":"경기도 수원시 팔달구 장안동 124번지","category":"일반휴게음식 - 일반한식"}]},{"lat":"37.285488708","long":"127.01383157","items":[{"name":"골목집","tel":"031-243-5576","addr":"경기도 수원시 팔달구 장안동 143-3번지 1층","category":"일반휴게음식 - 일반한식"},{"name":"포차속에통닭","tel":"031-242-8790","addr":"경기도 수원시 팔달구 장안동 143-3번지 102호","category":"일반휴게음식 - 스넥"}]},{"lat":"37.28639885","long":"127.01261381","items":[{"name":"공원","tel":"031-000-0000","addr":"경기도 수원시 팔달구 장안동 93-9번지 1층","category":"일반휴게음식 - 서양음식"}]},{"lat":"37.28575889","long":"127.01511715","items":[{"name":"굳세어라 돈순아","tel":"031-244-4677","addr":"경기도 수원시 팔달구 장안동 73-5번지","category":"일반휴게음식 - 일반한식"},{"name":"솜씨","tel":"031-271-9507","addr":"경기도 수원시 팔달구 장안동 73-5번지 1층 좌측","category":"음료식품 - 제과점"}]},{"lat":"37.28670523","long":"127.01223044","items":[{"name":"김코코","tel":"","addr":"경기도 수원시 팔달구 장안동 90-8번지","category":"의류 - 정장"},{"name":"파토아마노","tel":"031-236-5688","addr":"경기도 수원시 팔달구 장안동 90-8번지 제1호","category":"의류 - 정장"}]},{"lat":"37.285344825","long":"127.01016666","items":[{"name":"꽃처방","tel":"070-8844-2624","addr":"경기도 수원시 팔달구 장안동 322-17번지 201호","category":"문화.취미 - 화원"},{"name":"뜨는이야기 뭉클","tel":"","addr":"경기도 수원시 팔달구 장안동 322-17번지 2층 202호","category":"문화.취미 - 문화취미기타"},{"name":"원모어","tel":"02-000-0000","addr":"경기도 수원시 팔달구 장안동 322-17번지 203호 204호","category":"일반휴게음식 - 일반한식"},{"name":"포바이포(FOUR BY FOUR)협동조합","tel":"031-000-0000","addr":"경기도 수원시 팔달구 장안동 322-17번지 지하1층","category":"용역 서비스 - 종합용역"}]},{"lat":"37.285650871","long":"127.01405713","items":[{"name":"끼니걱정","tel":"031-252-8069","addr":"경기도 수원시 팔달구 장안동 80-6번지 1층","category":"일반휴게음식 - 서양음식"}]},{"lat":"37.287182556","long":"127.01466631","items":[{"name":"농업회사법인 쿠키라인 주식회사","tel":"031-424-0424","addr":"경기도 수원시 팔달구 장안동 33-1번지 장안사랑채 A동 1층 101호","category":"음료식품 - 제과점"},{"name":"농업회사법인 쿠키라인 주식회사","tel":"031-000-0000","addr":"경기도 수원시 팔달구 장안동 33-1번지 수원시 예절교육관 A동 101호","category":"음료식품 - 제과점"}]},{"lat":"37.285488722","long":"127.0136737","items":[{"name":"달달한부엌","tel":"031-242-5369","addr":"경기도 수원시 팔달구 장안동 142번지 1층","category":"가구 - 기타가구"},{"name":"이브스튜디오(Eve Studios)","tel":"031-000-0000","addr":"경기도 수원시 팔달구 장안동 142번지","category":"의류 - 정장"}]},{"lat":"37.285038386","long":"127.01150854","items":[{"name":"대림남부지정점(수원)","tel":"070-7538-3299","addr":"경기도 수원시 팔달구 장안동 315-2번지 3층","category":"건축자재 - 건축용 요업제품"},{"name":"모모가게","tel":"031-000-0000","addr":"경기도 수원시 팔달구 장안동 315-2번지","category":"의류 - 정장"},{"name":"패더슨커피 (PATFRSON COFFEE)","tel":"070-4257-0515","addr":"경기도 수원시 팔달구 장안동 315-2번지 2층","category":"일반휴게음식 - 서양음식"},{"name":"플랫핑거(plat finger)","tel":"","addr":"경기도 수원시 팔달구 장안동 315-2번지 1층","category":"신변잡화 - 기타잡화"},{"name":"히트노래연습장","tel":"070-8946-0997","addr":"경기도 수원시 팔달구 장안동 315-2번지 지층","category":"레저업소 - 노 래 방"}]},{"lat":"37.287425943","long":"127.01350482","items":[{"name":"대안소비자생활협동조합","tel":"031-247-4943","addr":"경기도 수원시 팔달구 장안동 22-5번지","category":"음료식품 - 정육점"},{"name":"작은도서관 책고집","tel":"031-252-6558","addr":"경기도 수원시 팔달구 장안동 22-5번지 2층","category":"학원 - 독서실"},{"name":"청산","tel":"031-243-8177","addr":"경기도 수원시 팔달구 장안동 22-5번지","category":"일반휴게음식 - 일반한식"}]},{"lat":"37.28695738","long":"127.01383179","items":[{"name":"도노호텔","tel":"031-258-8881","addr":"경기도 수원시 팔달구 장안동 30-6번지","category":"숙박업 - 여관/기타숙박업"}]},{"lat":"37.285038415","long":"127.01111386","items":[{"name":"땅도프로덕션","tel":"","addr":"경기도 수원시 팔달구 장안동 319-1번지 1층","category":"용역 서비스 - 종합용역"}]},{"lat":"37.285461926","long":"127.01067412","items":[{"name":"레드브릭커피하우스(Red Brick Coffee Hous","tel":"","addr":"경기도 수원시 팔달구 장안동 110-2번지 1층","category":"일반휴게음식 - 서양음식"}]},{"lat":"37.285371646","long":"127.01303092","items":[{"name":"리네(Leene)","tel":"031-000-0000","addr":"경기도 수원시 팔달구 장안동 281-1번지 외 1필지 104호","category":"가구 - 기타가구"},{"name":"리리키친(22KITCHEN)","tel":"070-8801-2277","addr":"경기도 수원시 팔달구 장안동 281-1번지 103호 리리키친","category":"주방용구 - 주방용식기"},{"name":"미랜 천하","tel":"031-246-4575","addr":"경기도 수원시 팔달구 장안동 281-1번지","category":"회원제형태 - 기타3"},{"name":"샘뷰티끄","tel":"","addr":"경기도 수원시 팔달구 장안동 281-1번지 1층","category":"보건위생 - 피부미용실"},{"name":"유레카롱(EUREKA.RON)","tel":"031-8081-9880","addr":"경기도 수원시 팔달구 장안동 281-1번지 1층 104호","category":"일반휴게음식 - 서양음식"},{"name":"행궁카페치올라","tel":"","addr":"경기도 수원시 팔달구 장안동 281-1번지 1층","category":"일반휴게음식 - 서양음식"}]},{"lat":"37.287570105","long":"127.0135274","items":[{"name":"만타","tel":"031-242-8685","addr":"경기도 수원시 팔달구 장안동 22-4번지 1층","category":"일반휴게음식 - 일반한식"},{"name":"송아","tel":"070-5033-8685","addr":"경기도 수원시 팔달구 장안동 22-4번지","category":"숙박업 - 여관/기타숙박업"}]},{"lat":"37.285263562","long":"127.01255729","items":[{"name":"매소드액터","tel":"","addr":"경기도 수원시 팔달구 장안동 286-2번지 3층","category":"서적문구 - 출판 및 인쇄물"},{"name":"일요일","tel":"","addr":"경기도 수원시 팔달구 장안동 286-2번지 1층","category":"일반휴게음식 - 서양음식"}]},{"lat":"37.286597127","long":"127.01197106","items":[{"name":"모나미","tel":"031-000-0000","addr":"경기도 수원시 팔달구 장안동 90-10번지 1층","category":"일반휴게음식 - 일반한식"}]},{"lat":"37.286759164","long":"127.01373027","items":[{"name":"미식가의주방","tel":"","addr":"경기도 수원시 팔달구 장안동 53-12번지 1층","category":"일반휴게음식 - 일반한식"},{"name":"엘라제인커피","tel":"","addr":"경기도 수원시 팔달구 장안동 53-12번지 2층","category":"일반휴게음식 - 서양음식"}]},{"lat":"37.286128597","long":"127.0119259","items":[{"name":"미트패커","tel":"","addr":"경기도 수원시 팔달구 장안동 103-6번지 2층","category":"일반휴게음식 - 일반한식"},{"name":"와인패커","tel":"","addr":"경기도 수원시 팔달구 장안동 103-6번지 지하1층","category":"일반휴게음식 - 칵테일바"},{"name":"호퍼앤호크니(Hopper and Hockney)","tel":"","addr":"경기도 수원시 팔달구 장안동 103-6번지 1층","category":"일반휴게음식 - 서양음식"}]},{"lat":"37.287011481","long":"127.013392","items":[{"name":"바르","tel":"070-4189-1581","addr":"경기도 수원시 팔달구 장안동 28-9번지 1층","category":"일반휴게음식 - 주점"}]},{"lat":"37.285903048","long":"127.01517356","items":[{"name":"백년갤러리","tel":"031-256-3477","addr":"경기도 수원시 팔달구 장안동 73-6번지 1층","category":"문화.취미 - 화방·표구점"},{"name":"에이케이에이보드샵(A.k.a BoardShop)","tel":"031-271-2332","addr":"경기도 수원시 팔달구 장안동 73-6번지","category":"레져용품 - 스포츠·레져용품"},{"name":"여유","tel":"031-256-3391","addr":"경기도 수원시 팔달구 장안동 73-6번지 1층","category":"의류 - 정장"},{"name":"행궁동사진관","tel":"070-8802-1981","addr":"경기도 수원시 팔달구 장안동 73-6번지","category":"광학제품 - 사진관"}]},{"lat":"37.285263551","long":"127.0126926","items":[{"name":"백마장군","tel":"031-898-7255","addr":"경기도 수원시 팔달구 장안동 290-2번지","category":"보건위생 - 기타대인서비스"},{"name":"이시카와 아이","tel":"111-1111-111","addr":"경기도 수원시 팔달구 장안동 290-2번지","category":"의류 - 정장"}]},{"lat":"37.284930301","long":"127.01097853","items":[{"name":"베어룸","tel":"031-254-9300","addr":"경기도 수원시 팔달구 장안동 319-4번지 3층","category":"일반휴게음식 - 서양음식"},{"name":"월드컵광고","tel":"031-245-6217","addr":"경기도 수원시 팔달구 장안동 319-4번지","category":"용역 서비스 - 종합용역"}]},{"lat":"37.285128454","long":"127.01197089","items":[{"name":"베어브레드","tel":"070-4110-2929","addr":"경기도 수원시 팔달구 장안동 312-2번지 1층","category":"음료식품 - 제과점"},{"name":"서풍","tel":"","addr":"경기도 수원시 팔달구 장안동 312-2번지 203호","category":"용역 서비스 - 기타용역서비스"},{"name":"치치","tel":"031-241-8862","addr":"경기도 수원시 팔달구 장안동 312-2번지 1층","category":"일반휴게음식 - 일반한식"}]},{"lat":"37.285290724","long":"127.01078686","items":[{"name":"보름달식탁","tel":"","addr":"경기도 수원시 팔달구 장안동 322-3번지 1층","category":"일반휴게음식 - 일반한식"}]},{"lat":"37.285128493","long":"127.01145216","items":[{"name":"부터(Booter)","tel":"","addr":"경기도 수원시 팔달구 장안동 315-1번지 1층","category":"일반휴게음식 - 서양음식"}]},{"lat":"37.285677834","long":"127.01475629","items":[{"name":"비갠 오후의 바느질","tel":"","addr":"경기도 수원시 팔달구 장안동 77-1번지 1층","category":"문화.취미 - 문화취미기타"},{"name":"하라음카페","tel":"031-000-0000","addr":"경기도 수원시 팔달구 장안동 77-1번지 1층","category":"일반휴게음식 - 서양음식"}]},{"lat":"37.286515905","long":"127.01352725","items":[{"name":"비원","tel":"031-000-0000","addr":"경기도 수원시 팔달구 장안동 53-8번지","category":"일반휴게음식 - 일반한식"},{"name":"행궁맨션","tel":"031-3306-0330","addr":"경기도 수원시 팔달구 장안동 53-8번지","category":"일반휴게음식 - 서양음식"}]},{"lat":"37.285128572","long":"127.0102794","items":[{"name":"빈스빈스커피 수원화성점","tel":"02-353-0050","addr":"경기도 수원시 팔달구 장안동 322-18번지 화서문 관광안내소 D동 1층","category":"일반휴게음식 - 서양음식"}]},{"lat":"37.285542838","long":"127.01306477","items":[{"name":"빈야커피","tel":"031-292-3751","addr":"경기도 수원시 팔달구 장안동 136번지 1층","category":"일반휴게음식 - 서양음식"}]},{"lat":"37.285731882","long":"127.01489161","items":[{"name":"빈티지박스","tel":"031-257-8005","addr":"경기도 수원시 팔달구 장안동 75-1번지","category":"의류 - 정장"},{"name":"하나네","tel":"031-724-5759","addr":"경기도 수원시 팔달구 장안동 75-1번지","category":"신변잡화 - 기타잡화"}]},{"lat":"37.287398934","long":"127.01325673","items":[{"name":"빌라마이레아(Villa Mairea)","tel":"","addr":"경기도 수원시 팔달구 장안동 22-11번지","category":"일반휴게음식 - 서양음식"}]},{"lat":"37.286903399","long":"127.01291835","items":[{"name":"빨간잉어","tel":"031-242-2977","addr":"경기도 수원시 팔달구 장안동 27-8번지","category":"주방용구 - 주방용식기"}]},{"lat":"37.286155341","long":"127.01511722","items":[{"name":"사단법인한국전통민족종교 총연합회 호연암","tel":"031-221-7790","addr":"경기도 수원시 팔달구 장안동 68-3번지 2층","category":"보건위생 - 기타대인서비스"}]},{"lat":"37.287822369","long":"127.0137868","items":[{"name":"산적","tel":"031-252-5770","addr":"경기도 수원시 팔달구 장안동 22-1번지 1호","category":"일반휴게음식 - 일반한식"}]},{"lat":"37.285236656","long":"127.01088835","items":[{"name":"성곽식당","tel":"031-253-2774","addr":"경기도 수원시 팔달구 장안동 322-2번지","category":"일반휴게음식 - 일반한식"}]},{"lat":"37.286155589","long":"127.01242208","items":[{"name":"수(  ) 한지공방","tel":"031-2741-6881","addr":"경기도 수원시 팔달구 장안동 99-7번지","category":"문화.취미 - 민예·공예품"}]},{"lat":"37.286461988","long":"127.01177934","items":[{"name":"수다","tel":"031-248-1098","addr":"경기도 수원시 팔달구 장안동 91-1번지 1층","category":"일반휴게음식 - 서양음식"}]},{"lat":"37.287516016","long":"127.01383187","items":[{"name":"썬스타모텔","tel":"031-252-9368","addr":"경기도 수원시 팔달구 장안동 22-8번지","category":"숙박업 - 여관/기타숙박업"}]},{"lat":"37.285732165","long":"127.01166649","items":[{"name":"썸머포유","tel":"","addr":"경기도 수원시 팔달구 장안동 119-4번지 1,2층","category":"일반휴게음식 - 서양음식"}]},{"lat":"37.287290809","long":"127.01327927","items":[{"name":"어고흐(AGOH)","tel":"031-000-0000","addr":"경기도 수원시 팔달구 장안동 28-3번지","category":"일반휴게음식 - 서양음식"}]},{"lat":"37.28665118","long":"127.01208384","items":[{"name":"오 브라더스(O''BROTHERS)","tel":"","addr":"경기도 수원시 팔달구 장안동 90-9번지 1층","category":"보건위생 - 이용원"},{"name":"오브라더스 (O''BROTHERS)","tel":"","addr":"경기도 수원시 팔달구 장안동 90-9번지 2층","category":"일반휴게음식 - 일반한식"}]},{"lat":"37.286624133","long":"127.01228682","items":[{"name":"오피큐알","tel":"031-255-5448","addr":"경기도 수원시 팔달구 장안동 89-2번지 1,2층","category":"일반휴게음식 - 서양음식"}]},{"lat":"37.28570523","long":"127.0102569","items":[{"name":"우주상사","tel":"031-256-3323","addr":"경기도 수원시 팔달구 장안동 109-26번지","category":"건강식품 - 기타건강식품"}]},{"lat":"37.285984152","long":"127.0150608","items":[{"name":"이화의원","tel":"031-255-3178","addr":"경기도 수원시 팔달구 장안동 73-4번지","category":"의원 - 의원"}]},{"lat":"37.288317941","long":"127.01369666","items":[{"name":"장안문매점","tel":"","addr":"경기도 수원시 팔달구 장안동 1-3","category":"음료식품 - 기타음료식품"}]},{"lat":"37.287849415","long":"127.01361765","items":[{"name":"정지영커피로스터즈","tel":"","addr":"경기도 수원시 팔달구 장안동 22-15번지","category":"일반휴게음식 - 서양음식"}]},{"lat":"37.285794919","long":"127.01522992","items":[{"name":"카페카베(Cafe Karve)","tel":"031-251-0011","addr":"경기도 수원시 팔달구 장안동 72-1번지 1층","category":"일반휴게음식 - 일반한식"},{"name":"퍼스트 모형","tel":"031-302-2788","addr":"경기도 수원시 팔달구 장안동 72-1번지 2층","category":"신변잡화 - 기타잡화"}]},{"lat":"37.285425671","long":"127.01344816","items":[{"name":"코사마트장안점","tel":"031-256-2549","addr":"경기도 수원시 팔달구 장안동 273-3번지","category":"유통업 영리 - 슈퍼마켓"}]},{"lat":"37.284957317","long":"127.01119278","items":[{"name":"파스타집","tel":"","addr":"경기도 수원시 팔달구 장안동 319-2번지 1층","category":"일반휴게음식 - 서양음식"}]},{"lat":"37.285596939","long":"127.01259116","items":[{"name":"플랜비","tel":"","addr":"경기도 수원시 팔달구 장안동 131-1번지 1층","category":"용역 서비스 - 사무서비스"}]},{"lat":"37.28634485","long":"127.01183571","items":[{"name":"한섬","tel":"","addr":"경기도 수원시 팔달구 장안동 91-20번지","category":"일반휴게음식 - 서양음식"}]},{"lat":"37.285155465","long":"127.01223025","items":[{"name":"해피미용실","tel":"031-243-2334","addr":"경기도 수원시 팔달구 장안동 311-3번지 1층","category":"보건위생 - 미용원"}]},{"lat":"37.285461818","long":"127.01217391","items":[{"name":"행(Hang)","tel":"031-243-8077","addr":"경기도 수원시 팔달구 장안동 125-1번지","category":"일반휴게음식 - 서양음식"}]},{"lat":"37.285569828","long":"127.01352712","items":[{"name":"행궁살롱","tel":"031-1566-1645","addr":"경기도 수원시 팔달구 장안동 141-2번지","category":"음료식품 - 기타음료식품"}]},{"lat":"37.285984279","long":"127.01375271","items":[{"name":"행궁채게스트하우스","tel":"031-258-7851","addr":"경기도 수원시 팔달구 장안동 82-3번지","category":"숙박업 - 여관/기타숙박업"}]},{"lat":"37.285876388","long":"127.01083203","items":[{"name":"행궁파티","tel":"","addr":"경기도 수원시 팔달구 장안동 109-1번지 1층","category":"일반휴게음식 - 일반한식"}]},{"lat":"37.285371692","long":"127.01247836","items":[{"name":"홀릭(Holic)커피컴퍼니","tel":"031-245-4555","addr":"경기도 수원시 팔달구 장안동 286-1번지 1층","category":"일반휴게음식 - 서양음식"}]},{"lat":"37.285704837","long":"127.01502693","items":[{"name":"홍문숙 갤러리","tel":"070-3652-9087","addr":"경기도 수원시 팔달구 장안동 73-7번지 1층","category":"문화.취미 - 민예·공예품"},{"name":"흙공방텃밭사람들","tel":"070-8895-7962","addr":"경기도 수원시 팔달구 장안동 73-7번지 1층","category":"문화.취미 - 문화취미기타"}]},{"lat":"37.28523654","long":"127.01244452","items":[{"name":"화신반점","tel":"031-253-5920","addr":"경기도 수원시 팔달구 장안동 288-4번지 1층","category":"일반휴게음식 - 중국식"}]}]