[{"lat":"37.760479489","long":"126.77584725","items":[{"name":"(주) 쌍방울 파주직영상설점","tel":"031-941-7453","addr":"경기도 파주시 아동동 334-12번지","category":"의류 - 내의판매"},{"name":"하나세무회계사무소","tel":"031-941-2891","addr":"경기도 파주시 아동동 334-12번지","category":"용역 서비스 - 법률회계서비스(개인)"}]},{"lat":"37.757975719","long":"126.79589535","items":[{"name":"(주)정우페인팅","tel":"031-942-1430","addr":"경기도 파주시 아동동 46-43번지","category":"건축자재 - 페인트"},{"name":"주미라헤어뱅크","tel":"031-944-6822","addr":"경기도 파주시 아동동 46-43번지","category":"보건위생 - 미용원"}]},{"lat":"37.760142128","long":"126.77845838","items":[{"name":"(주)중앙종합건축사사무소","tel":"031-945-8220","addr":"경기도 파주시 아동동 346-1번지","category":"용역 서비스 - 법률회계서비스(법인)"},{"name":"공간측량설계사","tel":"031-957-8861","addr":"경기도 파주시 아동동 346-1번지","category":"용역 서비스 - 사무서비스"},{"name":"기술사사무소대한산림기술단","tel":"031-946-3443","addr":"경기도 파주시 아동동 346-1번지","category":"용역 서비스 - 사무서비스"},{"name":"동성측량설계사","tel":"031-949-8580","addr":"경기도 파주시 아동동 346-1중앙빌딩203-1","category":"용역 서비스 - 사무서비스"},{"name":"동성측량설계사무소","tel":"031-949-8580","addr":"경기도 파주시 아동동 346-1번지","category":"용역 서비스 - 사무서비스"},{"name":"미래경제연구소","tel":"031-943-3291","addr":"경기도 파주시 아동동 346-1번지","category":"용역 서비스 - 사무서비스"},{"name":"법무사최인철사무소","tel":"031-943-5559","addr":"경기도 파주시 아동동 346-1번지","category":"용역 서비스 - 법률회계서비스(법인)"},{"name":"주식회사 해피코리아","tel":"02-000-0000","addr":"경기도 파주시 아동동 346-1번지","category":"서적문구 - 정기간행물"},{"name":"중앙측량설계사무소","tel":"031-945-8225","addr":"경기도 파주시 아동동 346-1번지","category":"용역 서비스 - 사무서비스"}]},{"lat":"37.770618868","long":"126.77776843","items":[{"name":"AK네트웍스","tel":"070-4247-1999","addr":"경기도 파주시 아동동 275-6번지","category":"사무통신 - 통신기기"},{"name":"신통치킨","tel":"031-941-2299","addr":"경기도 파주시 아동동 275-6번지","category":"일반휴게음식 - 일반한식"},{"name":"커피팜","tel":"031-944-1520","addr":"경기도 파주시 아동동 275-6번지","category":"일반휴게음식 - 서양음식"},{"name":"토토헤어","tel":"031-949-2888","addr":"경기도 파주시 아동동 275-6번지","category":"보건위생 - 미용원"},{"name":"파리바게트파주팜스점","tel":"031-942-5270","addr":"경기도 파주시 아동동 275-6번지","category":"음료식품 - 제과점"}]},{"lat":"37.770058087","long":"126.7766238","items":[{"name":"COOL노래연습장","tel":"031-944-0737","addr":"경기도 파주시 아동동 275-16영창빌딩1층","category":"레저업소 - 노 래 방"},{"name":"돈장군","tel":"031-941-5090","addr":"경기도 파주시 아동동 275-16번지 영창빌딩 나동","category":"일반휴게음식 - 일반한식"},{"name":"보라문구","tel":"031-944-8906","addr":"경기도 파주시 아동동 275-16영창빌딩","category":"서적문구 - 문구용품"},{"name":"쁘띠자르당","tel":"031-957-0585","addr":"경기도 파주시 아동동 275-16 나동2층","category":"보건위생 - 미용원"},{"name":"서울갈비장","tel":"","addr":"경기도 파주시 아동동 275-16번지","category":"일반휴게음식 - 일반한식"},{"name":"서울오겹집","tel":"031-945-8896","addr":"경기도 파주시 아동동 275-16번지","category":"일반휴게음식 - 일반한식"},{"name":"썬더치킨 아동동점","tel":"","addr":"경기도 파주시 아동동 275-16번지","category":"일반휴게음식 - 스넥"},{"name":"아지트PC방","tel":"","addr":"경기도 파주시 아동동 275-16번지","category":"레저업소 - 기타레져업소"},{"name":"카페마마","tel":"031-942-0363","addr":"경기도 파주시 아동동 275-16번지 외1필지","category":"일반휴게음식 - 서양음식"},{"name":"케이탑PC방 아동점","tel":"070-8982-7805","addr":"경기도 파주시 아동동 275-16번지","category":"레저업소 - 기타레져업소"},{"name":"흥부네빈대떡옛날통닭","tel":"031-945-0500","addr":"경기도 파주시 아동동 275-16번지","category":"일반휴게음식 - 주점"}]},{"lat":"37.774069289","long":"126.77765582","items":[{"name":"CYH아트플라워","tel":"031-945-6006","addr":"경기도 파주시 아동동 283번지 팜스프링아파트","category":"가구 - 기타가구"}]},{"lat":"37.766676334","long":"126.77967571","items":[{"name":"Detailing Dctors 스팀세차","tel":"031-949-7054","addr":"경기도 파주시 아동동 322-13번지","category":"자동차정비 유지 - 세차장"},{"name":"제이비몰(콜핑,버팔로)","tel":"031-942-5667","addr":"경기도 파주시 아동동 322-13번지","category":"레져용품 - 스포츠·레져용품"},{"name":"할매순대국(대객풍)","tel":"031-957-3400","addr":"경기도 파주시 아동동 322-13번지","category":"일반휴게음식 - 일반한식"}]},{"lat":"37.769175793","long":"126.77695563","items":[{"name":"GS25금촌행복점","tel":"","addr":"경기도 파주시 아동동 275-18번지","category":"유통업 영리 - 편 의 점"},{"name":"동네맛집","tel":"031-945-8820","addr":"경기도 파주시 아동동 275-18번지","category":"일반휴게음식 - 일반한식"},{"name":"또래오래아동점","tel":"031-957-9994","addr":"경기도 파주시 아동동 275-18외1","category":"일반휴게음식 - 서양음식"},{"name":"명품순대국","tel":"031-952-5428","addr":"경기도 파주시 아동동 275-18번지","category":"일반휴게음식 - 일반한식"},{"name":"사내머리","tel":"031-947-3330","addr":"경기도 파주시 아동동 275-18번지","category":"보건위생 - 이용원"},{"name":"합기도 검무관","tel":"031-941-9417","addr":"경기도 파주시 아동동 275-18","category":"학원 - 예·체능계학원"}]},{"lat":"37.761113721","long":"126.77770645","items":[{"name":"GS25장안미소점","tel":"","addr":"경기도 파주시 아동동 339-1번지","category":"유통업 영리 - 편 의 점"}]},{"lat":"37.760507696","long":"126.77645998","items":[{"name":"ITALY&ITALY","tel":"031-949-7896","addr":"경기도 파주시 아동동 334-4번지","category":"일반휴게음식 - 서양음식"},{"name":"플러스","tel":"070-3652-4800","addr":"경기도 파주시 아동동 334-4번지","category":"보건위생 - 기타대인서비스"}]},{"lat":"37.762371743","long":"126.79554265","items":[{"name":"JC 에너지","tel":"031-941-9605","addr":"경기도 파주시 아동동 90-10번지","category":"용역 서비스 - 기타용역서비스"},{"name":"대성건설기계","tel":"031-957-8204","addr":"경기도 파주시 아동동 90-10번지","category":"용역 서비스 - 기타용역서비스"},{"name":"통일로주유소","tel":"031-945-5015","addr":"경기도 파주시 아동동 90-10번지","category":"연료판매점 - GS주유소"}]},{"lat":"37.766951567","long":"126.77754121","items":[{"name":"JK기획","tel":"031-942-0330","addr":"경기도 파주시 아동동 353-1번지","category":"서적문구 - 출판 및 인쇄물"}]},{"lat":"37.761121558","long":"126.77709362","items":[{"name":"LG 냉동공조","tel":"","addr":"경기도 파주시 아동동 329-6번지 장안초원아파트","category":"수리서비스 - 가정용품수리"},{"name":"건강선생","tel":"031-944-3479","addr":"경기도 파주시 아동동 329-6번지 장안초원아파트","category":"음료식품 - 기타음료식품"},{"name":"루루아틀리에3호점","tel":"070-4900-1863","addr":"경기도 파주시 아동동 329-6번지 장안초원아파트","category":"음료식품 - 기타음료식품"},{"name":"미루한복","tel":"031-944-7330","addr":"경기도 파주시 아동동 329-6번지 장안초원아파트","category":"의류 - 맞춤복점"},{"name":"보화당","tel":"031-944-7559","addr":"경기도 파주시 아동동 329-6 장안초원 1-13","category":"신변잡화 - 시계"},{"name":"삼천국수","tel":"070-5022-4846","addr":"경기도 파주시 아동동 329-6번지 장안초원아파트","category":"일반휴게음식 - 일반한식"},{"name":"씨엔씨레포츠","tel":"031-941-0508","addr":"경기도 파주시 아동동 329-6번지 장안초원아파트","category":"레져용품 - 스포츠·레져용품"},{"name":"안단티노","tel":"","addr":"경기도 파주시 아동동 329-6번지 장안초원아파트","category":"음료식품 - 제과점"},{"name":"월드전자","tel":"031-943-7707","addr":"경기도 파주시 아동동 329-6번지 장안초원아파트","category":"전기제품 - 기타전기제품"},{"name":"쵸이스미용실","tel":"031-948-1388","addr":"경기도 파주시 아동동 329-6번지 장안초원아파트","category":"보건위생 - 미용원"},{"name":"컷트맨클럽","tel":"031-949-0487","addr":"경기도 파주시 아동동 329-6번지 장안초원아파트","category":"보건위생 - 미용원"},{"name":"케이엠엘리","tel":"031-947-6254","addr":"경기도 파주시 아동동 329-6번지 장안초원아파트","category":"직물 - 침구·수예점"},{"name":"픽미픽미아이스 금촌점","tel":"","addr":"경기도 파주시 아동동 329-6번지 장안초원아파트","category":"음료식품 - 기타음료식품"},{"name":"현대유리","tel":"031-941-9966","addr":"경기도 파주시 아동동 329-6번지 장안초원아파트","category":"건축자재 - 유리"}]},{"lat":"37.76589323","long":"126.77534269","items":[{"name":"WORLD IN STORE","tel":"031-8071-2451","addr":"경기도 파주시 아동동 351-13번지","category":"유통업 영리 - 슈퍼마켓"},{"name":"금촌동부","tel":"031-941-5805","addr":"경기도 파주시 아동동 351-13번지","category":"회원제형태 - 기타1"},{"name":"금촌야채(금촌점)","tel":"070-1111-1111","addr":"경기도 파주시 아동동 351-13번지","category":"음료식품 - 농·축·수산품"},{"name":"나은동물병원","tel":"031-944-8288","addr":"경기도 파주시 아동동 351-13번지","category":"기타의료기관 - 동물병원"},{"name":"낫폽","tel":"031-000-0000","addr":"경기도 파주시 아동동 351-13번지","category":"일반휴게음식 - 서양음식"},{"name":"마임 금촌중부화평지사","tel":"031-946-4892","addr":"경기도 파주시 아동동 351-13번지","category":"보건위생 - 화장품"},{"name":"마임(금촌중부지사)","tel":"031-946-0533","addr":"경기도 파주시 아동동 351-13번지","category":"보건위생 - 화장품"},{"name":"세븐일레븐금촌월드점","tel":"","addr":"경기도 파주시 아동동 351-13번지","category":"유통업 영리 - 편 의 점"},{"name":"아시안레스토랑","tel":"031-944-9128","addr":"경기도 파주시 아동동 351-13번지","category":"일반휴게음식 - 서양음식"},{"name":"이화","tel":"031-943-8057","addr":"경기도 파주시 아동동 351-13번지","category":"보건위생 - 이용원"},{"name":"칼라뱅크","tel":"031-946-6131","addr":"경기도 파주시 아동동 351-13번지","category":"건축자재 - 페인트"},{"name":"퀸마트백화점","tel":"031-943-9693","addr":"경기도 파주시 아동동 351-13번지","category":"음료식품 - 정육점"}]},{"lat":"37.765395247","long":"126.77876029","items":[{"name":"가랑가랑","tel":"","addr":"경기도 파주시 아동동 324-1번지","category":"일반휴게음식 - 일반한식"}]},{"lat":"37.765700315","long":"126.77810112","items":[{"name":"가영전자","tel":"031-944-4946","addr":"경기도 파주시 아동동 357-4번지","category":"전기제품 - 가전제품"}]},{"lat":"37.771671583","long":"126.77703884","items":[{"name":"가족노래방","tel":"031-946-9350","addr":"경기도 파주시 아동동 283-10 팜스프링상가B1층 101-1","category":"레저업소 - 노 래 방"},{"name":"제일컴퓨터학원","tel":"031-949-7588","addr":"경기도 파주시 아동동 283-10팜스프링169동4층404-2호","category":"회원제형태 - 학원"},{"name":"파랑새어린이집[아이행복]","tel":"031-948-8617","addr":"경기도 파주시 아동동 283-10번지","category":"학원 - 유아원"},{"name":"팜스세탁","tel":"031-948-0279","addr":"경기도 파주시 아동동 283-10팜스프링상가203-2","category":"수리서비스 - 세탁소"},{"name":"팜스헤어클럽","tel":"031-947-8908","addr":"경기도 파주시 아동동 283-10 팜스프링종합상가169동2층 210","category":"보건위생 - 미용원"},{"name":"팜스홈인테리어","tel":"031-948-8002","addr":"경기도 파주시 아동동 283-10팜스프리@169-1층117","category":"직물 - 카페트,커튼,천막,지물"}]},{"lat":"37.760732976","long":"126.77648199","items":[{"name":"감동케어해피베이비","tel":"031-924-3713","addr":"경기도 파주시 아동동 335-1번지","category":"보건위생 - 기타대인서비스"},{"name":"금강보청기","tel":"031-942-2002","addr":"경기도 파주시 아동동 335-1번지","category":"보건위생 - 의료용품"},{"name":"누리모바일","tel":"031-941-5781","addr":"경기도 파주시 아동동 335-1번지","category":"용역 서비스 - 소프트웨어"},{"name":"땡큐리빙텔","tel":"031-948-9119","addr":"경기도 파주시 아동동 335-1번지","category":"학원 - 독서실"},{"name":"성민영상교육","tel":"031-945-4726","addr":"경기도 파주시 아동동 335-1번지","category":"서적문구 - 교육용테이프판매"},{"name":"엄마손손세탁","tel":"031-942-6600","addr":"경기도 파주시 아동동 335-1번지","category":"수리서비스 - 세탁소"},{"name":"위드맘케어","tel":"","addr":"경기도 파주시 아동동 335-1번지","category":"보건위생 - 기타대인서비스"},{"name":"윈블락시스템","tel":"031-000-0000","addr":"경기도 파주시 아동동 335-1번지","category":"건축자재 - 인테리어전문"},{"name":"유명약국","tel":"031-944-8825","addr":"경기도 파주시 아동동 335-1번지 장안프라자 1층 108동 110호","category":"약국 - 약국"},{"name":"이매진박스(Yimazine box)","tel":"070-4131-0202","addr":"경기도 파주시 아동동 335-1번지","category":"학원 - 예·체능계학원"},{"name":"인진인베스트 유한회사","tel":"031-000-0000","addr":"경기도 파주시 아동동 335-1번지","category":"자동차정비 유지 - 주차장"},{"name":"현대치과의원","tel":"031-941-8783","addr":"경기도 파주시 아동동 335-1번지","category":"의원 - 치과의원"}]},{"lat":"37.760450024","long":"126.77928588","items":[{"name":"강북측량설계사","tel":"031-942-8855","addr":"경기도 파주시 아동동 343-6번지","category":"기타 - 기타 전문점"}]},{"lat":"37.758894107","long":"126.7955637","items":[{"name":"강촌상사","tel":"031-946-6947","addr":"경기도 파주시 아동동 47-1번지","category":"자동차정비 유지 - 자동차부품"}]},{"lat":"37.774131335","long":"126.77712216","items":[{"name":"건강한 다이어트","tel":"","addr":"경기도 파주시 아동동 283번지 팜스프링아파트","category":"건강식품 - 기타건강식품"},{"name":"예꼬어린이집[아이행복]","tel":"031-941-3356","addr":"경기도 파주시 아동동 283번지 팜스프링아파트","category":"학원 - 유아원"}]},{"lat":"37.769449155","long":"126.77856646","items":[{"name":"경구목재","tel":"031-941-4021","addr":"경기도 파주시 아동동 299-5 경영빌딩 1층","category":"건축자재 - 기타건축자재"}]},{"lat":"37.757813708","long":"126.79598659","items":[{"name":"경기미싱","tel":"031-944-0534","addr":"경기도 파주시 아동동 46-44번지","category":"기타 - 기계공구"}]},{"lat":"37.773883248","long":"126.77461448","items":[{"name":"경동하우징","tel":"","addr":"경기도 파주시 아동동 283번지 팜스프링아파트","category":"용역 서비스 - 기타용역서비스"}]},{"lat":"37.762644225","long":"126.78187812","items":[{"name":"계륵장군 금촌점","tel":"031-944-6632","addr":"경기도 파주시 아동동 228-5번지","category":"일반휴게음식 - 일반한식"},{"name":"제주야","tel":"031-8071-6666","addr":"경기도 파주시 아동동 228-5번지","category":"일반휴게음식 - 일반한식"},{"name":"튜닝스토리","tel":"031-943-0307","addr":"경기도 파주시 아동동 228-5번지","category":"자동차정비 유지 - 자동차부품"}]},{"lat":"37.760033002","long":"126.79256459","items":[{"name":"골든 gem","tel":"031-949-4955","addr":"경기도 파주시 아동동 55-5번지","category":"가구 - 일반가구"}]},{"lat":"37.762925959","long":"126.78318238","items":[{"name":"골든스크린 골프","tel":"031-941-3232","addr":"경기도 파주시 아동동 231번지","category":"레저업소 - 스크린골프"},{"name":"디펙토리","tel":"031-947-7054","addr":"경기도 파주시 아동동 231번지","category":"자동차정비 유지 - 세차장"},{"name":"시청로100","tel":"031-946-9297","addr":"경기도 파주시 아동동 231번지","category":"일반휴게음식 - 일반한식"},{"name":"신바람에어콘","tel":"031-000-0000","addr":"경기도 파주시 아동동 231번지","category":"용역 서비스 - 기타용역서비스"},{"name":"장어의신","tel":"","addr":"경기도 파주시 아동동 231번지","category":"음료식품 - 농·축·수산품"},{"name":"카페 미쁘다/(주)천용파주지점","tel":"031-942-9197","addr":"경기도 파주시 아동동 231번지","category":"일반휴게음식 - 서양음식"},{"name":"카페미쁘다","tel":"031-942-9197","addr":"경기도 파주시 아동동 231번지","category":"일반휴게음식 - 서양음식"},{"name":"토탈케어손세차장","tel":"031-000-0000","addr":"경기도 파주시 아동동 231번지","category":"자동차정비 유지 - 세차장"},{"name":"파주장어타운&매운탕","tel":"031-946-9297","addr":"경기도 파주시 아동동 231번지 1층","category":"일반휴게음식 - 일반한식"},{"name":"파주장어타운&매운탕/주식회사 천용","tel":"031-946-9297","addr":"경기도 파주시 아동동 231번지","category":"일반휴게음식 - 일반한식"},{"name":"홍리마라탕","tel":"031-111-1111","addr":"경기도 파주시 아동동 231번지","category":"일반휴게음식 - 일반한식"}]},{"lat":"37.76958798","long":"126.77578536","items":[{"name":"곱창집","tel":"031-947-8588","addr":"경기도 파주시 아동동 294-3번지","category":"일반휴게음식 - 일반한식"},{"name":"명동미용실","tel":"031-942-2390","addr":"경기도 파주시 아동동 294-3번지","category":"보건위생 - 미용원"},{"name":"쿡(COOK)한접시","tel":"","addr":"경기도 파주시 아동동 294-3번지","category":"일반휴게음식 - 일반한식"}]},{"lat":"37.773671048","long":"126.7767036","items":[{"name":"교육문화","tel":"031-942-4246","addr":"경기도 파주시 아동동 283번지 팜스프링아파트","category":"서적문구 - 일반서적"},{"name":"팜스프링베이비어린이집[아이행복]","tel":"070-7559-4468","addr":"경기도 파주시 아동동 283번지 팜스프링아파트","category":"학원 - 유아원"},{"name":"팜스프링어린이집[아이행복]","tel":"031-948-4468","addr":"경기도 파주시 아동동 283번지 팜스프링아파트","category":"학원 - 유아원"}]},{"lat":"37.766313001","long":"126.77812196","items":[{"name":"국보갈비","tel":"031-944-0399","addr":"경기도 파주시 아동동 354-8","category":"일반휴게음식 - 갈비전문점"},{"name":"무정집","tel":"031-943-0183","addr":"경기도 파주시 아동동 354-8번지","category":"일반휴게음식 - 일반한식"},{"name":"제일천막공업사","tel":"031-941-2852","addr":"경기도 파주시 아동동 354-8","category":"직물 - 카페트,커튼,천막,지물"}]},{"lat":"37.765006305","long":"126.77795568","items":[{"name":"국제종합광고","tel":"031-944-8822","addr":"경기도 파주시 아동동 327-33번지","category":"용역 서비스 - 종합용역"}]},{"lat":"37.768646838","long":"126.77831919","items":[{"name":"굽네치킨 금촌3동점","tel":"031-949-9998","addr":"경기도 파주시 아동동 299-33번지","category":"일반휴게음식 - 스넥"}]},{"lat":"37.769980236","long":"126.77831516","items":[{"name":"글라스박스금촌점","tel":"031-948-8321","addr":"경기도 파주시 아동동 275-21","category":"보건위생 - 안경"}]},{"lat":"37.772897085","long":"126.77714861","items":[{"name":"글로리아","tel":"070-949-4252","addr":"경기도 파주시 아동동 283번지 팜스프링아파트","category":"신변잡화 - 기타잡화"},{"name":"꿈꾸는 아이들 팜스어린이집[아이행복]","tel":"031-949-6549","addr":"경기도 파주시 아동동 283번지 팜스프링아파트 1층","category":"학원 - 유아원"},{"name":"딸기플러스어린이집[아이행복]","tel":"031-948-2385","addr":"경기도 파주시 아동동 283번지 팜스프링아파트","category":"학원 - 유아원"},{"name":"리코","tel":"","addr":"경기도 파주시 아동동 283번지 팜스프링아파트","category":"의류 - 정장"},{"name":"부부세탁소","tel":"031-946-3669","addr":"경기도 파주시 아동동 283번지 팜스프링아파트","category":"수리서비스 - 세탁소"},{"name":"스마일","tel":"","addr":"경기도 파주시 아동동 283번지 팜스프링아파트","category":"일반휴게음식 - 일반한식"},{"name":"음악나라어린이집[아이행복]","tel":"031-949-6771","addr":"경기도 파주시 아동동 283번지 팜스프링아파트","category":"학원 - 유아원"},{"name":"천사 어린이집[아이행복]","tel":"031-949-5002","addr":"경기도 파주시 아동동 283번지 팜스프링아파트","category":"학원 - 유아원"},{"name":"콩순이네분식","tel":"031-944-9788","addr":"경기도 파주시 아동동 283번지 팜스프링아파트","category":"일반휴게음식 - 스넥"},{"name":"팜스프링아파트입주자대표회의","tel":"031-948-8668","addr":"경기도 파주시 아동동 283번지 팜스프링아파트","category":"용역 서비스 - 부동산 중개·임대"}]},{"lat":"37.770145253","long":"126.78462514","items":[{"name":"금촌경기자동차매매상","tel":"031-954-1122","addr":"경기도 파주시 아동동 263-1번지","category":"자동차판매 - 중고자동차판매"},{"name":"금촌자동차","tel":"031-949-2260","addr":"경기도 파주시 아동동 263-1번지","category":"자동차판매 - 중고자동차판매"},{"name":"주식회사 더드림모터스","tel":"031-941-1984","addr":"경기도 파주시 아동동 263-1번지","category":"자동차판매 - 중고자동차판매"}]},{"lat":"37.76053169","long":"126.77959204","items":[{"name":"금촌동부점현대자동차","tel":"031-943-8333","addr":"경기도 파주시 아동동 218-4번지","category":"자동차정비 유지 - 자동차정비"}]},{"lat":"37.766725309","long":"126.77700848","items":[{"name":"금촌민물집","tel":"031-944-9866","addr":"경기도 파주시 아동동 352-2번지","category":"일반휴게음식 - 일반한식"},{"name":"나눔","tel":"031-941-3434","addr":"경기도 파주시 아동동 352-2번지","category":"건축자재 - 인테리어전문"},{"name":"대명기획","tel":"031-941-5563","addr":"경기도 파주시 아동동 352-2번지","category":"건축자재 - 인테리어전문"},{"name":"대흥전기","tel":"031-945-8181","addr":"경기도 파주시 아동동 352-2번지","category":"전기제품 - 기타전기제품"},{"name":"우주설비상사","tel":"031-945-5859","addr":"경기도 파주시 아동동 352-2상가3","category":"건축자재 - 기타건축자재"},{"name":"주식회사삼화","tel":"031-942-7000","addr":"경기도 파주시 아동동 352-2번지","category":"가구 - 일반가구"},{"name":"홍익상사","tel":"031-941-9345","addr":"경기도 파주시 아동동 352-2번지","category":"기타 - 기계공구"}]},{"lat":"37.764021863","long":"126.78144276","items":[{"name":"금촌사임당어린이집[아이행복]","tel":"031-942-0812","addr":"경기도 파주시 아동동 897번지 파주아동동신안실크밸리","category":"학원 - 유아원"}]},{"lat":"37.765786626","long":"126.77612611","items":[{"name":"금촌수산","tel":"031-957-7748","addr":"경기도 파주시 아동동 356-4번지","category":"일반휴게음식 - 일반한식"}]},{"lat":"37.766228089","long":"126.77612476","items":[{"name":"금촌재활용가구백화점","tel":"031-948-7277","addr":"경기도 파주시 아동동 351-7번지","category":"가구 - 일반가구"}]},{"lat":"37.760780707","long":"126.79251707","items":[{"name":"금촌지함","tel":"031-948-6901","addr":"경기도 파주시 아동동 56-1번지","category":"기타 - 기타 전문점"}]},{"lat":"37.766145356","long":"126.77998373","items":[{"name":"금촌천막사","tel":"031-943-1515","addr":"경기도 파주시 아동동 243-10번지","category":"직물 - 카페트,커튼,천막,지물"},{"name":"네오솔루션","tel":"031-947-6694","addr":"경기도 파주시 아동동 243-10번지","category":"의류 - 단체복"},{"name":"대림공업사","tel":"031-941-4750","addr":"경기도 파주시 아동동 243-10번지","category":"기타 - 기계공구"},{"name":"대흥윤활유","tel":"031-944-2915","addr":"경기도 파주시 아동동 243-10번지","category":"자동차정비 유지 - 자동차부품"},{"name":"방주솔루션","tel":"031-941-0333","addr":"경기도 파주시 아동동 243-10번지","category":"사무통신 - 사무용 OA기기"},{"name":"신영콘트롤","tel":"031-944-0455","addr":"경기도 파주시 아동동 243-10번지","category":"기타 - 기계공구"},{"name":"엘리스 씽크 금촌","tel":"031-992-2163","addr":"경기도 파주시 아동동 243-10번지","category":"주방용구 - 주방용구"},{"name":"형제설비상사","tel":"031-941-5029","addr":"경기도 파주시 아동동 243-10번지","category":"용역 서비스 - 기타용역서비스"}]},{"lat":"37.765724999","long":"126.77687534","items":[{"name":"금촌할인마트","tel":"031-945-8919","addr":"경기도 파주시 아동동 355-5번지 1층","category":"유통업 영리 - 슈퍼마켓"}]},{"lat":"37.769671116","long":"126.77685198","items":[{"name":"김밥나라","tel":"031-945-4112","addr":"경기도 파주시 아동동 275-28번지","category":"일반휴게음식 - 일반한식"},{"name":"바라도스","tel":"031-945-9677","addr":"경기도 파주시 아동동 275-28번지","category":"일반휴게음식 - 주점"},{"name":"스타노래방","tel":"031-945-2565","addr":"경기도 파주시 아동동 275-28번지","category":"레저업소 - 노 래 방"},{"name":"프로아마츄어당구장","tel":"070-7423-6603","addr":"경기도 파주시 아동동 275-28번지","category":"레저업소 - 당 구 장"},{"name":"황제화장품","tel":"","addr":"경기도 파주시 아동동 275-28번지","category":"보건위생 - 화장품"}]},{"lat":"37.760947346","long":"126.77551672","items":[{"name":"김밥천국","tel":"031-948-6540","addr":"경기도 파주시 아동동 332-8번지","category":"일반휴게음식 - 일반한식"},{"name":"여우들의공간","tel":"031-948-7855","addr":"경기도 파주시 아동동 332-8번지","category":"신변잡화 - 신발"},{"name":"입생양복점","tel":"031-946-0073","addr":"경기도 파주시 아동동 332-8번지","category":"의류 - 스포츠의류"},{"name":"퍼플헤어","tel":"031-944-9046","addr":"경기도 파주시 아동동 332-8번지","category":"보건위생 - 미용원"}]},{"lat":"37.770453608","long":"126.77615726","items":[{"name":"김밥천국","tel":"031-946-4124","addr":"경기도 파주시 아동동 292-15번지","category":"일반휴게음식 - 일반한식"},{"name":"소문난왕족발순대","tel":"031-949-2255","addr":"경기도 파주시 아동동 292-15번지","category":"일반휴게음식 - 일반한식"},{"name":"용인대해광태권도장","tel":"031-941-0210","addr":"경기도 파주시 아동동 292-15번지","category":"학원 - 예·체능계학원"},{"name":"정헤어","tel":"031-947-7455","addr":"경기도 파주시 아동동 292-15번지 동문프라자 106호","category":"보건위생 - 미용원"},{"name":"해법영어교실 금신학원","tel":"031-8071-0512","addr":"경기도 파주시 아동동 292-15번지","category":"학원 - 보습학원"}]},{"lat":"37.771337755","long":"126.77679016","items":[{"name":"김지유 피아노","tel":"","addr":"경기도 파주시 아동동 283번지 팜스프링아파트","category":"학원 - 기타 교육기관"},{"name":"예진","tel":"","addr":"경기도 파주시 아동동 283번지 팜스프링아파트","category":"건강식품 - 기타건강식품"},{"name":"태영무역","tel":"","addr":"경기도 파주시 아동동 283번지 팜스프링아파트","category":"신변잡화 - 기타잡화"}]},{"lat":"37.766092314","long":"126.77579605","items":[{"name":"김혜숙플라워","tel":"031-945-9001","addr":"경기도 파주시 아동동 351-8번지","category":"문화.취미 - 화원"},{"name":"꽃랑","tel":"031-8071-1111","addr":"경기도 파주시 아동동 351-8번지","category":"일반휴게음식 - 서양음식"}]},{"lat":"37.760371528","long":"126.77592702","items":[{"name":"까스텔바쟉파주금촌","tel":"031-949-4200","addr":"경기도 파주시 아동동 334-17번지","category":"레져용품 - 스포츠·레져용품"}]},{"lat":"37.773489353","long":"126.77592098","items":[{"name":"꼭대기","tel":"031-974-0920","addr":"경기도 파주시 아동동 283번지 팜스프링아파트","category":"회원제형태 - 학원"},{"name":"소꿉아트","tel":"070-7526-6267","addr":"경기도 파주시 아동동 283번지 팜스프링아파트","category":"학원 - 보습학원"}]},{"lat":"37.758531084","long":"126.79406678","items":[{"name":"뀌뚜라미보일러서비스","tel":"031-942-9022","addr":"경기도 파주시 아동동 53-6번지","category":"용역 서비스 - 기타용역서비스"}]},{"lat":"37.770533928","long":"126.77575977","items":[{"name":"끼니","tel":"031-8035-5155","addr":"경기도 파주시 아동동 286-28번지","category":"일반휴게음식 - 스넥"},{"name":"동문음악학원","tel":"031-944-3551","addr":"경기도 파주시 아동동 286-28번지","category":"학원 - 예·체능계학원"},{"name":"멘토학원","tel":"","addr":"경기도 파주시 아동동 286-28번지","category":"학원 - 보습학원"},{"name":"신토불이건강원","tel":"031-941-5536","addr":"경기도 파주시 아동동 286-28번지","category":"건강식품 - 기타건강식품"}]},{"lat":"37.768057662","long":"126.77645966","items":[{"name":"남도시골밥상","tel":"031-944-4722","addr":"경기도 파주시 아동동 305-29번지","category":"일반휴게음식 - 일반한식"},{"name":"남양분유","tel":"031-944-9375","addr":"경기도 파주시 아동동 305-29번지 202","category":"음료식품 - 기타음료식품"}]},{"lat":"37.760648555","long":"126.77945551","items":[{"name":"내외건축사사무소","tel":"031-957-9177","addr":"경기도 파주시 아동동 218-1번지","category":"용역 서비스 - 사무서비스"}]},{"lat":"37.767114539","long":"126.77796064","items":[{"name":"넥서스","tel":"031-948-6250","addr":"경기도 파주시 아동동 353-9번지","category":"자동차정비 유지 - 세차장"},{"name":"스타손세차","tel":"031-948-6250","addr":"경기도 파주시 아동동 353-9번지","category":"자동차정비 유지 - 세차장"}]},{"lat":"37.760899031","long":"126.77851284","items":[{"name":"노모어슬립커피(nomoresleepcoffee)","tel":"","addr":"경기도 파주시 아동동 339번지 장안5차미우아파트","category":"일반휴게음식 - 서양음식"},{"name":"진미","tel":"031-947-3989","addr":"경기도 파주시 아동동 339번지","category":"일반휴게음식 - 일반한식"}]},{"lat":"37.761398563","long":"126.77590119","items":[{"name":"노블헤어살롱","tel":"031-941-0139","addr":"경기도 파주시 아동동 328-16번지","category":"보건위생 - 미용원"}]},{"lat":"37.7676436","long":"126.78139791","items":[{"name":"노아자동차매매상사","tel":"031-948-8855","addr":"경기도 파주시 아동동 322-16번지","category":"자동차판매 - 중고자동차판매"},{"name":"카아모터스","tel":"031-944-6778","addr":"경기도 파주시 아동동 322-16번지","category":"자동차판매 - 중고자동차판매"},{"name":"파주자동차매매상사","tel":"031-948-3400","addr":"경기도 파주시 아동동 322-16번지","category":"자동차판매 - 중고자동차판매"}]},{"lat":"37.769255414","long":"126.78576272","items":[{"name":"노진수11석유 주식회사","tel":"031-948-4114","addr":"경기도 파주시 아동동 146-7번지","category":"자동차정비 유지 - 세차장"}]},{"lat":"37.760398993","long":"126.7761539","items":[{"name":"다모여","tel":"070-8249-8824","addr":"경기도 파주시 아동동 334-14번지","category":"일반휴게음식 - 일반한식"}]},{"lat":"37.774016208","long":"126.77816675","items":[{"name":"다별어린이집[아이행복]","tel":"031-946-8990","addr":"경기도 파주시 아동동 283번지 팜스프링아파트","category":"학원 - 유아원"}]},{"lat":"37.769454291","long":"126.78612533","items":[{"name":"다원에너지 주식회사","tel":"031-948-4114","addr":"경기도 파주시 아동동 143-6","category":"연료판매점 - SK가스충전소"}]},{"lat":"37.768980231","long":"126.77834088","items":[{"name":"다원피오피","tel":"031-8070-7066","addr":"경기도 파주시 아동동 299-20번지","category":"건축자재 - 인테리어전문"},{"name":"마루","tel":"031-943-9298","addr":"경기도 파주시 아동동 299-20번지","category":"일반휴게음식 - 일반한식"},{"name":"배선생수학교습소","tel":"031-957-2243","addr":"경기도 파주시 아동동 299-20번지","category":"학원 - 보습학원"}]},{"lat":"37.774501634","long":"126.77759775","items":[{"name":"다인자판기","tel":"031-943-5317","addr":"경기도 파주시 아동동 283번지 팜스프링아파트","category":"음료식품 - 기타음료식품"}]},{"lat":"37.775009168","long":"126.77917394","items":[{"name":"다있다상회","tel":"031-946-4872","addr":"경기도 파주시 아동동 277-3번지","category":"음료식품 - 농·축·수산품"}]},{"lat":"37.768366267","long":"126.77765042","items":[{"name":"대광상사","tel":"031-949-0040","addr":"경기도 파주시 아동동 275-11번지","category":"기타 - 기계공구"}]},{"lat":"37.769445924","long":"126.77687536","items":[{"name":"대박노래연습장","tel":"031-942-6971","addr":"경기도 파주시 아동동 275-17번지","category":"레저업소 - 노 래 방"},{"name":"마포생주먹고기","tel":"031-000-0000","addr":"경기도 파주시 아동동 275-17번지","category":"일반휴게음식 - 일반한식"},{"name":"별빛포차","tel":"031-411-4441","addr":"경기도 파주시 아동동 275-17번지","category":"일반휴게음식 - 일반한식"},{"name":"비호태권도장","tel":"031-944-8808","addr":"경기도 파주시 아동동 275-17번지","category":"학원 - 예·체능계학원"},{"name":"청춘호프","tel":"031-945-0078","addr":"경기도 파주시 아동동 275-17번지","category":"일반휴게음식 - 일반한식"},{"name":"호사촌","tel":"031-949-1873","addr":"경기도 파주시 아동동 275-17번지","category":"일반휴게음식 - 일반한식"},{"name":"홍도수산","tel":"031-949-1511","addr":"경기도 파주시 아동동 275-17번지","category":"일반휴게음식 - 일반한식"},{"name":"홍스쭈꾸미","tel":"031-949-9976","addr":"경기도 파주시 아동동 275-17번지","category":"일반휴게음식 - 일반한식"}]},{"lat":"37.761615287","long":"126.79573768","items":[{"name":"대영 부동산중개인사무소","tel":"031-941-8855","addr":"경기도 파주시 아동동 87-8","category":"용역 서비스 - 부동산 중개·임대"},{"name":"무진장매운갈비","tel":"031-943-1856","addr":"경기도 파주시 아동동 87-8번지","category":"일반휴게음식 - 일반한식"},{"name":"보물섬","tel":"031-947-9953","addr":"경기도 파주시 아동동 87-8번지","category":"의류 - 정장"},{"name":"유일전장","tel":"031-941-1987","addr":"경기도 파주시 아동동 87-8번지","category":"자동차정비 유지 - 자동차부품"}]},{"lat":"37.767114106","long":"126.77773366","items":[{"name":"대풍농약사","tel":"031-945-0505","addr":"경기도 파주시 아동동 353-4번지","category":"농업 - 비료,사료,종자"}]},{"lat":"37.767925191","long":"126.78262281","items":[{"name":"대한샷시","tel":"031-943-0459","addr":"경기도 파주시 아동동 247-2","category":"건축자재 - 기타건축자재"}]},{"lat":"37.760450455","long":"126.77951285","items":[{"name":"대현카공업사","tel":"031-946-4636","addr":"경기도 파주시 아동동 343-2번지","category":"자동차정비 유지 - 자동차정비"}]},{"lat":"37.761226749","long":"126.77557261","items":[{"name":"더블유헤어(w헤어)","tel":"070-8112-4518","addr":"경기도 파주시 아동동 328-24번지","category":"보건위생 - 미용원"},{"name":"드림허브","tel":"","addr":"경기도 파주시 아동동 328-24번지","category":"건강식품 - 기타건강식품"},{"name":"안나마리","tel":"031-000-0000","addr":"경기도 파주시 아동동 328-24번지","category":"의류 - 정장"},{"name":"테이커스트레이드(Takerstrade)","tel":"031-934-0066","addr":"경기도 파주시 아동동 328-24번지","category":"의류 - 정장"}]},{"lat":"37.770867278","long":"126.77575875","items":[{"name":"도영범치과의원","tel":"031-944-3645","addr":"경기도 파주시 아동동 286-25번지","category":"의원 - 의원"},{"name":"믿음어린이집[아이행복]","tel":"031-944-2629","addr":"경기도 파주시 아동동 286-25번지","category":"학원 - 유아원"},{"name":"박소아과","tel":"031-944-6970","addr":"경기도 파주시 아동동 286-25번지","category":"의원 - 의원"},{"name":"우리동네 폰 cafe","tel":"031-943-1013","addr":"경기도 파주시 아동동 286-25번지","category":"사무통신 - 통신기기"},{"name":"원샷호프","tel":"031-945-0719","addr":"경기도 파주시 아동동 286-25번지","category":"일반휴게음식 - 주점"},{"name":"필헤어","tel":"031-945-5670","addr":"경기도 파주시 아동동 286-25번지","category":"보건위생 - 미용원"},{"name":"해초과메기","tel":"070-8141-7000","addr":"경기도 파주시 아동동 286-25번지","category":"일반휴게음식 - 일반한식"},{"name":"현대약국","tel":"031-944-5473","addr":"경기도 파주시 아동동 286-25번지","category":"약국 - 약국"},{"name":"훈닷컴","tel":"031-957-9092","addr":"경기도 파주시 아동동 286-25번지","category":"수리서비스 - 사무·통신기기수리"}]},{"lat":"37.762489444","long":"126.78101608","items":[{"name":"도자컴퍼니","tel":"070-8118-1427","addr":"경기도 파주시 아동동 900번지 신안실크밸리2차아파트","category":"의류 - 정장"}]},{"lat":"37.764476647","long":"126.78864797","items":[{"name":"도토미마을","tel":"031-943-0431","addr":"경기도 파주시 아동동 172-4번지","category":"일반휴게음식 - 일반한식"}]},{"lat":"37.76081446","long":"126.79631868","items":[{"name":"돈돈","tel":"031-947-5131","addr":"경기도 파주시 아동동 61-5","category":"일반휴게음식 - 일반한식"}]},{"lat":"37.766335198","long":"126.78032364","items":[{"name":"동남공구철물","tel":"031-944-4940","addr":"경기도 파주시 아동동 243-1번지","category":"기타 - 기계공구"}]},{"lat":"37.763038145","long":"126.79537056","items":[{"name":"동아실업","tel":"031-941-2590","addr":"경기도 파주시 아동동 91-10번지","category":"기타 - 기타 전문점"},{"name":"이레마트","tel":"031-942-2127","addr":"경기도 파주시 아동동 91-10번지","category":"유통업 영리 - 슈퍼마켓"}]},{"lat":"37.765335301","long":"126.77568487","items":[{"name":"동아일보 금촌지국","tel":"031-941-4513","addr":"경기도 파주시 아동동 356-12번지","category":"서적문구 - 정기간행물"},{"name":"스튜디오쿠","tel":"070-7761-9164","addr":"경기도 파주시 아동동 356-12번지","category":"광학제품 - 사진관"},{"name":"양평해장국","tel":"031-941-7277","addr":"경기도 파주시 아동동 356-12번지","category":"일반휴게음식 - 일반한식"},{"name":"올레피씨(PC)","tel":"","addr":"경기도 파주시 아동동 356-12번지","category":"레저업소 - 기타레져업소"},{"name":"팀나르샤 마샬아츠 교육원","tel":"031-953-4882","addr":"경기도 파주시 아동동 356-12번지","category":"회원제형태 - 학원"}]},{"lat":"37.773849009","long":"126.77554532","items":[{"name":"두레토탈홈케어","tel":"","addr":"경기도 파주시 아동동 283번지 팜스프링아파트","category":"용역 서비스 - 기타용역서비스"},{"name":"모아","tel":"031-8154-1446","addr":"경기도 파주시 아동동 283번지 팜스프링아파트","category":"용역 서비스 - 종합용역"},{"name":"승수스터디","tel":"","addr":"경기도 파주시 아동동 283번지 팜스프링아파트","category":"학원 - 기타 교육기관"}]},{"lat":"37.768284379","long":"126.77723073","items":[{"name":"드림 플라이(키즈카페)","tel":"031-942-7145","addr":"경기도 파주시 아동동 298-2번지","category":"일반휴게음식 - 서양음식"},{"name":"수피자금촌점","tel":"031-941-8078","addr":"경기도 파주시 아동동 298-2번지","category":"일반휴게음식 - 서양음식"},{"name":"페리카나치킨","tel":"031-943-2924","addr":"경기도 파주시 아동동 298-2번지","category":"일반휴게음식 - 스넥"},{"name":"한마음독서실","tel":"031-947-1035","addr":"경기도 파주시 아동동 298-2번지","category":"학원 - 독서실"},{"name":"한마음신경외과","tel":"031-946-0032","addr":"경기도 파주시 아동동 298-2번지","category":"의원 - 의원"},{"name":"한마음약국","tel":"031-957-7516","addr":"경기도 파주시 아동동 298-2번지","category":"약국 - 약국"}]},{"lat":"37.769533661","long":"126.77564933","items":[{"name":"딸기어린이집[아이행복]","tel":"031-948-2385","addr":"경기도 파주시 아동동 295-1번지 석희빌라","category":"학원 - 유아원"}]},{"lat":"37.766564681","long":"126.77781477","items":[{"name":"매일낚시","tel":"031-943-8510","addr":"경기도 파주시 아동동 354-1번지","category":"레져용품 - 스포츠·레져용품"},{"name":"수제빵조아","tel":"031-945-3666","addr":"경기도 파주시 아동동 354-1번지","category":"음료식품 - 제과점"},{"name":"스톤 (STONE)","tel":"070-4616-0781","addr":"경기도 파주시 아동동 354-1번지","category":"일반휴게음식 - 서양음식"}]},{"lat":"37.766758686","long":"126.78034507","items":[{"name":"명가오리주물럭","tel":"031-943-2033","addr":"경기도 파주시 아동동 322-63번지","category":"일반휴게음식 - 일반한식"}]},{"lat":"37.766674913","long":"126.77892666","items":[{"name":"명보열쇠제작소","tel":"031-946-4988","addr":"경기도 파주시 아동동 354-6 우촌연립 111 3/6","category":"기타 - 기계공구"}]},{"lat":"37.772876471","long":"126.775798","items":[{"name":"명품스팀세차","tel":"","addr":"경기도 파주시 아동동 283번지 팜스프링아파트","category":"자동차정비 유지 - 세차장"},{"name":"아트플러스","tel":"031-948-6144","addr":"경기도 파주시 아동동 283번지 팜스프링아파트","category":"문화.취미 - 문화취미기타"}]},{"lat":"37.758232886","long":"126.7935683","items":[{"name":"명화상사","tel":"031-945-0988","addr":"경기도 파주시 아동동 41-2번지","category":"기타 - 기계공구"},{"name":"송휘차량관리","tel":"","addr":"경기도 파주시 아동동 41-2번지","category":"자동차정비 유지 - 가타자동차서비스"}]},{"lat":"37.773069372","long":"126.77772695","items":[{"name":"무풍의 바람","tel":"031-922-8560","addr":"경기도 파주시 아동동 283번지 팜스프링아파트","category":"용역 서비스 - 기타용역서비스"},{"name":"살콩살콩","tel":"031-8273-7358","addr":"경기도 파주시 아동동 283번지 팜스프링아파트","category":"회원제형태 - 건강식품"},{"name":"하늘타리 공부방","tel":"031-939-5579","addr":"경기도 파주시 아동동 283번지 팜스프링아파트","category":"학원 - 기타 교육기관"}]},{"lat":"37.765225081","long":"126.7792942","items":[{"name":"미니스톱 파주신안점","tel":"031-1577-9621","addr":"경기도 파주시 아동동 325-3번지","category":"유통업 영리 - 편 의 점"},{"name":"신안세탁","tel":"031-943-8414","addr":"경기도 파주시 아동동 325-3번지","category":"수리서비스 - 세탁소"},{"name":"헤어스토리","tel":"031-942-8572","addr":"경기도 파주시 아동동 325-3 가동","category":"보건위생 - 미용원"}]},{"lat":"37.760894077","long":"126.77592542","items":[{"name":"미란헤어(hair)","tel":"031-941-9677","addr":"경기도 파주시 아동동 331-4번지","category":"보건위생 - 미용원"},{"name":"옛날집","tel":"031-945-6677","addr":"경기도 파주시 아동동 331-4번지","category":"일반휴게음식 - 일반한식"}]},{"lat":"37.774135028","long":"126.774364","items":[{"name":"미래상사","tel":"031-947-7518","addr":"경기도 파주시 아동동 283번지 팜스프링아파트","category":"자동차정비 유지 - 자동차부품"}]},{"lat":"37.761148413","long":"126.77700275","items":[{"name":"미루혼수","tel":"031-949-8779","addr":"경기도 파주시 아동동 329-6번지 장안초원아파트","category":"직물 - 침구·수예점"},{"name":"원트(want)","tel":"070-5022-4846","addr":"경기도 파주시 아동동 329-6번지 장안초원아파트","category":"의류 - 정장"}]},{"lat":"37.759116214","long":"126.77907428","items":[{"name":"미성측량설계","tel":"031-949-3001","addr":"경기도 파주시 아동동 349-24번지","category":"용역 서비스 - 사무서비스"}]},{"lat":"37.769204146","long":"126.77764787","items":[{"name":"박장군집","tel":"031-946-3326","addr":"경기도 파주시 아동동 275-9번지","category":"일반휴게음식 - 일반한식"},{"name":"숙이네힐링포차","tel":"","addr":"경기도 파주시 아동동 275-9번지","category":"일반휴게음식 - 일반한식"},{"name":"젠틀당구장","tel":"","addr":"경기도 파주시 아동동 275-9번지","category":"레저업소 - 당 구 장"}]},{"lat":"37.766946145","long":"126.77942521","items":[{"name":"백년식당서서갈비/주식회사구정산업개발 (","tel":"031-948-9291","addr":"경기도 파주시 아동동 322-12번지","category":"일반휴게음식 - 일반한식"},{"name":"타이어가이드","tel":"031-945-0074","addr":"경기도 파주시 아동동 322-12번지","category":"자동차정비 유지 - 자동차시트·타이어"}]},{"lat":"37.766311831","long":"126.77750911","items":[{"name":"백일홍라이온스클럽","tel":"031-945-4040","addr":"경기도 파주시 아동동 355-3번지","category":"기타 - 비영리/비대상"}]},{"lat":"37.761064359","long":"126.77545962","items":[{"name":"베이바이주노(BAY BY  JUNO)","tel":"031-946-5225","addr":"경기도 파주시 아동동 332-9번지","category":"보건위생 - 미용원"},{"name":"신스(since)2004","tel":"031-949-4905","addr":"경기도 파주시 아동동 332-9번지","category":"의류 - 정장"},{"name":"행복한이야기","tel":"031-941-1791","addr":"경기도 파주시 아동동 332-9번지","category":"신변잡화 - 액세서리"}]},{"lat":"37.774147479","long":"126.77614598","items":[{"name":"별빛나무 어린이집[아이행복]","tel":"031-939-7421","addr":"경기도 파주시 아동동 283번지 팜스프링아파트","category":"학원 - 유아원"},{"name":"신나는어린이집[아이행복]","tel":"031-939-9111","addr":"경기도 파주시 아동동 283번지 팜스프링아파트","category":"학원 - 유아원"},{"name":"아이숲어린이집[아이행복]","tel":"031-939-7421","addr":"경기도 파주시 아동동 283번지 팜스프링아파트","category":"학원 - 유아원"},{"name":"위드잇","tel":"070-8236-4447","addr":"경기도 파주시 아동동 283번지 팜스프링아파트","category":"의류 - 기타의류"},{"name":"진도종합건축","tel":"070-4914-5789","addr":"경기도 파주시 아동동 283번지 팜스프링아파트","category":"용역 서비스 - 기타용역서비스"}]},{"lat":"37.761425962","long":"126.77609403","items":[{"name":"보드론","tel":"031-946-4404","addr":"경기도 파주시 아동동 328-15번지","category":"직물 - 침구·수예점"},{"name":"신토불이건강원","tel":"031-945-7009","addr":"경기도 파주시 아동동 328-15번지","category":"건강식품 - 기타건강식품"}]},{"lat":"37.75903782","long":"126.79531364","items":[{"name":"보물창고","tel":"031-957-2111","addr":"경기도 파주시 아동동 51-2번지","category":"의류 - 정장"},{"name":"비손건설&핸디맨코리아","tel":"031-945-0979","addr":"경기도 파주시 아동동 51-2번지","category":"건축자재 - 기타건축자재"},{"name":"신세계 냉난방","tel":"070-6324-1302","addr":"경기도 파주시 아동동 51-2번지","category":"용역 서비스 - 기타용역서비스"}]},{"lat":"37.769509621","long":"126.77720431","items":[{"name":"비비큐금촌새말행운점","tel":"031-943-6694","addr":"경기도 파주시 아동동 275-14번지","category":"일반휴게음식 - 스넥"},{"name":"지앤지T월드(아동점)","tel":"031-948-3017","addr":"경기도 파주시 아동동 275-14번지","category":"사무통신 - 통신기기"}]},{"lat":"37.765837616","long":"126.77923561","items":[{"name":"비젼헤어","tel":"031-947-5283","addr":"경기도 파주시 아동동 243-6번지","category":"보건위생 - 미용원"},{"name":"성우설비","tel":"031-945-3840","addr":"경기도 파주시 아동동 243-6번지","category":"용역 서비스 - 기타용역서비스"},{"name":"신촌종합설비","tel":"031-945-5878","addr":"경기도 파주시 아동동 243-6번지","category":"용역 서비스 - 기타용역서비스"}]},{"lat":"37.760281543","long":"126.77598404","items":[{"name":"비타민","tel":"050-5365-8572","addr":"경기도 파주시 아동동 334-30번지","category":"의류 - 정장"},{"name":"이끌림","tel":"031-942-0765","addr":"경기도 파주시 아동동 334-30번지 외1필지2호","category":"의류 - 정장"},{"name":"이미지뱅크","tel":"031-946-0804","addr":"경기도 파주시 아동동 334-30번지","category":"광학제품 - 사진관"},{"name":"학교종이땡땡이","tel":"031-948-8301","addr":"경기도 파주시 아동동 334-30번지","category":"의류 - 아동의류"},{"name":"허니","tel":"031-957-3230","addr":"경기도 파주시 아동동 334-30번지","category":"의류 - 정장"}]},{"lat":"37.764678486","long":"126.78087335","items":[{"name":"빛;자람 kids_center","tel":"","addr":"경기도 파주시 아동동 897번지","category":"문화.취미 - 문화취미기타"},{"name":"신안아이어린이집[아이행복]","tel":"031-942-1236","addr":"경기도 파주시 아동동 897 신안실크밸리 1차@ 관리동","category":"학원 - 유아원"},{"name":"신안키즈태권도","tel":"031-949-1212","addr":"경기도 파주시 아동동 897번지","category":"학원 - 예·체능계학원"},{"name":"신안행복한피아노교습소","tel":"031-943-3254","addr":"경기도 파주시 아동동 897번지","category":"학원 - 예·체능계학원"},{"name":"실크헤어","tel":"031-949-5744","addr":"경기도 파주시 아동동 897번지 파주아동동신안실크밸리","category":"보건위생 - 미용원"}]},{"lat":"37.769008016","long":"126.77873803","items":[{"name":"빠씨오네","tel":"031-943-9873","addr":"경기도 파주시 아동동 299-23번지","category":"일반휴게음식 - 일반한식"}]},{"lat":"37.773514827","long":"126.77511503","items":[{"name":"뿌뿌룰루","tel":"031-943-3750","addr":"경기도 파주시 아동동 283번지 팜스프링아파트","category":"의류 - 기타의류"},{"name":"산예푸드","tel":"","addr":"경기도 파주시 아동동 283번지 팜스프링아파트","category":"음료식품 - 기타음료식품"},{"name":"아소비","tel":"","addr":"경기도 파주시 아동동 283번지 팜스프링아파트","category":"학원 - 기타 교육기관"},{"name":"아이지미술","tel":"02-711-8110","addr":"경기도 파주시 아동동 283번지 팜스프링아파트","category":"회원제형태 - 서적"},{"name":"월리 하우스","tel":"031-949-5196","addr":"경기도 파주시 아동동 283번지 팜스프링아파트","category":"음료식품 - 기타음료식품"},{"name":"이영희국어논술","tel":"031-945-6291","addr":"경기도 파주시 아동동 283번지 팜스프링아파트","category":"회원제형태 - 학원"}]},{"lat":"37.77166776","long":"126.7750526","items":[{"name":"살린EM천연비누","tel":"031-947-6017","addr":"경기도 파주시 아동동 283번지 팜스프링아파트","category":"회원제형태 - 기타4"}]},{"lat":"37.769443698","long":"126.7757177","items":[{"name":"삼뚱리본","tel":"031-000-0000","addr":"경기도 파주시 아동동 295-1번지 석희빌라","category":"신변잡화 - 액세서리"}]},{"lat":"37.76927982","long":"126.78434394","items":[{"name":"삼성주방","tel":"031-947-6668","addr":"경기도 파주시 아동동 253-1번지","category":"주방용구 - 주방용식기"}]},{"lat":"37.768510083","long":"126.78223519","items":[{"name":"삼원에너지","tel":"031-945-0501","addr":"경기도 파주시 아동동 322-19,322-25","category":"연료판매점 - SK주유소"},{"name":"삼원에너지","tel":"031-945-0501","addr":"경기도 파주시 아동동 322-19번지","category":"연료판매점 - SK가스충전소"}]},{"lat":"37.766561426","long":"126.79062808","items":[{"name":"삼합설비","tel":"031-945-0479","addr":"경기도 파주시 아동동 78-5번지","category":"용역 서비스 - 기타용역서비스"}]},{"lat":"37.768223913","long":"126.77859286","items":[{"name":"삼형제조경","tel":"031-946-2263","addr":"경기도 파주시 아동동 303-3,303-11","category":"문화.취미 - 화원"}]},{"lat":"37.765919067","long":"126.7794283","items":[{"name":"상승전기","tel":"031-941-6833","addr":"경기도 파주시 아동동 243-7번지","category":"전기제품 - 기타전기제품"},{"name":"희망총포사","tel":"031-944-3790","addr":"경기도 파주시 아동동 243동 7호","category":"레져용품 - 총포류판매점"}]},{"lat":"37.768419629","long":"126.77728707","items":[{"name":"새말노래연습장","tel":"","addr":"경기도 파주시 아동동 298-1번지","category":"레저업소 - 노 래 방"},{"name":"회생각 새말점","tel":"031-947-2127","addr":"경기도 파주시 아동동 298-1번지","category":"일반휴게음식 - 일식·회집"}]},{"lat":"37.759426205","long":"126.78101388","items":[{"name":"샛별유치원[아이행복]","tel":"031-945-7268","addr":"경기도 파주시 아동동 211","category":"학원 - 유치원"}]},{"lat":"37.767835351","long":"126.78275927","items":[{"name":"서광건업","tel":"031-941-1450","addr":"경기도 파주시 아동동 247-1번지","category":"건축자재 - 기타건축자재"},{"name":"현대금속","tel":"031-946-4256","addr":"경기도 파주시 아동동 247-1번지","category":"건축자재 - 기타건축자재"}]},{"lat":"37.769506149","long":"126.78493346","items":[{"name":"성은KPT파렛트","tel":"031-975-4408","addr":"경기도 파주시 아동동 143-20","category":"건축자재 - 목재·석재·철물"}]},{"lat":"37.766891312","long":"126.7790168","items":[{"name":"성지식당","tel":"031-941-0705","addr":"경기도 파주시 아동동 354-5번지","category":"일반휴게음식 - 일반한식"},{"name":"자연 인테리어","tel":"031-4806-2180","addr":"경기도 파주시 아동동 354-5번지","category":"건축자재 - 인테리어전문"}]},{"lat":"37.770281729","long":"126.77579459","items":[{"name":"세화코리아","tel":"031-953-7263","addr":"경기도 파주시 아동동 293-4","category":"보건위생 - 미용재료"},{"name":"올리브포차","tel":"031-946-9411","addr":"경기도 파주시 아동동 293-4번지","category":"일반휴게음식 - 주점"}]},{"lat":"37.765560362","long":"126.77559339","items":[{"name":"소문난푸줏간","tel":"031-8071-5981","addr":"경기도 파주시 아동동 356-2번지","category":"음료식품 - 정육점"},{"name":"헤어그린","tel":"031-943-6825","addr":"경기도 파주시 아동동 356-2번지","category":"보건위생 - 미용원"}]},{"lat":"37.760399517","long":"126.77642626","items":[{"name":"솜사탕","tel":"000-0000-0000","addr":"경기도 파주시 아동동 334-47번지","category":"의류 - 아동의류"}]},{"lat":"37.773601838","long":"126.77820205","items":[{"name":"송화키즈어린이집[아이행복]","tel":"031-948-4422","addr":"경기도 파주시 아동동 283","category":"학원 - 유아원"}]},{"lat":"37.765176162","long":"126.77726287","items":[{"name":"순수   핸드메이드","tel":"","addr":"경기도 파주시 아동동 357-8번지","category":"의류 - 기타의류"},{"name":"협신정밀","tel":"031-944-9368","addr":"경기도 파주시 아동동 357-8번지","category":"건축자재 - 기타건축자재"}]},{"lat":"37.759730695","long":"126.78978513","items":[{"name":"숲속 어린이집[아이행복]","tel":"031-957-9970","addr":"경기도 파주시 아동동 208-30번지","category":"학원 - 유아원"}]},{"lat":"37.760588301","long":"126.77621007","items":[{"name":"스위치호텔","tel":"031-937-8228","addr":"경기도 파주시 아동동 334-40번지","category":"숙박업 - 여관/기타숙박업"}]},{"lat":"37.758758865","long":"126.79550734","items":[{"name":"시골순대국","tel":"031-941-1581","addr":"경기도 파주시 아동동 47-2번지","category":"일반휴게음식 - 일반한식"}]},{"lat":"37.760887331","long":"126.79677242","items":[{"name":"신명사","tel":"031-949-0790","addr":"경기도 파주시 아동동 61-5번지 재정맨션","category":"기타 - 기타 전문점"},{"name":"에어컨 SVC","tel":"","addr":"경기도 파주시 아동동 61-5번지 재정맨션","category":"용역 서비스 - 기타용역서비스"}]},{"lat":"37.76189486","long":"126.79589578","items":[{"name":"신세기냉동","tel":"031-941-2438","addr":"경기도 파주시 아동동 88","category":"전기제품 - 냉열기기"}]},{"lat":"37.769362853","long":"126.7758428","items":[{"name":"신아공조","tel":"","addr":"경기도 파주시 아동동 296-6번지","category":"용역 서비스 - 기타용역서비스"}]},{"lat":"37.762938526","long":"126.78027707","items":[{"name":"신안벧엘어린이집[아이행복]","tel":"031-945-1997","addr":"경기도 파주시 아동동 900번지 신안실크밸리2차아파트","category":"학원 - 유아원"},{"name":"신안예쁜별어린이집[아이행복]","tel":"031-957-6669","addr":"경기도 파주시 아동동 900번지 신안실크밸리2차아파트","category":"학원 - 유아원"},{"name":"인디고","tel":"","addr":"경기도 파주시 아동동 900번지 신안실크밸리2차아파트","category":"건축자재 - 인테리어전문"}]},{"lat":"37.763154045","long":"126.77990192","items":[{"name":"신안새싹어린이집[아이행복]","tel":"031-939-1552","addr":"경기도 파주시 아동동 900번지 신안실크밸리2차아파트","category":"학원 - 유아원"}]},{"lat":"37.757370667","long":"126.79509134","items":[{"name":"심부름 기사","tel":"031-943-8954","addr":"경기도 파주시 아동동 25번지 부일주택","category":"보건위생 - 기타대인서비스"}]},{"lat":"37.761867353","long":"126.79562349","items":[{"name":"쌍용파주서비스프라자","tel":"031-943-7115","addr":"경기도 파주시 아동동 87-1번지","category":"자동차정비 유지 - 자동차정비"}]},{"lat":"37.768950665","long":"126.77701307","items":[{"name":"썬고시텔","tel":"031-948-2133","addr":"경기도 파주시 아동동 297번지","category":"학원 - 독서실"},{"name":"썬원룸텔","tel":"031-948-2133","addr":"경기도 파주시 아동동 297번지","category":"학원 - 독서실"},{"name":"아리랑","tel":"031-944-0999","addr":"경기도 파주시 아동동 297번지","category":"일반휴게음식 - 일반한식"},{"name":"안군비어","tel":"070-7623-2425","addr":"경기도 파주시 아동동 297번지","category":"일반휴게음식 - 일반한식"},{"name":"채온365","tel":"031-943-1233","addr":"경기도 파주시 아동동 297번지","category":"보건위생 - 화장품"},{"name":"통큰아구찜","tel":"031-948-3998","addr":"경기도 파주시 아동동 297번지","category":"일반휴게음식 - 일반한식"}]},{"lat":"37.770534518","long":"126.77606621","items":[{"name":"씨유금촌동문점","tel":"031-957-7045","addr":"경기도 파주시 아동동 286-29,292-15","category":"유통업 영리 - 편 의 점"}]},{"lat":"37.765674864","long":"126.77892968","items":[{"name":"씨유금촌신안점","tel":"031-945-8553","addr":"경기도 파주시 아동동 243-3번지","category":"유통업 영리 - 편 의 점"},{"name":"컴바이컴 파주점","tel":"031-943-6119","addr":"경기도 파주시 아동동 243-3번지","category":"사무통신 - 컴퓨터"}]},{"lat":"37.770204603","long":"126.7826274","items":[{"name":"아가파오숲어린이집[아이행복]","tel":"031-946-7449","addr":"경기도 파주시 아동동 267-4번지","category":"학원 - 유아원"}]},{"lat":"37.769310306","long":"126.78137024","items":[{"name":"아라존공업사","tel":"031-945-7042","addr":"경기도 파주시 아동동 270-1번지","category":"자동차정비 유지 - 자동차정비"}]},{"lat":"37.761868974","long":"126.77689842","items":[{"name":"아방스직매장","tel":"031-945-2579","addr":"경기도 파주시 아동동 328번지","category":"직물 - 침구·수예점"}]},{"lat":"37.772902119","long":"126.77508286","items":[{"name":"아이들의 뜰 어린이집[아이행복]","tel":"031-949-7819","addr":"경기도 파주시 아동동 283번지 팜스프링아파트","category":"학원 - 유아원"}]},{"lat":"37.774190491","long":"126.77509026","items":[{"name":"아이엔비젼 경기북부 특판-1","tel":"031-1833-9638","addr":"경기도 파주시 아동동 283번지 팜스프링아파트","category":"학원 - 기타 교육기관"}]},{"lat":"37.765592353","long":"126.77818089","items":[{"name":"안선생독서실","tel":"031-926-3340","addr":"경기도 파주시 아동동 357-5번지","category":"학원 - 독서실"}]},{"lat":"37.769142898","long":"126.77860143","items":[{"name":"양자강","tel":"031-943-9547","addr":"경기도 파주시 아동동 299-109번지","category":"일반휴게음식 - 중국식"}]},{"lat":"37.761173807","long":"126.77615154","items":[{"name":"엉터리연탄갈비","tel":"031-941-5633","addr":"경기도 파주시 아동동 330-2번지","category":"일반휴게음식 - 일반한식"}]},{"lat":"37.763849851","long":"126.78100067","items":[{"name":"에치.에스.엠","tel":"031-942-3057","addr":"경기도 파주시 아동동 897번지 파주아동동신안실크밸리","category":"회원제형태 - 기타4"},{"name":"이베리마켓","tel":"070-7568-0095","addr":"경기도 파주시 아동동 897번지 파주아동동신안실크밸리","category":"회원제형태 - 기타4"}]},{"lat":"37.761002736","long":"126.7762088","items":[{"name":"에쿠스","tel":"031-945-3462","addr":"경기도 파주시 아동동 331-2번지","category":"숙박업 - 여관/기타숙박업"}]},{"lat":"37.764436021","long":"126.78129399","items":[{"name":"여우별작업실","tel":"070-7591-4939","addr":"경기도 파주시 아동동 897번지 파주아동동신안실크밸리","category":"문화.취미 - 문화취미기타"}]},{"lat":"37.771975067","long":"126.77556241","items":[{"name":"연리지 의료선교회","tel":"070-4696-9807","addr":"경기도 파주시 아동동 283번지 팜스프링아파트","category":"학원 - 기타 교육기관"}]},{"lat":"37.771029251","long":"126.7756561","items":[{"name":"영의정궁중인절미","tel":"031-945-2080","addr":"경기도 파주시 아동동 290-2번지","category":"음료식품 - 제과점"}]},{"lat":"37.758065734","long":"126.79584971","items":[{"name":"옛날통닭","tel":"031-944-9998","addr":"경기도 파주시 아동동 44-3번지","category":"일반휴게음식 - 스넥"},{"name":"종합카센타","tel":"031-945-3380","addr":"경기도 파주시 아동동 44-3번지","category":"자동차정비 유지 - 자동차정비"}]},{"lat":"37.765809272","long":"126.7785434","items":[{"name":"오아시스노래연습장","tel":"031-957-6116","addr":"경기도 파주시 아동동 358-7번지","category":"레저업소 - 노 래 방"}]},{"lat":"37.760614477","long":"126.7757674","items":[{"name":"올리비아하슬러","tel":"031-948-6055","addr":"경기도 파주시 아동동 334-3번지","category":"의류 - 스포츠의류"},{"name":"칼라미용실","tel":"031-944-8098","addr":"경기도 파주시 아동동 334-3번지","category":"보건위생 - 미용원"},{"name":"피에이티(PAT)금촌점","tel":"031-943-6055","addr":"경기도 파주시 아동동 334-3번지","category":"레져용품 - 스포츠·레져용품"},{"name":"휠라","tel":"031-941-6055","addr":"경기도 파주시 아동동 334-3번지","category":"레져용품 - 스포츠·레져용품"}]},{"lat":"37.761172407","long":"126.77542524","items":[{"name":"옷짱","tel":"031-945-5760","addr":"경기도 파주시 아동동 328-31번지","category":"의류 - 정장"},{"name":"유씨엘에이(UCLA)","tel":"031-942-3654","addr":"경기도 파주시 아동동 328-31번지","category":"신변잡화 - 액세서리"}]},{"lat":"37.760676637","long":"126.78001149","items":[{"name":"외가집","tel":"031-943-1753","addr":"경기도 파주시 아동동 217-1번지","category":"일반휴게음식 - 일반한식"}]},{"lat":"37.768838567","long":"126.78445874","items":[{"name":"우리 천막","tel":"031-946-0334","addr":"경기도 파주시 아동동 252-7번지","category":"직물 - 카페트,커튼,천막,지물"}]},{"lat":"37.768864813","long":"126.77923785","items":[{"name":"우리나라 어린이집[아이행복]","tel":"031-941-6958","addr":"경기도 파주시 아동동 274-7번지","category":"학원 - 유아원"}]},{"lat":"37.77030906","long":"126.78550995","items":[{"name":"워시박스(금촌점)","tel":"031-946-1032","addr":"경기도 파주시 아동동 142-5 1층","category":"신변잡화 - 기타잡화"}]},{"lat":"37.765535321","long":"126.77662623","items":[{"name":"원조서울추어탕","tel":"031-943-3797","addr":"경기도 파주시 아동동 356-7번지","category":"일반휴게음식 - 일반한식"}]},{"lat":"37.768864339","long":"126.77898816","items":[{"name":"월드모터스","tel":"031-949-0011","addr":"경기도 파주시 아동동 299-1번지","category":"자동차정비 유지 - 자동차정비"}]},{"lat":"37.758148826","long":"126.79190039","items":[{"name":"월드유통","tel":"031-947-4561","addr":"경기도 파주시 아동동 33-5번지","category":"신변잡화 - 기타잡화"}]},{"lat":"37.769227597","long":"126.78050792","items":[{"name":"율곡서점","tel":"031-946-6589","addr":"경기도 파주시 아동동 274-14번지 초원연립상가 103호","category":"서적문구 - 일반서적"}]},{"lat":"37.771398531","long":"126.78031981","items":[{"name":"은행나무집","tel":"031-942-1514","addr":"경기도 파주시 아동동 276-1번지","category":"일반휴게음식 - 일반한식"}]},{"lat":"37.761424847","long":"126.77551526","items":[{"name":"이끌림샵","tel":"031-945-6121","addr":"경기도 파주시 아동동 328-26번지","category":"문화.취미 - 애완동물"}]},{"lat":"37.765059777","long":"126.77764909","items":[{"name":"이마트24 아동빌리지점","tel":"031-1111-1111","addr":"경기도 파주시 아동동 326-3번지","category":"유통업 영리 - 편 의 점"}]},{"lat":"37.758308691","long":"126.79567882","items":[{"name":"이모네밥집","tel":"031-941-4626","addr":"경기도 파주시 아동동 45-7번지","category":"일반휴게음식 - 일반한식"}]},{"lat":"37.766176102","long":"126.77720309","items":[{"name":"일호집","tel":"031-944-5263","addr":"경기도 파주시 아동동 355-2번지","category":"일반휴게음식 - 일반한식"},{"name":"파주능이백숙","tel":"031-946-5579","addr":"경기도 파주시 아동동 355-2번지","category":"일반휴게음식 - 일반한식"},{"name":"황가네부대찌개(본점)","tel":"031-944-4610","addr":"경기도 파주시 아동동 355-2번지","category":"일반휴게음식 - 일반한식"}]},{"lat":"37.765784744","long":"126.77515009","items":[{"name":"작은공간","tel":"031-949-5902","addr":"경기도 파주시 아동동 351-15번지","category":"일반휴게음식 - 주점"},{"name":"지프","tel":"031-944-5999","addr":"경기도 파주시 아동동 351-15번지","category":"일반휴게음식 - 주점"},{"name":"콩밭뜰 금촌직영1호점","tel":"031-944-0868","addr":"경기도 파주시 아동동 351-15번지","category":"일반휴게음식 - 일반한식"}]},{"lat":"37.761615859","long":"126.7764566","items":[{"name":"장안지물포","tel":"031-945-7753","addr":"경기도 파주시 아동동 328-45번지","category":"직물 - 카페트,커튼,천막,지물"},{"name":"종로의료기","tel":"031-944-9836","addr":"경기도 파주시 아동동 328-45번지","category":"보건위생 - 의료용품"},{"name":"행운꽃화원","tel":"031-945-8844","addr":"경기도 파주시 아동동 328-45번지","category":"문화.취미 - 화원"}]},{"lat":"37.769303402","long":"126.77772702","items":[{"name":"재흥","tel":"","addr":"경기도 파주시 아동동 275-9번지 파라다이스아파트","category":"음료식품 - 농·축·수산품"}]},{"lat":"37.761370615","long":"126.77542464","items":[{"name":"전통설렁탕","tel":"031-946-0006","addr":"경기도 파주시 아동동 328-29번지","category":"일반휴게음식 - 일반한식"}]},{"lat":"37.767035183","long":"126.77886883","items":[{"name":"절대만족 금촌점","tel":"031-948-6666","addr":"경기도 파주시 아동동 354-3번지","category":"일반휴게음식 - 일반한식"}]},{"lat":"37.772120552","long":"126.77625432","items":[{"name":"정쌤 수학","tel":"","addr":"경기도 파주시 아동동 283번지 팜스프링아파트","category":"학원 - 기타 교육기관"}]},{"lat":"37.769089188","long":"126.78357273","items":[{"name":"제이제이전자","tel":"","addr":"경기도 파주시 아동동 322-20번지","category":"자동차정비 유지 - 자동차부품"}]},{"lat":"37.767669405","long":"126.77601821","items":[{"name":"제일자동차안전사업단","tel":"031-944-9991","addr":"경기도 파주시 아동동 305-24 원광빌딩2층","category":"자동차정비 유지 - 자동차부품"},{"name":"현대모타콤프레샤","tel":"031-949-5999","addr":"경기도 파주시 아동동 305-24번지","category":"기타 - 기계공구"}]},{"lat":"37.763646868","long":"126.78815102","items":[{"name":"주성엠에스","tel":"070-4686-9412","addr":"경기도 파주시 아동동 173-11번지","category":"신변잡화 - 기타잡화"}]},{"lat":"37.765416727","long":"126.78058742","items":[{"name":"지성어린이집[아이행복]","tel":"031-943-3396","addr":"경기도 파주시 아동동 897번지 신안실크밸리 102동 103호","category":"학원 - 유아원"},{"name":"토탈홈케어","tel":"070-8956-3904","addr":"경기도 파주시 아동동 897번지 파주아동동신안실크밸리","category":"용역 서비스 - 종합용역"}]},{"lat":"37.763474528","long":"126.78751599","items":[{"name":"진슈퍼","tel":"031-945-3047","addr":"경기도 파주시 아동동 171-50번지","category":"유통업 영리 - 슈퍼마켓"}]},{"lat":"37.765868082","long":"126.77631879","items":[{"name":"착한낙지","tel":"031-946-5570","addr":"경기도 파주시 아동동 356-21번지","category":"일반휴게음식 - 일반한식"}]},{"lat":"37.765920587","long":"126.77551284","items":[{"name":"참나무누룽지장작구이","tel":"070-7614-3579","addr":"경기도 파주시 아동동 351-12번지","category":"일반휴게음식 - 일반한식"}]},{"lat":"37.761507851","long":"126.79612383","items":[{"name":"천일슈퍼","tel":"031-945-2869","addr":"경기도 파주시 아동동 62-1번지","category":"유통업 영리 - 슈퍼마켓"}]},{"lat":"37.76509198","long":"126.77565157","items":[{"name":"청진동해장국","tel":"031-948-8931","addr":"경기도 파주시 아동동 356-14번지","category":"일반휴게음식 - 일반한식"},{"name":"통마루","tel":"031-8071-1013","addr":"경기도 파주시 아동동 356-14번지","category":"일반휴게음식 - 서양음식"}]},{"lat":"37.758614714","long":"126.79550774","items":[{"name":"최은희 미용타운","tel":"031-942-1581","addr":"경기도 파주시 아동동 46-64번지","category":"보건위생 - 미용원"}]},{"lat":"37.7700580868","long":"126.7766238045","items":[{"name":"추사랑","tel":"031-942-7008","addr":"경기도 파주시 아동동 275-16번지","category":"일반휴게음식 - 일반한식"}]},{"lat":"37.760058975","long":"126.79706977","items":[{"name":"충성사","tel":"070-7013-4545","addr":"경기도 파주시 아동동 16-1번지","category":"서적문구 - 문구용품"}]},{"lat":"37.765168432","long":"126.77793249","items":[{"name":"친정집","tel":"031-941-9181","addr":"경기도 파주시 아동동 326-2번지","category":"일반휴게음식 - 일반한식"}]},{"lat":"37.768880131","long":"126.7778191","items":[{"name":"카앤로드","tel":"","addr":"경기도 파주시 아동동 275-9번지 파라다이스아파트","category":"자동차정비 유지 - 자동차부품"}]},{"lat":"37.7650905","long":"126.79434341","items":[{"name":"카트렌드","tel":"031-949-5138","addr":"경기도 파주시 아동동 96-4","category":"자동차정비 유지 - 자동차부품"},{"name":"카페더빈스(Cafe the bean's)","tel":"031-943-2715","addr":"경기도 파주시 아동동 96-4번지","category":"일반휴게음식 - 서양음식"}]},{"lat":"37.759341171","long":"126.77892608","items":[{"name":"칼디","tel":"031-946-8909","addr":"경기도 파주시 아동동 349-20번지","category":"일반휴게음식 - 서양음식"}]},{"lat":"37.768808795","long":"126.78298338","items":[{"name":"케이와이에너지(주)아동주유소","tel":"031-945-0501","addr":"경기도 파주시 아동동 322-71번지","category":"연료판매점 - GS주유소"},{"name":"케이와이에너지(주)아동주유소충전소","tel":"031-945-0501","addr":"경기도 파주시 아동동 322-71번지","category":"연료판매점 - GS 가스충전소"}]},{"lat":"37.758200677","long":"126.79573586","items":[{"name":"코사마트(자원점)","tel":"031-941-0319","addr":"경기도 파주시 아동동 46-38번지","category":"유통업 영리 - 슈퍼마켓"}]},{"lat":"37.768947317","long":"126.77998667","items":[{"name":"쿠시나","tel":"031-944-8878","addr":"경기도 파주시 아동동 274-37번지","category":"일반휴게음식 - 일반한식"}]},{"lat":"37.761370418","long":"126.7753225","items":[{"name":"크리나헤어","tel":"031-949-4453","addr":"경기도 파주시 아동동 328-28번지","category":"보건위생 - 미용원"}]},{"lat":"37.770421223","long":"126.77806413","items":[{"name":"크린토피아 이마트에브리데이 팜스프링점","tel":"031-8071-1995","addr":"경기도 파주시 아동동 275-25번지","category":"수리서비스 - 세탁소"}]},{"lat":"37.765835132","long":"126.77793047","items":[{"name":"태경모타상사","tel":"031-945-3522","addr":"경기도 파주시 아동동 357-3번지","category":"기타 - 기계공구"}]},{"lat":"37.77282514","long":"126.77721693","items":[{"name":"터치터치미술","tel":"","addr":"경기도 파주시 아동동 283번지 팜스프링아파트","category":"학원 - 기타 교육기관"}]},{"lat":"37.763425711","long":"126.79546026","items":[{"name":"통일가스상사","tel":"031-949-5356","addr":"경기도 파주시 아동동 91-7번지","category":"연료판매점 - LPG 취급점"}]},{"lat":"37.760812467","long":"126.77565331","items":[{"name":"통일라이온스클럽","tel":"031-941-2199","addr":"경기도 파주시 아동동 333-1번지","category":"기타 - 비영리/비대상"}]},{"lat":"37.760863752","long":"126.79361763","items":[{"name":"파라다이스","tel":"","addr":"경기도 파주시 아동동 58-2번지","category":"일반휴게음식 - 일반한식"}]},{"lat":"37.767231878","long":"126.77807378","items":[{"name":"파주기계랜드","tel":"031-946-0944","addr":"경기도 파주시 아동동 353-2번지","category":"기타 - 기계공구"},{"name":"프로금속","tel":"031-944-2838","addr":"경기도 파주시 아동동 353-2번지","category":"건축자재 - 기타건축자재"}]},{"lat":"37.76137241","long":"126.79595398","items":[{"name":"파주동창장갑","tel":"031-945-8600","addr":"경기도 파주시 아동동 62-4번지","category":"기타 - 기타 전문점"}]},{"lat":"37.760367747","long":"126.79334667","items":[{"name":"파주민물매운탕","tel":"031-943-3366","addr":"경기도 파주시 아동동 57-5번지 나동","category":"일반휴게음식 - 일반한식"}]},{"lat":"37.768477299","long":"126.77918227","items":[{"name":"파주상사","tel":"031-946-7941","addr":"경기도 파주시 아동동 299-62번지","category":"건축자재 - 목재·석재·철물"}]},{"lat":"37.773284273","long":"126.77703393","items":[{"name":"파주석산양봉","tel":"031-947-7990","addr":"경기도 파주시 아동동 283번지 팜스프링아파트","category":"건강식품 - 기타건강식품"},{"name":"해보라조명","tel":"","addr":"경기도 파주시 아동동 283번지 팜스프링아파트","category":"건축자재 - 조명기구"}]},{"lat":"37.774503906","long":"126.77878954","items":[{"name":"파주송화초등학교병설유치원[아이행복]","tel":"031-947-1654","addr":"경기도 파주시 아동동 277번지","category":"학원 - 유치원"}]},{"lat":"37.764064884","long":"126.79517476","items":[{"name":"파주시농업기술센터","tel":"031-940-4505","addr":"경기도 파주시 아동동 91-6번지","category":"농업 - 농기계"}]},{"lat":"37.759451285","long":"126.77998112","items":[{"name":"파주시청/문화관광과","tel":"031-940-4356","addr":"경기도 파주시 아동동 215-1번지","category":"문화.취미 - 티켓"}]},{"lat":"37.761087819","long":"126.77829665","items":[{"name":"파주신비수","tel":"031-111-1111","addr":"경기도 파주시 아동동 339번지 장안5차미우아파트","category":"유통업 영리 - 기타유통업"}]},{"lat":"37.760088212","long":"126.79321128","items":[{"name":"파주쌀베이커리","tel":"031-941-2549","addr":"경기도 파주시 아동동 54-2번지","category":"음료식품 - 제과점"}]},{"lat":"37.766198081","long":"126.79401117","items":[{"name":"파주아동주유소","tel":"031-942-5103","addr":"경기도 파주시 아동동 107-2번지","category":"연료판매점 - 현대정유(오일뱅크)"}]},{"lat":"37.761062043","long":"126.77895493","items":[{"name":"파주에어컨","tel":"","addr":"경기도 파주시 아동동 339번지 장안5차미우아파트","category":"용역 서비스 - 기타용역서비스"}]},{"lat":"37.760173082","long":"126.79029453","items":[{"name":"파주중장비쎈타","tel":"031-946-1260","addr":"경기도 파주시 아동동 201-2","category":"기타 - 기계공구"}]},{"lat":"37.761255088","long":"126.79584082","items":[{"name":"파주한뚝배기순대국","tel":"031-948-8811","addr":"경기도 파주시 아동동 62-16번지","category":"일반휴게음식 - 일반한식"}]},{"lat":"37.772335248","long":"126.77545915","items":[{"name":"팜스세빛어린이집[아이행복]","tel":"031-949-1725","addr":"경기도 파주시 아동동 283번지 팜스프링아파트","category":"학원 - 유아원"}]},{"lat":"37.758205313","long":"126.79326199","items":[{"name":"포엠","tel":"031-947-8085","addr":"경기도 파주시 아동동 33-1번지","category":"건축자재 - 인테리어전문"}]},{"lat":"37.767842746","long":"126.78189669","items":[{"name":"풍미진해장국","tel":"031-949-1117","addr":"경기도 파주시 아동동 322-18번지","category":"일반휴게음식 - 일반한식"}]},{"lat":"37.763928472","long":"126.77969532","items":[{"name":"플러스 공부방","tel":"","addr":"경기도 파주시 아동동 900번지 신안실크밸리2차아파트","category":"학원 - 기타 교육기관"}]},{"lat":"37.765643108","long":"126.77645567","items":[{"name":"필드웨이","tel":"031-924-1470","addr":"경기도 파주시 아동동 356-6번지 태양주택","category":"레져용품 - 스포츠·레져용품"}]},{"lat":"37.768337914","long":"126.77695818","items":[{"name":"하늘정보","tel":"031-944-0778","addr":"경기도 파주시 아동동 296-8번지","category":"사무통신 - 컴퓨터"}]},{"lat":"37.766038039","long":"126.77568272","items":[{"name":"하우돈곱창금촌점","tel":"031-947-9777","addr":"경기도 파주시 아동동 351-9번지","category":"일반휴게음식 - 일반한식"}]},{"lat":"37.772643841","long":"126.77663863","items":[{"name":"하우스피쉬","tel":"031-8071-1122","addr":"경기도 파주시 아동동 283번지 팜스프링아파트","category":"회원제형태 - 기타4"}]},{"lat":"37.763794124","long":"126.78011563","items":[{"name":"하이모노(Hi-mono)","tel":"","addr":"경기도 파주시 아동동 900번지 신안실크밸리2차아파트","category":"신변잡화 - 기타잡화"}]},{"lat":"37.773191232","long":"126.77550193","items":[{"name":"한국국기원","tel":"02-2266-0528","addr":"경기도 파주시 아동동 283번지 팜스프링아파트","category":"신변잡화 - 기념품점"}]},{"lat":"37.766059783","long":"126.77762336","items":[{"name":"한빛시스템","tel":"","addr":"경기도 파주시 아동동 355-10번지 소르빌","category":"용역 서비스 - 기타용역서비스"}]},{"lat":"37.760588519","long":"126.77632355","items":[{"name":"한우회관","tel":"031-943-3392","addr":"경기도 파주시 아동동 334-39번지","category":"일반휴게음식 - 일반한식"}]},{"lat":"37.763897766","long":"126.78740127","items":[{"name":"한진화학","tel":"031-945-3047","addr":"경기도 파주시 아동동 171-11번지","category":"서적문구 - 문구용품"}]},{"lat":"37.763033914","long":"126.78798256","items":[{"name":"현대중전기","tel":"031-944-9975","addr":"경기도 파주시 아동동 171-12번지","category":"기타 - 기계공구"}]},{"lat":"37.766981234","long":"126.77892574","items":[{"name":"현유통","tel":"031-944-5535","addr":"경기도 파주시 아동동 354-4번지","category":"음료식품 - 기타음료식품"}]},{"lat":"37.767006057","long":"126.77776803","items":[{"name":"홍삼한방장어","tel":"031-941-0969","addr":"경기도 파주시 아동동 353-11번지","category":"일반휴게음식 - 일반한식"}]}]