[{"lat":"36.986217602","long":"126.89258085","items":[{"name":"GS25서동대로점","tel":"02-2006-2485","addr":"경기도 평택시 현덕면 운정리 36-13번지 외1필지","category":"유통업 영리 - 편 의 점"},{"name":"버디스크린골프","tel":"031-686-5023","addr":"경기도 평택시 현덕면 운정리 36-13번지","category":"레저업소 - 스크린골프"},{"name":"스마일식당","tel":"031-683-7288","addr":"경기도 평택시 현덕면 운정리 36-13번지 외1필지","category":"일반휴게음식 - 일반한식"}]},{"lat":"36.986968168","long":"126.89550019","items":[{"name":"구억카센타","tel":"031-682-5955","addr":"경기도 평택시 현덕면 운정리 6-10번지","category":"자동차정비 유지 - 자동차정비"}]},{"lat":"36.985127536","long":"126.89282953","items":[{"name":"구품상사","tel":"031-682-4805","addr":"경기도 평택시 현덕면 운정리 36번지","category":"의류 - 정장"}]},{"lat":"36.982710606","long":"126.9006054","items":[{"name":"도시농부","tel":"031-6825-6058","addr":"경기도 평택시 현덕면 운정리 산 63","category":"음료식품 - 농·축·수산품"}]},{"lat":"36.987076692","long":"126.8959381","items":[{"name":"아진안전","tel":"031-683-8024","addr":"경기도 평택시 현덕면 운정리 6-11","category":"의류 - 기타의류"}]},{"lat":"36.985351978","long":"126.89194186","items":[{"name":"안채한정식","tel":"031-692-6633","addr":"경기도 평택시 현덕면 운정리 36-1번지 1층","category":"일반휴게음식 - 위탁급식업"},{"name":"안채한정식","tel":"031-682-6662","addr":"경기도 평택시 현덕면 운정리 36-1번지 1층","category":"일반휴게음식 - 일반한식"}]},{"lat":"36.986939867","long":"126.89410741","items":[{"name":"자동차밧데리천국","tel":"031-686-6993","addr":"경기도 평택시 현덕면 운정리 7-10","category":"자동차정비 유지 - 자동차부품"}]},{"lat":"36.986967454","long":"126.89471392","items":[{"name":"클리어모터스","tel":"031-683-3959","addr":"경기도 평택시 현덕면 운정리 6-6번지","category":"서비스업 - 자동차정비"},{"name":"클리어모터스","tel":"031-681-8251","addr":"경기도 평택시 현덕면 운정리 6-6번지 8-3,4호","category":"자동차정비 유지 - 자동차정비"}]},{"lat":"36.981710533","long":"126.90074152","items":[{"name":"한길솔루션","tel":"031-000-0000","addr":"경기도 평택시 현덕면 운정리 92번지","category":"기타 - 기계공구"}]},{"lat":"36.986632552","long":"126.89307447","items":[{"name":"호담서평택점","tel":"031-681-5274","addr":"경기도 평택시 현덕면 운정리 9-5번지","category":"일반휴게음식 - 일반한식"},{"name":"홍익돈까스안중점","tel":"031-686-7366","addr":"경기도 평택시 현덕면 운정리 9-5번지 나동","category":"일반휴게음식 - 서양음식"}]}]