[{"lat":"37.024410414","long":"127.28825739","items":[{"name":"(주)모던탑","tel":"031-671-0037","addr":"경기도 안성시 보개면 불현리 183-2번지","category":"직물 - 카페트,커튼,천막,지물"},{"name":"햇님상사","tel":"031-676-8793","addr":"경기도 안성시 보개면 불현리 183-2번지","category":"음료식품 - 농·축·수산품"}]},{"lat":"37.026770637","long":"127.29221084","items":[{"name":"구성기업","tel":"031-673-3999","addr":"경기도 안성시 보개면 불현리 30-8번지","category":"주방용구 - 주방용구"}]},{"lat":"37.026212335","long":"127.2883428","items":[{"name":"국밥사랑","tel":"031-672-2139","addr":"경기도 안성시 보개면 불현리 82-3번지","category":"일반휴게음식 - 일반한식"},{"name":"보개약국","tel":"031-675-7178","addr":"경기도 안성시 보개면 불현리 82-3번지","category":"약국 - 약국"}]},{"lat":"37.026549104","long":"127.29436773","items":[{"name":"다성기업(주)","tel":"031-673-9937","addr":"경기도 안성시 보개면 불현리 10-1번지","category":"건축자재 - 기타건축자재"}]},{"lat":"37.027517457","long":"127.28893207","items":[{"name":"동양P.V.C","tel":"031-677-6411","addr":"경기도 안성시 보개면 불현리 69,70","category":"건축자재 - 기타건축자재"}]},{"lat":"37.025273939","long":"127.28887871","items":[{"name":"리디자인","tel":"031-677-4686","addr":"경기도 안성시 보개면 불현리 57-1번지","category":"건축자재 - 인테리어전문"}]},{"lat":"37.023164604","long":"127.28923041","items":[{"name":"보개모터스","tel":"031-677-3391","addr":"경기도 안성시 보개면 불현리 45-5번지","category":"자동차정비 유지 - 자동차정비"}]},{"lat":"37.023831439","long":"127.28921044","items":[{"name":"보개모터스","tel":"031-677-3391","addr":"경기도 안성시 보개면 불현리 45-20번지","category":"자동차정비 유지 - 자동차정비"}]},{"lat":"37.027520612","long":"127.2950345","items":[{"name":"보성렌탈주식회사","tel":"031-676-1155","addr":"경기도 안성시 보개면 불현리 6-2","category":"건축자재 - 기타건축자재"}]},{"lat":"37.026219722","long":"127.28901711","items":[{"name":"장가네버섯매운탕","tel":"031-673-5960","addr":"경기도 안성시 보개면 불현리 66-1번지","category":"일반휴게음식 - 일반한식"},{"name":"차이홍","tel":"031-673-9971","addr":"경기도 안성시 보개면 불현리 66-1번지 1층 6,7호","category":"일반휴게음식 - 중국식"},{"name":"차이홍","tel":"031-673-9971","addr":"경기도 안성시 보개면 불현리 66-1번지","category":"일반휴게음식 - 중국식"},{"name":"페리카나","tel":"031-674-5882","addr":"경기도 안성시 보개면 불현리 66-1번지","category":"일반휴게음식 - 스넥"}]},{"lat":"37.025581461","long":"127.28839663","items":[{"name":"재범이네밥상","tel":"070-4922-1261","addr":"경기도 안성시 보개면 불현리 179-3번지","category":"일반휴게음식 - 일반한식"}]},{"lat":"37.026269081","long":"127.2909615","items":[{"name":"진성건재","tel":"031-675-9935","addr":"경기도 안성시 보개면 불현리 62-3번지","category":"건축자재 - 기타건축자재"}]},{"lat":"37.028878908","long":"127.28481263","items":[{"name":"한국뷔르트주식회사","tel":"031-791-5700","addr":"경기도 안성시 보개면 불현리 107번지","category":"자동차정비 유지 - 자동차부품"}]}]