[{"lat":"37.93829494","long":"127.12119971","items":[{"name":"2019-03-21지동산촌마을기업영농조합","tel":"535-5399","addr":"경기도 포천시 신북면 금동리 375번지","category":"음식 - 농산물"}]},{"lat":"37.936661456","long":"127.14036457","items":[{"name":"그린빌&인미디어","tel":"031-533-2244","addr":"경기도 포천시 신북면 금동리 11번지","category":"용역 서비스 - 종합용역"}]},{"lat":"37.940542065","long":"127.11733548","items":[{"name":"금동고시원","tel":"031-536-7595","addr":"경기도 포천시 신북면 금동리 574-3","category":"학원 - 독서실"}]},{"lat":"37.93110483","long":"127.12191615","items":[{"name":"낭만가족 캠핑장","tel":"031-536-8610","addr":"경기도 포천시 신북면 금동리 84번지","category":"숙박업 - 여관/기타숙박업"}]},{"lat":"37.939133624","long":"127.1372181","items":[{"name":"바람의언덕바베큐장","tel":"031-535-0404","addr":"경기도 포천시 신북면 금동리 3-7번지","category":"음료식품 - 기타음료식품"}]},{"lat":"37.944487147","long":"127.12717095","items":[{"name":"상아골계곡오토캠핑장","tel":"031-111-1111","addr":"경기도 포천시 신북면 금동리 247-1번지 자연체험학교","category":"숙박업 - 여관/기타숙박업"}]},{"lat":"37.926352447","long":"127.1424154","items":[{"name":"씨앤에스","tel":"031-532-1881","addr":"경기도 포천시 신북면 금동리 606번지","category":"문화.취미 - 티켓"}]},{"lat":"37.94154315","long":"127.13361625","items":[{"name":"이뉴","tel":"031-536-2336","addr":"경기도 포천시 신북면 금동리 155-2번지","category":"숙박업 - 여관/기타숙박업"}]},{"lat":"37.937073098","long":"127.11775099","items":[{"name":"주식회사 라꽃새","tel":"031-536-5558","addr":"경기도 포천시 신북면 금동리 605번지","category":"용역 서비스 - 사무서비스"}]},{"lat":"37.927939979","long":"127.14080329","items":[{"name":"치유의 숲 야영장(팬션)","tel":"031-111-1111","addr":"경기도 포천시 신북면 금동리 28-2번지","category":"숙박업 - 여관/기타숙박업"}]},{"lat":"37.95079558","long":"127.11630465","items":[{"name":"포시즌스 오토캠핑장","tel":"031-535-8585","addr":"경기도 포천시 신북면 금동리 534-1번지","category":"숙박업 - 여관/기타숙박업"}]},{"lat":"37.936961149","long":"127.12161846","items":[{"name":"포천농림","tel":"031-535-6066","addr":"경기도 포천시 신북면 금동리 327","category":"음료식품 - 농·축·수산품"}]}]