[{"lat":"37.570964829","long":"127.74351285","items":[{"name":"고향두부촌","tel":"031-773-1339","addr":"경기도 양평군 청운면 삼성리 411-7번지","category":"일반휴게음식 - 일반한식"}]},{"lat":"37.578436806","long":"127.74876028","items":[{"name":"금문상사","tel":"031-775-8028","addr":"경기도 양평군 청운면 삼성리 278-1번지","category":"주방용구 - 주방용구"}]},{"lat":"37.580966415","long":"127.74909118","items":[{"name":"농업회사법인 정원주식회사","tel":"031-771-8282","addr":"경기도 양평군 청운면 삼성리 209-6번지","category":"음료식품 - 기타음료식품"}]},{"lat":"37.57879774","long":"127.74867332","items":[{"name":"모텔렉시","tel":"031-772-5951","addr":"경기도 양평군 청운면 삼성리 218번지","category":"숙박업 - 여관/기타숙박업"}]},{"lat":"37.580020967","long":"127.7490025","items":[{"name":"쉼터차차차","tel":"031-771-6931","addr":"경기도 양평군 청운면 삼성리 210번지","category":"신변잡화 - 기타잡화"}]},{"lat":"37.578043083","long":"127.75825412","items":[{"name":"애플돌스","tel":"","addr":"경기도 양평군 청운면 삼성리 77-6번지","category":"문화.취미 - 애완동물"}]},{"lat":"37.578154568","long":"127.73192408","items":[{"name":"유곡농장","tel":"031-771-6343","addr":"경기도 양평군 청운면 삼성리 576번지","category":"음료식품 - 농·축·수산품"}]},{"lat":"37.580601114","long":"127.74986866","items":[{"name":"준마트","tel":"031-774-2256","addr":"경기도 양평군 청운면 삼성리 228-1번지","category":"유통업 영리 - 슈퍼마켓"}]},{"lat":"37.580632866","long":"127.74912181","items":[{"name":"차차차매점","tel":"031-771-6931","addr":"경기도 양평군 청운면 삼성리 209-5번지","category":"유통업 영리 - 복지매장"}]},{"lat":"37.570073317","long":"127.73622582","items":[{"name":"청운농협하나로마트로컬푸드직매장","tel":"031-773-9814","addr":"경기도 양평군 청운면 삼성리 798-21번지","category":"유통업 비영리 - 농,축협 직영매장"}]}]