[{"lat":"37.098313737","long":"126.84102272","items":[{"name":"(주)다원특장","tel":"031-358-9239","addr":"경기도 화성시 장안면 어은리 1-51번지","category":"자동차정비 유지 - 자동차부품"}]},{"lat":"37.085427029","long":"126.82721643","items":[{"name":"(주)미래에너지삼대째아구찜","tel":"031-358-5859","addr":"경기도 화성시 장안면 어은리 373-5","category":"일반휴게음식 - 일반한식"}]},{"lat":"37.095363313","long":"126.83177158","items":[{"name":"(주)샘솟는반석","tel":"031-351-2533","addr":"경기도 화성시 장안면 어은리 217번지","category":"건축자재 - 기타건축자재"},{"name":"삼성타일","tel":"031-351-2223","addr":"경기도 화성시 장안면 어은리 217번지 225-1","category":"건축자재 - 건축용 요업제품"}]},{"lat":"37.087810708","long":"126.83055136","items":[{"name":"(주)솔비향","tel":"031-351-1723","addr":"경기도 화성시 장안면 어은리 344번지","category":"용역 서비스 - 기타용역서비스"}]},{"lat":"37.097252538","long":"126.83599683","items":[{"name":"GS25장안만세로점","tel":"","addr":"경기도 화성시 장안면 어은리 38-1번지","category":"유통업 영리 - 편 의 점"}]},{"lat":"37.08294855","long":"126.82682852","items":[{"name":"GS25장안어은점","tel":"080-555-2525","addr":"경기도 화성시 장안면 어은리 714-19번지","category":"유통업 영리 - 편 의 점"},{"name":"라면에 공기밥","tel":"031-351-8810","addr":"경기도 화성시 장안면 어은리 714-19번지","category":"일반휴게음식 - 스넥"}]},{"lat":"37.087591133","long":"126.82827992","items":[{"name":"JJ당구장","tel":"031-358-9907","addr":"경기도 화성시 장안면 어은리 363-13번지 2층","category":"레저업소 - 당 구 장"},{"name":"JJ스크린골프","tel":"031-358-9906","addr":"경기도 화성시 장안면 어은리 363-13번지 8,9,13번지 중 2층 일부","category":"레져용품 - 골프용품 전문점"}]},{"lat":"37.095529926","long":"126.83486452","items":[{"name":"MIREU광택","tel":"031-351-1379","addr":"경기도 화성시 장안면 어은리 73-10번지","category":"자동차정비 유지 - 카인테리어"},{"name":"서울천막기업","tel":"031-359-8349","addr":"경기도 화성시 장안면 어은리 73-10번지 어은리73-10,74-6","category":"직물 - 카페트,커튼,천막,지물"}]},{"lat":"37.084509152","long":"126.82802831","items":[{"name":"가우","tel":"031-351-0116","addr":"경기도 화성시 장안면 어은리 659번지 1층 일부","category":"일반휴게음식 - 일반한식"},{"name":"블랙 앤트(black ant)","tel":"031-351-6103","addr":"경기도 화성시 장안면 어은리 659번지","category":"자동차정비 유지 - 자동차부품"},{"name":"씨유화성장안사랑점","tel":"080-080-3663","addr":"경기도 화성시 장안면 어은리 659번지 1층","category":"유통업 영리 - 편 의 점"},{"name":"프로당구장","tel":"031-358-6177","addr":"경기도 화성시 장안면 어은리 659번지 2층","category":"레저업소 - 당 구 장"}]},{"lat":"37.098480768","long":"126.83799643","items":[{"name":"경기 목재 철물상사","tel":"031-352-5012","addr":"경기도 화성시 장안면 어은리 43-4번지","category":"건축자재 - 기타건축자재"}]},{"lat":"37.098814735","long":"126.83841191","items":[{"name":"경기목재철물상사","tel":"031-352-5012","addr":"경기도 화성시 장안면 어은리 43-10번지","category":"건축자재 - 인테리어전문"}]},{"lat":"37.086482424","long":"126.82800129","items":[{"name":"골든AD","tel":"031-351-0252","addr":"경기도 화성시 장안면 어은리 367-4번지","category":"용역 서비스 - 종합용역"},{"name":"산삼약초건강원","tel":"031-351-3321","addr":"경기도 화성시 장안면 어은리 367-4번지","category":"음료식품 - 농·축·수산품"},{"name":"일일구꽃화원","tel":"031-351-5119","addr":"경기도 화성시 장안면 어은리 367-4","category":"문화.취미 - 화원"},{"name":"태성엘이디(태성LED)","tel":"031-358-2114","addr":"경기도 화성시 장안면 어은리 367-4번지 1층","category":"건축자재 - 조명기구"}]},{"lat":"37.085699154","long":"126.82844172","items":[{"name":"광고프로","tel":"031-358-9901","addr":"경기도 화성시 장안면 어은리 355","category":"용역 서비스 - 종합용역"},{"name":"삼괴대리운전","tel":"031-351-0402","addr":"경기도 화성시 장안면 어은리 355번지","category":"보건위생 - 기타대인서비스"}]},{"lat":"37.088926077","long":"126.82922164","items":[{"name":"교동짬뽕","tel":"031-358-3335","addr":"경기도 화성시 장안면 어은리 322번지 A동 1층","category":"일반휴게음식 - 중국식"},{"name":"대한건설자재","tel":"031-351-7198","addr":"경기도 화성시 장안면 어은리 322번지","category":"건축자재 - 기타건축자재"},{"name":"별난돼지 김치찌개&뒷고기","tel":"031-358-4861","addr":"경기도 화성시 장안면 어은리 322번지","category":"일반휴게음식 - 일반한식"},{"name":"신화성타일","tel":"031-358-6367","addr":"경기도 화성시 장안면 어은리 322번지","category":"건축자재 - 기타건축자재"},{"name":"일커피","tel":"","addr":"경기도 화성시 장안면 어은리 322번지 1층 104호","category":"일반휴게음식 - 서양음식"}]},{"lat":"37.097226296","long":"126.83655932","items":[{"name":"그린월드호텔","tel":"031-358-9877","addr":"경기도 화성시 장안면 어은리 46-11번지 1층","category":"숙박업 - 여관/기타숙박업"}]},{"lat":"37.082758543","long":"126.82630037","items":[{"name":"꼬꼬립","tel":"031-358-7338","addr":"경기도 화성시 장안면 어은리 736-2번지","category":"일반휴게음식 - 일반한식"},{"name":"조암카서비스","tel":"031-351-0928","addr":"경기도 화성시 장안면 어은리 736-2번지","category":"자동차정비 유지 - 자동차부품"}]},{"lat":"37.085258722","long":"126.8231342","items":[{"name":"내조김밥","tel":"031-000-0000","addr":"경기도 화성시 장안면 어은리 812-4번지","category":"일반휴게음식 - 일반한식"}]},{"lat":"37.093398225","long":"126.83122485","items":[{"name":"농장정육점","tel":"031-358-8802","addr":"경기도 화성시 장안면 어은리 243-1번지","category":"음료식품 - 정육점"},{"name":"농장직영정육식당","tel":"031-358-8802","addr":"경기도 화성시 장안면 어은리 243-1번지 1층","category":"일반휴게음식 - 일반한식"}]},{"lat":"37.085059159","long":"126.82827448","items":[{"name":"대왕숯불갈비","tel":"031-351-5797","addr":"경기도 화성시 장안면 어은리 649번지 1층","category":"일반휴게음식 - 일반한식"}]},{"lat":"37.098145747","long":"126.83682728","items":[{"name":"대흥엔터테인먼트","tel":"02-1522-2870","addr":"경기도 화성시 장안면 어은리 32-1번지","category":"용역 서비스 - 종합용역"}]},{"lat":"37.083977033","long":"126.82769214","items":[{"name":"돈족골황제왕갈비탕","tel":"031-351-0618","addr":"경기도 화성시 장안면 어은리 719-1","category":"일반휴게음식 - 일반한식"}]},{"lat":"37.084507338","long":"126.82680242","items":[{"name":"동태마당","tel":"031-351-2459","addr":"경기도 화성시 장안면 어은리 722-3번지 1층","category":"일반휴게음식 - 일반한식"},{"name":"카페시고르","tel":"031-352-1673","addr":"경기도 화성시 장안면 어은리 722-3번지 1층 일부","category":"일반휴게음식 - 서양음식"},{"name":"화홍추어탕","tel":"031-358-4311","addr":"경기도 화성시 장안면 어은리 722-3번지","category":"일반휴게음식 - 일반한식"}]},{"lat":"37.084616381","long":"126.82742074","items":[{"name":"두꺼비부대찌개","tel":"031-354-2989","addr":"경기도 화성시 장안면 어은리 658-7번지 1층","category":"일반휴게음식 - 일반한식"}]},{"lat":"37.08750645","long":"126.83200294","items":[{"name":"문어랑코다리스토리(Story)","tel":"031-351-0870","addr":"경기도 화성시 장안면 어은리 435-1번지 1층","category":"일반휴게음식 - 일반한식"},{"name":"친구호프","tel":"031-351-5979","addr":"경기도 화성시 장안면 어은리 435-1번지 1층","category":"일반휴게음식 - 주점"}]},{"lat":"37.082481368","long":"126.82775181","items":[{"name":"미림목재","tel":"031-351-6697","addr":"경기도 화성시 장안면 어은리 706-2","category":"건축자재 - 기타건축자재"}]},{"lat":"37.096170769","long":"126.83563925","items":[{"name":"미스터후라이드","tel":"031-351-5892","addr":"경기도 화성시 장안면 어은리 64-7번지 1층 2호","category":"일반휴게음식 - 스넥"},{"name":"세븐일레븐화성어은점","tel":"031-1577-0711","addr":"경기도 화성시 장안면 어은리 64-7번지","category":"유통업 영리 - 편 의 점"},{"name":"아시안마트","tel":"031-358-7745","addr":"경기도 화성시 장안면 어은리 64-7번지","category":"유통업 영리 - 슈퍼마켓"},{"name":"와락구제샵","tel":"070-7766-9983","addr":"경기도 화성시 장안면 어은리 64-7번지","category":"의류 - 정장"}]},{"lat":"37.080842826","long":"126.82868902","items":[{"name":"빛고을 닭강정","tel":"031-351-2727","addr":"경기도 화성시 장안면 어은리 697-1번지 2층","category":"일반휴게음식 - 일반한식"}]},{"lat":"37.086671147","long":"126.84703093","items":[{"name":"삼봉씨엔씨(CNC)","tel":"","addr":"경기도 화성시 장안면 어은리 551-5번지","category":"기타 - 기계공구"}]},{"lat":"37.092559235","long":"126.83052936","items":[{"name":"삼형제건강원","tel":"031-351-7732","addr":"경기도 화성시 장안면 어은리 271-5번지 3동","category":"건강식품 - 기타건강식품"}]},{"lat":"37.085924748","long":"126.82866614","items":[{"name":"서울우유조암대리점","tel":"031-351-2285","addr":"경기도 화성시 장안면 어은리 354","category":"음료식품 - 기타음료식품"}]},{"lat":"37.084255494","long":"126.82710667","items":[{"name":"성공한 덕후 돈돼지","tel":"031-358-5553","addr":"경기도 화성시 장안면 어은리 658-1번지 1층","category":"일반휴게음식 - 일반한식"}]},{"lat":"37.097667527","long":"126.83635588","items":[{"name":"수원사료","tel":"031-358-9940","addr":"경기도 화성시 장안면 어은리 40-1번지","category":"문화.취미 - 애완동물"},{"name":"오미자 헤어샵","tel":"031-358-0407","addr":"경기도 화성시 장안면 어은리 40-1번지 1층 103호","category":"보건위생 - 미용원"}]},{"lat":"37.086363306","long":"126.82666316","items":[{"name":"수원소갈비해장국","tel":"031-358-7339","addr":"경기도 화성시 장안면 어은리 375-1번지","category":"일반휴게음식 - 일반한식"}]},{"lat":"37.084979567","long":"126.82324733","items":[{"name":"슈벨트음악학원","tel":"031-358-0840","addr":"경기도 화성시 장안면 어은리 812-2번지 2층","category":"학원 - 예·체능계학원"}]},{"lat":"37.094896884","long":"126.83324616","items":[{"name":"씨유화성어은리점","tel":"070-8210-4330","addr":"경기도 화성시 장안면 어은리 189-1번지","category":"유통업 영리 - 편 의 점"}]},{"lat":"37.08472557","long":"126.82814029","items":[{"name":"압구정베이커리","tel":"031-358-6006","addr":"경기도 화성시 장안면 어은리 660번지","category":"일반휴게음식 - 서양음식"},{"name":"요거 앤 커피","tel":"031-358-6006","addr":"경기도 화성시 장안면 어은리 660번지","category":"일반휴게음식 - 서양음식"}]},{"lat":"37.086311555","long":"126.82822662","items":[{"name":"양여사네","tel":"031-351-8236","addr":"경기도 화성시 장안면 어은리 358-2번지 1층","category":"일반휴게음식 - 일반한식"}]},{"lat":"37.086364872","long":"126.82772038","items":[{"name":"에쿠스노래연습장","tel":"031-351-8636","addr":"경기도 화성시 장안면 어은리 367-2번지","category":"레저업소 - 노 래 방"}]},{"lat":"37.084867676","long":"126.82674535","items":[{"name":"연다라","tel":"031-351-5388","addr":"경기도 화성시 장안면 어은리 722-1번지","category":"일반휴게음식 - 일반한식"}]},{"lat":"37.095672863","long":"126.83399807","items":[{"name":"우리집도배","tel":"031-351-5290","addr":"경기도 화성시 장안면 어은리 187-1","category":"직물 - 카페트,커튼,천막,지물"}]},{"lat":"37.083309638","long":"126.82727755","items":[{"name":"원조해장국","tel":"031-351-8810","addr":"경기도 화성시 장안면 어은리 714-2번지","category":"일반휴게음식 - 일반한식"}]},{"lat":"37.095674237","long":"126.83496544","items":[{"name":"유진종합상사(둑스조암점)","tel":"031-358-8741","addr":"경기도 화성시 장안면 어은리 73-11번지","category":"건축자재 - 보일러·펌프·샷시"}]},{"lat":"37.086535174","long":"126.82711265","items":[{"name":"장안마트","tel":"031-351-2233","addr":"경기도 화성시 장안면 어은리 377-1","category":"유통업 영리 - 편 의 점"}]},{"lat":"37.082032711","long":"126.82902369","items":[{"name":"장안어린이집[아이행복]","tel":"031-358-1858","addr":"경기도 화성시 장안면 어은리 706-1번지","category":"학원 - 유아원"}]},{"lat":"37.0862024","long":"126.82752956","items":[{"name":"전주토속음식점","tel":"031-351-5999","addr":"경기도 화성시 장안면 어은리 368번지 1층 일부","category":"일반휴게음식 - 일반한식"}]},{"lat":"37.085587531","long":"126.82608012","items":[{"name":"조개포장마차","tel":"031-358-5892","addr":"경기도 화성시 장안면 어은리 419-3번지 1층","category":"일반휴게음식 - 일반한식"}]},{"lat":"37.098253573","long":"126.83661332","items":[{"name":"조암 프리미엄 셀프세차장","tel":"031-358-5355","addr":"경기도 화성시 장안면 어은리 34-5번지","category":"자동차정비 유지 - 세차장"}]},{"lat":"37.08492224","long":"126.82708263","items":[{"name":"조암세차장","tel":"031-351-1765","addr":"경기도 화성시 장안면 어은리 657-1번지","category":"자동차정비 유지 - 세차장"}]},{"lat":"37.085286061","long":"126.82333658","items":[{"name":"조암왕수학학원","tel":"031-358-6111","addr":"경기도 화성시 장안면 어은리 812-3번지 2층","category":"서적문구 - 전문서적"},{"name":"좋은아이들음악학원","tel":"031-358-5876","addr":"경기도 화성시 장안면 어은리 812-3번지 3층","category":"학원 - 예·체능계학원"}]},{"lat":"37.086343087","long":"126.82518985","items":[{"name":"조암태권액션스쿨","tel":"031-351-0387","addr":"경기도 화성시 장안면 어은리 388-1번지 2층","category":"학원 - 예·체능계학원"}]},{"lat":"37.09333611","long":"126.83188862","items":[{"name":"주)광성기계","tel":"031-375-4447","addr":"경기도 화성시 장안면 어은리 259번지 나동","category":"수리서비스 - 기타수리서비스"}]},{"lat":"37.087531359","long":"126.84341881","items":[{"name":"주식회사 국제스틸산업","tel":"031-358-4309","addr":"경기도 화성시 장안면 어은리 537-5번지","category":"기타 - 기계공구"}]},{"lat":"37.087475498","long":"126.82930368","items":[{"name":"중앙카센타","tel":"031-351-8025","addr":"경기도 화성시 장안면 어은리 360-1번지","category":"자동차정비 유지 - 자동차시트·타이어"}]},{"lat":"37.085947498","long":"126.82577561","items":[{"name":"진진남녀컷트염색파마","tel":"031-358-5372","addr":"경기도 화성시 장안면 어은리 418-15번지 1층 조암뜰부동산자리(1,2호)","category":"보건위생 - 미용원"}]},{"lat":"37.080336612","long":"126.82758805","items":[{"name":"치엘로","tel":"031-358-1888","addr":"경기도 화성시 장안면 어은리 699-8번지 A동 1층","category":"일반휴게음식 - 서양음식"},{"name":"하나SYNC","tel":"031-351-6525","addr":"경기도 화성시 장안면 어은리 699-8번지","category":"가구 - 일반가구"}]},{"lat":"37.086644978","long":"126.82824835","items":[{"name":"카플러스","tel":"031-351-4326","addr":"경기도 화성시 장안면 어은리 367-6","category":"회원제형태 - 기타3"}]},{"lat":"37.088058933","long":"126.82777272","items":[{"name":"타이어월드 어은리","tel":"031-351-1888","addr":"경기도 화성시 장안면 어은리 363-19번지","category":"자동차정비 유지 - 자동차시트·타이어"}]},{"lat":"37.090369923","long":"126.83702421","items":[{"name":"토마토어린이집[아이행복]","tel":"031-351-4311","addr":"경기도 화성시 장안면 어은리 300번지","category":"학원 - 유아원"}]},{"lat":"37.086480743","long":"126.82686534","items":[{"name":"파티파티노래연습장","tel":"031-351-3257","addr":"경기도 화성시 장안면 어은리 375-11","category":"레저업소 - 노 래 방"}]},{"lat":"37.092423597","long":"126.83650233","items":[{"name":"펠리체 페키니즈","tel":"031-000-0000","addr":"경기도 화성시 장안면 어은리 126-20번지","category":"문화.취미 - 애완동물"}]},{"lat":"37.088309119","long":"126.84555418","items":[{"name":"피알엔디모터스","tel":"","addr":"경기도 화성시 장안면 어은리 529-19번지","category":"자동차정비 유지 - 카인테리어"}]},{"lat":"37.092199582","long":"126.83105883","items":[{"name":"하오칭따오","tel":"031-351-3500","addr":"경기도 화성시 장안면 어은리 274-3번지","category":"일반휴게음식 - 중국식"}]},{"lat":"37.085231103","long":"126.8287802","items":[{"name":"현대H철강","tel":"031-351-7660","addr":"경기도 화성시 장안면 어은리 649-1","category":"건축자재 - 목재·석재·철물"}]},{"lat":"37.085647484","long":"126.8239993","items":[{"name":"화성장안초등학교병설유치원[아이행복]","tel":"031-358-7372","addr":"경기도 화성시 장안면 어은리 812번지 화성장안초등학교","category":"학원 - 유치원"}]}]