[{"lat":"37.137920216","long":"126.94304083","items":[{"name":"(주)에스와이엠인터내셔널","tel":"031-978-4974","addr":"경기도 화성시 향남읍 도이리 317-1","category":"레져용품 - 스포츠·레져용품"},{"name":"나이스스포츠(화성점)","tel":"031-8059-1981","addr":"경기도 화성시 향남읍 도이리 317-1번지","category":"레져용품 - 스포츠·레져용품"},{"name":"오케이디온스크린","tel":"031-352-8097","addr":"경기도 화성시 향남읍 도이리 317-1번지 4층","category":"레저업소 - 스크린골프"},{"name":"화이트 세차장","tel":"031-271-4119","addr":"경기도 화성시 향남읍 도이리 317-1번지","category":"자동차정비 유지 - 세차장"},{"name":"화이트골프장스낵바","tel":"041-732-3824","addr":"경기도 화성시 향남읍 도이리 317-1번지","category":"일반휴게음식 - 일반한식"},{"name":"화이트스크린골프장","tel":"031-366-0809","addr":"경기도 화성시 향남읍 도이리 317-1번지","category":"회원제형태 - 레져업소"},{"name":"화인클리닉","tel":"031-358-3781","addr":"경기도 화성시 향남읍 도이리 317-1번지 3층","category":"보건위생 - 화장품"}]},{"lat":"37.139361596","long":"126.94245444","items":[{"name":"(주)한국그린이엔지","tel":"","addr":"경기도 화성시 향남읍 도이리 315-4번지","category":"주방용구 - 주방용구"}]},{"lat":"37.137529206","long":"126.92188244","items":[{"name":"고객쉼터","tel":"070-7777-3387","addr":"경기도 화성시 향남읍 도이리 산31-6번지","category":"음료식품 - 기타음료식품"},{"name":"영천2호점화성시육아종합지원센터[아이행복","tel":"031-372-3005","addr":"경기도 화성시 향남읍 도이리 산31-6번지 화성종합경기타운 내","category":"학원 - 유아원"},{"name":"주식회사 화성자동차등록번호표제작사","tel":"031-353-5800","addr":"경기도 화성시 향남읍 도이리 산31-6번지 화성종합경기타운","category":"자동차정비 유지 - 가타자동차서비스"},{"name":"커피볶는낭만곰","tel":"031-455-2040","addr":"경기도 화성시 향남읍 도이리 산31-6번지 (화성종합경기타운 P2 주차장)","category":"일반휴게음식 - 서양음식"},{"name":"화성시니어클럽 노노카페 (화성종합경기타","tel":"031-8059-4348","addr":"경기도 화성시 향남읍 도이리 산31-6번지","category":"일반휴게음식 - 서양음식"},{"name":"화성시니어클럽 노노카페 푸드트럭1호점 (","tel":"031-8059-4349","addr":"경기도 화성시 향남읍 도이리 산31-6번지 종합경기타운내","category":"일반휴게음식 - 서양음식"},{"name":"화성지역자활센터","tel":"031-354-1129","addr":"경기도 화성시 향남읍 도이리 산31-6번지","category":"용역 서비스 - 종합용역"},{"name":"화성지역자활센터","tel":"031-366-1379","addr":"경기도 화성시 향남읍 도이리 산31-6번지 화성종합경기타운16게이트1층","category":"문화.취미 - 민예·공예품"}]},{"lat":"37.142476675","long":"126.92293517","items":[{"name":"꾸우라","tel":"031-0000-0000","addr":"경기도 화성시 향남읍 도이리 158-2번지","category":"연료판매점 - 기타연료"}]},{"lat":"37.138946529","long":"126.94131803","items":[{"name":"믿음에너지","tel":"","addr":"경기도 화성시 향남읍 도이리 311-1번지","category":"연료판매점 - LPG 취급점"}]},{"lat":"37.138165303","long":"126.93015398","items":[{"name":"봉식이네으뜸한우","tel":"031-352-2251","addr":"경기도 화성시 향남읍 도이리 243-1번지","category":"일반휴게음식 - 일반한식"},{"name":"봉식이네한우축산","tel":"031-352-2251","addr":"경기도 화성시 향남읍 도이리 243-1번지","category":"음료식품 - 정육점"}]},{"lat":"37.138643546","long":"126.91766071","items":[{"name":"수 농원","tel":"031-4229-0785","addr":"경기도 화성시 향남읍 도이리 179-6번지","category":"음료식품 - 농·축·수산품"}]},{"lat":"37.136582065","long":"126.92037535","items":[{"name":"시립도이장애전문어린이집[아이행복]","tel":"031-831-8782","addr":"경기도 화성시 향남읍 도이리 220-169번지","category":"학원 - 유아원"}]},{"lat":"37.140414642","long":"126.94018008","items":[{"name":"아프리카","tel":"031-353-1034","addr":"경기도 화성시 향남읍 도이리 308-1번지","category":"일반휴게음식 - 서양음식"}]},{"lat":"37.135639623","long":"126.94120817","items":[{"name":"애플기획","tel":"031-223-2401","addr":"경기도 화성시 향남읍 도이리 336-7번지 A동","category":"용역 서비스 - 종합용역"}]},{"lat":"37.139253229","long":"126.94198182","items":[{"name":"주식회사 리버티코리아","tel":"02-1588-9861","addr":"경기도 화성시 향남읍 도이리 315-2번지 가동","category":"레져용품 - 스포츠·레져용품"}]},{"lat":"37.130894879","long":"126.9318715","items":[{"name":"카매니저자동차써비스","tel":"031-354-3929","addr":"경기도 화성시 향남읍 도이리 461-1번지","category":"자동차정비 유지 - 자동차정비"}]},{"lat":"37.136420072","long":"126.92065689","items":[{"name":"허그컵(hugcup)화성시아르딤장애인종합복지","tel":"031-546-8285","addr":"경기도 화성시 향남읍 도이리 220-20번지 화성아르딤복지관 1층 일부","category":"일반휴게음식 - 서양음식"},{"name":"화성시 아르딤복지관","tel":"031-5183-8900","addr":"경기도 화성시 향남읍 도이리 220-20번지","category":"보건위생 - 기타대인서비스"},{"name":"화성시 아르딤복지관","tel":"031-5183-8929","addr":"경기도 화성시 향남읍 도이리 220-20번지","category":"음료식품 - 기타음료식품"}]},{"lat":"37.135144047","long":"126.94120857","items":[{"name":"현진화학","tel":"031-7758-0837","addr":"경기도 화성시 향남읍 도이리 336-8번지","category":"서적문구 - 과학기자재"}]},{"lat":"37.1332216","long":"126.92102048","items":[{"name":"화성꽃식물원","tel":"031-366-2273","addr":"경기도 화성시 향남읍 도이리 203-2","category":"문화.취미 - 화원"}]},{"lat":"37.141811343","long":"126.94032525","items":[{"name":"화성흑염소","tel":"031-8047-0707","addr":"경기도 화성시 향남읍 도이리 1-1번지 1층","category":"일반휴게음식 - 일반한식"}]}]