[{"lat":"36.996110264","long":"127.3125063","items":[{"name":"We 에듀","tel":"031-401-3750","addr":"경기도 안성시 금광면 내우리 58번지","category":"서적문구 - 기타서적문구"},{"name":"숲속마을어린이집[아이행복]","tel":"031-672-8855","addr":"경기도 안성시 금광면 내우리 58번지","category":"학원 - 유아원"}]},{"lat":"36.999388625","long":"127.3025661","items":[{"name":"경기수만농원","tel":"031-671-1532","addr":"경기도 안성시 금광면 내우리 94-1번지","category":"일반휴게음식 - 일반한식"}]},{"lat":"36.997799827","long":"127.30725566","items":[{"name":"어울림DIY공작소","tel":"031-677-9077","addr":"경기도 안성시 금광면 내우리 78","category":"가구 - 일반가구"}]},{"lat":"36.989891725","long":"127.30242775","items":[{"name":"우리공조","tel":"031-675-0024","addr":"경기도 안성시 금광면 내우리 211-29번지","category":"용역 서비스 - 기타용역서비스"}]},{"lat":"36.993528185","long":"127.31442797","items":[{"name":"우리산업","tel":"031-677-9984","addr":"경기도 안성시 금광면 내우리 6-1번지","category":"건축자재 - 기타건축자재"}]},{"lat":"36.994440873","long":"127.31343191","items":[{"name":"주말농장","tel":"031-677-3838","addr":"경기도 안성시 금광면 내우리 7-2번지 나동 1층","category":"일반휴게음식 - 일반한식"}]},{"lat":"36.997468133","long":"127.30659154","items":[{"name":"주식회사비오비","tel":"031-656-6909","addr":"경기도 안성시 금광면 내우리 113번지","category":"건강식품 - 기타건강식품"}]},{"lat":"36.992441579","long":"127.30604359","items":[{"name":"평안농산","tel":"031-675-9163","addr":"경기도 안성시 금광면 내우리 191번지","category":"농업 - 비료,사료,종자"}]}]