[{"lat":"37.411481465","long":"127.43257228","items":[{"name":"느티나무가든","tel":"031-883-0142","addr":"경기도 여주시 산북면 주어리 335번지","category":"일반휴게음식 - 일반한식"}]},{"lat":"37.411507509","long":"127.43284352","items":[{"name":"느티나무펜션","tel":"031-882-0142","addr":"경기도 여주시 산북면 주어리 332-10번지 주어로 126-2 1동 2동 126-1","category":"숙박업 - 여관/기타숙박업"}]},{"lat":"37.405503364","long":"127.43626533","items":[{"name":"대한석재","tel":"031-884-6121","addr":"경기도 여주시 산북면 주어리 307-8번지","category":"건축자재 - 건축용 요업제품"}]},{"lat":"37.410613195","long":"127.43348224","items":[{"name":"밀성공원","tel":"031-882-4086","addr":"경기도 여주시 산북면 주어리 325번지","category":"일반휴게음식 - 일반한식"},{"name":"품실전통장류영농조합법인","tel":"031-884-5388","addr":"경기도 여주시 산북면 주어리 326번지","category":"음료식품 - 농·축·수산품"}]},{"lat":"37.411863219","long":"127.42665564","items":[{"name":"밀성양봉원","tel":"031-883-7362","addr":"경기도 여주시 산북면 주어리 433-4번지","category":"건강식품 - 기타건강식품"}]},{"lat":"37.416564845","long":"127.42710009","items":[{"name":"별장 '하몽'","tel":"","addr":"경기도 여주시 산북면 주어리 371번지","category":"숙박업 - 여관/기타숙박업"}]},{"lat":"37.416420971","long":"127.4270202","items":[{"name":"별장 아르꼬","tel":"","addr":"경기도 여주시 산북면 주어리 370-7번지","category":"숙박업 - 여관/기타숙박업"}]},{"lat":"37.413392417","long":"127.42735329","items":[{"name":"생각나무숲 (여주명품농산)","tel":"","addr":"경기도 여주시 산북면 주어리 455-2번지","category":"음료식품 - 농·축·수산품"}]},{"lat":"37.411308349","long":"127.43310217","items":[{"name":"숲속카페","tel":"","addr":"경기도 여주시 산북면 주어리 331-4번지 1층","category":"일반휴게음식 - 서양음식"}]},{"lat":"37.423894121","long":"127.41831827","items":[{"name":"양자산 자연식품","tel":"070-8288-2455","addr":"경기도 여주시 산북면 주어리 620번지","category":"음료식품 - 농·축·수산품"}]},{"lat":"37.415501889","long":"127.42703761","items":[{"name":"트리베리 관광농원","tel":"031-883-0153","addr":"경기도 여주시 산북면 주어리 416번지","category":"숙박업 - 여관/기타숙박업"}]}]