[{"lat":"36.957753699","long":"127.27490532","items":[{"name":"(주) 씨엔에스테크","tel":"031-676-1330","addr":"경기도 안성시 서운면 오촌리 265번지 A동,B동","category":"전기제품 - 기타전기제품"}]},{"lat":"36.960782528","long":"127.28970406","items":[{"name":"(주)다림개발","tel":"031-678-9133","addr":"경기도 안성시 서운면 오촌리 173-4","category":"레저업소 - 골프경기장"}]},{"lat":"36.955944585","long":"127.2779304","items":[{"name":"(주)아워홈LS미래원점","tel":"031-8046-3055","addr":"경기도 안성시 서운면 오촌리 242","category":"일반휴게음식 - 위탁급식업"}]},{"lat":"36.95678299","long":"127.28543368","items":[{"name":"감성스토리","tel":"031-671-3331","addr":"경기도 안성시 서운면 오촌리 199-6번지","category":"음료식품 - 기타음료식품"},{"name":"감성스토리","tel":"031-671-3331","addr":"경기도 안성시 서운면 오촌리 199-6번지","category":"음료식품 - 기타음료식품"}]},{"lat":"36.96314363","long":"127.27815841","items":[{"name":"결한의원부설원외탕전소","tel":"031-671-5090","addr":"경기도 안성시 서운면 오촌리 45-1번지 1,3층","category":"건강식품 - 기타건강식품"},{"name":"더한의원부설원외탕전","tel":"070-4349-6845","addr":"경기도 안성시 서운면 오촌리 45-1번지 2층","category":"약국 - 한약방"}]},{"lat":"36.959700258","long":"127.27870743","items":[{"name":"그린로즈 기획사(Green Rose Plan Company)","tel":"031-671-8228","addr":"경기도 안성시 서운면 오촌리 91-2번지","category":"전기제품 - 가전제품"}]},{"lat":"36.963081908","long":"127.27757429","items":[{"name":"돌담집","tel":"031-671-7909","addr":"경기도 안성시 서운면 오촌리 47-4","category":"일반휴게음식 - 일반한식"}]},{"lat":"36.9609759","long":"127.28037386","items":[{"name":"오촌농원","tel":"031-672-9368","addr":"경기도 안성시 서운면 오촌리 133-16번지","category":"음료식품 - 농·축·수산품"}]},{"lat":"36.957476012","long":"127.27418574","items":[{"name":"주식회사 화인에어텍","tel":"031-7544-0375","addr":"경기도 안성시 서운면 오촌리 266번지","category":"용역 서비스 - 기타용역서비스"}]},{"lat":"36.957915861","long":"127.27882451","items":[{"name":"쥬리코스메틱","tel":"031-663-2117","addr":"경기도 안성시 서운면 오촌리 224번지","category":"보건위생 - 화장품"}]}]