[{"lat":"37.4033601318","long":"127.0085516785","items":[{"name":"(사)발도르프 청소년 네트워크","tel":"031-421-1726","addr":"경기도 의왕시 청계동 440-2번지","category":"서적문구 - 출판 및 인쇄물"}]},{"lat":"37.3889710657","long":"126.9983877037","items":[{"name":"(주)마중","tel":"031-425-4088","addr":"경기도 의왕시 청계동 996-1번지 102호","category":"건축자재 - 건축용 요업제품"},{"name":"백운건재","tel":"031-426-7933","addr":"경기도 의왕시 청계동 996-1번지 1층","category":"건축자재 - 기타건축자재"}]},{"lat":"37.4008013780","long":"127.0053666125","items":[{"name":"(주)백제테크","tel":"031-426-3468","addr":"경기도 의왕시 청계동 627-4번지","category":"음료식품 - 기타음료식품"}]},{"lat":"37.3894755114","long":"126.9959146864","items":[{"name":"(주)성원바이오","tel":"031-901-0520","addr":"경기도 의왕시 청계동 991-4번지 청계프라자 102호","category":"농업 - 비료,사료,종자"},{"name":"덕장돌봄학원","tel":"02-111-1111","addr":"경기도 의왕시 청계동 991-4번지 청계프라자 304호","category":"학원 - 보습학원"},{"name":"런테니스아카데미","tel":"","addr":"경기도 의왕시 청계동 991-4번지 청계프라자 제 301호,제302호","category":"레저업소 - 테니스장"},{"name":"샹떼PC청계점","tel":"02-2222-2222","addr":"경기도 의왕시 청계동 991-4번지 청계프라자 2층 201,202호","category":"수리서비스 - 사무·통신기기수리"},{"name":"자연애(  )염색","tel":"031-424-9114","addr":"경기도 의왕시 청계동 991-4번지 청계프라자 1층 106호","category":"보건위생 - 화장품"},{"name":"청계골프","tel":"070-4231-8919","addr":"경기도 의왕시 청계동 991-4번지 청계프라자 101호","category":"레져용품 - 골프용품 전문점"},{"name":"휴","tel":"031-000-0000","addr":"경기도 의왕시 청계동 991-4번지 청계프라자 109호","category":"일반휴게음식 - 서양음식"},{"name":"힐링로즈","tel":"031-000-0000","addr":"경기도 의왕시 청계동 991-4번지 청계프라자 203호","category":"학원 - 기타 교육기관"}]},{"lat":"37.3897547408","long":"126.9946160552","items":[{"name":"(주)코비스","tel":"031-382-7113","addr":"경기도 의왕시 청계동 991 세종메디컬프라자 305","category":"광학제품 - 기타광학제품"},{"name":"나봄헤어 (NABOM)","tel":"031-421-0420","addr":"경기도 의왕시 청계동 991번지 세종메디칼프라자 105호","category":"보건위생 - 미용원"},{"name":"마음공간선율예술심리센터","tel":"031-426-8280","addr":"경기도 의왕시 청계동 991번지 세종메디컬프라자 405호","category":"보건위생 - 기타대인서비스"},{"name":"맵시","tel":"031-424-2667","addr":"경기도 의왕시 청계동 991번지 청계세종메티컬프라자 1층 102호","category":"수리서비스 - 신변잡화수리"},{"name":"모차르트음악학원","tel":"031-422-7950","addr":"경기도 의왕시 청계동 991번지 세종메디칼프라자 501호","category":"학원 - 예·체능계학원"},{"name":"서울류치과의원","tel":"031-425-2835","addr":"경기도 의왕시 청계동 991번지 세종메디칼프라자 303호","category":"의원 - 치과의원"},{"name":"스마일정보통신","tel":"070-4178-1010","addr":"경기도 의왕시 청계동 991번지 세종메디컬프라자 103호","category":"사무통신 - 통신기기"},{"name":"연세의원","tel":"031-426-8889","addr":"경기도 의왕시 청계동 991번지 세종메디칼프라자 401,402호","category":"의원 - 의원"},{"name":"오마이레이스(Ohmyrace)","tel":"031-382-4135","addr":"경기도 의왕시 청계동 991번지 세종메디컬프라자 304호","category":"전기제품 - 기타전기제품"},{"name":"일성건설자재","tel":"031-383-9156","addr":"경기도 의왕시 청계동 991번지 세종메디칼프라자 1층 110호","category":"건축자재 - 기타건축자재"},{"name":"찬플러스","tel":"031-469-1888","addr":"경기도 의왕시 청계동 991번지 세종메디컬프라자 104호","category":"음료식품 - 기타음료식품"},{"name":"찬플러스","tel":"02-854-8255","addr":"경기도 의왕시 청계동 991번지 세종메디칼프라자 1층 104호","category":"일반휴게음식 - 스넥"},{"name":"청계부부한의원","tel":"031-424-7582","addr":"경기도 의왕시 청계동 991번지 세종메디컬프라자 403호","category":"의원 - 한의원"},{"name":"청계온누리약국","tel":"031-421-3427","addr":"경기도 의왕시 청계동 991번지 세종메디칼프라자 1층 101호","category":"약국 - 약국"},{"name":"치킨마루","tel":"031-425-7220","addr":"경기도 의왕시 청계동 991번지 세종메디칼프라자 1층 106호","category":"일반휴게음식 - 스넥"},{"name":"태비태권도월드컵체육관","tel":"031-425-0070","addr":"경기도 의왕시 청계동 991번지 세종메디칼프라자 504,505","category":"학원 - 예·체능계학원"},{"name":"호수노래연습장","tel":"031-421-7388","addr":"경기도 의왕시 청계동 991번지 세종메디칼프라자 B02호","category":"레저업소 - 노 래 방"}]},{"lat":"37.3932507163","long":"127.0103012936","items":[{"name":"(주)콩지팥찌","tel":"031-426-9292","addr":"경기도 의왕시 청계동 544-1번지","category":"일반휴게음식 - 일반한식"}]},{"lat":"37.3889170650","long":"127.0004202840","items":[{"name":"GS25의왕청계사점","tel":"","addr":"경기도 의왕시 청계동 800-17번지 1층","category":"유통업 영리 - 편 의 점"},{"name":"주식회사오토씨에스케이","tel":"031-426-9815","addr":"경기도 의왕시 청계동 800-17번지 2층","category":"전기제품 - 기타전기제품"}]},{"lat":"37.3910251728","long":"126.9947288396","items":[{"name":"GS25의왕청계점","tel":"080-555-2525","addr":"경기도 의왕시 청계동 986번지","category":"유통업 영리 - 편 의 점"},{"name":"크린토피아 의왕청계점","tel":"031-425-8284","addr":"경기도 의왕시 청계동 986번지 1층","category":"수리서비스 - 세탁소"},{"name":"크린토피아 의왕청계점","tel":"031-425-8284","addr":"경기도 의왕시 청계동 986번지 대경 101호","category":"수리서비스 - 세탁소"}]},{"lat":"37.3895565825","long":"126.9955872053","items":[{"name":"New 영은기획","tel":"031-429-8877","addr":"경기도 의왕시 청계동 991-3번지 청계로얄프라자 109호","category":"서적문구 - 출판 및 인쇄물"},{"name":"동대문 여성의류","tel":"031-000-0000","addr":"경기도 의왕시 청계동 991-3번지 청계로얄프라자 302-1호","category":"의류 - 정장"},{"name":"디자인플러스","tel":"031-422-9235","addr":"경기도 의왕시 청계동 991-3번지 청계로얄프라자 1층 101-102호","category":"건축자재 - 인테리어전문"},{"name":"로얄스크린골프","tel":"031-422-0207","addr":"경기도 의왕시 청계동 991-3번지 청계로얄프라자 4층","category":"레저업소 - 스크린골프"},{"name":"리엔리 언어심리학습 치료센터","tel":"031-421-6206","addr":"경기도 의왕시 청계동 991-3번지 로얄프라자 502호","category":"보건위생 - 기타대인서비스"},{"name":"리젠","tel":"031-424-2053","addr":"경기도 의왕시 청계동 991-3번지 청계로얄프라자 303호","category":"보건위생 - 의료용품"},{"name":"벨라뷰티샵","tel":"031-421-3660","addr":"경기도 의왕시 청계동 991-3번지 청계로얄프라자 303호","category":"보건위생 - 화장품"},{"name":"비엔티꼴레지오네","tel":"","addr":"경기도 의왕시 청계동 991-3번지 청계로얄프라자 1층 110호","category":"의류 - 정장"},{"name":"의왕철물건재","tel":"031-423-2291","addr":"경기도 의왕시 청계동 991-3번지 청계로얄프라자 111호","category":"건축자재 - 목재·석재·철물"},{"name":"청계M.T.B자전거","tel":"031-424-2007","addr":"경기도 의왕시 청계동 991-3번지 청계로얄프라자 105호","category":"레져용품 - 스포츠·레져용품"},{"name":"청계래연습장","tel":"031-423-1010","addr":"경기도 의왕시 청계동 991-3번지 청계로얄프라자 301호","category":"레저업소 - 노 래 방"},{"name":"코리아택","tel":"031-425-3638","addr":"경기도 의왕시 청계동 991-3번지 청계로얄프라자 303호","category":"유통업 영리 - 기타유통업"},{"name":"프로스카페","tel":"031-426-9957","addr":"경기도 의왕시 청계동 991-3번지 청계로얄프라자 106호","category":"일반휴게음식 - 서양음식"}]},{"lat":"37.3934761921","long":"127.0014477773","items":[{"name":"The 좋은집","tel":"","addr":"경기도 의왕시 청계동 966번지 휴먼시아청계마을 4단지 상가 103호","category":"가구 - 일반가구"},{"name":"형제세탁소","tel":"031-424-7789","addr":"경기도 의왕시 청계동 966번지 휴먼시아청계마을 101호","category":"수리서비스 - 세탁소"},{"name":"휴먼시아할인마트","tel":"031-384-8189","addr":"경기도 의왕시 청계동 966 청계마을휴먼시아4차상가 104","category":"유통업 영리 - 슈퍼마켓"}]},{"lat":"37.3904755271","long":"126.9943110831","items":[{"name":"가마골순대국","tel":"031-422-3097","addr":"경기도 의왕시 청계동 986-5번지 1층 102호","category":"일반휴게음식 - 일반한식"}]},{"lat":"37.4011077089","long":"127.0058861431","items":[{"name":"감자바우","tel":"031-423-8008","addr":"경기도 의왕시 청계동 625-3번지 2층","category":"일반휴게음식 - 일반한식"}]},{"lat":"37.4017204301","long":"127.0021365542","items":[{"name":"강원멧돼지식당","tel":"031-426-5561","addr":"경기도 의왕시 청계동 647번지","category":"일반휴게음식 - 일반한식"},{"name":"요나플라워","tel":"","addr":"경기도 의왕시 청계동 647번지","category":"문화.취미 - 화원"}]},{"lat":"37.3896646622","long":"126.9949435391","items":[{"name":"겔러리뮤게카페","tel":"031-382-7274","addr":"경기도 의왕시 청계동 991-1번지 대맥프라자 106호","category":"일반휴게음식 - 서양음식"},{"name":"대성공조","tel":"031-421-5255","addr":"경기도 의왕시 청계동 991-1번지 대맥프라자 105호","category":"건축자재 - 보일러·펌프·샷시"},{"name":"머리사랑미용실","tel":"031-423-1654","addr":"경기도 의왕시 청계동 991-1번지 대맥프라자 206호","category":"보건위생 - 미용원"},{"name":"미소쥬얼리","tel":"031-452-7773","addr":"경기도 의왕시 청계동 991-1번지 대맥프라자 107호","category":"신변잡화 - 귀금속"},{"name":"베네스트 코리아","tel":"031-424-4001","addr":"경기도 의왕시 청계동 991-1번지 대맥프라자 204호","category":"가구 - 일반가구"},{"name":"비천","tel":"031-423-7803","addr":"경기도 의왕시 청계동 991-1번지 대맥프라자 101호","category":"음료식품 - 기타음료식품"},{"name":"숙명음악학원","tel":"031-424-3232","addr":"경기도 의왕시 청계동 999-1 대맥프라자 501,502","category":"학원 - 예·체능계학원"},{"name":"에버티","tel":"031-423-6869","addr":"경기도 의왕시 청계동 991-1번지 209,210호","category":"음료식품 - 기타음료식품"},{"name":"용인대신성태권도장","tel":"031-423-3977","addr":"경기도 의왕시 청계동 991-1 대맥프라자5층 504호,505호","category":"회원제형태 - 학원"},{"name":"우리강아지 애견용품점","tel":"031-425-7822","addr":"경기도 의왕시 청계동 991-1번지 대맥프라자 103호","category":"문화.취미 - 애완동물"},{"name":"좋은열매미술학원","tel":"031-423-3331","addr":"경기도 의왕시 청계동 991-1번지 대맥프라자 5층 506호","category":"회원제형태 - 학원"},{"name":"청계e해법영수학원","tel":"031-425-0906","addr":"경기도 의왕시 청계동 991-1번지 대맥프라자 503호","category":"회원제형태 - 학원"},{"name":"청계요양원","tel":"031-388-3885","addr":"경기도 의왕시 청계동 991-1번지 대맥프라자 3층","category":"기타의료기관 - 기타의료기관 및 기타"},{"name":"카페제이","tel":"02-000-0000","addr":"경기도 의왕시 청계동 991-1번지 대맥프라자 1층 106호","category":"일반휴게음식 - 서양음식"},{"name":"티.에이치.시 청계요양원","tel":"031-421-6262","addr":"경기도 의왕시 청계동 991-1번지 4층","category":"기타의료기관 - 기타의료기관 및 기타"},{"name":"풍경닭발","tel":"031-424-5753","addr":"경기도 의왕시 청계동 991-1 110","category":"일반휴게음식 - 일반한식"}]},{"lat":"37.3926379892","long":"127.0109223292","items":[{"name":"계림조경","tel":"031-426-6192","addr":"경기도 의왕시 청계동 542-2","category":"문화.취미 - 화원"}]},{"lat":"37.4026935040","long":"127.0049149083","items":[{"name":"계수나무","tel":"031-425-5533","addr":"경기도 의왕시 청계동 444-4번지","category":"일반휴게음식 - 일반한식"}]},{"lat":"37.4059185537","long":"127.0145606225","items":[{"name":"고기사랑","tel":"031-426-5820","addr":"경기도 의왕시 청계동 산66번지 1층","category":"일반휴게음식 - 일반한식"},{"name":"좋은고기 진부","tel":"031-426-5820","addr":"경기도 의왕시 청계동 산66번지 1층","category":"음료식품 - 정육점"}]},{"lat":"37.3899440063","long":"126.9954177840","items":[{"name":"고향식당","tel":"031-426-9300","addr":"경기도 의왕시 청계동 990-2번지 101,102,106호","category":"일반휴게음식 - 일반한식"},{"name":"벙커몰","tel":"070-7726-8070","addr":"경기도 의왕시 청계동 990-2번지","category":"레져용품 - 스포츠·레져용품"},{"name":"어컵오브헤븐(A Cup of Heaven)","tel":"031-422-3157","addr":"경기도 의왕시 청계동 990-2번지 청송프라자 203호","category":"음료식품 - 기타음료식품"},{"name":"조선닥발","tel":"031-425-8003","addr":"경기도 의왕시 청계동 990-2번지 청송프라자 103,104호","category":"일반휴게음식 - 일반한식"}]},{"lat":"37.3885835990","long":"126.9976085758","items":[{"name":"곱게자란총각카페","tel":"","addr":"경기도 의왕시 청계동 827-12번지 1층","category":"일반휴게음식 - 서양음식"},{"name":"하이축산물백화점","tel":"031-425-4031","addr":"경기도 의왕시 청계동 827-12번지 1층 1호","category":"음료식품 - 정육점"}]},{"lat":"37.3948907715","long":"127.0047227176","items":[{"name":"공감터참방","tel":"031-421-0510","addr":"경기도 의왕시 청계동 554-2번지 101호","category":"일반휴게음식 - 서양음식"}]},{"lat":"37.3913047630","long":"127.0018656397","items":[{"name":"구루플라이샵(GURUFLYSHOP)","tel":"031-426-0881","addr":"경기도 의왕시 청계동 764-5번지","category":"레져용품 - 스포츠·레져용품"}]},{"lat":"37.3902232361","long":"126.9941981889","items":[{"name":"국민맥주 의정점","tel":"02-426-2511","addr":"경기도 의왕시 청계동 986-7번지 1층","category":"일반휴게음식 - 주점"}]},{"lat":"37.3948078208","long":"127.0239433648","items":[{"name":"굼터","tel":"031-424-3392","addr":"경기도 의왕시 청계동 180번지","category":"일반휴게음식 - 일반한식"}]},{"lat":"37.3943043333","long":"127.0166141301","items":[{"name":"그린플라워","tel":"031-426-2020","addr":"경기도 의왕시 청계동 259-2","category":"문화.취미 - 화원"},{"name":"진한솔플라워","tel":"031-426-3333","addr":"경기도 의왕시 청계동 259-2번지","category":"문화.취미 - 화원"}]},{"lat":"37.3883853590","long":"126.9972246611","items":[{"name":"김경자대구왕뽈찜 청계점","tel":"031-426-3800","addr":"경기도 의왕시 청계동 827-17번지 1층","category":"일반휴게음식 - 일반한식"}]},{"lat":"37.3905836524","long":"126.9943675325","items":[{"name":"까페3-9(Cafe3-9)","tel":"031-425-3009","addr":"경기도 의왕시 청계동 986-4번지 1층","category":"일반휴게음식 - 서양음식"},{"name":"카페 3-9 (Cafe 3-9)","tel":"031-425-3009","addr":"경기도 의왕시 청계동 986-4번지","category":"일반휴게음식 - 서양음식"}]},{"lat":"37.3903403707","long":"126.9942433446","items":[{"name":"꽃과분 공방","tel":"031-424-9585","addr":"경기도 의왕시 청계동 986-6번지 명관 1동 101호","category":"문화.취미 - 문화취미기타"},{"name":"서진헤어플러스","tel":"031-426-9963","addr":"경기도 의왕시 청계동 986-6번지 명관 상가 101호","category":"보건위생 - 미용원"},{"name":"웅진골프아카데미","tel":"032-310-8375","addr":"경기도 의왕시 청계동 986-6번지","category":"레저업소 - 골프연습장"},{"name":"윤선생우리집앞영어교실청계덕장영어교습소","tel":"031-421-0594","addr":"경기도 의왕시 청계동 986-6번지 명관 101동 101호","category":"학원 - 외국어학원"}]},{"lat":"37.3919444824","long":"127.0021931149","items":[{"name":"꽃나라농원","tel":"031-421-2003","addr":"경기도 의왕시 청계동 764-1번지","category":"문화.취미 - 화원"},{"name":"꽃수레화원","tel":"031-451-2290","addr":"경기도 의왕시 청계동 764-1번지","category":"문화.취미 - 화원"},{"name":"나래화원","tel":"031-425-0550","addr":"경기도 의왕시 청계동 764-1번지","category":"문화.취미 - 화원"},{"name":"대성플라워","tel":"031-423-4414","addr":"경기도 의왕시 청계동 764-1","category":"문화.취미 - 화원"},{"name":"송연플라워","tel":"031-426-9957","addr":"경기도 의왕시 청계동 764-1","category":"문화.취미 - 화원"},{"name":"진명난원","tel":"031-425-6769","addr":"경기도 의왕시 청계동 764-1","category":"문화.취미 - 화원"}]},{"lat":"37.3919715140","long":"127.0024754284","items":[{"name":"꽃동네","tel":"031-424-3242","addr":"경기도 의왕시 청계동 762","category":"문화.취미 - 화원"}]},{"lat":"37.3897548395","long":"126.9961743816","items":[{"name":"꿈열매유치원[아이행복]","tel":"031-421-3505","addr":"경기도 의왕시 청계동 990-5번지 101,201,301호","category":"학원 - 유치원"}]},{"lat":"37.3941150116","long":"127.0175288184","items":[{"name":"나무인 영농조합법인","tel":"031-424-8484","addr":"경기도 의왕시 청계동 257번지","category":"농업 - 기타농업관련"}]},{"lat":"37.3908359449","long":"126.9945030125","items":[{"name":"다피네스킨케어","tel":"031-425-6345","addr":"경기도 의왕시 청계동 986-2번지 더모닝스타 상가 103호","category":"보건위생 - 피부미용실"},{"name":"이레건강원","tel":"031-427-3727","addr":"경기도 의왕시 청계동 986-2번지 더모닝스타 1층 101호","category":"건강식품 - 기타건강식품"},{"name":"헤어바이은선(hair by 은선)","tel":"031-441-4243","addr":"경기도 의왕시 청계동 986-2번지 더모닝스타 1층 102호","category":"보건위생 - 미용원"}]},{"lat":"37.3876916280","long":"126.9983087368","items":[{"name":"더플러스카페(글로벌도서관점)/의왕시니어","tel":"031-426-7988","addr":"경기도 의왕시 청계동 824-2번지 2층","category":"일반휴게음식 - 서양음식"},{"name":"의왕시니어클럽","tel":"031-426-7988","addr":"경기도 의왕시 청계동 824-2번지 2층","category":"음료식품 - 기타음료식품"},{"name":"의왕시니어클럽","tel":"031-426-7988","addr":"경기도 의왕시 청계동 824-2번지 2층","category":"자동차정비 유지 - 세차장"},{"name":"의왕시니어클럽","tel":"031-426-7988","addr":"경기도 의왕시 청계동 824-2번지 2층","category":"음료식품 - 기타음료식품"},{"name":"의왕시니어클럽","tel":"031-426-7988","addr":"경기도 의왕시 청계동 824-2번지","category":"음료식품 - 기타음료식품"},{"name":"의왕시니어클럽","tel":"031-426-7988","addr":"경기도 의왕시 청계동 824-2번지 2층","category":"자동차정비 유지 - 세차장"},{"name":"찬란한식탁협동조합","tel":"031-426-7988","addr":"경기도 의왕시 청계동 824-2번지 의왕시니어클럽내 2층","category":"음료식품 - 기타음료식품"}]},{"lat":"37.3929174905","long":"126.9984213457","items":[{"name":"덕장중학교","tel":"031-421-2103","addr":"경기도 의왕시 청계동 973번지 덕장중학교","category":"학원 - 초중고교육기관"}]},{"lat":"37.3920254407","long":"126.9972469723","items":[{"name":"덕장초등학교","tel":"031-422-0092","addr":"경기도 의왕시 청계동 975번지 덕장초등학교","category":"학원 - 초중고교육기관"},{"name":"덕장초등학교병설유치원[아이행복]","tel":"031-422-9757","addr":"경기도 의왕시 청계동 975번지 덕장초등학교","category":"학원 - 유치원"}]},{"lat":"37.3884214374","long":"126.9980828520","items":[{"name":"돈까스클럽(인덕원1호점)","tel":"031-426-7227","addr":"경기도 의왕시 청계동 829-17번지","category":"일반휴게음식 - 서양음식"}]},{"lat":"37.3888359464","long":"126.9993362467","items":[{"name":"둥지","tel":"031-423-1002","addr":"경기도 의왕시 청계동 996-6번지","category":"의류 - 정장"}]},{"lat":"37.3953303759","long":"127.0241129068","items":[{"name":"디자인공간","tel":"","addr":"경기도 의왕시 청계동 204번지 1층","category":"건축자재 - 인테리어전문"}]},{"lat":"37.3885565776","long":"126.9978118344","items":[{"name":"디테일리스트","tel":"031-421-2403","addr":"경기도 의왕시 청계동 827-1번지 영산빌딩 1층","category":"자동차정비 유지 - 세차장"},{"name":"호수농원","tel":"031-426-6773","addr":"경기도 의왕시 청계동 827-1번지 영산빌딩","category":"문화.취미 - 화원"}]},{"lat":"37.3946655209","long":"127.0046097825","items":[{"name":"디토","tel":"031-426-9096","addr":"경기도 의왕시 청계동 554-5번지","category":"일반휴게음식 - 서양음식"},{"name":"산앤들","tel":"031-423-4260","addr":"경기도 의왕시 청계동 554-5번지 1층","category":"일반휴게음식 - 일반한식"},{"name":"주식회사 산앤들","tel":"031-423-4260","addr":"경기도 의왕시 청계동 554-5번지","category":"음료식품 - 정육점"}]},{"lat":"37.3900520858","long":"126.9947854065","items":[{"name":"또봉이치킨 청계점","tel":"031-421-8232","addr":"경기도 의왕시 청계동 990번지 세종프라자주차빌딩 102호","category":"일반휴게음식 - 스넥"},{"name":"요거프레소 청계점","tel":"031-426-8994","addr":"경기도 의왕시 청계동 990번지 세종프라자 104호","category":"일반휴게음식 - 서양음식"},{"name":"청계사랑치과의원","tel":"031-426-2828","addr":"경기도 의왕시 청계동 990번지 세종프라자주차빌딩 201호","category":"의원 - 치과의원"},{"name":"청계스크린골프","tel":"031-111-1111","addr":"경기도 의왕시 청계동 990번지 세종프라자 202, 203, 204호","category":"레저업소 - 스크린골프"},{"name":"청계종합동물병원","tel":"031-424-7580","addr":"경기도 의왕시 청계동 990번지 세종프라자 1층 103호","category":"기타의료기관 - 동물병원"}]},{"lat":"37.3894035904","long":"126.9995959398","items":[{"name":"라메니닷컴","tel":"031-344-3688","addr":"경기도 의왕시 청계동 994-6번지 1층 102호","category":"자동차정비 유지 - 자동차부품"}]},{"lat":"37.3898989875","long":"126.9959372316","items":[{"name":"럭키유비알창호주식회사","tel":"02-582-2925","addr":"경기도 의왕시 청계동 990-4번지 한흥빌딩 304호","category":"용역 서비스 - 기타용역서비스"},{"name":"예성리하우징 주식회사","tel":"031-424-2926","addr":"경기도 의왕시 청계동 990-4번지 한흥빌딩 304-1호","category":"용역 서비스 - 기타용역서비스"},{"name":"인포패스","tel":"02-1688-7212","addr":"경기도 의왕시 청계동 990-4번지 한흥빌딩 101호","category":"사무통신 - 통신기기"},{"name":"협동조합 함박꽃웃음","tel":"031-422-5499","addr":"경기도 의왕시 청계동 990-4번지 한흥빌딩 106호","category":"음료식품 - 농·축·수산품"}]},{"lat":"37.4056099228","long":"127.0289160104","items":[{"name":"로니파허브동산","tel":"031-426-1409","addr":"경기도 의왕시 청계동 44-2","category":"문화.취미 - 화원"}]},{"lat":"37.3895567257","long":"126.9984780062","items":[{"name":"리즈앤에이미","tel":"031-111-1111","addr":"경기도 의왕시 청계동 994번지 1층 101호","category":"일반휴게음식 - 일반한식"}]},{"lat":"37.4066926558","long":"127.0206937983","items":[{"name":"마노","tel":"031-426-7765","addr":"경기도 의왕시 청계동 89-2 1,2층","category":"일반휴게음식 - 일반한식"}]},{"lat":"37.3909440740","long":"126.9946159244","items":[{"name":"모닝마트","tel":"031-423-1020","addr":"경기도 의왕시 청계동 986-1번지","category":"유통업 영리 - 슈퍼마켓"}]},{"lat":"37.3896106217","long":"126.9952484341","items":[{"name":"모터몬스터","tel":"031-425-3350","addr":"경기도 의왕시 청계동 991-2번지 102,103호","category":"자동차정비 유지 - 세차장"},{"name":"하늘학원","tel":"031-424-3684","addr":"경기도 의왕시 청계동 991-2번지 골드프라자 202호","category":"학원 - 보습학원"},{"name":"황금포차","tel":"031-426-1573","addr":"경기도 의왕시 청계동 991-2번지 104호","category":"일반휴게음식 - 일반한식"}]},{"lat":"37.3910163560","long":"126.9983198269","items":[{"name":"뮤엠영어의왕청계영어교습소","tel":"031-424-0579","addr":"경기도 의왕시 청계동 976번지 104호 상가","category":"회원제형태 - 학원"},{"name":"씨유의왕청계점","tel":"080-080-3663","addr":"경기도 의왕시 청계동 976번지 휴먼시아 청계마을 제상가동 101호","category":"유통업 영리 - 편 의 점"},{"name":"에이원","tel":"031-425-0235","addr":"경기도 의왕시 청계동 976번지 휴먼시아청계마을아파트 상가동 105호","category":"보건위생 - 미용원"},{"name":"와플대학 청계캠퍼스","tel":"031-424-6554","addr":"경기도 의왕시 청계동 976 청계휴먼시아상가103호우측","category":"일반휴게음식 - 일반한식"},{"name":"청계문구","tel":"031-421-8793","addr":"경기도 의왕시 청계동 976번지 휴먼시아청계마을 상가동 102호","category":"서적문구 - 문구용품"},{"name":"청계어린이집[아이행복]","tel":"031-382-7442","addr":"경기도 의왕시 청계동 976번지 휴먼시아청계마을","category":"학원 - 유아원"},{"name":"피자스쿨 의왕청계점","tel":"031-425-7555","addr":"경기도 의왕시 청계동 976번지 휴먼시아청계마을","category":"일반휴게음식 - 서양음식"}]},{"lat":"37.3939086843","long":"127.0023624893","items":[{"name":"바다라디오(BADARADIO)","tel":"031-421-3098","addr":"경기도 의왕시 청계동 966번지 휴먼시아청계마을 406동 1101호","category":"회원제형태 - 기타4"}]},{"lat":"37.3924309990","long":"127.0001943163","items":[{"name":"박선생영어","tel":"070-7740-8051","addr":"경기도 의왕시 청계동 972번지 휴먼시아청계마을 304동 404호","category":"학원 - 기타 교육기관"}]},{"lat":"37.4063034757","long":"127.0299101841","items":[{"name":"반야몰","tel":"031-423-3577","addr":"경기도 의왕시 청계동 산6-1번지","category":"신변잡화 - 기념품점"}]},{"lat":"37.3880881160","long":"126.9996185813","items":[{"name":"백운만두전문점","tel":"031-423-3131","addr":"경기도 의왕시 청계동 806-4번지 1층","category":"일반휴게음식 - 스넥"}]},{"lat":"37.3882773234","long":"126.9994491931","items":[{"name":"봉평메밀싹막국수","tel":"031-421-8886","addr":"경기도 의왕시 청계동 790-23번지 1층","category":"일반휴게음식 - 일반한식"}]},{"lat":"37.4065578542","long":"127.0181976285","items":[{"name":"사랑채","tel":"031-423-9600","addr":"경기도 의왕시 청계동 102-1번지","category":"일반휴게음식 - 일반한식"}]},{"lat":"37.4056102836","long":"127.0272218206","items":[{"name":"산사가는길","tel":"031-426-1515","addr":"경기도 의왕시 청계동 70번지","category":"유통업 영리 - 슈퍼마켓"},{"name":"산사가는길","tel":"031-426-1515","addr":"경기도 의왕시 청계동 70번지","category":"일반휴게음식 - 서양음식"}]},{"lat":"37.4024681322","long":"127.0085854938","items":[{"name":"삼거리맛집","tel":"031-426-7200","addr":"경기도 의왕시 청계동 459번지","category":"일반휴게음식 - 일반한식"}]},{"lat":"37.3910795092","long":"127.0017188413","items":[{"name":"샤론농원","tel":"031-426-2087","addr":"경기도 의왕시 청계동 794-1번지","category":"문화.취미 - 화원"}]},{"lat":"37.3881421867","long":"127.0000025062","items":[{"name":"성화애드컴","tel":"070-7834-6638","addr":"경기도 의왕시 청계동 806-1번지","category":"용역 서비스 - 사무서비스"}]},{"lat":"37.4019185687","long":"127.0073882834","items":[{"name":"세븐일레븐의왕청계점","tel":"031-1577-0711","addr":"경기도 의왕시 청계동 621-1번지 로즈빌 1층 101호","category":"유통업 영리 - 편 의 점"}]},{"lat":"37.3891963216","long":"126.9984780273","items":[{"name":"스타일","tel":"031-8028-0009","addr":"경기도 의왕시 청계동 995-7번지","category":"자동차정비 유지 - 자동차부품"}]},{"lat":"37.4026123237","long":"127.0079191499","items":[{"name":"스튜디오451","tel":"031-426-2494","addr":"경기도 의왕시 청계동 451번지 451하우스","category":"신변잡화 - 기타잡화"},{"name":"청계등나무식당","tel":"031-426-2494","addr":"경기도 의왕시 청계동 451번지 451하우스","category":"일반휴게음식 - 일반한식"}]},{"lat":"37.3966117119","long":"127.0034692088","items":[{"name":"시골집","tel":"031-426-4790","addr":"경기도 의왕시 청계동 699-2번지","category":"일반휴게음식 - 일반한식"}]},{"lat":"37.3890522181","long":"127.0004993244","items":[{"name":"실꽃누리 프랑스자수 야생화자수","tel":"","addr":"경기도 의왕시 청계동 800-16번지 2층","category":"학원 - 기타 교육기관"},{"name":"천지웅공예","tel":"031-426-5733","addr":"경기도 의왕시 청계동 800-16번지 102호","category":"문화.취미 - 민예·공예품"}]},{"lat":"37.4019997033","long":"127.0060330013","items":[{"name":"심인방","tel":"031-394-0065","addr":"경기도 의왕시 청계동 631번지","category":"건축자재 - 목재·석재·철물"}]},{"lat":"37.3948885871","long":"127.0256938009","items":[{"name":"쌈  마을","tel":"070-0000-0000","addr":"경기도 의왕시 청계동 177-7번지 2층","category":"일반휴게음식 - 일반한식"}]},{"lat":"37.3893044581","long":"126.9989071228","items":[{"name":"아그로이레 (Agrolreh)","tel":"031-000-0000","addr":"경기도 의왕시 청계동 995-3번지 1층","category":"농업 - 비료,사료,종자"}]},{"lat":"37.3928094307","long":"127.0005556684","items":[{"name":"아이원","tel":"031-348-4930","addr":"경기도 의왕시 청계동 972번지 휴먼시아청계마을 305동 405호","category":"보건위생 - 의료용품"},{"name":"엘지에어컨","tel":"","addr":"경기도 의왕시 청계동 972번지 휴먼시아청계마을","category":"용역 서비스 - 기타용역서비스"}]},{"lat":"37.3934401506","long":"127.0013574358","items":[{"name":"애플키즈","tel":"","addr":"경기도 의왕시 청계동 966번지 휴먼시아청계마을","category":"서적문구 - 일반서적"}]},{"lat":"37.4117442782","long":"127.0350290087","items":[{"name":"영민푸드트럭","tel":"","addr":"경기도 의왕시 청계동 11번지 청계산 공영주차장 내","category":"일반휴게음식 - 일반한식"}]},{"lat":"37.4058640929","long":"127.0180845410","items":[{"name":"옛고을","tel":"031-426-5599","addr":"경기도 의왕시 청계동 309-1번지","category":"일반휴게음식 - 일반한식"}]},{"lat":"37.3948620828","long":"127.0227802024","items":[{"name":"옛골왕돌구이","tel":"031-425-2833","addr":"경기도 의왕시 청계동 189번지","category":"일반휴게음식 - 일반한식"},{"name":"옛골왕돌구이","tel":"031-425-2833","addr":"경기도 의왕시 청계동 189번지","category":"일반휴게음식 - 일반한식"}]},{"lat":"37.3899710206","long":"126.9951693518","items":[{"name":"오덕식 자동차오토케어","tel":"031-421-5378","addr":"경기도 의왕시 청계동 990-1번지 블루빌 상가 102호","category":"자동차정비 유지 - 자동차정비"}]},{"lat":"37.3958007976","long":"127.0015606640","items":[{"name":"오래살개","tel":"070-7778-0899","addr":"경기도 의왕시 청계동 719번지 1층","category":"문화.취미 - 애완동물"}]},{"lat":"37.4000265241","long":"127.0046099050","items":[{"name":"오리마을","tel":"031-426-0088","addr":"경기도 의왕시 청계동 653-1번지","category":"일반휴게음식 - 일반한식"}]},{"lat":"37.4034139212","long":"127.0126966796","items":[{"name":"오백년누룽지백숙","tel":"031-422-4477","addr":"경기도 의왕시 청계동 326-2번지","category":"일반휴게음식 - 일반한식"}]},{"lat":"37.3923048437","long":"126.9996409832","items":[{"name":"오비(O.B)미트","tel":"031-422-2234","addr":"경기도 의왕시 청계동 972번지 휴먼시아청계마을 상가동 청계할인마트 정육코너","category":"음료식품 - 정육점"},{"name":"청계할인마트","tel":"031-422-2234","addr":"경기도 의왕시 청계동 972번지 휴먼시아 청계마을 101,102호","category":"유통업 영리 - 슈퍼마켓"}]},{"lat":"37.3972514133","long":"127.0048582952","items":[{"name":"오케이목장","tel":"031-426-0119","addr":"경기도 의왕시 청계동 571번지","category":"음료식품 - 정육점"},{"name":"오케이목장","tel":"031-426-0119","addr":"경기도 의왕시 청계동 571번지","category":"일반휴게음식 - 일반한식"}]},{"lat":"37.3881961457","long":"126.9972020914","items":[{"name":"우가돈가 정육식당/주식회사 제주본가","tel":"02-1833-7537","addr":"경기도 의왕시 청계동 827-10번지","category":"일반휴게음식 - 일반한식"}]},{"lat":"37.3914578690","long":"126.9988166690","items":[{"name":"원영냉장","tel":"031-426-8259","addr":"경기도 의왕시 청계동 976번지 휴먼시아청계마을","category":"전기제품 - 냉열기기"}]},{"lat":"37.3919174489","long":"127.0039999223","items":[{"name":"웰텍승마클럽","tel":"031-476-3481","addr":"경기도 의왕시 청계동 760번지","category":"레저업소 - 기타레져업소"}]},{"lat":"37.3907188096","long":"126.9944465637","items":[{"name":"이모네","tel":"031-421-6009","addr":"경기도 의왕시 청계동 986-3번지 용진 1층 103호","category":"일반휴게음식 - 일반한식"},{"name":"헤어포즈","tel":"031-424-9114","addr":"경기도 의왕시 청계동 986-3번지 용진 101호","category":"보건위생 - 미용원"}]},{"lat":"37.3928815247","long":"127.0013687398","items":[{"name":"장미화원","tel":"02-504-0922","addr":"경기도 의왕시 청계동 966번지 휴먼시아청계마을 403동 504호","category":"문화.취미 - 화원"}]},{"lat":"37.4028916289","long":"127.0080885814","items":[{"name":"장수촌","tel":"031-422-9952","addr":"경기도 의왕시 청계동 452번지","category":"일반휴게음식 - 일반한식"}]},{"lat":"37.3925568369","long":"127.0117805613","items":[{"name":"전라도팥바지락칼국수","tel":"031-426-5801","addr":"경기도 의왕시 청계동 534번지","category":"일반휴게음식 - 일반한식"}]},{"lat":"37.3935662987","long":"127.0020237080","items":[{"name":"절미박","tel":"","addr":"경기도 의왕시 청계동 966번지 휴먼시아청계마을","category":"음료식품 - 기타음료식품"},{"name":"조아네스","tel":"","addr":"경기도 의왕시 청계동 966번지 휴먼시아청계마을","category":"의류 - 정장"}]},{"lat":"37.3878898190","long":"126.9975634567","items":[{"name":"정수농원","tel":"031-426-3100","addr":"경기도 의왕시 청계동 826-2번지","category":"문화.취미 - 화원"}]},{"lat":"37.3949697105","long":"127.0255244305","items":[{"name":"제이엔제이 공조","tel":"031-265-8636","addr":"경기도 의왕시 청계동 178-1번지","category":"용역 서비스 - 기타용역서비스"}]},{"lat":"37.4047742772","long":"127.0145265616","items":[{"name":"제철따라","tel":"031-427-4744","addr":"경기도 의왕시 청계동 335번지","category":"건강식품 - 기타건강식품"}]},{"lat":"37.3872771640","long":"126.9983313457","items":[{"name":"조둥27년","tel":"031-425-5253","addr":"경기도 의왕시 청계동 823-15번지","category":"일반휴게음식 - 일반한식"}]},{"lat":"37.3901694615","long":"127.0000814744","items":[{"name":"주공할인마트","tel":"031-425-3397","addr":"경기도 의왕시 청계동 980번지 휴먼시아청계마을 101호","category":"유통업 영리 - 슈퍼마켓"},{"name":"청계치킨호프","tel":"031-422-4522","addr":"경기도 의왕시 청계동 980번지 휴먼시아청계마을 상가동 104호","category":"일반휴게음식 - 스넥"},{"name":"헤어스토리","tel":"031-423-7250","addr":"경기도 의왕시 청계동 980 청계휴먼시아 상가-102","category":"보건위생 - 미용원"}]},{"lat":"37.3932236694","long":"127.0105610240","items":[{"name":"주식회사 복진면","tel":"031-426-5812","addr":"경기도 의왕시 청계동 540-2번지 1층","category":"일반휴게음식 - 일반한식"}]},{"lat":"37.3943591883","long":"127.0022269712","items":[{"name":"주식회사와이즈21","tel":"031-1111-1111","addr":"경기도 의왕시 청계동 963-12번지 1층","category":"보건위생 - 화장품"}]},{"lat":"37.3887818961","long":"126.9996975957","items":[{"name":"준디테일링","tel":"031-426-5151","addr":"경기도 의왕시 청계동 996-11번지","category":"자동차정비 유지 - 세차장"}]},{"lat":"37.3938622987","long":"127.0206681778","items":[{"name":"진성건설기계","tel":"031-426-0385","addr":"경기도 의왕시 청계동 252-5번지","category":"기타 - 기타 전문점"}]},{"lat":"37.3893855634","long":"126.9993588051","items":[{"name":"진성유통","tel":"031-423-2001","addr":"경기도 의왕시 청계동 994-5번지 101호","category":"음료식품 - 기타음료식품"}]},{"lat":"37.3892774204","long":"126.9986925734","items":[{"name":"진푸드","tel":"02-1111-1111","addr":"경기도 의왕시 청계동 995-2번지 1층 102호","category":"음료식품 - 기타음료식품"}]},{"lat":"37.3949441647","long":"127.0155865838","items":[{"name":"참나무와 도토리","tel":"031-426-8009","addr":"경기도 의왕시 청계동 504-3번지","category":"문화.취미 - 문화취미기타"}]},{"lat":"37.3929446052","long":"127.0028593748","items":[{"name":"청계 여성전용 불한증막","tel":"031-426-2500","addr":"경기도 의왕시 청계동 769-1번지 청계로50 1층","category":"보건위생 - 사우나"}]},{"lat":"37.3917281849","long":"126.9992118925","items":[{"name":"청계꿈나래어린이집[아이행복]","tel":"031-426-4223","addr":"경기도 의왕시 청계동 972번지 휴먼시아청계마을","category":"학원 - 유아원"}]},{"lat":"37.4052497008","long":"127.0280800894","items":[{"name":"청계노송산장","tel":"031-426-1977","addr":"경기도 의왕시 청계동 48번지","category":"일반휴게음식 - 일반한식"}]},{"lat":"37.3855833498","long":"127.0021931738","items":[{"name":"청계농장","tel":"031-426-9178","addr":"경기도 의왕시 청계동 817-1번지","category":"일반휴게음식 - 일반한식"}]},{"lat":"37.3956385840","long":"127.0059423909","items":[{"name":"청계다원","tel":"031-426-5595","addr":"경기도 의왕시 청계동 562-2번지","category":"일반휴게음식 - 일반한식"}]},{"lat":"37.3958638417","long":"127.0057278304","items":[{"name":"청계대청마루","tel":"031-423-9907","addr":"경기도 의왕시 청계동 562-1번지","category":"일반휴게음식 - 일반한식"}]},{"lat":"37.3927734132","long":"127.0026673995","items":[{"name":"청계마루","tel":"031-426-2500","addr":"경기도 의왕시 청계동 769번지","category":"일반휴게음식 - 일반한식"}]},{"lat":"37.4009455150","long":"127.0063378926","items":[{"name":"청계마트","tel":"070-4108-6774","addr":"경기도 의왕시 청계동 600-1번지","category":"유통업 영리 - 슈퍼마켓"}]},{"lat":"37.3903586991","long":"127.0015268832","items":[{"name":"청계블루베리팜","tel":"070-4146-1377","addr":"경기도 의왕시 청계동 797-2","category":"음료식품 - 농·축·수산품"}]},{"lat":"37.4035855182","long":"127.0034127910","items":[{"name":"청계산 들풀 자연학교","tel":"070-7747-5522","addr":"경기도 의왕시 청계동 642번지","category":"레저업소 - 기타레져업소"}]},{"lat":"37.4050263419","long":"127.0165596127","items":[{"name":"청계산오작교","tel":"031-426-8844","addr":"경기도 의왕시 청계동 311번지","category":"일반휴게음식 - 일반한식"},{"name":"청계산오작교","tel":"031-426-8844","addr":"경기도 의왕시 청계동 311번지","category":"일반휴게음식 - 일반한식"}]},{"lat":"37.4011347563","long":"127.0051068631","items":[{"name":"청계새솔어린이집[아이행복]","tel":"070-8845-2012","addr":"경기도 의왕시 청계동 628번지 청계새솔마을 104호","category":"학원 - 유아원"}]},{"lat":"37.3912234133","long":"126.9949998367","items":[{"name":"청계장애인주간보호시설","tel":"031-422-5160","addr":"경기도 의왕시 청계동 983번지","category":"보건위생 - 기타대인서비스"}]},{"lat":"37.3944485974","long":"127.0156994295","items":[{"name":"청계천연염색연구원","tel":"031-426-8009","addr":"경기도 의왕시 청계동 504-2","category":"회원제형태 - 학원"}]},{"lat":"37.3929424652","long":"127.0253883086","items":[{"name":"청년창업푸드트럭","tel":"031-1111-1111","addr":"경기도 의왕시 청계동 산8-18번지","category":"일반휴게음식 - 서양음식"}]},{"lat":"37.3895297024","long":"126.9986699749","items":[{"name":"청호냉동서비스","tel":"031-458-8344","addr":"경기도 의왕시 청계동 994-1번지","category":"용역 서비스 - 기타용역서비스"}]},{"lat":"37.4026123154","long":"127.0081111504","items":[{"name":"카페451","tel":"031-426-1719","addr":"경기도 의왕시 청계동 451-3번지","category":"일반휴게음식 - 서양음식"}]},{"lat":"37.4038014312","long":"127.0117254179","items":[{"name":"카페나랑(CAFE NARANG)","tel":"031-425-1007","addr":"경기도 의왕시 청계동 341-2번지","category":"일반휴게음식 - 서양음식"}]},{"lat":"37.3892233442","long":"126.9982747672","items":[{"name":"큐아이엔시(Q inc)","tel":"031-426-0123","addr":"경기도 의왕시 청계동 995-8번지 1동","category":"신변잡화 - 기타잡화"}]},{"lat":"37.4069721264","long":"127.0196095632","items":[{"name":"탱골꿀벌농장","tel":"","addr":"경기도 의왕시 청계동 95-2번지","category":"건강식품 - 기타건강식품"}]},{"lat":"37.4017744125","long":"127.0072527465","items":[{"name":"테라헤카페","tel":"031-424-4258","addr":"경기도 의왕시 청계동 621-1번지","category":"일반휴게음식 - 서양음식"}]},{"lat":"37.3889620707","long":"126.9988055120","items":[{"name":"토이빌리지","tel":"031-422-4999","addr":"경기도 의왕시 청계동 996-3,4 101","category":"서적문구 - 완구점"}]},{"lat":"37.3874483905","long":"126.9993363122","items":[{"name":"포가 백운호수점","tel":"031-2678-7789","addr":"경기도 의왕시 청계동 809-1번지 1층","category":"일반휴게음식 - 서양음식"}]},{"lat":"37.3929625853","long":"126.9998103454","items":[{"name":"프롬로즈","tel":"031-422-6054","addr":"경기도 의왕시 청계동 972번지 휴먼시아청계마을","category":"유통업 영리 - 기타유통업"}]},{"lat":"37.3914669386","long":"127.0013010136","items":[{"name":"플라본샵","tel":"031-382-1552","addr":"경기도 의왕시 청계동 971번지 휴먼시아청계마을 504동 803호","category":"신변잡화 - 기타잡화"}]},{"lat":"37.3948891639","long":"127.0224752988","items":[{"name":"피가로","tel":"","addr":"경기도 의왕시 청계동 192번지","category":"일반휴게음식 - 서양음식"}]},{"lat":"37.3920522149","long":"127.0125032258","items":[{"name":"하나월드","tel":"031-426-2611","addr":"경기도 의왕시 청계동 530-15번지","category":"문화.취미 - 화원"}]},{"lat":"37.3886106126","long":"126.9972472283","items":[{"name":"하나토이즈","tel":"031-426-9726","addr":"경기도 의왕시 청계동 828-3번지","category":"서적문구 - 완구점"}]},{"lat":"37.3938635372","long":"126.9980825045","items":[{"name":"해오름발도르프어린이집[아이행복]","tel":"031-425-8808","addr":"경기도 의왕시 청계동 857번지 블루밸리 101호","category":"학원 - 유아원"}]},{"lat":"37.3905026714","long":"126.9960613915","items":[{"name":"핸디헤어","tel":"031-421-7135","addr":"경기도 의왕시 청계동 982 휴먼시아청계마을상가102호","category":"보건위생 - 미용원"}]},{"lat":"37.3891152662","long":"126.9995620760","items":[{"name":"햇빛공간","tel":"070-4221-2101","addr":"경기도 의왕시 청계동 996-7번지 1층","category":"가구 - 일반가구"}]},{"lat":"37.3878358172","long":"126.9990878714","items":[{"name":"허브앤조이","tel":"031-426-0606","addr":"경기도 의왕시 청계동 807-3번지 햇살빌리지 1층","category":"신변잡화 - 기타잡화"}]},{"lat":"37.3879709952","long":"127.0000250967","items":[{"name":"홍천강다슬기해장국","tel":"031-422-3346","addr":"경기도 의왕시 청계동 808-1번지 1층","category":"일반휴게음식 - 일반한식"}]}]