[{"lat":"37.266373934","long":"127.05941994","items":[{"name":"(주) 주니코","tel":"031-281-1068","addr":"경기도 수원시 영통구 원천동 471번지","category":"기타 - 기계공구"},{"name":"(주)유엘에스","tel":"031-211-0006","addr":"경기도 수원시 영통구 원천동 471번지 삼성테크노파크 508호","category":"기타 - 기계공구"},{"name":"(주)제이엘인터네셔날","tel":"031-214-5983","addr":"경기도 수원시 영통구 원천동 471번지 삼성테크노파크 4층 403호","category":"농업 - 농기계"},{"name":"TOKHOE&T","tel":"031-211-5750","addr":"경기도 수원시 영통구 원천동 471번지 삼성테크노파크 603호","category":"기타 - 기타 전문점"},{"name":"경희삼성한의원","tel":"031-214-7776","addr":"경기도 수원시 영통구 원천동 471번지 삼성테크노파크 204호","category":"의원 - 한의원"},{"name":"곤지암할매소머리국밥","tel":"031-213-5427","addr":"경기도 수원시 영통구 원천동 471번지","category":"일반휴게음식 - 일반한식"},{"name":"나이스가이","tel":"031-213-7215","addr":"경기도 수원시 영통구 원천동 471번지 삼성테크노파크 107호","category":"보건위생 - 미용원"},{"name":"디자인그루","tel":"070-1111-1111","addr":"경기도 수원시 영통구 원천동 471번지 삼성테크노파크 2층","category":"용역 서비스 - 사무서비스"},{"name":"먹자고(G)","tel":"031-222-0010","addr":"경기도 수원시 영통구 원천동 471번지 113,114호","category":"일반휴게음식 - 일반한식"},{"name":"버클리","tel":"031-211-0522","addr":"경기도 수원시 영통구 원천동 471번지 삼성테크노파크 205호","category":"일반휴게음식 - 주점"},{"name":"본주짓수 킥복싱","tel":"031-213-3120","addr":"경기도 수원시 영통구 원천동 471번지 삼성테크노파크 3층 301호","category":"레저업소 - 헬스클럽"},{"name":"봉사하는 우리들","tel":"031-244-2013","addr":"경기도 수원시 영통구 원천동 471번지 삼성테크노파크 B동 2층 205호","category":"기타 - 비영리/대상"},{"name":"시머스전자","tel":"031-213-2641","addr":"경기도 수원시 영통구 원천동 471번지 삼성테크노파크 502호","category":"전기제품 - 기타전기제품"},{"name":"안경창고싸군(원천점)","tel":"031-211-2727","addr":"경기도 수원시 영통구 원천동 471번지 삼성테크노파크 1층 103호","category":"보건위생 - 안경"},{"name":"에스가드코리아","tel":"031-222-1988","addr":"경기도 수원시 영통구 원천동 471번지 삼성테크노파크 115호","category":"자동차정비 유지 - 자동차정비"},{"name":"엠디랩","tel":"031-225-3114","addr":"경기도 수원시 영통구 원천동 471번지 삼성테크노파크 208호","category":"서적문구 - 과학기자재"},{"name":"오리지널 튜너 라운지","tel":"031-241-8016","addr":"경기도 수원시 영통구 원천동 471번지 삼성테크노파크 115호","category":"자동차정비 유지 - 자동차부품"},{"name":"이디야","tel":"031-217-2008","addr":"경기도 수원시 영통구 원천동 471번지 삼성테크노파크 104,105호","category":"일반휴게음식 - 서양음식"},{"name":"제이디스","tel":"070-5017-0241","addr":"경기도 수원시 영통구 원천동 471번지 삼성테크노파크 707호","category":"전기제품 - 기타전기제품"},{"name":"주식회사 영진건설","tel":"031-548-2533","addr":"경기도 수원시 영통구 원천동 471번지 2층 208-7호","category":"용역 서비스 - 기타용역서비스"},{"name":"주식회사 한경테크놀러지","tel":"031-000-0000","addr":"경기도 수원시 영통구 원천동 471번지 삼성테크노파크 2층 207호","category":"전기제품 - 기타전기제품"},{"name":"주식회사유엔아이텍","tel":"070-7789-1231","addr":"경기도 수원시 영통구 원천동 471번지 삼성테크노파크 601호","category":"보건위생 - 미용재료"},{"name":"테크노당구장","tel":"031-214-3466","addr":"경기도 수원시 영통구 원천동 471번지","category":"레저업소 - 당 구 장"},{"name":"팔미 낙지한덮밥&왕아구찜","tel":"031-000-0000","addr":"경기도 수원시 영통구 원천동 471번지 삼성테크노파크 201호","category":"일반휴게음식 - 일반한식"},{"name":"한가네셀프뷔페","tel":"031-217-8503","addr":"경기도 수원시 영통구 원천동 471번지 삼성테크노파크 210호","category":"일반휴게음식 - 일반한식"}]},{"lat":"37.261433846","long":"127.06433129","items":[{"name":"(주)넥스프유통","tel":"031-212-9792","addr":"경기도 수원시 영통구 원천동 362-11 1,2층","category":"음료식품 - 기타음료식품"}]},{"lat":"37.273567997","long":"127.05066476","items":[{"name":"(주)다우리커뮤니케이션","tel":"031-256-8114","addr":"경기도 수원시 영통구 원천동 90-10번지","category":"별도관리 - 자체물품대금"},{"name":"(주)다우리커뮤니케이즈","tel":"031-256-8114","addr":"경기도 수원시 영통구 원천동 90-10번지 2층","category":"사무통신 - 컴퓨터"},{"name":"가향","tel":"031-211-6660","addr":"경기도 수원시 영통구 원천동 90-10번지","category":"일반휴게음식 - 중국식"},{"name":"쇼캅","tel":"031-334-3234","addr":"경기도 수원시 영통구 원천동 90-10번지","category":"회원제형태 - 기타1"}]},{"lat":"37.273932728","long":"127.06113938","items":[{"name":"(주)더스카이팜 세상의모든아침 광교점","tel":"031-547-9870","addr":"경기도 수원시 영통구 원천동 593번지 광교아이파크 판매H동 3층 321~328호","category":"일반휴게음식 - 서양음식"},{"name":"(주)동네정미소 광교","tel":"031-548-2826","addr":"경기도 수원시 영통구 원천동 593번지 광교아이파크 E동 B116호","category":"음료식품 - 미곡상"},{"name":"(주)빗소리","tel":"031-548-2219","addr":"경기도 수원시 영통구 원천동 593번지 광교아이파크 E동 B115호","category":"일반휴게음식 - 일반한식"},{"name":"60계 수원광교호수공원점","tel":"031-111-1111","addr":"경기도 수원시 영통구 원천동 593번지 광교아이파크 판매케이동 1층 176,177호","category":"일반휴게음식 - 스넥"},{"name":"가메골 손만두","tel":"031-8007-3236","addr":"경기도 수원시 영통구 원천동 593번지 판매케이동 2층 260일부,261일부호","category":"일반휴게음식 - 일반한식"},{"name":"감성고기 광교","tel":"070-4858-4167","addr":"경기도 수원시 영통구 원천동 593번지 광교아이파크 B120호","category":"일반휴게음식 - 서양음식"},{"name":"개인과외","tel":"","addr":"경기도 수원시 영통구 원천동 593번지 광교아이파크 103동 1004호","category":"학원 - 기타 교육기관"},{"name":"게방식당","tel":"02-512-2580","addr":"경기도 수원시 영통구 원천동 593번지 광교아이파크 K동 1층 179호","category":"음료식품 - 기타음료식품"},{"name":"겐짱타코야키","tel":"031-731-7366","addr":"경기도 수원시 영통구 원천동 593번지 광교아이파크 판매제이동 1층 159호","category":"일반휴게음식 - 서양음식"},{"name":"겟올라잇","tel":"031-217-1019","addr":"경기도 수원시 영통구 원천동 593번지 광교아이파크 판매에프동 2층 237,238호","category":"일반휴게음식 - 서양음식"},{"name":"광교 엘리웨이 밀도","tel":"031-306-5051","addr":"경기도 수원시 영통구 원천동 593번지 광교아이파크 141,142,143호","category":"일반휴게음식 - 서양음식"},{"name":"광교아이파크오피스텔 단지관리단","tel":"031-216-9166","addr":"경기도 수원시 영통구 원천동 593번지 오피스텔","category":"자동차정비 유지 - 주차장"},{"name":"김홍중음악학원","tel":"031-211-8225","addr":"경기도 수원시 영통구 원천동 593번지 광교아이파크 2층 254,255호","category":"학원 - 예·체능계학원"},{"name":"낙찌하다","tel":"02-3463-7105","addr":"경기도 수원시 영통구 원천동 593번지 광교아이파크 제판매 C동 226호","category":"일반휴게음식 - 일반한식"},{"name":"다곳","tel":"02-6959-0761","addr":"경기도 수원시 영통구 원천동 593번지 광교아이파크 B122-131, B201호","category":"유통업 영리 - 슈퍼마켓"},{"name":"더부쓰 광교앨리웨이점","tel":"02-711-4723","addr":"경기도 수원시 영통구 원천동 593번지 광교아이파크 판매에이치동 1층 147~149호","category":"일반휴게음식 - 서양음식"},{"name":"더슬랩","tel":"","addr":"경기도 수원시 영통구 원천동 593번지 광교아이파크 D동 233호","category":"가구 - 일반가구"},{"name":"더한(THE HAN)","tel":"031-111-1111","addr":"경기도 수원시 영통구 원천동 593번지 광교아이파크 판매시설동 3층 301호","category":"일반휴게음식 - 일반한식"},{"name":"도쿄등심 광교점","tel":"031-214-8324","addr":"경기도 수원시 영통구 원천동 593번지 광교아이파크 판매 C동 308,309,310호","category":"일반휴게음식 - 일식·회집"},{"name":"동트는농가","tel":"031-8007-3350","addr":"경기도 수원시 영통구 원천동 593번지 광교아이파크 판매시설비동 2층 219호,220,221 일부호","category":"일반휴게음식 - 일반한식"},{"name":"두수고방","tel":"02-6959-0761","addr":"경기도 수원시 영통구 원천동 593번지 광교아이파크 303~305호","category":"일반휴게음식 - 일반한식"},{"name":"메디슨잉글리시프렙","tel":"","addr":"경기도 수원시 영통구 원천동 593번지 광교아이파크 102동 103호","category":"학원 - 기타 교육기관"},{"name":"미스터복싱짐","tel":"070-8976-8610","addr":"경기도 수원시 영통구 원천동 593번지 광교아이파크 103동 3304호","category":"레저업소 - 헬스클럽"},{"name":"바르다김선생 앨리웨이 광교점","tel":"","addr":"경기도 수원시 영통구 원천동 593번지 광교아이파크 K동 1층 169호일부,174호","category":"일반휴게음식 - 스넥"},{"name":"바오담 광교엘리웨이점","tel":"","addr":"경기도 수원시 영통구 원천동 593번지 광교아이파크 K동 1층 170,168호일부","category":"음료식품 - 기타음료식품"},{"name":"버블앤스티치","tel":"031-212-8807","addr":"경기도 수원시 영통구 원천동 593번지 광교아이파크 E동 1층 101호","category":"수리서비스 - 세탁소"},{"name":"범산목장 엘리웨이광교점","tel":"031-111-1111","addr":"경기도 수원시 영통구 원천동 593번지 광교아이파크 판매A동 2층 208호","category":"일반휴게음식 - 서양음식"},{"name":"베를린 팥문점","tel":"02-6959-0753","addr":"경기도 수원시 영통구 원천동 593번지 광교아이파크 판매이동 지하1층 111호","category":"일반휴게음식 - 서양음식"},{"name":"보이동/(주)빗소리","tel":"031-548-2219","addr":"경기도 수원시 영통구 원천동 593번지 169호 168호,169호","category":"일반휴게음식 - 일식·회집"},{"name":"삐삐네","tel":"02-6959-0751","addr":"경기도 수원시 영통구 원천동 593번지 광교아이파크 175호","category":"일반휴게음식 - 서양음식"},{"name":"스트롤 리퀴르샵 엘리웨이광교","tel":"031-8009-0333","addr":"경기도 수원시 영통구 원천동 593번지 광교아이파크 124호","category":"음료식품 - 주류 판매점"},{"name":"스트롤광교점","tel":"02-6959-0761","addr":"경기도 수원시 영통구 원천동 593번지 광교아이파크 124,125,126호","category":"의류 - 정장"},{"name":"시립광교아이파크어린이집[아이행복]","tel":"031-213-2666","addr":"경기도 수원시 영통구 원천동 593번지 광교아이파크 관리동","category":"학원 - 유아원"},{"name":"식물원","tel":"02-6959-0761","addr":"경기도 수원시 영통구 원천동 593번지 광교아이파크 239, 240,241,242호","category":"문화.취미 - 화원"},{"name":"신성통상(주)TOPTEN 엘리웨이 광교 키즈","tel":"02-3709-9128","addr":"경기도 수원시 영통구 원천동 593번지 광교아이파크 A동 1층 104호","category":"레져용품 - 스포츠·레져용품"},{"name":"신시아 (Cyn thi a)","tel":"02-713-9875","addr":"경기도 수원시 영통구 원천동 593번지 광교아이파크 A동 1층 115호","category":"의류 - 정장"},{"name":"씨유광교앨리웨이점","tel":"080-080-3663","addr":"경기도 수원시 영통구 원천동 593번지 광고아이파크 1동 105호","category":"유통업 영리 - 편 의 점"},{"name":"씽크 주","tel":"070-4858-4164","addr":"경기도 수원시 영통구 원천동 593번지 광교아이파크 H동 144,150,151,152,153호","category":"일반휴게음식 - 서양음식"},{"name":"아오로","tel":"02-6959-0761","addr":"경기도 수원시 영통구 원천동 593번지 광교아이파크 160동 167호","category":"음료식품 - 기타음료식품"},{"name":"아우어베이커리 광교앨리웨이점","tel":"02-1111-1111","addr":"경기도 수원시 영통구 원천동 593번지 광교아이파크 F동 139,140호","category":"일반휴게음식 - 서양음식"},{"name":"안녕동물병원","tel":"051-756-0075","addr":"경기도 수원시 영통구 원천동 593번지 광교아이파크 1층 154,155,156호 일부","category":"기타의료기관 - 동물병원"},{"name":"안데르센","tel":"031-111-1111","addr":"경기도 수원시 영통구 원천동 593번지 A동 214호,215호","category":"가구 - 일반가구"},{"name":"앨리소아청소년과의원","tel":"031-215-0175","addr":"경기도 수원시 영통구 원천동 593번지 210,211호","category":"의원 - 의원"},{"name":"앨리웨이 광교","tel":"02-6959-0750","addr":"경기도 수원시 영통구 원천동 593번지 광교아이파크 운영사무실","category":"음료식품 - 기타음료식품"},{"name":"언커먼 아이웨어","tel":"031-8019-8487","addr":"경기도 수원시 영통구 원천동 593번지 광교아이파크 C동 1층 128호","category":"보건위생 - 안경"},{"name":"에필 필라테스 광교점","tel":"02-6959-0761","addr":"경기도 수원시 영통구 원천동 593번지 광교아이파크 247동 250호","category":"레저업소 - 헬스클럽"},{"name":"연남방앗간 광교점","tel":"031-111-1111","addr":"경기도 수원시 영통구 원천동 593번지 광교아이파크 H동 145,146호","category":"일반휴게음식 - 일반한식"},{"name":"오웨이 광교엘리웨이점","tel":"","addr":"경기도 수원시 영통구 원천동 593번지 광교아이파크 D동 1층 131호","category":"보건위생 - 화장품"},{"name":"완벽한인생 광교앨리웨이","tel":"","addr":"경기도 수원시 영통구 원천동 593번지 광교아이파크 판매K동 2층 264,265,266호","category":"일반휴게음식 - 일반한식"},{"name":"우마이야/(주)에프앤씨엘","tel":"031-731-7366","addr":"경기도 수원시 영통구 원천동 593번지 광교아이파크 판매 C동 227호","category":"일반휴게음식 - 일식·회집"},{"name":"주식회사 생활도감","tel":"02-1661-0819","addr":"경기도 수원시 영통구 원천동 593번지 광교아이파크 D동 1층 133호","category":"신변잡화 - 기타잡화"},{"name":"준오헤어","tel":"031-111-1111","addr":"경기도 수원시 영통구 원천동 593번지 판매에이치동 2층 243,244호","category":"보건위생 - 미용원"},{"name":"책발전소 광교","tel":"031-548-4522","addr":"경기도 수원시 영통구 원천동 593번지 광교아이파크 B동 1층 117,118호","category":"일반휴게음식 - 서양음식"},{"name":"책읽는루브르아뜰리에광교앨리웨이미술학원","tel":"031-214-7556","addr":"경기도 수원시 영통구 원천동 593번지 앨리웨이상가 I동 2층 251-253호","category":"학원 - 예·체능계학원"},{"name":"카트리지프로젝트 더 네이버후드 광교점/베","tel":"02-545-0901","addr":"경기도 수원시 영통구 원천동 593번지 광교아이파크 1층 107호","category":"일반휴게음식 - 서양음식"},{"name":"커피반점","tel":"","addr":"경기도 수원시 영통구 원천동 593번지 광교아이파크 K동 1층 168,171호","category":"일반휴게음식 - 서양음식"},{"name":"크리타 갤러리","tel":"02-6959-0761","addr":"경기도 수원시 영통구 원천동 593번지 광교아이파크 2층 205,206,207호","category":"문화.취미 - 화랑"},{"name":"크리타 스튜디오","tel":"02-6959-0761","addr":"경기도 수원시 영통구 원천동 593번지 광교아이파크 10층","category":"학원 - 기타 교육기관"},{"name":"티몬팩토리 광교점","tel":"031-307-9920","addr":"경기도 수원시 영통구 원천동 593번지 광교아이파크 A동1층106호~108호","category":"유통업 영리 - 슈퍼마켓"},{"name":"팜프라자 앨리약국","tel":"031-212-7507","addr":"경기도 수원시 영통구 원천동 593번지 광교아이파크 A동 209호","category":"약국 - 약국"},{"name":"펀사우르스/(주)올프롬제이","tel":"070-4062-7963","addr":"경기도 수원시 영통구 원천동 593번지 광교아이파크 A동 113,114호","category":"의류 - 아동의류"},{"name":"플레이송스광교학원","tel":"02-544-6636","addr":"경기도 수원시 영통구 원천동 593번지 광교아이파크판매에이 1층 109~111호","category":"학원 - 예·체능계학원"},{"name":"피그먼트 엘리웨이(YG컴퍼니)","tel":"","addr":"경기도 수원시 영통구 원천동 593번지 광교아이파크 B동 1층 121호","category":"의류 - 정장"},{"name":"핌 언더그라운드","tel":"070-4280-8062","addr":"경기도 수원시 영통구 원천동 593번지 광교아이파크 A동 지하1층 B101-110호","category":"일반휴게음식 - 서양음식"},{"name":"핑거스시/주식회사 이김에프엔비","tel":"031-111-1111","addr":"경기도 수원시 영통구 원천동 593번지 광교아이파크 E동 B117호","category":"일반휴게음식 - 일반한식"},{"name":"한옥집김치찜한국의맛앨리웨이광교점","tel":"031-8007-3235","addr":"경기도 수원시 영통구 원천동 593번지 광교아이파크 판매케이동 2층 257일부, 258일부, 259호","category":"일반휴게음식 - 일반한식"},{"name":"해삐바이브","tel":"","addr":"경기도 수원시 영통구 원천동 593번지 광교아이파크 1층 180호","category":"일반휴게음식 - 서양음식"},{"name":"헤아 광교","tel":"","addr":"경기도 수원시 영통구 원천동 593번지 광교아이파크 D동 129호","category":"보건위생 - 이용원"},{"name":"현지애개인과외","tel":"","addr":"경기도 수원시 영통구 원천동 593번지 광교아이파크 102동 302호","category":"학원 - 기타 교육기관"},{"name":"형훈텐동 광교엘리웨이점","tel":"02-000-0000","addr":"경기도 수원시 영통구 원천동 593번지 광교아이파크 E동 B114호","category":"일반휴게음식 - 일식·회집"}]},{"lat":"37.262102304","long":"127.06097244","items":[{"name":"(주)뮤즈테크","tel":"031-8002-2525","addr":"경기도 수원시 영통구 원천동 554번지 3-903 영통이노플렉스-2단지","category":"용역 서비스 - 기타용역서비스"},{"name":"라떼요","tel":"031-8002-2799","addr":"경기도 수원시 영통구 원천동 554번지 영통이노플렉스2단지 108호","category":"일반휴게음식 - 서양음식"},{"name":"씨유수원이노플렉스점","tel":"070-7107-0709","addr":"경기도 수원시 영통구 원천동 554번지 영통이노플렉스-2단지3동3-105호","category":"유통업 영리 - 편 의 점"},{"name":"이노당구클럽","tel":"031-111-1111","addr":"경기도 수원시 영통구 원천동 554번지 영통 이노플렉스-2단지 3동 207호 206, 207호","category":"레저업소 - 당 구 장"},{"name":"조이푸드","tel":"031-8002-3199","addr":"경기도 수원시 영통구 원천동 554번지 영통 이노플렉스-2단지 3동 3-201호","category":"일반휴게음식 - 일반한식"},{"name":"주식회사티엔피","tel":"031-8002-3118","addr":"경기도 수원시 영통구 원천동 554번지 5층 3-505","category":"전기제품 - 기타전기제품"},{"name":"홀릭맥","tel":"031-8002-2266","addr":"경기도 수원시 영통구 원천동 554번지 3동 107호 영통이노플렉스-2단지","category":"일반휴게음식 - 주점"}]},{"lat":"37.273658411","long":"127.04988686","items":[{"name":"(주)믿음법률경매","tel":"031-238-2907","addr":"경기도 수원시 영통구 원천동 90-18번지 성수빌딩 2층","category":"회원제형태 - 기타4"},{"name":"변호사노덕기법률사무소","tel":"031-217-1523","addr":"경기도 수원시 영통구 원천동 90-18번지 성수빌딩","category":"용역 서비스 - 법률회계서비스(개인)"}]},{"lat":"37.284013602","long":"127.04342064","items":[{"name":"(주)비지에프리테일 아주대장례식장점","tel":"031-219-4576","addr":"경기도 수원시 영통구 원천동 산5-1번지 아주대병원 장례식장 내","category":"유통업 영리 - 편 의 점"},{"name":"(주)에이엔케이","tel":"031-219-2950","addr":"경기도 수원시 영통구 원천동 산5-1번지 아주대학교","category":"서적문구 - 과학기자재"},{"name":"(주)화랑","tel":"031-213-4749","addr":"경기도 수원시 영통구 원천동 산5-1번지 아주대학교,산학협력원 227호","category":"의류 - 기타의류"},{"name":"ㅇㅈ밥빵","tel":"031-111-1111","addr":"경기도 수원시 영통구 원천동 산5-1번지 아주대학교 원천정보관 비상계단앞공지","category":"일반휴게음식 - 일반한식"},{"name":"구내안경마을","tel":"031-214-5990","addr":"경기도 수원시 영통구 원천동 산5아주대학교구내","category":"보건위생 - 안경"},{"name":"라이프웰","tel":"031-214-0988","addr":"경기도 수원시 영통구 원천동 산5아주대학교산학관114","category":"회원제형태 - 기타4"},{"name":"만랩 (MAN LAB)","tel":"","addr":"경기도 수원시 영통구 원천동 산5-1번지 아주대학교 원천정보관 비상계단앞공지","category":"일반휴게음식 - 일반한식"},{"name":"명인만두아주대병원점","tel":"031-214-9055","addr":"경기도 수원시 영통구 원천동 산5-1번지 아주대학교 병원본관지하1층일부","category":"일반휴게음식 - 스넥"},{"name":"비틀주스아주대병원점","tel":"031-215-2158","addr":"경기도 수원시 영통구 원천동 산5-1번지 아주대학교 지하1층 아주대학교병원웰빙센터","category":"일반휴게음식 - 서양음식"},{"name":"사단법인국방엔씨더블유포럼","tel":"031-219-3419","addr":"경기도 수원시 영통구 원천동 산5 아주대학교종합관911호","category":"용역 서비스 - 사무서비스"},{"name":"수원아주대학교우체국","tel":"031-211-0004","addr":"경기도 수원시 영통구 원천동 산5번지 아주대학교 산 5호","category":"용역 서비스 - 공공요금대행서비스/소"},{"name":"아낌없이주는식당","tel":"031-111-1111","addr":"경기도 수원시 영통구 원천동 산5-1번지 아주대학교","category":"일반휴게음식 - 일반한식"},{"name":"에스앤에스(주) 아주대학교 학생식당 수원","tel":"02-1544-5486","addr":"경기도 수원시 영통구 원천동 산5-1번지 아주대학교","category":"일반휴게음식 - 위탁급식업"},{"name":"에치앤에스푸드(아주대기숙사식당)","tel":"031-219-2149","addr":"경기도 수원시 영통구 원천동 산5-1번지 아주대학교 기숙사식당 1층","category":"일반휴게음식 - 위탁급식업"},{"name":"주식회사 컴워스파마(Comeworth Pharma Inc","tel":"031-1111-1111","addr":"경기도 수원시 영통구 원천동 산5-1번지 아주대학교 약학관 101호","category":"용역 서비스 - 사무서비스"},{"name":"주식회사 코너스톤","tel":"031-254-8855","addr":"경기도 수원시 영통구 원천동 산5-1번지 아주대학교 12층 종합관","category":"일반휴게음식 - 위탁급식업"},{"name":"주식회사 한국씨알오","tel":"","addr":"경기도 수원시 영통구 원천동 산5-1번지 아주대학교 창업지원실 B104호","category":"용역 서비스 - 사무서비스"},{"name":"주식회사레위","tel":"031-215-0401","addr":"경기도 수원시 영통구 원천동 산5-1번지 아주대학교 213호","category":"전기제품 - 기타전기제품"},{"name":"주식회사지온","tel":"031-219-2285","addr":"경기도 수원시 영통구 원천동 산5-1번지 아주대학교","category":"용역 서비스 - 사무서비스"},{"name":"진야식당","tel":"031-000-0000","addr":"경기도 수원시 영통구 원천동 산5-1번지","category":"일반휴게음식 - 일반한식"},{"name":"커피감아주대점","tel":"031-219-2149","addr":"경기도 수원시 영통구 원천동 산5-1번지 아주대학교 기숙사 식당 1층","category":"일반휴게음식 - 서양음식"},{"name":"팔달관스넥(아주대)","tel":"031-219-2272","addr":"경기도 수원시 영통구 원천동 산5-1번지 아주대학교 팔달관 1층","category":"일반휴게음식 - 일반한식"},{"name":"하겐다즈 아주대병원점/(주)대아","tel":"031-212-8211","addr":"경기도 수원시 영통구 원천동 산5-1번지 아주대학교 아주대병원 본관 지하","category":"일반휴게음식 - 일반한식"},{"name":"한국생채재료학회","tel":"02-972-9803","addr":"경기도 수원시 영통구 원천동 산5아주대학교서관108-2호","category":"회원제형태 - 기타4"}]},{"lat":"37.259325437","long":"127.06432958","items":[{"name":"(주)삼성자동차공업사","tel":"031-216-1488","addr":"경기도 수원시 영통구 원천동 409번지","category":"자동차정비 유지 - 자동차정비"}]},{"lat":"37.278760368","long":"127.04413946","items":[{"name":"(주)상리라","tel":"031-216-9771","addr":"경기도 수원시 영통구 원천동 18-1번지","category":"일반휴게음식 - 서양음식"},{"name":"Net City PC Club","tel":"070-4009-8244","addr":"경기도 수원시 영통구 원천동 18-1번지 아록빌딩 202호","category":"레저업소 - 기타레져업소"},{"name":"e-SPORTS CENTER PC","tel":"070-4009-8244","addr":"경기도 수원시 영통구 원천동 18-1번지 아록빌딩 지층 102호","category":"레저업소 - 기타레져업소"},{"name":"당구존","tel":"070-7076-5091","addr":"경기도 수원시 영통구 원천동 18-1번지 아록빌딩 501호","category":"레저업소 - 당 구 장"},{"name":"대우당구클럽","tel":"031-216-1683","addr":"경기도 수원시 영통구 원천동 18-1번지","category":"레저업소 - 당 구 장"},{"name":"웁스당구장","tel":"031-214-0014","addr":"경기도 수원시 영통구 원천동 18-1,5,6층","category":"레저업소 - 당 구 장"},{"name":"큐브 PC 카페","tel":"031-663-0447","addr":"경기도 수원시 영통구 원천동 18-1번지 아록빌딩 4층 402호","category":"레저업소 - 기타레져업소"},{"name":"탐앤탐스아주대점","tel":"031-211-3565","addr":"경기도 수원시 영통구 원천동 18-1번지 아록빌딩 1층","category":"일반휴게음식 - 서양음식"},{"name":"플랜트아주대점","tel":"","addr":"경기도 수원시 영통구 원천동 18-1번지 아록빌딩 3층 302-2호","category":"용역 서비스 - 사무서비스"}]},{"lat":"37.26235409","long":"127.06198722","items":[{"name":"(주)솔룩스","tel":"031-223-5614","addr":"경기도 수원시 영통구 원천동 552번지 이노플렉스 1동 901호","category":"서적문구 - 과학기자재"},{"name":"넥스플랜 주식회사","tel":"031-211-6465","addr":"경기도 수원시 영통구 원천동 552번지 영통이노플렉스1단지 1동 604호","category":"기타 - 기계공구"},{"name":"디케이앤씨","tel":"031-8077-2516","addr":"경기도 수원시 영통구 원천동 552번지 영통이노플렉스1단지 1동 1001호","category":"서적문구 - 과학기자재"},{"name":"에스비와이 쏠루션","tel":"031-8002-2004","addr":"경기도 수원시 영통구 원천동 552번지 경동이노플렉스 1동 1004호","category":"용역 서비스 - 사무서비스"},{"name":"에스에이치테크놀러지(SH Technology)","tel":"031-8002-2131","addr":"경기도 수원시 영통구 원천동 552번지 영통이노플렉스-1단지 1동 201호","category":"전기제품 - 기타전기제품"},{"name":"엔텍주식회사/원격지","tel":"031-8002-3456","addr":"경기도 수원시 영통구 원천동 552번지 이노플렉스 1동 1002호","category":"기타 - 기타 전문점"},{"name":"이노텍시스","tel":"031-8002-3321","addr":"경기도 수원시 영통구 원천동 552번지 영통이노플렉스1단지 1동 1003호","category":"서적문구 - 과학기자재"},{"name":"주식회사 아르케(Arche Co.,Ltd)","tel":"031-9210-8115","addr":"경기도 수원시 영통구 원천동 552번지 영통이노플렉스1단지 1동 909호","category":"서적문구 - 과학기자재"},{"name":"주식회사파워라이드","tel":"02-2057-8037","addr":"경기도 수원시 영통구 원천동 552번지 영통이노플렉스1단지 1동 606호","category":"레져용품 - 스포츠·레져용품"},{"name":"지에스이엠","tel":"031-000-0000","addr":"경기도 수원시 영통구 원천동 552번지 영통이노플렉스1단지 1동 1001호","category":"광학제품 - 기타광학제품"}]},{"lat":"37.27420858","long":"127.04850038","items":[{"name":"(주)수원삼계탕","tel":"031-212-8095","addr":"경기도 수원시 영통구 원천동 85-18번지 1층","category":"일반휴게음식 - 일반한식"}]},{"lat":"37.278345282","long":"127.0458644","items":[{"name":"(주)신바이오","tel":"031-892-2112","addr":"경기도 수원시 영통구 원천동 35-1 도병원빌딩비1층","category":"약국 - 제약회사"},{"name":"(주)신바이오","tel":"070-8286-2005","addr":"경기도 수원시 영통구 원천동 35-1번지 도병원빌딩 B동 1층","category":"약국 - 약국"},{"name":"신토리할매국밥,탄불","tel":"031-216-8592","addr":"경기도 수원시 영통구 원천동 35-1번지 2층","category":"일반휴게음식 - 일반한식"},{"name":"와우커피","tel":"031-216-0614","addr":"경기도 수원시 영통구 원천동 35-1번지 3층 301호","category":"일반휴게음식 - 서양음식"}]},{"lat":"37.279183879","long":"127.04406076","items":[{"name":"(주)아이막","tel":"031-214-1585","addr":"경기도 수원시 영통구 원천동 13-4번지 아주대캠퍼스프라자 1층","category":"서적문구 - 전문서적"},{"name":"드림디포수원점","tel":"031-213-1783","addr":"경기도 수원시 영통구 원천동 13-4번지 아주대학교캠퍼스플라자지하1층","category":"서적문구 - 문구용품"},{"name":"마켓스토리","tel":"","addr":"경기도 수원시 영통구 원천동 13-4번지 아주대학교어학교육원 415호","category":"음료식품 - 농·축·수산품"},{"name":"투썸플레이스아주대점","tel":"031-215-2785","addr":"경기도 수원시 영통구 원천동 13-4번지 캠퍼스프라자1층일부,2층일부","category":"일반휴게음식 - 서양음식"}]},{"lat":"37.267404856","long":"127.06953342","items":[{"name":"(주)엘케이시스템즈","tel":"031-214-8884","addr":"경기도 수원시 영통구 원천동 296-6번지 수원영통아크로파크 102동 7층 703호","category":"전기제품 - 냉열기기"},{"name":"명진종합인테리어","tel":"","addr":"경기도 수원시 영통구 원천동 296-6번지 아크로파크 102동 202호","category":"건축자재 - 인테리어전문"},{"name":"칠과함께","tel":"070-8865-4412","addr":"경기도 수원시 영통구 원천동 296-6번지 수원영통아크로파크 102동 703호","category":"건축자재 - 인테리어전문"}]},{"lat":"37.265461475","long":"127.06427819","items":[{"name":"(주)엠티씨","tel":"031-214-2336","addr":"경기도 수원시 영통구 원천동 332-2번지 수원팩토리월드 807호","category":"기타 - 기타 전문점"},{"name":"(주)한국전해수시스템","tel":"070-5055-4690","addr":"경기도 수원시 영통구 원천동 332-2번지 수원팩토리월드 904호","category":"전기제품 - 기타전기제품"},{"name":"(주)휴렐","tel":"031-216-5703","addr":"경기도 수원시 영통구 원천동 332-2번지 수원팩토리월드 504호","category":"보건위생 - 화장품"},{"name":"GS25수원팩토리점","tel":"02-2006-2485","addr":"경기도 수원시 영통구 원천동 332-2번지 수원팩토리월드제1층 상가 150호","category":"유통업 영리 - 편 의 점"},{"name":"HAPPY해누리작업장","tel":"031-213-1208","addr":"경기도 수원시 영통구 원천동 332-2번지 팩토리월드 102호,104호","category":"유통업 영리 - 기타유통업"},{"name":"SEMI SPEED","tel":"031-215-3288","addr":"경기도 수원시 영통구 원천동 332-2번지 수원팩토리월드 307호","category":"사무통신 - 기타 사무용품"},{"name":"가나안상사","tel":"031-211-0755","addr":"경기도 수원시 영통구 원천동 332-2번지 수원팩토리월드 133호","category":"건축자재 - 목재·석재·철물"},{"name":"경보테크","tel":"031-217-2963","addr":"경기도 수원시 영통구 원천동 332-2번지 수원팩토리월드 409호","category":"기타 - 기타 전문점"},{"name":"궁전식당","tel":"031-216-0688","addr":"경기도 수원시 영통구 원천동 332-2 천지빌딩지하 25","category":"일반휴게음식 - 일반한식"},{"name":"대성무역","tel":"031-206-5738","addr":"경기도 수원시 영통구 원천동 332-2번지 수원팩토리월드 209,212,215호","category":"레져용품 - 스포츠·레져용품"},{"name":"더후레쉬푸드","tel":"070-7862-1697","addr":"경기도 수원시 영통구 원천동 332-2번지 수원팩토리월드 150호","category":"일반휴게음식 - 일반한식"},{"name":"뚝배기식당","tel":"031-216-6806","addr":"경기도 수원시 영통구 원천동 332-2번지 수원팩토리월드","category":"일반휴게음식 - 일반한식"},{"name":"비비마켓","tel":"","addr":"경기도 수원시 영통구 원천동 332-2번지 S124호,S132호","category":"의류 - 정장"},{"name":"사천셰셰","tel":"031-214-4088","addr":"경기도 수원시 영통구 원천동 332-2번지 수원팩토리월드","category":"일반휴게음식 - 중국식"},{"name":"삼성솔루션","tel":"031-214-7474","addr":"경기도 수원시 영통구 원천동 332-2번지 수원팩토리월드 1007호","category":"사무통신 - 사무용 OA기기"},{"name":"삼성유니텍","tel":"031-306-4080","addr":"경기도 수원시 영통구 원천동 332-2번지 제2층234,235,236호","category":"광학제품 - 카메라"},{"name":"삼성치과의원","tel":"031-215-3377","addr":"경기도 수원시 영통구 원천동 332-2,231,232,233,230","category":"의원 - 치과의원"},{"name":"승희미용실","tel":"031-216-4005","addr":"경기도 수원시 영통구 원천동 332-2번지 수원팩토리월드 115호","category":"보건위생 - 미용원"},{"name":"씨티아이월드","tel":"031-1600-3436","addr":"경기도 수원시 영통구 원천동 332-2번지 수원팩토리월드 143,144호","category":"사무통신 - 통신기기"},{"name":"앵두네","tel":"","addr":"경기도 수원시 영통구 원천동 332-2번지 수원팩토리월드 1층 123호","category":"건강식품 - 기타건강식품"},{"name":"언니네식탁","tel":"031-217-1253","addr":"경기도 수원시 영통구 원천동 332-2번지 수원팩토리월드 지하1층 SB 28,29호","category":"일반휴게음식 - 일반한식"},{"name":"에스엔코리아","tel":"031-216-5118","addr":"경기도 수원시 영통구 원천동 332-2번지 수원팩토리월드 상가 1층 149호","category":"기타 - 기계공구"},{"name":"에이블희망일터","tel":"031-111-1111","addr":"경기도 수원시 영통구 원천동 332-2번지 수원팩토리월드 306호","category":"용역 서비스 - 종합용역"},{"name":"예광사무기(특별할부)","tel":"031-235-6654","addr":"경기도 수원시 영통구 원천동 332-2번지 수원팩토리월드 1007호","category":"사무통신 - 사무용 OA기기"},{"name":"온누리식당","tel":"031-216-3100","addr":"경기도 수원시 영통구 원천동 332-2 수원팩토리월드 SB15","category":"일반휴게음식 - 일반한식"},{"name":"와이엔지테크(YNG)","tel":"031-892-6118","addr":"경기도 수원시 영통구 원천동 332-2번지 수원팩토리월드 1층 102,103호","category":"용역 서비스 - 기타용역서비스"},{"name":"우진전기제작소","tel":"031-214-1869","addr":"경기도 수원시 영통구 원천동 332-2번지 수원팩토리월드 104호","category":"기타 - 기타 전문점"},{"name":"우진전기제작소/원격지","tel":"031-214-1869","addr":"경기도 수원시 영통구 원천동 332-2번지 수원팩토리월드 104호","category":"기타 - 기타 전문점"},{"name":"월드스크린","tel":"031-275-3300","addr":"경기도 수원시 영통구 원천동 332-2번지","category":"회원제형태 - 레져업소"},{"name":"월드식당","tel":"031-213-7849","addr":"경기도 수원시 영통구 원천동 332-2번지","category":"일반휴게음식 - 일반한식"},{"name":"윤아STORY","tel":"070-7539-0017","addr":"경기도 수원시 영통구 원천동 332-2번지 수원팩토리월드","category":"신변잡화 - 액세서리"},{"name":"자빈꼬치","tel":"031-214-4820","addr":"경기도 수원시 영통구 원천동 332-2번지 수원팩토리월드 지하1층 상가 46호","category":"일반휴게음식 - 주점"},{"name":"조우딘(JOUDIN)","tel":"02-854-8255","addr":"경기도 수원시 영통구 원천동 332-2번지 수원팩토리월드 S854, S855호","category":"신변잡화 - 액세서리"},{"name":"주식회사 이피씨","tel":"031-203-6330","addr":"경기도 수원시 영통구 원천동 332-2번지 수원팩토리월드 6층 610호","category":"사무통신 - 통신기기"},{"name":"천지노래연습장","tel":"031-287-0321","addr":"경기도 수원시 영통구 원천동 332-2번지 수원팩토리월드 지하1층 45호","category":"레저업소 - 노 래 방"},{"name":"천지회관","tel":"031-216-7196","addr":"경기도 수원시 영통구 원천동 332-2번지 팩프리월드빌딩 320호","category":"일반휴게음식 - 일반한식"},{"name":"커피야","tel":"","addr":"경기도 수원시 영통구 원천동 332-2번지 수원팩토리월드 1층 S122호","category":"일반휴게음식 - 서양음식"},{"name":"코스메틱엔지니어링","tel":"031-214-8258","addr":"경기도 수원시 영통구 원천동 332-2번지 수원팩토리월드 806호","category":"기타 - 기타 전문점"},{"name":"팩토리월드입주자대표협의회","tel":"031-211-3512","addr":"경기도 수원시 영통구 원천동 332-2번지","category":"자동차정비 유지 - 주차장"},{"name":"팩토리한식뷔페","tel":"031-214-2122","addr":"경기도 수원시 영통구 원천동 332-2번지 수원팩토리월드 311~312호","category":"일반휴게음식 - 일반한식"},{"name":"푸르피플 (Pour People)","tel":"031-216-4445","addr":"경기도 수원시 영통구 원천동 332-2번지 수원팩토리월드 3층 305호","category":"신변잡화 - 기타잡화"},{"name":"한국고주파응용기기","tel":"031-216-4735","addr":"경기도 수원시 영통구 원천동 332-2번지 수원팩토리월드 809호","category":"서적문구 - 과학기자재"},{"name":"한국고주파응용기기/원격지","tel":"031-216-4735","addr":"경기도 수원시 영통구 원천동 332-2번지 수원팩토리월드 809호","category":"기타 - 기타 전문점"},{"name":"호로록","tel":"031-216-2216","addr":"경기도 수원시 영통구 원천동 332-2번지 수원팩토리월드 상가 147호","category":"일반휴게음식 - 스넥"}]},{"lat":"37.259235793","long":"127.06343896","items":[{"name":"(주)제이에이테크/원격지","tel":"031-211-2302","addr":"경기도 수원시 영통구 원천동 405-2번지","category":"기타 - 기타 전문점"}]},{"lat":"37.283345757","long":"127.04647616","items":[{"name":"(주)지온","tel":"031-215-2285","addr":"경기도 수원시 영통구 원천동 산5번지","category":"서적문구 - 출판 및 인쇄물"},{"name":"아주대병원차량관리센타","tel":"031-211-5442","addr":"경기도 수원시 영통구 원천동 산5","category":"자동차정비 유지 - 주차장"},{"name":"예전스튜디오","tel":"031-219-2286","addr":"경기도 수원시 영통구 원천동 산 5","category":"광학제품 - 사진관"}]},{"lat":"37.275289027","long":"127.05049673","items":[{"name":"(주)트러스트수원부동산중개법인","tel":"031-213-4599","addr":"경기도 수원시 영통구 원천동 83-23번지 승전빌딩 505호","category":"용역 서비스 - 부동산 중개·임대"},{"name":"로앤로법무사 박민식","tel":"031-213-6532","addr":"경기도 수원시 영통구 원천동 83-23번지 105호,106호","category":"용역 서비스 - 법률회계서비스(개인)"},{"name":"변호사강희철법률사무소","tel":"031-213-6001","addr":"경기도 수원시 영통구 원천동 83-23번지 승전","category":"용역 서비스 - 법률회계서비스(개인)"},{"name":"변호사김사일사무소","tel":"031-217-0041","addr":"경기도 수원시 영통구 원천동 83-23번지 원천동 승전빌딩 505호","category":"용역 서비스 - 법률회계서비스(개인)"},{"name":"변호사김현명법률사무소","tel":"031-217-0041","addr":"경기도 수원시 영통구 원천동 83-23번지 승전빌딩 505호","category":"용역 서비스 - 법률회계서비스(개인)"},{"name":"변호사안의석법률사무소","tel":"031-216-6800","addr":"경기도 수원시 영통구 원천동 83-23번지 승전빌딩 3동 308층","category":"용역 서비스 - 법률회계서비스(개인)"},{"name":"변호사이승빈법률사무소","tel":"031-213-2119","addr":"경기도 수원시 영통구 원천동 83-23번지 승전빌딩 209호","category":"용역 서비스 - 법률회계서비스(개인)"},{"name":"변호사이재선법률사무소","tel":"031-217-8900","addr":"경기도 수원시 영통구 원천동 83-23번지 승전빌딩 202호","category":"용역 서비스 - 법률회계서비스(개인)"},{"name":"변호사임창현법률사무소","tel":"031-217-0041","addr":"경기도 수원시 영통구 원천동 83-23번지 승전빌딩 505호","category":"용역 서비스 - 법률회계서비스(개인)"},{"name":"변호사정선근사무소","tel":"031-217-4004","addr":"경기도 수원시 영통구 원천동 83-23번지 승전빌딩 301호,302호","category":"용역 서비스 - 법률회계서비스(개인)"},{"name":"변호사최성욱법률사무소","tel":"031-212-0078","addr":"경기도 수원시 영통구 원천동 83-23번지 승전빌딩 506호","category":"용역 서비스 - 법률회계서비스(개인)"},{"name":"변호사최현미법률사무소","tel":"031-211-6580","addr":"경기도 수원시 영통구 원천동 83-23번지 승전빌딩 501호","category":"용역 서비스 - 법률회계서비스(개인)"},{"name":"예스김밥","tel":"070-5025-4135","addr":"경기도 수원시 영통구 원천동 83-23번지 승전빌딩 102호","category":"일반휴게음식 - 스넥"},{"name":"임대진법률사무소","tel":"031-213-0070","addr":"경기도 수원시 영통구 원천동 83-23번지 숭전빌딩 402호","category":"용역 서비스 - 법률회계서비스(개인)"},{"name":"임준환법률사무소","tel":"031-211-0700","addr":"경기도 수원시 영통구 원천동 83-23번지 승전빌딩 402호","category":"용역 서비스 - 법률회계서비스(개인)"},{"name":"정영종법무사사무소","tel":"031-217-7001","addr":"경기도 수원시 영통구 원천동 83-23번지 승전빌딩 203호","category":"용역 서비스 - 법률회계서비스(개인)"},{"name":"조규일법무사사무소","tel":"031-216-5200","addr":"경기도 수원시 영통구 원천동 83-23번지 승전빌딩 207호","category":"용역 서비스 - 법률회계서비스(개인)"},{"name":"화성상사(커피스토리)","tel":"031-212-4188","addr":"경기도 수원시 영통구 원천동 83-23번지 승전빌딩 206호","category":"일반휴게음식 - 서양음식"},{"name":"희래원","tel":"031-216-1566","addr":"경기도 수원시 영통구 원천동 83-23번지 승전빌딩 110호","category":"일반휴게음식 - 중국식"}]},{"lat":"37.274154357","long":"127.04891752","items":[{"name":"(주)포스위드","tel":"031-726-4082","addr":"경기도 수원시 영통구 원천동 85-7번지 2층","category":"보건위생 - 화장품"},{"name":"강명희속기사무소","tel":"031-214-4100","addr":"경기도 수원시 영통구 원천동 85-7번지 2층","category":"용역 서비스 - 사무서비스"},{"name":"동일사","tel":"031-212-9197","addr":"경기도 수원시 영통구 원천동 85-7번지","category":"건축자재 - 목재·석재·철물"}]},{"lat":"37.269320366","long":"127.05927558","items":[{"name":"(주)한일무선","tel":"031-216-0080","addr":"경기도 수원시 영통구 원천동 462-7번지","category":"사무통신 - 통신기기"},{"name":"(주)한일무선","tel":"031-216-0080","addr":"경기도 수원시 영통구 원천동 462-7번지","category":"사무통신 - 통신기기(무이자할부)"},{"name":"미니모터스 수원지점","tel":"031-211-2422","addr":"경기도 수원시 영통구 원천동 462-7번지","category":"레져용품 - 스포츠·레져용품"}]},{"lat":"37.273595173","long":"127.05030399","items":[{"name":"(주)화인테크","tel":"031-214-1131","addr":"경기도 수원시 영통구 원천동 90-24번지 102호","category":"건강식품 - 기타건강식품"},{"name":"KS인테리어","tel":"031-274-0423","addr":"경기도 수원시 영통구 원천동 90-24번지 102호","category":"건축자재 - 인테리어전문"},{"name":"굳웰잉크전문점","tel":"031-212-2982","addr":"경기도 수원시 영통구 원천동 90-24번지","category":"사무통신 - 기타 사무용품"},{"name":"법무사황승수사무소","tel":"031-216-1110","addr":"경기도 수원시 영통구 원천동 90-24번지 102호","category":"용역 서비스 - 법률회계서비스(개인)"}]},{"lat":"37.276318612","long":"127.0440592","items":[{"name":"1001안경&오렌즈(아주대점)","tel":"031-211-4001","addr":"경기도 수원시 영통구 원천동 25-2번지","category":"보건위생 - 안경"},{"name":"더코너","tel":"070-4798-8111","addr":"경기도 수원시 영통구 원천동 25-2번지 준영빌딩 108호","category":"의류 - 정장"},{"name":"락휴노래연습장","tel":"031-217-7958","addr":"경기도 수원시 영통구 원천동 25-2번지 4층","category":"레저업소 - 노 래 방"},{"name":"빽다방 아주대점","tel":"070-7543-3601","addr":"경기도 수원시 영통구 원천동 25-2번지","category":"일반휴게음식 - 서양음식"},{"name":"카리스마신세대미용전문점","tel":"031-217-3358","addr":"경기도 수원시 영통구 원천동 25-2번지 1층","category":"보건위생 - 미용원"},{"name":"한길C&P","tel":"031-212-8559","addr":"경기도 수원시 영통구 원천동 25-2번지 107호","category":"용역 서비스 - 사무서비스"},{"name":"해피로PC수원아주대점","tel":"","addr":"경기도 수원시 영통구 원천동 25-2번지 3층","category":"레저업소 - 기타레져업소"}]},{"lat":"37.269626452","long":"127.05982824","items":[{"name":"21세기","tel":"031-216-3960","addr":"경기도 수원시 영통구 원천동 462-3번지","category":"자동차정비 유지 - 자동차부품"},{"name":"산정크린상사","tel":"031-214-3738","addr":"경기도 수원시 영통구 원천동 462-3번지","category":"신변잡화 - 기타잡화"},{"name":"트랜스홀리건","tel":"031-217-0827","addr":"경기도 수원시 영통구 원천동 462-3번지 지하전체","category":"레져용품 - 스포츠·레져용품"}]},{"lat":"37.267040722","long":"127.05936407","items":[{"name":"59쌀피자","tel":"031-215-5656","addr":"경기도 수원시 영통구 원천동 549-2번지","category":"일반휴게음식 - 서양음식"},{"name":"LH할인마트","tel":"031-216-7008","addr":"경기도 수원시 영통구 원천동 549-2번지 늘푸른 상가","category":"유통업 영리 - 슈퍼마켓"},{"name":"경희대서부태권도","tel":"031-212-6598","addr":"경기도 수원시 영통구 원천동 549-2번지 4층","category":"학원 - 예·체능계학원"},{"name":"뮤엠영어원일학원","tel":"031-214-5567","addr":"경기도 수원시 영통구 원천동 549-2번지 교원유치원 203호","category":"학원 - 외국어학원"},{"name":"본죽(원천점)","tel":"031-211-6233","addr":"경기도 수원시 영통구 원천동 549-2번지 교원유치원 108호","category":"일반휴게음식 - 일반한식"},{"name":"빛으로문구","tel":"031-241-5211","addr":"경기도 수원시 영통구 원천동 549-2번지 교원유치원 104호","category":"서적문구 - 문구용품"},{"name":"석촌","tel":"031-215-9232","addr":"경기도 수원시 영통구 원천동 549-2번지","category":"일반휴게음식 - 일반한식"},{"name":"시루시루떡방","tel":"031-213-8003","addr":"경기도 수원시 영통구 원천동 549-2번지 늘푸른 상가 103호","category":"음료식품 - 제과점"},{"name":"시향음악학원","tel":"031-216-0025","addr":"경기도 수원시 영통구 원천동 549-2번지 교원유치원 302호","category":"학원 - 예·체능계학원"},{"name":"에이원영어수학전문학원","tel":"031-216-2255","addr":"경기도 수원시 영통구 원천동 549-2번지 2층","category":"학원 - 기타 교육기관"},{"name":"이해법수학셀파수학원일학원","tel":"031-211-8737","addr":"경기도 수원시 영통구 원천동 549-2번지 교원유치원 302호","category":"회원제형태 - 학원"},{"name":"쿡1015 수원원천점","tel":"031-212-1017","addr":"경기도 수원시 영통구 원천동 549-2번지 교원유치원 107호","category":"음료식품 - 기타음료식품"},{"name":"토마토헤어","tel":"031-212-1434","addr":"경기도 수원시 영통구 원천동 549-2번지 늘푸른 상가 2층 202호","category":"보건위생 - 미용원"},{"name":"파리바게트 수원원천점","tel":"031-217-0485","addr":"경기도 수원시 영통구 원천동 549-2번지 교원유치원 106호","category":"음료식품 - 제과점"}]},{"lat":"37.261299076","long":"127.06358716","items":[{"name":"79짬뽕","tel":"031-211-7987","addr":"경기도 수원시 영통구 원천동 362-1번지 2층","category":"일반휴게음식 - 중국식"},{"name":"박용정''S 커피","tel":"031-226-0766","addr":"경기도 수원시 영통구 원천동 362-1번지 2층","category":"일반휴게음식 - 서양음식"},{"name":"저스텍","tel":"031-211-4742","addr":"경기도 수원시 영통구 원천동 362-1번지 삼일빌딩 303호","category":"기타 - 기계공구"}]},{"lat":"37.275209175","long":"127.04730583","items":[{"name":"7번가피자","tel":"031-304-7717","addr":"경기도 수원시 영통구 원천동 72-78번지 103호","category":"일반휴게음식 - 스넥"},{"name":"코끼리밥","tel":"031-213-5720","addr":"경기도 수원시 영통구 원천동 72-78번지 1층","category":"서적문구 - 완구점"}]},{"lat":"37.274930884","long":"127.04447562","items":[{"name":"BMW노래연습장","tel":"031-217-1289","addr":"경기도 수원시 영통구 원천동 79-10번지 205호","category":"레저업소 - 노 래 방"},{"name":"공차수원아주대점","tel":"031-213-3611","addr":"경기도 수원시 영통구 원천동 79-10번지 101호","category":"일반휴게음식 - 스넥"},{"name":"국제외국어학원","tel":"031-214-0515","addr":"경기도 수원시 영통구 원천동 79-10번지 301호,302호,303호 예스크리닉동수원점","category":"학원 - 외국어학원"},{"name":"미녀와야수","tel":"031-212-9481","addr":"경기도 수원시 영통구 원천동 79-10번지 115호","category":"신변잡화 - 기타잡화"},{"name":"벨르뷰티헤어","tel":"031-226-4600","addr":"경기도 수원시 영통구 원천동 79-10번지","category":"보건위생 - 미용원"},{"name":"보영만두 아주대점","tel":"031-211-8789","addr":"경기도 수원시 영통구 원천동 79-10번지 예스크리닉동수원점 102호","category":"일반휴게음식 - 스넥"},{"name":"본코스메틱","tel":"031-212-8276","addr":"경기도 수원시 영통구 원천동 79-10번지 에스프라자 403호","category":"보건위생 - 화장품"},{"name":"빨간석쇠구이","tel":"031-211-2238","addr":"경기도 수원시 영통구 원천동 79-10번지 예스프라자 111호","category":"일반휴게음식 - 주점"},{"name":"삼구포차 아주대점","tel":"031-306-9142","addr":"경기도 수원시 영통구 원천동 79-10번지 예스크리닉 209호","category":"일반휴게음식 - 일반한식"},{"name":"샹떼PC방 수원아주대점","tel":"","addr":"경기도 수원시 영통구 원천동 79-10번지 304호","category":"레저업소 - 기타레져업소"},{"name":"손큰할매순대국","tel":"031-215-5900","addr":"경기도 수원시 영통구 원천동 79-10번지 106호","category":"일반휴게음식 - 일반한식"},{"name":"솔로몬","tel":"031-211-6732","addr":"경기도 수원시 영통구 원천동 79-10번지 8층 예스보석사우나","category":"보건위생 - 화장품"},{"name":"송이비인후과","tel":"031-215-8275","addr":"경기도 수원시 영통구 원천동 79-10번지 에스프라자 503호","category":"의원 - 의원"},{"name":"스시1290","tel":"031-216-1290","addr":"경기도 수원시 영통구 원천동 79-10번지 예스프라자 206호","category":"일반휴게음식 - 일반한식"},{"name":"아대닭발","tel":"031-214-4720","addr":"경기도 수원시 영통구 원천동 79-10번지 110호","category":"일반휴게음식 - 일반한식"},{"name":"아빠닭강정","tel":"031-216-2223","addr":"경기도 수원시 영통구 원천동 79-10번지 104호","category":"일반휴게음식 - 일반한식"},{"name":"아이데코(아주대점)","tel":"031-212-4450","addr":"경기도 수원시 영통구 원천동 79-10번지 예스프라자1층 114호","category":"보건위생 - 안경"},{"name":"어쭈꾸미","tel":"031-211-4722","addr":"경기도 수원시 영통구 원천동 79-10번지 예스프라자 112호","category":"일반휴게음식 - 일반한식"},{"name":"역전우동0410아주대점","tel":"031-217-0411","addr":"경기도 수원시 영통구 원천동 79-10번지 예스프라자 107호","category":"일반휴게음식 - 일반한식"},{"name":"예스스넥","tel":"031-000-0000","addr":"경기도 수원시 영통구 원천동 79-10번지 901호","category":"일반휴게음식 - 스넥"},{"name":"예스프라자 관리단","tel":"031-216-9301","addr":"경기도 수원시 영통구 원천동 79-10번지","category":"자동차정비 유지 - 주차장"},{"name":"올리바바 양꼬치","tel":"031-216-6699","addr":"경기도 수원시 영통구 원천동 79-10번지 204호","category":"일반휴게음식 - 중국식"},{"name":"이플란트 치과의원","tel":"031-217-2835","addr":"경기도 수원시 영통구 원천동 79-10번지 504호 에스파라자","category":"의원 - 치과의원"},{"name":"작심독서실","tel":"031-212-6262","addr":"경기도 수원시 영통구 원천동 79-10번지 예스크리닉상가 604호-A","category":"학원 - 독서실"},{"name":"작심알파","tel":"031-212-6262","addr":"경기도 수원시 영통구 원천동 79-10번지 에스클리닉상가 604~8호","category":"학원 - 독서실"},{"name":"정글피시방","tel":"031-273-8172","addr":"경기도 수원시 영통구 원천동 79-10번지 에스프라자 B동 101호","category":"문화.취미 - 문화취미기타"},{"name":"청어람한의원","tel":"031-213-2552","addr":"경기도 수원시 영통구 원천동 79-10번지 예스프라자 207호","category":"의원 - 한의원"},{"name":"프레즐","tel":"031-275-7942","addr":"경기도 수원시 영통구 원천동 79-10번지 예스크리닉동수원점 105호","category":"일반휴게음식 - 스넥"},{"name":"할리갈리","tel":"031-212-0556","addr":"경기도 수원시 영통구 원천동 79-10번지 예스프라자 204호","category":"일반휴게음식 - 일반한식"},{"name":"헤어다이아 (Hairdia)","tel":"031-263-8897","addr":"경기도 수원시 영통구 원천동 79-10번지 2층 201호","category":"보건위생 - 미용원"}]},{"lat":"37.274714151","long":"127.04583978","items":[{"name":"CRS컴퓨터","tel":"031-215-3811","addr":"경기도 수원시 영통구 원천동 28-25번지 103호","category":"사무통신 - 컴퓨터"},{"name":"땅땅치킨아주대점","tel":"031-211-4944","addr":"경기도 수원시 영통구 원천동 28-25번지 1층 108호","category":"일반휴게음식 - 스넥"},{"name":"리에타 에스테틱","tel":"031-215-2535","addr":"경기도 수원시 영통구 원천동 28-25번지 2층","category":"보건위생 - 피부미용실"},{"name":"솜씨좋은헤어샵","tel":"031-212-9700","addr":"경기도 수원시 영통구 원천동 28-25번지","category":"보건위생 - 미용원"},{"name":"앤도로시 샌드위치 아주대점","tel":"031-000-0000","addr":"경기도 수원시 영통구 원천동 28-25번지 105호","category":"일반휴게음식 - 서양음식"},{"name":"올리고래쉬","tel":"","addr":"경기도 수원시 영통구 원천동 28-25번지 1층 109호","category":"보건위생 - 피부미용실"},{"name":"팔달수제맥주","tel":"031-1111-0000","addr":"경기도 수원시 영통구 원천동 28-25번지 102호","category":"일반휴게음식 - 주점"},{"name":"한국체대블랙벨트","tel":"031-889-6886","addr":"경기도 수원시 영통구 원천동 28-25번지 301호","category":"학원 - 예·체능계학원"}]},{"lat":"37.282431188","long":"127.05741351","items":[{"name":"GS25광교중흥점","tel":"","addr":"경기도 수원시 영통구 원천동 589번지 중흥 S-클래스 B2층 214, 215호","category":"유통업 영리 - 편 의 점"},{"name":"VIOLETTA","tel":"031-212-9708","addr":"경기도 수원시 영통구 원천동 589번지 중흥S-클래스 판매시설동 1층 1F-040호","category":"보건위생 - 미용원"},{"name":"chaeya","tel":"","addr":"경기도 수원시 영통구 원천동 589번지 중흥S-클래스 B1층 93호","category":"의류 - 정장"},{"name":"개인과외","tel":"02-308-0087","addr":"경기도 수원시 영통구 원천동 589번지 중흥S-클래스 201동 207호","category":"학원 - 기타 교육기관"},{"name":"광교약국","tel":"031-304-2019","addr":"경기도 수원시 영통구 원천동 589번지 광교중흥에스클래스 B2-28호,29호","category":"약국 - 약국"},{"name":"나이스가이 광교호수공원점","tel":"","addr":"경기도 수원시 영통구 원천동 589번지 판교중흥S-클래스상가 B2-30","category":"보건위생 - 이용원"},{"name":"네일브라운 광교점","tel":"031-215-1215","addr":"경기도 수원시 영통구 원천동 589번지 중흥S-클래스 B2층 16호","category":"보건위생 - 피부미용실"},{"name":"네일하나(Nail하나)","tel":"","addr":"경기도 수원시 영통구 원천동 589번지 중흥S-클래스 B2층 어뮤즈스퀘어 62호","category":"보건위생 - 피부미용실"},{"name":"동그란밥","tel":"031-306-0906","addr":"경기도 수원시 영통구 원천동 589번지 중흥S-클래스 B1층 140호","category":"일반휴게음식 - 일반한식"},{"name":"뜰","tel":"031-231-4520","addr":"경기도 수원시 영통구 원천동 589번지 중흥S-클래스 지하2층 002호","category":"일반휴게음식 - 서양음식"},{"name":"라라바이올린교습소","tel":"","addr":"경기도 수원시 영통구 원천동 589번지 2층 2F-017호 광교중흥에스클래스판매시설","category":"학원 - 예·체능계학원"},{"name":"루체음악학원","tel":"031-215-2167","addr":"경기도 수원시 영통구 원천동 589번지 중흥S-클래스 2층 2F-026호","category":"학원 - 예·체능계학원"},{"name":"먼스프로미스헤어","tel":"031-212-2130","addr":"경기도 수원시 영통구 원천동 589번지 중흥S-클래스 판매시설동 지1층 B1-100,B1-101호","category":"보건위생 - 미용원"},{"name":"모던필라테스 광교레이크","tel":"031-213-0953","addr":"경기도 수원시 영통구 원천동 589번지 광교중흥에스클래스 1층 44,45호","category":"레저업소 - 헬스클럽"},{"name":"미랑음악학원","tel":"02-1111-1111","addr":"경기도 수원시 영통구 원천동 589번지 중흥S-클래스 2층 2F-025","category":"학원 - 예·체능계학원"},{"name":"반찬샵 광교중흥점","tel":"","addr":"경기도 수원시 영통구 원천동 589번지 중흥S-클래스 B2층 154호","category":"음료식품 - 기타음료식품"},{"name":"밥앤스낵","tel":"031-8001-5858","addr":"경기도 수원시 영통구 원천동 589번지 중흥S-클래스 판매시설동 지2층 B2-010호","category":"일반휴게음식 - 스넥"},{"name":"빈채","tel":"070-8600-0630","addr":"경기도 수원시 영통구 원천동 589번지 중흥S-클래스 B2층 184호","category":"보건위생 - 피부미용실"},{"name":"살롱드가배","tel":"","addr":"경기도 수원시 영통구 원천동 589번지 중흥S-클래스 B1층 042호","category":"일반휴게음식 - 서양음식"},{"name":"수학공부방","tel":"","addr":"경기도 수원시 영통구 원천동 589번지 중흥S-클래스 104동 2705호","category":"학원 - 기타 교육기관"},{"name":"스윗 블리스","tel":"031-000-0000","addr":"경기도 수원시 영통구 원천동 589번지 중흥S-클래스 B1층 034호","category":"일반휴게음식 - 서양음식"},{"name":"스파라운지","tel":"031-8009-0600","addr":"경기도 수원시 영통구 원천동 589번지 중흥S-클래스 B동 1층 1호","category":"보건위생 - 피부미용실"},{"name":"시립광교중흥에스(S)어린이집[아이행복]","tel":"031-213-2141","addr":"경기도 수원시 영통구 원천동 589번지 중흥S-클래스","category":"학원 - 유아원"},{"name":"씨유광교중흥점","tel":"02-1577-8007","addr":"경기도 수원시 영통구 원천동 589번지 중흥S-클래스 어뮤즈스퀘어 B1층 72호","category":"유통업 영리 - 편 의 점"},{"name":"아이마음아트미술학원","tel":"070-4685-1486","addr":"경기도 수원시 영통구 원천동 589번지 중흥S-클래스 상가동 2층 22호","category":"학원 - 예·체능계학원"},{"name":"아트실버벨미술교습소","tel":"031-214-1430","addr":"경기도 수원시 영통구 원천동 589번지 중흥S-클래스 광교중흥S클래스 2층 2F-021호","category":"학원 - 예·체능계학원"},{"name":"어뮤즈 스파 여성매점","tel":"031-8009-0600","addr":"경기도 수원시 영통구 원천동 589번지 중흥S-클래스 B1층 1호,B2층 1호","category":"음료식품 - 기타음료식품"},{"name":"에스(S)클래스 동물병원","tel":"031-217-7801","addr":"경기도 수원시 영통구 원천동 589번지 광교중흥에스클래스 B1층 9,10호","category":"기타의료기관 - 동물병원"},{"name":"에스(S)클래스치과","tel":"031-217-2801","addr":"경기도 수원시 영통구 원천동 589번지 광교중흥에스클래스 2층 18,19호","category":"의원 - 치과의원"},{"name":"연세명문학원","tel":"","addr":"경기도 수원시 영통구 원천동 589번지 중흥S-클래스 2F-034","category":"학원 - 보습학원"},{"name":"연세진내과","tel":"031-8067-8200","addr":"경기도 수원시 영통구 원천동 589번지 중흥S-클래스 B2동 24,25,26,27호","category":"의원 - 의원"},{"name":"용인대호수태권도장","tel":"031-212-7773","addr":"경기도 수원시 영통구 원천동 589번지 중흥S-클래스 2층 23-24호","category":"학원 - 예·체능계학원"},{"name":"우일티에스 중흥어뮤즈스파점","tel":"031-8009-0600","addr":"경기도 수원시 영통구 원천동 589번지 중흥S-클래스 B층 1호","category":"일반휴게음식 - 일반한식"},{"name":"인셀덤 땡큐파워 광교본점","tel":"","addr":"경기도 수원시 영통구 원천동 589번지 중흥S-클래스 상가 B2층 4호","category":"보건위생 - 화장품"},{"name":"주식회사 더골프아카데미","tel":"","addr":"경기도 수원시 영통구 원천동 589번지 광교중흥에스클래스어뮤즈스퀘어 비1-054호","category":"레져용품 - 골프용품 전문점"},{"name":"중흥어뮤즈스파","tel":"031-8009-0600","addr":"경기도 수원시 영통구 원천동 589번지 중흥S-클래스 B1층1호,B2층1호","category":"보건위생 - 사우나"},{"name":"중흥어뮤즈스파","tel":"031-8009-0600","addr":"경기도 수원시 영통구 원천동 589번지 중흥S-클래스 B1층,B2층 1호","category":"보건위생 - 기타대인서비스"},{"name":"중흥이발","tel":"031-8009-0600","addr":"경기도 수원시 영통구 원천동 589번지 중흥S-클래스 B1층 1호","category":"보건위생 - 이용원"},{"name":"최은희 헤어뷰","tel":"031-213-3518","addr":"경기도 수원시 영통구 원천동 589번지 중흥S-클래스 B2층 09호","category":"보건위생 - 미용원"},{"name":"필라테스 하다 (Pilates HADA)","tel":"","addr":"경기도 수원시 영통구 원천동 589번지 중흥S-클래스 2층 20호","category":"레저업소 - 헬스클럽"}]},{"lat":"37.274461478","long":"127.04688821","items":[{"name":"GS25수원아주점","tel":"02-2006-2485","addr":"경기도 수원시 영통구 원천동 71-12번지","category":"유통업 영리 - 편 의 점"},{"name":"공간","tel":"031-259-0072","addr":"경기도 수원시 영통구 원천동 71-12번지 1층","category":"신변잡화 - 기타잡화"},{"name":"황금치킨","tel":"031-309-9449","addr":"경기도 수원시 영통구 원천동 71-12번지","category":"일반휴게음식 - 일반한식"}]},{"lat":"37.277794157","long":"127.0498105","items":[{"name":"GS25아주프라자점","tel":"","addr":"경기도 수원시 영통구 원천동 576번지 아주프라자 106호","category":"유통업 영리 - 편 의 점"},{"name":"뜰커피34 원천점","tel":"031-215-4520","addr":"경기도 수원시 영통구 원천동 576번지 아주프라자 1층 101호,102호","category":"일반휴게음식 - 서양음식"},{"name":"주식회사 청명비앤엠","tel":"031-212-0601","addr":"경기도 수원시 영통구 원천동 576번지 아주프라자 3층 311호","category":"자동차정비 유지 - 주차장"},{"name":"청나래한식뷔페","tel":"031-214-0162","addr":"경기도 수원시 영통구 원천동 576번지 아주프라자 202호 201","category":"일반휴게음식 - 일반한식"},{"name":"한일의료기","tel":"031-217-4988","addr":"경기도 수원시 영통구 원천동 576번지 아주프라자 102호","category":"보건위생 - 의료용품"}]},{"lat":"37.266678842","long":"127.06236263","items":[{"name":"GS25원천베스트점","tel":"","addr":"경기도 수원시 영통구 원천동 253-5번지","category":"유통업 영리 - 편 의 점"},{"name":"원천상구비어","tel":"031-215-3955","addr":"경기도 수원시 영통구 원천동 253-5번지 102호","category":"일반휴게음식 - 주점"}]},{"lat":"37.268012085","long":"127.06291611","items":[{"name":"GS25원천삼성점","tel":"02-2006-2485","addr":"경기도 수원시 영통구 원천동 224-3번지","category":"유통업 영리 - 편 의 점"}]},{"lat":"37.275876904","long":"127.04464527","items":[{"name":"GS25원천아주점","tel":"02-2006-2118","addr":"경기도 수원시 영통구 원천동 28-1번지","category":"유통업 영리 - 편 의 점"},{"name":"미테","tel":"031-217-1979","addr":"경기도 수원시 영통구 원천동 28-1번지 지하1층","category":"일반휴게음식 - 일반한식"}]},{"lat":"37.267046808","long":"127.06519266","items":[{"name":"GS25원천제일점","tel":"","addr":"경기도 수원시 영통구 원천동 325-1번지","category":"유통업 영리 - 편 의 점"}]},{"lat":"37.26426299","long":"127.06450269","items":[{"name":"GS25원천타운점","tel":"","addr":"경기도 수원시 영통구 원천동 337-14번지","category":"유통업 영리 - 편 의 점"},{"name":"용마트","tel":"031-212-5762","addr":"경기도 수원시 영통구 원천동 337-14번지","category":"유통업 영리 - 슈퍼마켓"}]},{"lat":"37.273710528","long":"127.05455468","items":[{"name":"GS25호반프라자점","tel":"","addr":"경기도 수원시 영통구 원천동 607-1번지 호반프라자 103호","category":"유통업 영리 - 편 의 점"},{"name":"마주로헤어","tel":"031-216-0764","addr":"경기도 수원시 영통구 원천동 607-1번지 광교호반프라자 204호","category":"보건위생 - 미용원"},{"name":"멘사박신태수학학원","tel":"031-211-1905","addr":"경기도 수원시 영통구 원천동 607-1번지 303호","category":"학원 - 보습학원"},{"name":"법률사무소 재인","tel":"031-8081-1094","addr":"경기도 수원시 영통구 원천동 607-1번지 203호","category":"용역 서비스 - 법률회계서비스(개인)"},{"name":"법률사무소 재인","tel":"031-8081-1090","addr":"경기도 수원시 영통구 원천동 607-1번지 203호","category":"용역 서비스 - 법률회계서비스(개인)"},{"name":"법률사무소 재인","tel":"031-8081-1094","addr":"경기도 수원시 영통구 원천동 607-1번지 2층 203호","category":"용역 서비스 - 법률회계서비스(개인)"},{"name":"법률사무소 재인","tel":"031-1111-1111","addr":"경기도 수원시 영통구 원천동 607-1번지 201호","category":"용역 서비스 - 법률회계서비스(개인)"},{"name":"법률사무소 재인(강인구)","tel":"031-8081-1094","addr":"경기도 수원시 영통구 원천동 607-1번지 203, 2031-1호","category":"용역 서비스 - 법률회계서비스(개인)"},{"name":"법률사무소재인","tel":"031-8081-1094","addr":"경기도 수원시 영통구 원천동 607-1번지 201호","category":"용역 서비스 - 법률회계서비스(개인)"},{"name":"법률사무소재인(김대석)","tel":"","addr":"경기도 수원시 영통구 원천동 607-1번지 203,203-1 일부호","category":"용역 서비스 - 법률회계서비스(개인)"},{"name":"블럭맘","tel":"031-216-3363","addr":"경기도 수원시 영통구 원천동 607-1번지 403호","category":"학원 - 기타 교육기관"},{"name":"비비엔느플라워","tel":"031-216-9635","addr":"경기도 수원시 영통구 원천동 607-1번지 호반프라자 1층 102호","category":"문화.취미 - 화원"},{"name":"아썸영어학원","tel":"031-216-0053","addr":"경기도 수원시 영통구 원천동 607-1번지 호반프라자 301호","category":"학원 - 보습학원"},{"name":"앤올리브미술교습소","tel":"031-215-7717","addr":"경기도 수원시 영통구 원천동 607-1번지 403-1호","category":"학원 - 예·체능계학원"},{"name":"오레시피 광교호수점","tel":"053-000-0000","addr":"경기도 수원시 영통구 원천동 607-1번지 1층 105호","category":"음료식품 - 기타음료식품"},{"name":"왕순이주먹밥김밥","tel":"031-213-3434","addr":"경기도 수원시 영통구 원천동 607-1번지 호빈프라자 101호","category":"일반휴게음식 - 스넥"},{"name":"용인대호반태권도","tel":"031-217-7778","addr":"경기도 수원시 영통구 원천동 607-1번지 401호 402호","category":"학원 - 예·체능계학원"},{"name":"카페알림","tel":"070-7795-7943","addr":"경기도 수원시 영통구 원천동 607-1번지 1층 106호","category":"일반휴게음식 - 서양음식"},{"name":"혜윰피아노학원","tel":"031-212-3411","addr":"경기도 수원시 영통구 원천동 607-1번지 호반프라자 404호","category":"학원 - 예·체능계학원"}]},{"lat":"37.278210781","long":"127.04402641","items":[{"name":"HP포토카페아주대점","tel":"031-213-7989","addr":"경기도 수원시 영통구 원천동 18-6번지","category":"광학제품 - 사진관"},{"name":"ㅋㅋㅋ","tel":"031-216-5604","addr":"경기도 수원시 영통구 원천동 18-6번지","category":"일반휴게음식 - 일반한식"},{"name":"노리터pc방","tel":"031-238-9229","addr":"경기도 수원시 영통구 원천동 18-6번지 아카데미빌딩","category":"레저업소 - 기타레져업소"},{"name":"리코스타코인노래연습장","tel":"","addr":"경기도 수원시 영통구 원천동 18-6번지 아카데미빌딩 지하1층","category":"레저업소 - 노 래 방"},{"name":"메종드","tel":"070-4237-9935","addr":"경기도 수원시 영통구 원천동 18-6번지 무영빌딩 1층 2호","category":"의류 - 정장"},{"name":"생고기대학교아주대점","tel":"031-211-1112","addr":"경기도 수원시 영통구 원천동 18-6번지 무영빌딩 2층","category":"일반휴게음식 - 일반한식"},{"name":"설빙 수원아주대점","tel":"031-213-9055","addr":"경기도 수원시 영통구 원천동 18-6번지 아카데미빌딩","category":"일반휴게음식 - 일반한식"},{"name":"수","tel":"031-212-9935","addr":"경기도 수원시 영통구 원천동 18-6번지 무영빌딩 1층 3호","category":"신변잡화 - 신발"},{"name":"파리바게뜨","tel":"031-216-5801","addr":"경기도 수원시 영통구 원천동 18-6번지","category":"음료식품 - 제과점"}]},{"lat":"37.274011048","long":"127.04666245","items":[{"name":"J.S양복점","tel":"031-211-8227","addr":"경기도 수원시 영통구 원천동 74-1번지 104호","category":"의류 - 맞춤복점"},{"name":"명진철물","tel":"031-213-2156","addr":"경기도 수원시 영통구 원천동 74-1번지","category":"기타 - 기계공구"},{"name":"명진학원","tel":"031-892-3080","addr":"경기도 수원시 영통구 원천동 74-1번지 삼우빌딩 201호","category":"학원 - 보습학원"},{"name":"연우테크","tel":"031-213-7903","addr":"경기도 수원시 영통구 원천동 74-1번지 103호","category":"사무통신 - 컴퓨터"},{"name":"조안의료기","tel":"031-238-0080","addr":"경기도 수원시 영통구 원천동 74-1번지 삼우빌딩 102호","category":"보건위생 - 의료용품"}]},{"lat":"37.27356846","long":"127.04950346","items":[{"name":"JungGolfshop","tel":"031-215-6644","addr":"경기도 수원시 영통구 원천동 90-11번지","category":"레져용품 - 골프용품 전문점"},{"name":"맹일순법무사사무소","tel":"031-214-5667","addr":"경기도 수원시 영통구 원천동 90-11번지 2층","category":"용역 서비스 - 법률회계서비스(개인)"},{"name":"법무사김동균사무소","tel":"031-212-7474","addr":"경기도 수원시 영통구 원천동 90-11번지 3층","category":"용역 서비스 - 법률회계서비스(개인)"},{"name":"법무사김완기사무소","tel":"031-217-5225","addr":"경기도 수원시 영통구 원천동 90-11번지 동원빌딩 102호","category":"용역 서비스 - 법률회계서비스(개인)"},{"name":"법무사도시현사무소","tel":"031-217-4292","addr":"경기도 수원시 영통구 원천동 90-11번지 동원빌딩 302호","category":"용역 서비스 - 법률회계서비스(개인)"},{"name":"천기킥복싱무에타이체육관","tel":"031-214-3413","addr":"경기도 수원시 영통구 원천동 90-11지하1층","category":"학원 - 예·체능계학원"}]},{"lat":"37.274848375","long":"127.04833164","items":[{"name":"LA VOVAE(라보브에)","tel":"070-4120-4844","addr":"경기도 수원시 영통구 원천동 78-44번지 1층","category":"문화.취미 - 화원"},{"name":"메롱 마카롱하우스","tel":"031-111-1111","addr":"경기도 수원시 영통구 원천동 78-44번지 1층","category":"일반휴게음식 - 일반한식"},{"name":"법무사허영진사무소","tel":"031-212-9454","addr":"경기도 수원시 영통구 원천동 78-44번지","category":"용역 서비스 - 법률회계서비스(개인)"}]},{"lat":"37.266623585","long":"127.06469627","items":[{"name":"MR. M (미스터 엠)","tel":"031-216-0464","addr":"경기도 수원시 영통구 원천동 326-5번지 2층","category":"자동차정비 유지 - 자동차정비"},{"name":"오디션노래연습장","tel":"031-213-1612","addr":"경기도 수원시 영통구 원천동 326-5번지 2층","category":"레저업소 - 노 래 방"},{"name":"파츠로드(partsroad)","tel":"031-307-0009","addr":"경기도 수원시 영통구 원천동 326-5번지 3층 302호","category":"자동차정비 유지 - 자동차부품"}]},{"lat":"37.278796176","long":"127.04480474","items":[{"name":"Metier","tel":"031-216-4891","addr":"경기도 수원시 영통구 원천동 29-47번지","category":"서적문구 - 출판 및 인쇄물"},{"name":"무교동일품낙지","tel":"031-216-0552","addr":"경기도 수원시 영통구 원천동 29-47 1층,2층","category":"일반휴게음식 - 일반한식"},{"name":"이담","tel":"031-217-5535","addr":"경기도 수원시 영통구 원천동 29-47번지 B1층","category":"문화.취미 - 화원"}]},{"lat":"37.277769286","long":"127.04400362","items":[{"name":"OST쥬얼리","tel":"031-211-2679","addr":"경기도 수원시 영통구 원천동 22-1번지","category":"신변잡화 - 액세서리"},{"name":"악쓰는하마노래방","tel":"031-212-0488","addr":"경기도 수원시 영통구 원천동 22-1번지","category":"레저업소 - 노 래 방"},{"name":"에그드랍","tel":"","addr":"경기도 수원시 영통구 원천동 22-1번지","category":"일반휴게음식 - 서양음식"},{"name":"지메이텔레콤","tel":"031-273-9019","addr":"경기도 수원시 영통구 원천동 22-1번지 (1층 왼쪽 3호)","category":"사무통신 - 통신기기"},{"name":"콩나물떡복이","tel":"031-215-1834","addr":"경기도 수원시 영통구 원천동 22-1번지","category":"일반휴게음식 - 스넥"},{"name":"피자스쿨 아주대점","tel":"031-212-0019","addr":"경기도 수원시 영통구 원천동 22-1번지 1층","category":"일반휴게음식 - 서양음식"}]},{"lat":"37.278685777","long":"127.05080331","items":[{"name":"Orange Music 윤녹음실","tel":"031-0000-0000","addr":"경기도 수원시 영통구 원천동 571-1번지 지하 01호","category":"용역 서비스 - 종합용역"},{"name":"김앤박 공인중개사사무소","tel":"031-292-3819","addr":"경기도 수원시 영통구 원천동 571-1번지","category":"용역 서비스 - 부동산 중개·임대"},{"name":"김앤박합동 공인중개사사무소","tel":"031-233-9467","addr":"경기도 수원시 영통구 원천동 571-1번지","category":"용역 서비스 - 부동산 중개·임대"}]},{"lat":"37.275958213","long":"127.04402518","items":[{"name":"PC글동네","tel":"031-214-6124","addr":"경기도 수원시 영통구 원천동 27-1번지","category":"서적문구 - 출판 및 인쇄물"},{"name":"더가맥","tel":"031-305-0442","addr":"경기도 수원시 영통구 원천동 27-1번지 2층","category":"일반휴게음식 - 일반한식"},{"name":"쥬씨","tel":"070-4530-2540","addr":"경기도 수원시 영통구 원천동 27-1번지","category":"일반휴게음식 - 서양음식"},{"name":"타미시헤어","tel":"031-215-3684","addr":"경기도 수원시 영통구 원천동 27-1번지 외1필지 1층","category":"보건위생 - 미용원"},{"name":"허쉬","tel":"031-213-1573","addr":"경기도 수원시 영통구 원천동 27-1번지","category":"의류 - 정장"}]},{"lat":"37.269851507","long":"127.06024556","items":[{"name":"PXG수원점","tel":"031-212-8876","addr":"경기도 수원시 영통구 원천동 462번지 1층","category":"레져용품 - 스포츠·레져용품"},{"name":"디에프","tel":"031-237-8289","addr":"경기도 수원시 영통구 원천동 462번지 405동 1002호","category":"서적문구 - 출판 및 인쇄물"},{"name":"은혜사","tel":"031-214-9009","addr":"경기도 수원시 영통구 원천동 462번지","category":"용역 서비스 - 가례서비스업"},{"name":"판다림","tel":"031-4149-1244","addr":"경기도 수원시 영통구 원천동 462번지 1층","category":"직물 - 침구·수예점"}]},{"lat":"37.266651234","long":"127.06350127","items":[{"name":"SBS 노래연습장","tel":"031-213-8001","addr":"경기도 수원시 영통구 원천동 258-19번지 2층","category":"레저업소 - 노 래 방"},{"name":"달인의족발","tel":"031-215-0988","addr":"경기도 수원시 영통구 원천동 258-19번지","category":"일반휴게음식 - 일반한식"},{"name":"월드당구클럽","tel":"031-214-6005","addr":"경기도 수원시 영통구 원천동 258-19번지","category":"레저업소 - 당 구 장"}]},{"lat":"37.270012028","long":"127.06358288","items":[{"name":"W&G (더블유앤지)","tel":"031-254-2889","addr":"경기도 수원시 영통구 원천동 177-1번지 홈플러스원천점 1층","category":"신변잡화 - 귀금속"},{"name":"렌즈맨안경원","tel":"031-212-2420","addr":"경기도 수원시 영통구 원천동 177-1번지 홈플러스원천점 1층","category":"보건위생 - 안경"},{"name":"미플 홈플러스 원천점","tel":"031-212-2282","addr":"경기도 수원시 영통구 원천동 177-1번지 1층","category":"보건위생 - 피부미용실"},{"name":"사랑이꽃피는동산치과의원","tel":"031-212-2897","addr":"경기도 수원시 영통구 원천동 177-1번지 한국까르프 1층 3호","category":"의원 - 의원"},{"name":"아로마리즈원천점","tel":"070-4252-9308","addr":"경기도 수원시 영통구 원천동 177-1번지 홈플러스원천점 1층","category":"신변잡화 - 기타잡화"},{"name":"아로마리즈원천점","tel":"070-4252-9308","addr":"경기도 수원시 영통구 원천동 177-1번지 홈플러스원천점 1층","category":"신변잡화 - 기타잡화"},{"name":"은칼라","tel":"070-7684-7684","addr":"경기도 수원시 영통구 원천동 177-1번지","category":"광학제품 - 사진관"},{"name":"이철헤어커커 원천점","tel":"031-247-2336","addr":"경기도 수원시 영통구 원천동 177-1번지 1층","category":"보건위생 - 미용원"},{"name":"쿨펫동물병원","tel":"031-213-5075","addr":"경기도 수원시 영통구 원천동 177-1번지 홈플러스 1층","category":"문화.취미 - 애완동물"},{"name":"포쉬네일(원천점)","tel":"031-213-6222","addr":"경기도 수원시 영통구 원천동 177-1번지 홈플러스테스코주식회사원천점 1층","category":"보건위생 - 피부미용실"}]},{"lat":"37.266957699","long":"127.06327604","items":[{"name":"X-당구클럽","tel":"031-212-7762","addr":"경기도 수원시 영통구 원천동 258-26번지 2층","category":"레저업소 - 당 구 장"},{"name":"발리(VALI)","tel":"031-214-9567","addr":"경기도 수원시 영통구 원천동 258-26번지 1층","category":"일반휴게음식 - 주점"}]},{"lat":"37.272880602","long":"127.05675269","items":[{"name":"가람어린이집[아이행복]","tel":"031-214-3690","addr":"경기도 수원시 영통구 원천동 606번지 관리동광교호반베르디움","category":"학원 - 유아원"},{"name":"광교세탁","tel":"031-212-3537","addr":"경기도 수원시 영통구 원천동 606번지 광교호반베르디움 1015동 104호","category":"수리서비스 - 세탁소"},{"name":"광교인성태권스쿨태권도장","tel":"","addr":"경기도 수원시 영통구 원천동 606번지 단지내 상가 204호 205호 206호","category":"학원 - 예·체능계학원"},{"name":"릴릿(Lil Lit)","tel":"031-000-0000","addr":"경기도 수원시 영통구 원천동 606번지 광교호반베르디움 1006동 1304호","category":"문화.취미 - 민예·공예품"},{"name":"뮤엠공부방","tel":"031-211-0509","addr":"경기도 수원시 영통구 원천동 606번지 광교호반베르디움 1006동 103호","category":"회원제형태 - 학원"},{"name":"셀파우등생교실","tel":"031-1111-1111","addr":"경기도 수원시 영통구 원천동 606번지 광교호반베르디움 1009동 103호","category":"학원 - 기타 교육기관"},{"name":"우지샵","tel":"","addr":"경기도 수원시 영통구 원천동 606번지 광교호반베르디움 1002동 1403호","category":"신변잡화 - 기타잡화"},{"name":"정직한축산","tel":"031-275-3500","addr":"경기도 수원시 영통구 원천동 606번지 광교호반베르디움 1015동 102호","category":"음료식품 - 정육점"},{"name":"카라반출장세차","tel":"031-8573-5093","addr":"경기도 수원시 영통구 원천동 606번지 광교호반베르디움 1003동 1303호","category":"자동차정비 유지 - 세차장"},{"name":"헤어뮤즈","tel":"031-213-2546","addr":"경기도 수원시 영통구 원천동 606번지 광교호반베르디움 203호","category":"보건위생 - 미용원"},{"name":"호반꼬마어린이집[아이행복]","tel":"031-8025-0889","addr":"경기도 수원시 영통구 원천동 606번지 광교신도시호반베르디움 1008동 101호","category":"학원 - 유아원"},{"name":"호반마트","tel":"031-215-6565","addr":"경기도 수원시 영통구 원천동 606번지 광교호반베르디움 제105동 근린생활시설동 106호","category":"유통업 영리 - 슈퍼마켓"},{"name":"호반숙명피아노학원","tel":"031-216-9510","addr":"경기도 수원시 영통구 원천동 606번지 광교호반베르디움 1015동 201호 201,202호","category":"학원 - 예·체능계학원"}]},{"lat":"37.2688523","long":"127.0582831","items":[{"name":"가마솥토종순대국","tel":"031-216-9042","addr":"경기도 수원시 영통구 원천동 209-42번지","category":"일반휴게음식 - 일반한식"}]},{"lat":"37.276821655","long":"127.0482539","items":[{"name":"가비사랑","tel":"031-111-1111","addr":"경기도 수원시 영통구 원천동 67-14번지 1층","category":"일반휴게음식 - 서양음식"},{"name":"봉평우리막국수","tel":"031-216-3399","addr":"경기도 수원시 영통구 원천동 67-14번지","category":"일반휴게음식 - 일반한식"}]},{"lat":"37.277627856","long":"127.05924795","items":[{"name":"가빈스","tel":"031-212-0886","addr":"경기도 수원시 영통구 원천동 590번지 수원광교에밀린의뜰 1204동 B117호","category":"일반휴게음식 - 일반한식"},{"name":"교토미","tel":"070-4237-5989","addr":"경기도 수원시 영통구 원천동 590번지 수원광교에일린의뜰 1204동B105,106호","category":"일반휴게음식 - 일반한식"},{"name":"까사프레도","tel":"031-215-5120","addr":"경기도 수원시 영통구 원천동 590번지 수원광교에일린의뜰 상가 1204동 B109,110호","category":"일반휴게음식 - 일반한식"},{"name":"깐부치킨 광교호수공원점","tel":"031-214-2677","addr":"경기도 수원시 영통구 원천동 590번지 에이린의뜰 1204동 111호 111,112호","category":"일반휴게음식 - 일반한식"},{"name":"닐리쿠치나원천호수점","tel":"070-4158-5959","addr":"경기도 수원시 영통구 원천동 590번지 (1204동 B107,108호)","category":"일반휴게음식 - 서양음식"},{"name":"더가든","tel":"031-273-1212","addr":"경기도 수원시 영통구 원천동 590번지 1204동 B101호 수원광교B78BL에일린의뜰","category":"일반휴게음식 - 서양음식"},{"name":"라이드 파크","tel":"02-3401-5466","addr":"경기도 수원시 영통구 원천동 590번지 수원광교에일린의뜰 1204동 지3층 비118호","category":"레져용품 - 스포츠·레져용품"},{"name":"빠담빠담(치어스)","tel":"031-573-0278","addr":"경기도 수원시 영통구 원천동 590번지 광교에일린의뜰 1204동 B103~104호","category":"일반휴게음식 - 일반한식"},{"name":"씨유광교호수스카이점","tel":"031-214-1912","addr":"경기도 수원시 영통구 원천동 590번지 수원광교에일린의뜰 제1204동 제지3층 제비118호","category":"유통업 영리 - 편 의 점"},{"name":"에일린의뜰 상가협의회","tel":"070-4158-5959","addr":"경기도 수원시 영통구 원천동 590번지 수원광교에일린의뜰","category":"자동차정비 유지 - 주차장"},{"name":"츄츄","tel":"031-215-7793","addr":"경기도 수원시 영통구 원천동 590번지 수원광교에일린의뜰 116호","category":"일반휴게음식 - 서양음식"}]},{"lat":"37.26665387","long":"127.05811239","items":[{"name":"가연공방","tel":"031-215-0916","addr":"경기도 수원시 영통구 원천동 550-1번지","category":"문화.취미 - 문화취미기타"},{"name":"꽃으로만드는세상","tel":"031-216-1161","addr":"경기도 수원시 영통구 원천동 465-4번지 원천훼미리타운 106호","category":"문화.취미 - 화원"},{"name":"메이저","tel":"031-216-6901","addr":"경기도 수원시 영통구 원천동 550-1번지 원천훼밀리타운 501호","category":"회원제형태 - 레져업소"},{"name":"보브헤어","tel":"031-217-1684","addr":"경기도 수원시 영통구 원천동 550-1번지 원천훼밀리타운 203호","category":"보건위생 - 미용원"},{"name":"세스토킹클래스학원","tel":"031-215-0534","addr":"경기도 수원시 영통구 원천동 550-1번지 원천훼밀리타운 201호","category":"학원 - 보습학원"},{"name":"시크바버샵","tel":"031-212-7770","addr":"경기도 수원시 영통구 원천동 550-1번지 원천훼밀리타운 2층 202호","category":"보건위생 - 이용원"},{"name":"에밀리영어학원","tel":"031-215-2028","addr":"경기도 수원시 영통구 원천동 550-1번지 원천훼밀리타운 403호","category":"학원 - 외국어학원"},{"name":"원천이룸프리미엄 독서실","tel":"031-214-1881","addr":"경기도 수원시 영통구 원천동 550-1번지 원천훼밀리타운 601호","category":"학원 - 독서실"},{"name":"원천한의원","tel":"031-277-7887","addr":"경기도 수원시 영통구 원천동 550-1번지 훼미리타운 301호","category":"의원 - 한의원"},{"name":"이미지치과의원","tel":"031-212-7171","addr":"경기도 수원시 영통구 원천동 550-1번지 원천훼밀리타운 302,303호","category":"의원 - 치과의원"},{"name":"촌장골생고기","tel":"031-213-5661","addr":"경기도 수원시 영통구 원천동 550-1번지 원천훼밀리타운 108호","category":"일반휴게음식 - 일반한식"},{"name":"핑크분식","tel":"031-215-9388","addr":"경기도 수원시 영통구 원천동 550-1번지 원천훼밀리타운 102호","category":"일반휴게음식 - 스넥"},{"name":"하이업학원","tel":"031-213-0155","addr":"경기도 수원시 영통구 원천동 550-1번지 원천훼밀리타운 401호","category":"학원 - 보습학원"},{"name":"해사랑음악학원","tel":"031-214-7779","addr":"경기도 수원시 영통구 원천동 550-1번지 훼미리타운 402호","category":"학원 - 예·체능계학원"}]},{"lat":"37.278433567","long":"127.05061146","items":[{"name":"가족건강원","tel":"031-217-1500","addr":"경기도 수원시 영통구 원천동 573번지 1층","category":"건강식품 - 기타건강식품"},{"name":"심블리","tel":"032-307-7371","addr":"경기도 수원시 영통구 원천동 573번지 301호","category":"의류 - 기타의류"}]},{"lat":"37.278156278","long":"127.04527796","items":[{"name":"가치있는밥상","tel":"031-221-5581","addr":"경기도 수원시 영통구 원천동 30-69번지 1층","category":"일반휴게음식 - 일반한식"}]},{"lat":"37.262228431","long":"127.06100636","items":[{"name":"강릉골목집","tel":"031-223-5214","addr":"경기도 수원시 영통구 원천동 554번지 영통이노플렉스-2단지 3동 103호","category":"일반휴게음식 - 일반한식"},{"name":"남강떡집","tel":"","addr":"경기도 수원시 영통구 원천동 554번지 영통이노플렉스2단지 3동 102호","category":"음료식품 - 기타음료식품"},{"name":"뉴메리트 사무용가구","tel":"031-8002-2067","addr":"경기도 수원시 영통구 원천동 554번지 이노플렉스 3동 103호","category":"가구 - 기타가구"},{"name":"로제타","tel":"031-213-2318","addr":"경기도 수원시 영통구 원천동 554번지 영통이노플렉스2단지 3동 203호","category":"의류 - 맞춤복점"},{"name":"번라이스영계","tel":"031-8002-2090","addr":"경기도 수원시 영통구 원천동 554번지 영통이노플렉스-2단지 3동 111호","category":"일반휴게음식 - 일반한식"},{"name":"엄마손","tel":"031-8002-3004","addr":"경기도 수원시 영통구 원천동 554번지 영통이노플렉스-2단지 3동 110호","category":"일반휴게음식 - 일반한식"},{"name":"이노플렉스공인중개사사무소","tel":"031-8002-3000","addr":"경기도 수원시 영통구 원천동 554번지 이노플렉스 3동 106호","category":"용역 서비스 - 부동산 중개·임대"},{"name":"임실엔치즈피자 매탄영통점","tel":"031-215-5588","addr":"경기도 수원시 영통구 원천동 554번지 영통이노플렉스2단지 3동 104호","category":"일반휴게음식 - 서양음식"},{"name":"주식회사 로그써키트","tel":"031-211-2273","addr":"경기도 수원시 영통구 원천동 554번지 이노플렉스 3동 805호","category":"전기제품 - 기타전기제품"},{"name":"주식회사 하이브","tel":"031-217-5474","addr":"경기도 수원시 영통구 원천동 554번지 영통이노플렉스2단지 3동 702호","category":"사무통신 - 통신기기"},{"name":"티엔피","tel":"031-8002-3118","addr":"경기도 수원시 영통구 원천동 554번지 이노플렉스 3동 505호","category":"기타 - 기타 전문점"},{"name":"티엔피/원격지","tel":"031-8002-3118","addr":"경기도 수원시 영통구 원천동 554번지 이노플렉스 3동 505호","category":"기타 - 기타 전문점"}]},{"lat":"37.274325434","long":"127.04922205","items":[{"name":"강창웅법률사무소","tel":"031-212-2823","addr":"경기도 수원시 영통구 원천동 85-34번지 삼정빌딩 3층 301호","category":"용역 서비스 - 법률회계서비스(개인)"},{"name":"법무사신경기사무소","tel":"031-236-1075","addr":"경기도 수원시 영통구 원천동 85-34번지 삼정빌딩 2층 202호","category":"용역 서비스 - 법률회계서비스(개인)"},{"name":"법무사우진선사무소","tel":"031-215-2999","addr":"경기도 수원시 영통구 원천동 85-34번지 삼정빌딩 103호","category":"용역 서비스 - 법률회계서비스(개인)"},{"name":"법무사윤대영사무소","tel":"031-211-9550","addr":"경기도 수원시 영통구 원천동 85-34번지 삼정빌딩 104호","category":"용역 서비스 - 법률회계서비스(개인)"},{"name":"변호사류성하사무소","tel":"031-217-3800","addr":"경기도 수원시 영통구 원천동 85-34번지 삼정빌딩 302호","category":"용역 서비스 - 법률회계서비스(개인)"},{"name":"변호사조영진사무소","tel":"031-216-2100","addr":"경기도 수원시 영통구 원천동 85-34번지 삼정빌딩 2층 201호","category":"용역 서비스 - 법률회계서비스(개인)"},{"name":"정종서법무사사무소","tel":"031-216-8030","addr":"경기도 수원시 영통구 원천동 85-34번지 삼정빌딩 102호","category":"용역 서비스 - 법률회계서비스(개인)"},{"name":"한마음법무사사무소","tel":"031-226-1566","addr":"경기도 수원시 영통구 원천동 85-34번지 삼정빌딩 103호","category":"용역 서비스 - 법률회계서비스(개인)"}]},{"lat":"37.277623029","long":"127.04964126","items":[{"name":"개성명가","tel":"031-216-5800","addr":"경기도 수원시 영통구 원천동 576-1번지 1층","category":"일반휴게음식 - 일반한식"},{"name":"동해인","tel":"","addr":"경기도 수원시 영통구 원천동 576-1번지 광교프라임 2층","category":"일반휴게음식 - 일반한식"},{"name":"맛있다순대국/주식회사 정","tel":"031-211-4503","addr":"경기도 수원시 영통구 원천동 576-1번지 1층 101,102호","category":"일반휴게음식 - 일반한식"},{"name":"오띠모320벤티","tel":"02-000-0000","addr":"경기도 수원시 영통구 원천동 576-1번지 1층 102호","category":"일반휴게음식 - 서양음식"},{"name":"우아한살롱","tel":"031-548-4880","addr":"경기도 수원시 영통구 원천동 576-1번지 101호","category":"보건위생 - 미용원"},{"name":"장어명가","tel":"070-4038-0592","addr":"경기도 수원시 영통구 원천동 576-1번지 1동 103-106호","category":"일반휴게음식 - 일반한식"}]},{"lat":"37.277874975","long":"127.05049835","items":[{"name":"개성찜갈비","tel":"031-214-5620","addr":"경기도 수원시 영통구 원천동 575-8번지","category":"일반휴게음식 - 일반한식"}]},{"lat":"37.274046598","long":"127.04797036","items":[{"name":"건강나누리약국","tel":"031-214-6985","addr":"경기도 수원시 영통구 원천동 78-66번지 1층","category":"약국 - 약국"},{"name":"다온법무사","tel":"031-8003-6421","addr":"경기도 수원시 영통구 원천동 78-66번지 인재빌딩 4층","category":"용역 서비스 - 법률회계서비스(개인)"},{"name":"법무사 장훈 사무소","tel":"031-214-1100","addr":"경기도 수원시 영통구 원천동 78-66번지 인재빌딩 303호 중일부","category":"용역 서비스 - 법률회계서비스(개인)"},{"name":"법무사오기호사무소","tel":"031-235-6789","addr":"경기도 수원시 영통구 원천동 78-66번지 인재빌딩 302호","category":"용역 서비스 - 법률회계서비스(개인)"},{"name":"법무사이기만사무소","tel":"031-213-4800","addr":"경기도 수원시 영통구 원천동 78-66번지 인재빌딩 3층 303호","category":"용역 서비스 - 법률회계서비스(개인)"},{"name":"법무사한형길사무소","tel":"031-213-4800","addr":"경기도 수원시 영통구 원천동 78-66번지 인재빌딩 3층 303호","category":"용역 서비스 - 법률회계서비스(개인)"},{"name":"호인법률사무소","tel":"031-213-0030","addr":"경기도 수원시 영통구 원천동 78-66번지 인재빌딩 301호","category":"용역 서비스 - 법률회계서비스(개인)"}]},{"lat":"37.278649667","long":"127.05097242","items":[{"name":"게이트맨프라자","tel":"031-256-4300","addr":"경기도 수원시 영통구 원천동 571-2번지 1층","category":"기타 - 기계공구"},{"name":"플라채","tel":"031-211-3422","addr":"경기도 수원시 영통구 원천동 571-2번지 상가 지층","category":"문화.취미 - 화원"}]},{"lat":"37.268180593","long":"127.06800083","items":[{"name":"경기낚시영통점","tel":"031-214-2733","addr":"경기도 수원시 영통구 원천동 292-1번지","category":"레져용품 - 스포츠·레져용품"},{"name":"리갈패션","tel":"031-216-2414","addr":"경기도 수원시 영통구 원천동 292-1번지","category":"의류 - 맞춤복점"}]},{"lat":"37.274793728","long":"127.04983119","items":[{"name":"경기속기사무소","tel":"070-8314-2831","addr":"경기도 수원시 영통구 원천동 83-8","category":"용역 서비스 - 사무서비스"},{"name":"법무법인장인","tel":"031-217-6600","addr":"경기도 수원시 영통구 원천동 83-8번지 삼화","category":"용역 서비스 - 법률회계서비스(법인)"},{"name":"법무사 주낙현 사무소","tel":"031-212-7000","addr":"경기도 수원시 영통구 원천동 83-8번지 장인빌딩 1층","category":"용역 서비스 - 법률회계서비스(개인)"},{"name":"변호사배상운법률사무소","tel":"031-214-2003","addr":"경기도 수원시 영통구 원천동 83-8번지 장인빌딩 3층","category":"용역 서비스 - 법률회계서비스(개인)"},{"name":"수원 밧데리 할인마트","tel":"031-217-4111","addr":"경기도 수원시 영통구 원천동 83-8번지 장인빌딩 1동 1,2층","category":"자동차정비 유지 - 자동차부품"},{"name":"지성속기사무소","tel":"031-214-8114","addr":"경기도 수원시 영통구 원천동 83-8번지 장인빌딩 G동 1층","category":"용역 서비스 - 사무서비스"}]},{"lat":"37.270401519","long":"127.0594455","items":[{"name":"경상도식당","tel":"031-213-5273","addr":"경기도 수원시 영통구 원천동 196-2번지","category":"일반휴게음식 - 일반한식"},{"name":"수원인터네셔널","tel":"031-212-2333","addr":"경기도 수원시 영통구 원천동 196-2번지","category":"레져용품 - 골프용품 전문점"},{"name":"함바라지 더샵","tel":"031-214-6364","addr":"경기도 수원시 영통구 원천동 196-2번지","category":"일반휴게음식 - 일반한식"}]},{"lat":"37.25838005","long":"127.0629761","items":[{"name":"경성모터스","tel":"031-278-3922","addr":"경기도 수원시 영통구 원천동 396-2번지","category":"자동차정비 유지 - 자동차정비"}]},{"lat":"37.275318159","long":"127.04494939","items":[{"name":"경아네왕십리곱창","tel":"031-214-7271","addr":"경기도 수원시 영통구 원천동 28-18번지 101호","category":"일반휴게음식 - 일반한식"},{"name":"동막골","tel":"031-111-1111","addr":"경기도 수원시 영통구 원천동 28-18번지 1층 102호","category":"일반휴게음식 - 서양음식"},{"name":"에이스노래연습장","tel":"031-211-0217","addr":"경기도 수원시 영통구 원천동 28-18번지 지하","category":"레저업소 - 노 래 방"},{"name":"원천주먹구이","tel":"031-892-5379","addr":"경기도 수원시 영통구 원천동 28-18번지","category":"일반휴게음식 - 일반한식"}]},{"lat":"37.275182237","long":"127.04705776","items":[{"name":"경원어린이집[아이행복]","tel":"031-213-7712","addr":"경기도 수원시 영통구 원천동 72-5번지","category":"학원 - 유아원"}]},{"lat":"37.276658342","long":"127.05110645","items":[{"name":"계동원찜닭","tel":"031-211-3618","addr":"경기도 수원시 영통구 원천동 579번지","category":"일반휴게음식 - 일반한식"}]},{"lat":"37.266489541","long":"127.06253159","items":[{"name":"고봉감자탕","tel":"031-213-2819","addr":"경기도 수원시 영통구 원천동 253-6번지","category":"일반휴게음식 - 일반한식"}]},{"lat":"37.277460911","long":"127.04947203","items":[{"name":"고향밥상","tel":"031-214-0281","addr":"경기도 수원시 영통구 원천동 576-2번지 1층","category":"일반휴게음식 - 일반한식"},{"name":"독의약학회(TOMA)","tel":"031-211-1108","addr":"경기도 수원시 영통구 원천동 576-2번지 4층 402호","category":"용역 서비스 - 사무서비스"},{"name":"명동만두전골샤브","tel":"031-211-5030","addr":"경기도 수원시 영통구 원천동 576-2번지 102호","category":"일반휴게음식 - 일반한식"}]},{"lat":"37.267076159","long":"127.0606155","items":[{"name":"고향순대","tel":"031-215-7005","addr":"경기도 수원시 영통구 원천동 227번지","category":"일반휴게음식 - 일반한식"},{"name":"미백식당","tel":"031-217-9985","addr":"경기도 수원시 영통구 원천동 227번지","category":"일반휴게음식 - 일반한식"},{"name":"조춘식동태전골찜감자탕","tel":"031-212-7988","addr":"경기도 수원시 영통구 원천동 227번지","category":"일반휴게음식 - 일반한식"}]},{"lat":"37.277379342","long":"127.05066717","items":[{"name":"고향한정식","tel":"031-217-8835","addr":"경기도 수원시 영통구 원천동 51-9번지","category":"일반휴게음식 - 일반한식"}]},{"lat":"37.270212147","long":"127.05977231","items":[{"name":"골프도사","tel":"031-269-1113","addr":"경기도 수원시 영통구 원천동 195-4번지 1층 3호","category":"레져용품 - 골프용품 전문점"},{"name":"이-타운플러스","tel":"031-269-1113","addr":"경기도 수원시 영통구 원천동 195-4번지 1층 3호","category":"건축자재 - 인테리어전문"},{"name":"준플라워","tel":"031-214-2137","addr":"경기도 수원시 영통구 원천동 195-4,1층","category":"문화.취미 - 화원"}]},{"lat":"37.270130744","long":"127.06041489","items":[{"name":"골프타임","tel":"031-215-0770","addr":"경기도 수원시 영통구 원천동 194-1 2,3,4번지 3층","category":"회원제형태 - 레져업소"}]},{"lat":"37.273956632","long":"127.04760951","items":[{"name":"공감+동물의료센터","tel":"031-214-0025","addr":"경기도 수원시 영통구 원천동 78-3번지 2층 201호 외3필지","category":"기타의료기관 - 동물병원"},{"name":"나눔이치과의원","tel":"031-217-2890","addr":"경기도 수원시 영통구 원천동 78-3번지 6층","category":"의원 - 치과의원"},{"name":"몽짬뽕 본메디타워점","tel":"","addr":"경기도 수원시 영통구 원천동 78-3번지 본메디타워 1층 105동","category":"일반휴게음식 - 중국식"},{"name":"본약국","tel":"031-212-9566","addr":"경기도 수원시 영통구 원천동 78-3번지 1층","category":"약국 - 약국"},{"name":"아미치0.3수원점","tel":"031-211-0630","addr":"경기도 수원시 영통구 원천동 78-3번지 2층","category":"보건위생 - 피부미용실"},{"name":"에이플러스의원","tel":"031-000-0000","addr":"경기도 수원시 영통구 원천동 78-3번지 3층","category":"의원 - 의원"},{"name":"죽이야기 수원본메디타워점","tel":"031-213-6233","addr":"경기도 수원시 영통구 원천동 78-3번지 102호","category":"일반휴게음식 - 일반한식"}]},{"lat":"37.274983206","long":"127.04916608","items":[{"name":"공유카페놀자","tel":"","addr":"경기도 수원시 영통구 원천동 78-83번지 1층","category":"일반휴게음식 - 서양음식"},{"name":"도서출판풀소리","tel":"031-212-3772","addr":"경기도 수원시 영통구 원천동 78-83번지","category":"서적문구 - 출판 및 인쇄물"}]},{"lat":"37.27448792","long":"127.04844417","items":[{"name":"공인중개사정관양사무소","tel":"031-213-5516","addr":"경기도 수원시 영통구 원천동 78-54번지 103호","category":"용역 서비스 - 부동산 중개·임대"},{"name":"법무사백남현사무소","tel":"031-212-2140","addr":"경기도 수원시 영통구 원천동 78-54번지","category":"용역 서비스 - 법률회계서비스(개인)"},{"name":"행정사정관양사무소","tel":"031-213-5513","addr":"경기도 수원시 영통구 원천동 78-54번지 1층 103호","category":"용역 서비스 - 법률회계서비스(개인)"}]},{"lat":"37.279655375","long":"127.0588097","items":[{"name":"광교지구촌꽃집","tel":"","addr":"경기도 수원시 영통구 원천동 589-1번지 어뮤즈스퀘어 B1, 21호","category":"문화.취미 - 화원"},{"name":"광교호수초등학교","tel":"031-214-3044","addr":"경기도 수원시 영통구 원천동 589-1번지 광교호수초등학교","category":"학원 - 초중고교육기관"}]},{"lat":"37.266957299","long":"127.06405393","items":[{"name":"광손세차","tel":"031-213-6776","addr":"경기도 수원시 영통구 원천동 263-25번지 1층","category":"자동차정비 유지 - 세차장"},{"name":"봉치킨","tel":"031-214-8092","addr":"경기도 수원시 영통구 원천동 263-25번지","category":"일반휴게음식 - 스넥"}]},{"lat":"37.268687215","long":"127.06416807","items":[{"name":"광어9900","tel":"031-214-4001","addr":"경기도 수원시 영통구 원천동 271-1번지","category":"일반휴게음식 - 일식·회집"},{"name":"주식회사 원천수산","tel":"031-214-4001","addr":"경기도 수원시 영통구 원천동 271-1번지 1층","category":"음료식품 - 농·축·수산품"}]},{"lat":"37.277291722","long":"127.04405973","items":[{"name":"국민우유","tel":"070-1417-1424","addr":"경기도 수원시 영통구 원천동 25-3번지 1층","category":"일반휴게음식 - 서양음식"},{"name":"명랑쌀 핫도그 아주대점","tel":"031-216-3886","addr":"경기도 수원시 영통구 원천동 25-3번지 1층","category":"일반휴게음식 - 서양음식"},{"name":"비비드헤어","tel":"031-213-3493","addr":"경기도 수원시 영통구 원천동 25-3번지 2층","category":"보건위생 - 미용원"},{"name":"우리지금만나","tel":"031-216-5543","addr":"경기도 수원시 영통구 원천동 25-3번지 1층","category":"일반휴게음식 - 일반한식"},{"name":"파란pc방","tel":"031-226-2579","addr":"경기도 수원시 영통구 원천동 25-3번지 지하1층","category":"레저업소 - 기타레져업소"}]},{"lat":"37.276570892","long":"127.04408189","items":[{"name":"국수나무아주대점","tel":"031-217-7061","addr":"경기도 수원시 영통구 원천동 25-15번지 1층","category":"일반휴게음식 - 일반한식"},{"name":"사진잘찍는집","tel":"031-211-0980","addr":"경기도 수원시 영통구 원천동 25-15번지","category":"광학제품 - 사진관"},{"name":"커피랑도서관아주대점","tel":"070-8820-1140","addr":"경기도 수원시 영통구 원천동 25-15번지 3층","category":"용역 서비스 - 사무서비스"}]},{"lat":"37.275656613","long":"127.05486044","items":[{"name":"국토지리정보원","tel":"031-210-2711","addr":"경기도 수원시 영통구 원천동 111번지 국토지리정보원","category":"용역 서비스 - 사무서비스"},{"name":"국토지리정보원","tel":"031-210-2631","addr":"경기도 수원시 영통구 원천동 111번지 지도과 귀하","category":"신변잡화 - 기타잡화"},{"name":"국토지리정보원","tel":"031-210-2638","addr":"경기도 수원시 영통구 원천동 111번지 국토지리정보원","category":"용역 서비스 - 사무서비스"},{"name":"국토지리정보원","tel":"031-210-2638","addr":"경기도 수원시 영통구 원천동 111번지 국토지리정보원","category":"용역 서비스 - 사무서비스"},{"name":"서준유통","tel":"070-7539-4810","addr":"경기도 수원시 영통구 원천동 111번지 국토지리정보원매점","category":"음료식품 - 기타음료식품"}]},{"lat":"37.274740165","long":"127.04855708","items":[{"name":"굿리치법률경매공인중개사사무소","tel":"031-211-0363","addr":"경기도 수원시 영통구 원천동 78-52번지 1층","category":"용역 서비스 - 부동산 중개·임대"},{"name":"아주석유","tel":"031-213-0724","addr":"경기도 수원시 영통구 원천동 78-52번지","category":"연료판매점 - 유류판매"},{"name":"엄마손맛","tel":"031-216-3785","addr":"경기도 수원시 영통구 원천동 78-52번지","category":"일반휴게음식 - 일반한식"},{"name":"직구삼","tel":"031-217-9255","addr":"경기도 수원시 영통구 원천동 78-52번지 1층","category":"일반휴게음식 - 일반한식"}]},{"lat":"37.277769025","long":"127.0447478","items":[{"name":"권육회","tel":"031-111-1111","addr":"경기도 수원시 영통구 원천동 29-58번지","category":"일반휴게음식 - 주점"},{"name":"우리동네주식회사","tel":"031-212-0220","addr":"경기도 수원시 영통구 원천동 29-58번지 1층","category":"일반휴게음식 - 서양음식"}]},{"lat":"37.274516087","long":"127.04538867","items":[{"name":"규치과","tel":"031-214-6822","addr":"경기도 수원시 영통구 원천동 79-4번지 수성빌딩 201호","category":"의원 - 치과의원"},{"name":"김밥천국","tel":"031-211-2769","addr":"경기도 수원시 영통구 원천동 79-4번지 106호","category":"일반휴게음식 - 일반한식"},{"name":"법원에스아이에스","tel":"031-216-1248","addr":"경기도 수원시 영통구 원천동 79-4번지","category":"레져용품 - 스포츠·레져용품"},{"name":"비에스","tel":"031-8004-5959","addr":"경기도 수원시 영통구 원천동 79-4번지 105호","category":"기타 - 기타 전문점"},{"name":"샤론헤어나라","tel":"031-216-5737","addr":"경기도 수원시 영통구 원천동 79-4번지 103호","category":"보건위생 - 미용원"},{"name":"순수공감회화전문미술학원","tel":"070-7534-0529","addr":"경기도 수원시 영통구 원천동 79-4번지 4동 순수공감미술학원","category":"학원 - 예·체능계학원"},{"name":"이화장식","tel":"031-212-9719","addr":"경기도 수원시 영통구 원천동 79-4번지","category":"직물 - 카페트,커튼,천막,지물"},{"name":"행운란제리","tel":"031-213-3376","addr":"경기도 수원시 영통구 원천동 79-4번지 101호","category":"의류 - 내의판매"}]},{"lat":"37.277543567","long":"127.04531144","items":[{"name":"그라미미용실","tel":"031-211-7957","addr":"경기도 수원시 영통구 원천동 30-43번지","category":"보건위생 - 미용원"}]},{"lat":"37.278372673","long":"127.04486089","items":[{"name":"그레이트 이스트","tel":"","addr":"경기도 수원시 영통구 원천동 29-35번지 2층","category":"일반휴게음식 - 주점"},{"name":"용범이네인계동껍데기아주대점","tel":"031-000-0000","addr":"경기도 수원시 영통구 원천동 29-35번지 1층","category":"일반휴게음식 - 일반한식"}]},{"lat":"37.265624497","long":"127.06264365","items":[{"name":"그루밍아이엠","tel":"031-000-0000","addr":"경기도 수원시 영통구 원천동 250-3번지 2층 202호","category":"문화.취미 - 애완동물"},{"name":"수원명당복권방","tel":"031-206-8896","addr":"경기도 수원시 영통구 원천동 250-3번지","category":"음료식품 - 기타음료식품"},{"name":"수원철물건재","tel":"031-214-8619","addr":"경기도 수원시 영통구 원천동 250-3번지","category":"건축자재 - 기타건축자재"},{"name":"윤헤어","tel":"031-215-9792","addr":"경기도 수원시 영통구 원천동 250-3번지 1층 104호","category":"보건위생 - 미용원"},{"name":"일오삼분식","tel":"031-211-8543","addr":"경기도 수원시 영통구 원천동 250-3번지 1층 102호","category":"일반휴게음식 - 일반한식"}]},{"lat":"37.274207961","long":"127.05007887","items":[{"name":"그린산업","tel":"02-1111-1111","addr":"경기도 수원시 영통구 원천동 619-2번지 301호","category":"신변잡화 - 신발"},{"name":"대명법률경매 주식회사","tel":"031-214-0009","addr":"경기도 수원시 영통구 원천동 619-2번지 지하1층 B02호","category":"회원제형태 - 기타4"},{"name":"제일좋은법률사무소","tel":"031-212-5709","addr":"경기도 수원시 영통구 원천동 619-2번지 (1층(101호,102호))","category":"용역 서비스 - 법률회계서비스(개인)"}]},{"lat":"37.264902808","long":"127.06433411","items":[{"name":"그린홈","tel":"011-****-****","addr":"경기도 수원시 영통구 원천동 337-1번지 501호","category":"용역 서비스 - 종합용역"}]},{"lat":"37.276958069","long":"127.04483755","items":[{"name":"기분좋은날","tel":"031-217-0470","addr":"경기도 수원시 영통구 원천동 29-3번지 다온 101호","category":"일반휴게음식 - 서양음식"},{"name":"더치킨","tel":"031-211-3493","addr":"경기도 수원시 영통구 원천동 29-3번지 다온 1층 101호","category":"일반휴게음식 - 일반한식"},{"name":"우리동네 앞담배가게","tel":"031-217-0470","addr":"경기도 수원시 영통구 원천동 29-3번지 다온 1층","category":"음료식품 - 기타음료식품"}]},{"lat":"37.275019535","long":"127.04842194","items":[{"name":"기브츠아카데미울스약창조학교","tel":"031-248-1717","addr":"경기도 수원시 영통구 원천동 78-48번지","category":"기타 - 비영리/대상"}]},{"lat":"37.259432965","long":"127.06546821","items":[{"name":"긴머리 짧은머리 미용실","tel":"","addr":"경기도 수원시 영통구 원천동 419-14번지 호산빌리지 1층 101호","category":"보건위생 - 미용원"},{"name":"파즈커피 (paz coffee)/주식회사 클라우스","tel":"031-1111-1111","addr":"경기도 수원시 영통구 원천동 419-14번지 호산빌리지 118동 102호","category":"일반휴게음식 - 서양음식"}]},{"lat":"37.267074861","long":"127.06321976","items":[{"name":"김밥천국(원천점)","tel":"031-211-8881","addr":"경기도 수원시 영통구 원천동 259-7번지","category":"일반휴게음식 - 일반한식"},{"name":"스타노래연습장","tel":"","addr":"경기도 수원시 영통구 원천동 259-7번지 2층","category":"레저업소 - 노 래 방"}]},{"lat":"37.274658618","long":"127.04971835","items":[{"name":"김수현법무사 사무소","tel":"031-211-5933","addr":"경기도 수원시 영통구 원천동 83-11번지","category":"용역 서비스 - 법률회계서비스(개인)"},{"name":"법무사장지수사무소","tel":"031-211-5933","addr":"경기도 수원시 영통구 원천동 83-11번지","category":"용역 서비스 - 법률회계서비스(개인)"},{"name":"변호사박상복법률사무소","tel":"031-215-1300","addr":"경기도 수원시 영통구 원천동 83-11번지 2층","category":"용역 서비스 - 법률회계서비스(개인)"},{"name":"변호사이병조법률사무소","tel":"031-216-3500","addr":"경기도 수원시 영통구 원천동 83-11,2층(동쪽1호)","category":"용역 서비스 - 법률회계서비스(개인)"},{"name":"변호사조정근법률사무","tel":"031-214-3434","addr":"경기도 수원시 영통구 원천동 83-11번지","category":"용역 서비스 - 법률회계서비스(개인)"},{"name":"선종효법무사사무실","tel":"031-215-2061","addr":"경기도 수원시 영통구 원천동 83-11번지 1층","category":"용역 서비스 - 법률회계서비스(개인)"}]},{"lat":"37.26674219","long":"127.06181027","items":[{"name":"김영숙칼국수","tel":"031-225-2300","addr":"경기도 수원시 영통구 원천동 237-2번지 105호 106호","category":"일반휴게음식 - 일반한식"},{"name":"수원족포차","tel":"031-215-9272","addr":"경기도 수원시 영통구 원천동 237-2번지 102,103호","category":"일반휴게음식 - 일반한식"},{"name":"주막거리전집","tel":"031-214-3536","addr":"경기도 수원시 영통구 원천동 237-2번지 동아교통(주식회사) 104호","category":"일반휴게음식 - 일반한식"}]},{"lat":"37.274289833","long":"127.04808326","items":[{"name":"김용일법률사무소","tel":"031-212-8448","addr":"경기도 수원시 영통구 원천동 78-39번지 2층","category":"용역 서비스 - 법률회계서비스(개인)"},{"name":"동원법무사사무소","tel":"031-212-5002","addr":"경기도 수원시 영통구 원천동 78-39번지 1층 209호","category":"용역 서비스 - 법률회계서비스(개인)"}]},{"lat":"37.27810252","long":"127.04442099","items":[{"name":"김종근의달구마실","tel":"031-216-4881","addr":"경기도 수원시 영통구 원천동 29-5번지 1층","category":"일반휴게음식 - 일반한식"},{"name":"레드나인","tel":"031-211-5857","addr":"경기도 수원시 영통구 원천동 29-5번지 2층","category":"일반휴게음식 - 주점"}]},{"lat":"37.274984739","long":"127.04506196","items":[{"name":"김형건술집","tel":"031-231-4930","addr":"경기도 수원시 영통구 원천동 79-20번지","category":"일반휴게음식 - 일반한식"},{"name":"불난 술집 아주대점","tel":"031-893-7589","addr":"경기도 수원시 영통구 원천동 79-20번지 새한빌딩 2층","category":"일반휴게음식 - 일반한식"},{"name":"블루레우커피바/주식회사 선우","tel":"031-215-9146","addr":"경기도 수원시 영통구 원천동 79-20번지 2층","category":"일반휴게음식 - 서양음식"}]},{"lat":"37.277570946","long":"127.0443305","items":[{"name":"까페안녕","tel":"070-4234-3921","addr":"경기도 수원시 영통구 원천동 29-67번지 1층","category":"일반휴게음식 - 서양음식"}]},{"lat":"37.275210282","long":"127.04425028","items":[{"name":"꼬꼬아찌숯불치킨","tel":"031-890-2118","addr":"경기도 수원시 영통구 원천동 27-14번지","category":"일반휴게음식 - 주점"},{"name":"델리쉬(Delish)","tel":"","addr":"경기도 수원시 영통구 원천동 27-14번지 1층","category":"일반휴게음식 - 서양음식"},{"name":"릴립(rilip)","tel":"031-000-0000","addr":"경기도 수원시 영통구 원천동 27-14번지 1층","category":"의류 - 정장"},{"name":"모멘토/온누리인쇄복사","tel":"031-216-8160","addr":"경기도 수원시 영통구 원천동 27-14번지","category":"일반휴게음식 - 서양음식"},{"name":"미샤아주대점","tel":"031-212-2284","addr":"경기도 수원시 영통구 원천동 27-14번지 1층","category":"보건위생 - 화장품"},{"name":"온누리인쇄복사","tel":"031-214-8309","addr":"경기도 수원시 영통구 원천동 27-14번지","category":"서적문구 - 문구용품"},{"name":"왈라키아 호텔","tel":"031-212-6261","addr":"경기도 수원시 영통구 원천동 27-14번지 2층","category":"일반휴게음식 - 일반한식"},{"name":"월드컵노래연습장","tel":"031-216-4826","addr":"경기도 수원시 영통구 원천동 27-14번지 지층","category":"레저업소 - 노 래 방"},{"name":"짬뽕타임 아주대점","tel":"031-213-8769","addr":"경기도 수원시 영통구 원천동 27-14번지 2층, 3층","category":"일반휴게음식 - 중국식"}]},{"lat":"37.274434568","long":"127.04656122","items":[{"name":"꼬부리헤어","tel":"031-216-1389","addr":"경기도 수원시 영통구 원천동 72-71번지 1층","category":"보건위생 - 미용원"}]},{"lat":"37.27734553","long":"127.04478139","items":[{"name":"꼬치핀다","tel":"031-282-9465","addr":"경기도 수원시 영통구 원천동 29-45번지 1층 일부","category":"일반휴게음식 - 일반한식"}]},{"lat":"37.275318002","long":"127.04538912","items":[{"name":"꽃과나무","tel":"031-211-3725","addr":"경기도 수원시 영통구 원천동 32-19번지","category":"문화.취미 - 화원"},{"name":"다섯손가락네일샵","tel":"031-839-7702","addr":"경기도 수원시 영통구 원천동 32-19번지 1층 일부","category":"보건위생 - 피부미용실"},{"name":"태영막창","tel":"031-214-8153","addr":"경기도 수원시 영통구 원천동 32-19번지","category":"일반휴게음식 - 일반한식"}]},{"lat":"37.266572624","long":"127.05843927","items":[{"name":"꾸미지오디자인","tel":"031-217-9275","addr":"경기도 수원시 영통구 원천동 550-2번지 원흥프라자 102호","category":"건축자재 - 인테리어전문"},{"name":"바나나폰 원천점","tel":"070-8880-7931","addr":"경기도 수원시 영통구 원천동 550-2번지 원천원흥프라자 1층 104호","category":"사무통신 - 통신기기"},{"name":"바이엘(Bar EL)","tel":"031-201-4709","addr":"경기도 수원시 영통구 원천동 550-2번지 원천원흥프라자 4층 402호","category":"일반휴게음식 - 주점"},{"name":"삼성당구장","tel":"031-211-3949","addr":"경기도 수원시 영통구 원천동 550-2번지 원천원흥프라자 401호","category":"레저업소 - 당 구 장"},{"name":"삼성대반점","tel":"031-217-8287","addr":"경기도 수원시 영통구 원천동 550-2번지 원천원흥프라자 202호","category":"일반휴게음식 - 중국식"},{"name":"요거프레소 (원천점)","tel":"070-7404-1468","addr":"경기도 수원시 영통구 원천동 550-2번지 원천원흥프라자 106호","category":"일반휴게음식 - 서양음식"},{"name":"장원순대국","tel":"031-211-0667","addr":"경기도 수원시 영통구 원천동 550-2번지 원천원흥프라자 101호","category":"일반휴게음식 - 일반한식"},{"name":"토크","tel":"031-111-1111","addr":"경기도 수원시 영통구 원천동 550-2번지 원천원흥프라자 4층 402호","category":"일반휴게음식 - 일반한식"},{"name":"한돈미가","tel":"070-4042-9282","addr":"경기도 수원시 영통구 원천동 550-2번지 원천원흥프라자 2층 201호","category":"일반휴게음식 - 일반한식"},{"name":"훌랄라숯불바베큐치킨","tel":"031-213-2939","addr":"경기도 수원시 영통구 원천동 550-2번지 원천원흥프라자 103호","category":"일반휴게음식 - 스넥"}]},{"lat":"37.276460249","long":"127.05077934","items":[{"name":"꿍냐우","tel":"","addr":"경기도 수원시 영통구 원천동 580-5번지 1층","category":"일반휴게음식 - 서양음식"}]},{"lat":"37.274741649","long":"127.0445319","items":[{"name":"끼(GGI)안경","tel":"031-212-4450","addr":"경기도 수원시 영통구 원천동 79-8,10번지","category":"보건위생 - 안경"},{"name":"미니스톱아주대２점","tel":"031-214-7089","addr":"경기도 수원시 영통구 원천동 79-8,10","category":"유통업 영리 - 편 의 점"},{"name":"아이사랑치과의원","tel":"031-212-2275","addr":"경기도 수원시 영통구 원천동 798-8예스프라자602","category":"의원 - 치과의원"}]},{"lat":"37.277237407","long":"127.04478133","items":[{"name":"날로먹자","tel":"070-4649-1101","addr":"경기도 수원시 영통구 원천동 29-34번지 1층","category":"일반휴게음식 - 일반한식"}]},{"lat":"37.274019334","long":"127.04857919","items":[{"name":"남해생선구이","tel":"031-213-4962","addr":"경기도 수원시 영통구 원천동 85-24번지","category":"일반휴게음식 - 일반한식"},{"name":"로즈","tel":"031-215-3977","addr":"경기도 수원시 영통구 원천동 85-24번지","category":"일반휴게음식 - 일반한식"}]},{"lat":"37.270627002","long":"127.05897214","items":[{"name":"남희미용실","tel":"031-211-8510","addr":"경기도 수원시 영통구 원천동 198-3.1층좌측점포","category":"보건위생 - 미용원"},{"name":"선한밥상","tel":"031-216-7859","addr":"경기도 수원시 영통구 원천동 198-3번지 1층","category":"일반휴게음식 - 일반한식"}]},{"lat":"37.274460535","long":"127.04935743","items":[{"name":"내고향집","tel":"031-211-5620","addr":"경기도 수원시 영통구 원천동 85-33번지","category":"일반휴게음식 - 일반한식"},{"name":"밝은법률사무소","tel":"031-212-5670","addr":"경기도 수원시 영통구 원천동 85-33번지","category":"용역 서비스 - 법률회계서비스(개인)"},{"name":"변호사박지훈법률사무실","tel":"031-214-2663","addr":"경기도 수원시 영통구 원천동 85-33번지","category":"용역 서비스 - 법률회계서비스(개인)"},{"name":"풍광","tel":"031-211-7784","addr":"경기도 수원시 영통구 원천동 85-33번지 1층","category":"용역 서비스 - 종합용역"}]},{"lat":"37.274821235","long":"127.0486135","items":[{"name":"내일골프","tel":"031-215-8345","addr":"경기도 수원시 영통구 원천동 78-51번지","category":"레져용품 - 골프용품 전문점"}]},{"lat":"37.25812715","long":"127.06417079","items":[{"name":"내집처럼","tel":"031-213-3336","addr":"경기도 수원시 영통구 원천동 410-19번지 101호","category":"일반휴게음식 - 일반한식"},{"name":"찜생찜사 묵은지김치찜 수원영통점","tel":"031-212-8383","addr":"경기도 수원시 영통구 원천동 410-19번지 102호","category":"일반휴게음식 - 일반한식"}]},{"lat":"37.257542218","long":"127.06272744","items":[{"name":"네꼬야커피숍","tel":"031-214-1177","addr":"경기도 수원시 영통구 원천동 399-1번지 1층","category":"일반휴게음식 - 서양음식"},{"name":"아르스앤","tel":"031-253-1987","addr":"경기도 수원시 영통구 원천동 399-1번지","category":"건축자재 - 인테리어전문"}]},{"lat":"37.275876631","long":"127.04541199","items":[{"name":"네일은맑음","tel":"031-1111-1111","addr":"경기도 수원시 영통구 원천동 30-110번지 101호","category":"보건위생 - 피부미용실"},{"name":"카우보이 버거","tel":"031-212-2589","addr":"경기도 수원시 영통구 원천동 30-110번지 1층 102호","category":"일반휴게음식 - 서양음식"}]},{"lat":"37.266263635","long":"127.06380535","items":[{"name":"넥센타이어 (주)수원원천점","tel":"","addr":"경기도 수원시 영통구 원천동 330-2번지","category":"자동차정비 유지 - 자동차시트·타이어"},{"name":"미","tel":"031-211-5862","addr":"경기도 수원시 영통구 원천동 330-2번지 302호","category":"보건위생 - 화장품"},{"name":"솔트빌리지","tel":"031-217-1116","addr":"경기도 수원시 영통구 원천동 330-2번지 501호","category":"보건위생 - 사우나"},{"name":"주식회사 제이블라썸","tel":"070-7638-6080","addr":"경기도 수원시 영통구 원천동 330-2번지 101호","category":"문화.취미 - 화원"}]},{"lat":"37.276904292","long":"127.0440257","items":[{"name":"노랑통닭","tel":"031-215-2029","addr":"경기도 수원시 영통구 원천동 25-10번지 2층","category":"일반휴게음식 - 일반한식"},{"name":"베이프 캠프","tel":"031-000-0000","addr":"경기도 수원시 영통구 원천동 25-10번지 지하1층","category":"기타 - 기타 전문점"},{"name":"살롱드리코","tel":"031-214-3007","addr":"경기도 수원시 영통구 원천동 25-10번지 3층","category":"보건위생 - 미용원"},{"name":"와플칸","tel":"031-206-5915","addr":"경기도 수원시 영통구 원천동 25-10번지 2층","category":"일반휴게음식 - 서양음식"},{"name":"플랜트","tel":"031-212-8938","addr":"경기도 수원시 영통구 원천동 25-10번지 4층 전체","category":"일반휴게음식 - 일반한식"},{"name":"해피쏭노래연습장","tel":"","addr":"경기도 수원시 영통구 원천동 25-10번지 지층","category":"레저업소 - 노 래 방"}]},{"lat":"37.258910776","long":"127.06468997","items":[{"name":"노브러쉬 손세차","tel":"031-211-7233","addr":"경기도 수원시 영통구 원천동 409-4번지","category":"자동차정비 유지 - 세차장"}]},{"lat":"37.278208118","long":"127.05108489","items":[{"name":"누에보기획","tel":"031-216-0580","addr":"경기도 수원시 영통구 원천동 573-4번지 1층","category":"자동차정비 유지 - 자동차부품"}]},{"lat":"37.268130592","long":"127.06014279","items":[{"name":"뉴욕앤와이세탁","tel":"031-217-3248","addr":"경기도 수원시 영통구 원천동 548번지 수원원천2단지주공아파트 상가 103호","category":"수리서비스 - 세탁소"},{"name":"루브르미술학원","tel":"031-214-2437","addr":"경기도 수원시 영통구 원천동 548번지 수원원천2단지주공아파트","category":"학원 - 예·체능계학원"},{"name":"생그린수원지사","tel":"031-212-2133","addr":"경기도 수원시 영통구 원천동 548번지 수원원천2단지주공 상가 204호","category":"보건위생 - 화장품"},{"name":"성연스포츠","tel":"031-213-0201","addr":"경기도 수원시 영통구 원천동 548번지 수원원천2단지주공아파트 상가동 지하층 제7호","category":"레져용품 - 스포츠·레져용품"},{"name":"아이엠디","tel":"031-893-8010","addr":"경기도 수원시 영통구 원천동 548번지 원천주공2단지아210동101호~101호 210동 101호","category":"회원제형태 - 기타4"},{"name":"앤와이세탁소","tel":"031-212-3247","addr":"경기도 수원시 영통구 원천동 548번지 원천주공2단지상가동102호일부,103호일부","category":"수리서비스 - 세탁소"},{"name":"주공컴퓨터","tel":"031-211-4967","addr":"경기도 수원시 영통구 원천동 548번지 원천주공2단지제상가동 지하층 5호","category":"수리서비스 - 사무·통신기기수리"}]},{"lat":"37.277514373","long":"127.0509717","items":[{"name":"다겸","tel":"031-216-0927","addr":"경기도 수원시 영통구 원천동 577-4번지 1층","category":"일반휴게음식 - 일반한식"},{"name":"소울","tel":"031-217-5046","addr":"경기도 수원시 영통구 원천동 577-4번지","category":"보건위생 - 미용원"}]},{"lat":"37.275489185","long":"127.04542304","items":[{"name":"단비네옷","tel":"031-215-6025","addr":"경기도 수원시 영통구 원천동 32-20번지","category":"의류 - 정장"},{"name":"미림상회,송오석공인중개사사무소","tel":"031-211-1233","addr":"경기도 수원시 영통구 원천동 32-20번지","category":"음료식품 - 미곡상"},{"name":"미림상회,송오석공인중개사사무소","tel":"031-211-1233","addr":"경기도 수원시 영통구 원천동 32-20번지","category":"용역 서비스 - 부동산 중개·임대"}]},{"lat":"37.2670402","long":"127.06044636","items":[{"name":"달달한농부 원천점","tel":"031-212-5474","addr":"경기도 수원시 영통구 원천동 233번지 1층 101호","category":"음료식품 - 기타음료식품"},{"name":"소문난뒷고기","tel":"031-548-2928","addr":"경기도 수원시 영통구 원천동 233번지 1층 102호","category":"일반휴게음식 - 일반한식"}]},{"lat":"37.276984923","long":"127.04533368","items":[{"name":"달콤당","tel":"02-1111-1111","addr":"경기도 수원시 영통구 원천동 30-89번지 1층","category":"음료식품 - 기타음료식품"},{"name":"세빈","tel":"031-211-0302","addr":"경기도 수원시 영통구 원천동 30-89번지 1층","category":"보건위생 - 화장품"}]},{"lat":"37.266318476","long":"127.06227216","items":[{"name":"대림세차","tel":"031-212-9150","addr":"경기도 수원시 영통구 원천동 253-9번지","category":"자동차정비 유지 - 카인테리어"},{"name":"신화오토샵","tel":"031-217-4358","addr":"경기도 수원시 영통구 원천동 253-9번지","category":"자동차정비 유지 - 자동차정비"}]},{"lat":"37.266797615","long":"127.05900312","items":[{"name":"대명각","tel":"031-216-3639","addr":"경기도 수원시 영통구 원천동 550-4번지 원천주공종합상가 207호","category":"일반휴게음식 - 중국식"},{"name":"돈앤도나헤어죤","tel":"031-213-2135","addr":"경기도 수원시 영통구 원천동 550-4번지 원천주공 종합상가 208호","category":"보건위생 - 미용원"},{"name":"동서정육점","tel":"031-211-4343","addr":"경기도 수원시 영통구 원천동 550-4번지 원천주공종합상가 108호","category":"음료식품 - 정육점"},{"name":"명인만두(수원원천점)","tel":"031-224-8931","addr":"경기도 수원시 영통구 원천동 550-4번지 주공 상가 101호","category":"일반휴게음식 - 스넥"},{"name":"문구아울렛","tel":"031-212-5606","addr":"경기도 수원시 영통구 원천동 550-4번지 원천주공종합상사 104호","category":"서적문구 - 문구용품"},{"name":"벨라뮤직음악교습소","tel":"031-212-6677","addr":"경기도 수원시 영통구 원천동 550-4번지 원천주공 상가 203호 202","category":"학원 - 예·체능계학원"},{"name":"스토리온헤어","tel":"031-254-0990","addr":"경기도 수원시 영통구 원천동 550-4번지 원천주공 종합상가 110호","category":"보건위생 - 미용원"},{"name":"신전떡볶이(원천점)","tel":"070-7012-4552","addr":"경기도 수원시 영통구 원천동 550-4번지 원천주공 종합상가 103호","category":"일반휴게음식 - 스넥"},{"name":"용인대원일태권도장","tel":"031-214-4522","addr":"경기도 수원시 영통구 원천동 550-4번지 원천주공 종합상가 301호","category":"학원 - 예·체능계학원"},{"name":"자매토스트 김밥","tel":"","addr":"경기도 수원시 영통구 원천동 550-4번지 원천주공종합상가 102호","category":"일반휴게음식 - 스넥"},{"name":"파워점프","tel":"031-204-6057","addr":"경기도 수원시 영통구 원천동 550-4번지 원천주공 종합상가 201호","category":"건강식품 - 기타건강식품"},{"name":"하나로약국","tel":"031-213-3998","addr":"경기도 수원시 영통구 원천동 550-4번지 원천주공 종합상가 109호","category":"약국 - 약국"},{"name":"헤세드영수학원","tel":"031-212-1105","addr":"경기도 수원시 영통구 원천동 550-4번지 원천주공종합상가 3층 303호","category":"학원 - 보습학원"}]},{"lat":"37.266407973","long":"127.06346725","items":[{"name":"대박삼겹살","tel":"031-215-5513","addr":"경기도 수원시 영통구 원천동 258-3번지","category":"일반휴게음식 - 일반한식"}]},{"lat":"37.261406598","long":"127.06474837","items":[{"name":"대아수산","tel":"031-213-6678","addr":"경기도 수원시 영통구 원천동 362-32번지 B동","category":"음료식품 - 농·축·수산품"},{"name":"만남의광장","tel":"031-215-5077","addr":"경기도 수원시 영통구 원천동 362-32번지 B동","category":"일반휴게음식 - 일반한식"},{"name":"미네랄하우스","tel":"031-215-5077","addr":"경기도 수원시 영통구 원천동 362-32번지","category":"신변잡화 - 기타잡화"},{"name":"미향","tel":"031-235-7752","addr":"경기도 수원시 영통구 원천동 362-32번지","category":"일반휴게음식 - 일반한식"},{"name":"이모네조개구이","tel":"031-213-7095","addr":"경기도 수원시 영통구 원천동 362-32번지","category":"일반휴게음식 - 일반한식"},{"name":"장어대가","tel":"031-213-6678","addr":"경기도 수원시 영통구 원천동 362-32번지","category":"일반휴게음식 - 일반한식"}]},{"lat":"37.269212371","long":"127.05900492","items":[{"name":"대영카센타","tel":"031-215-8567","addr":"경기도 수원시 영통구 원천동 209-12번지","category":"자동차정비 유지 - 자동차정비"}]},{"lat":"37.266568221","long":"127.06714264","items":[{"name":"대진차유리","tel":"031-216-3159","addr":"경기도 수원시 영통구 원천동 319-7번지","category":"건축자재 - 유리"}]},{"lat":"37.274236475","long":"127.04620031","items":[{"name":"대청주식회사","tel":"031-212-7653","addr":"경기도 수원시 영통구 원천동 73-1,74-4","category":"연료판매점 - 주유소"}]},{"lat":"37.27712793","long":"127.04844577","items":[{"name":"대학의료기","tel":"031-215-5970","addr":"경기도 수원시 영통구 원천동 66-5번지 1층 2호","category":"기타의료기관 - 기타의료기관 및 기타"},{"name":"법률사무소 행복","tel":"031-216-9107","addr":"경기도 수원시 영통구 원천동 66-5번지 청우빌딩 302호","category":"용역 서비스 - 법률회계서비스(개인)"},{"name":"변호사김종수법률사무소","tel":"03-1216-7277","addr":"경기도 수원시 영통구 원천동 66-5번지 청우빌딩 302호","category":"용역 서비스 - 법률회계서비스(개인)"},{"name":"씨유아주대병원점","tel":"031-214-2397","addr":"경기도 수원시 영통구 원천동 66-5번지 101호","category":"유통업 영리 - 편 의 점"},{"name":"의정부부대스테이크","tel":"031-214-6718","addr":"경기도 수원시 영통구 원천동 66-5번지","category":"일반휴게음식 - 일반한식"}]},{"lat":"37.279984281","long":"127.04819942","items":[{"name":"대한메디컬3D프린팅학회","tel":"031-219-5220","addr":"경기도 수원시 영통구 원천동 산26-6번지 아주대학병원 8B05호","category":"용역 서비스 - 사무서비스"},{"name":"삼성웰스토리(주) 아주대학교의료원교직원","tel":"031-5171-1167","addr":"경기도 수원시 영통구 원천동 산26-6번지 아주대학병원","category":"일반휴게음식 - 위탁급식업"},{"name":"삼성웰스토리(주) 아주대학교의료원선인재","tel":"031-5171-1167","addr":"경기도 수원시 영통구 원천동 산26-6번지 아주대학병원","category":"일반휴게음식 - 위탁급식업"},{"name":"삼성웰스토리(주)아주대학교의료원선인재","tel":"031-219-4805","addr":"경기도 수원시 영통구 원천동 산26-6번지 아주대학병원","category":"일반휴게음식 - 위탁급식업"},{"name":"아주밝은안경원","tel":"031-217-0069","addr":"경기도 수원시 영통구 원천동 산26-6번지 지하1층 아주대학병원웰빙센터","category":"보건위생 - 안경"},{"name":"아주좋은과일","tel":"031-214-5949","addr":"경기도 수원시 영통구 원천동 산5번지 아주대학부속병원","category":"음료식품 - 농·축·수산품"}]},{"lat":"37.26715344","long":"127.06796613","items":[{"name":"대한자동차","tel":"031-235-5555","addr":"경기도 수원시 영통구 원천동 298-1번지","category":"자동차판매 - 중고자동차판매"},{"name":"삼영자동차상사","tel":"031-235-6677","addr":"경기도 수원시 영통구 원천동 298-1번지","category":"자동차판매 - 중고자동차판매"},{"name":"엠엔에프코리아(M&F Korea)","tel":"031-202-7870","addr":"경기도 수원시 영통구 원천동 298-1번지 2층 창고동","category":"신변잡화 - 기타잡화"},{"name":"엠쿡","tel":"070-8223-0073","addr":"경기도 수원시 영통구 원천동 298-1번지 2층 관리동","category":"전기제품 - 가전제품"},{"name":"테크디자인","tel":"031-222-7101","addr":"경기도 수원시 영통구 원천동 298-1번지","category":"건축자재 - 인테리어전문"}]},{"lat":"37.274324576","long":"127.05136429","items":[{"name":"대한프린팅","tel":"031-548-1055","addr":"경기도 수원시 영통구 원천동 616-4번지","category":"서적문구 - 출판 및 인쇄물"},{"name":"주스아이 아동발달연구소","tel":"070-7803-2332","addr":"경기도 수원시 영통구 원천동 616-4번지 1층","category":"보건위생 - 기타대인서비스"},{"name":"주스아이아동발달연구소","tel":"070-8835-2332","addr":"경기도 수원시 영통구 원천동 616-4번지 1층","category":"보건위생 - 기타대인서비스"}]},{"lat":"37.275434275","long":"127.04772314","items":[{"name":"댄","tel":"031-216-0806","addr":"경기도 수원시 영통구 원천동 77-11번지 지하1층","category":"일반휴게음식 - 일반한식"},{"name":"아지트분식","tel":"","addr":"경기도 수원시 영통구 원천동 77-11번지 1층","category":"일반휴게음식 - 일반한식"},{"name":"원천동제과점","tel":"070-5412-1429","addr":"경기도 수원시 영통구 원천동 77-11번지 103호","category":"음료식품 - 제과점"},{"name":"월드텍&에코유나이티드","tel":"031-211-1974","addr":"경기도 수원시 영통구 원천동 77-11번지 중앙 1층","category":"용역 서비스 - 종합용역"},{"name":"이솜교육","tel":"02-1111-1111","addr":"경기도 수원시 영통구 원천동 77-11번지 1층 101호","category":"서적문구 - 기타서적문구"}]},{"lat":"37.275011842","long":"127.04485902","items":[{"name":"더구너스펍(THE GOONERS PUB)","tel":"","addr":"경기도 수원시 영통구 원천동 79-1번지 2층","category":"일반휴게음식 - 주점"},{"name":"도야족발","tel":"031-214-9600","addr":"경기도 수원시 영통구 원천동 79-1번지","category":"일반휴게음식 - 일반한식"}]},{"lat":"37.278624852","long":"127.04516547","items":[{"name":"더블헤어","tel":"031-000-0000","addr":"경기도 수원시 영통구 원천동 38-26번지 캠퍼스빌 203호","category":"보건위생 - 미용원"},{"name":"더쉐어32","tel":"031-215-3279","addr":"경기도 수원시 영통구 원천동 38-26번지 캠퍼스빌 206,306호","category":"일반휴게음식 - 서양음식"},{"name":"본도시락 아주대점","tel":"031-214-4283","addr":"경기도 수원시 영통구 원천동 38-26번지 캠퍼스빌 204호","category":"일반휴게음식 - 일반한식"},{"name":"아주스크린골프존","tel":"031-213-0755","addr":"경기도 수원시 영통구 원천동 38-26번지 캠퍼스빌 101호,102호 일부","category":"레저업소 - 스크린골프"},{"name":"아주청각언어센터","tel":"031-211-4578","addr":"경기도 수원시 영통구 원천동 38-26 주상복합빌딩 304호 305호","category":"보건위생 - 기타대인서비스"},{"name":"이마트24 아주대중문점","tel":"","addr":"경기도 수원시 영통구 원천동 38-26번지 캠퍼스빌 상가 202호","category":"유통업 영리 - 편 의 점"},{"name":"주식회사 더쉐어","tel":"031-215-3279","addr":"경기도 수원시 영통구 원천동 38-26번지 캠퍼스빌 301호","category":"음료식품 - 기타음료식품"}]},{"lat":"37.271400511","long":"127.06180262","items":[{"name":"더샵세탁","tel":"031-693-7799","addr":"경기도 수원시 영통구 원천동 604번지 광교더샵 근린생활동 1층 107호","category":"수리서비스 - 세탁소"},{"name":"살롱드이케이","tel":"031-214-2956","addr":"경기도 수원시 영통구 원천동 604번지 광교더샵 근린생활동 113호","category":"보건위생 - 미용원"},{"name":"시립광교더샵어린이집[아이행복]","tel":"031-214-7978","addr":"경기도 수원시 영통구 원천동 604번지 광교더샵","category":"학원 - 유아원"},{"name":"에스엔지(SNG)","tel":"","addr":"경기도 수원시 영통구 원천동 604번지 광교더샵 근린생활시설동 상가 115호","category":"의류 - 정장"},{"name":"온잎","tel":"070-7807-2313","addr":"경기도 수원시 영통구 원천동 604번지 광교더샵 상가동 108호","category":"문화.취미 - 화원"}]},{"lat":"37.262723864","long":"127.06127729","items":[{"name":"더카페","tel":"031-8002-3399","addr":"경기도 수원시 영통구 원천동 552번지 영통이노플렉스1단지 2동 109호","category":"일반휴게음식 - 서양음식"},{"name":"우리들디자인","tel":"031-8002-3040","addr":"경기도 수원시 영통구 원천동 552번지 영통이노플렉스 2동 107호","category":"용역 서비스 - 종합용역"}]},{"lat":"37.274461694","long":"127.04630191","items":[{"name":"덕","tel":"031-215-3977","addr":"경기도 수원시 영통구 원천동 72-118번지","category":"일반휴게음식 - 일반한식"},{"name":"아주전자타운","tel":"031-217-0116","addr":"경기도 수원시 영통구 원천동 72-118번지","category":"가구 - 일반가구"}]},{"lat":"37.266849535","long":"127.06335487","items":[{"name":"도로시헤어샵","tel":"031-216-5432","addr":"경기도 수원시 영통구 원천동 258-17번지","category":"보건위생 - 미용원"},{"name":"블레스헤어","tel":"","addr":"경기도 수원시 영통구 원천동 258-17번지","category":"보건위생 - 미용원"},{"name":"애니팡 노래연습장","tel":"031-213-6693","addr":"경기도 수원시 영통구 원천동 258-17번지 2층","category":"레저업소 - 노 래 방"}]},{"lat":"37.275209927","long":"127.04525376","items":[{"name":"독도회","tel":"031-217-5929","addr":"경기도 수원시 영통구 원천동 28-27번지 외1필지 103호","category":"일반휴게음식 - 일반한식"},{"name":"동경야시장","tel":"031-306-2846","addr":"경기도 수원시 영통구 원천동 28-27번지 202호","category":"일반휴게음식 - 주점"},{"name":"생활맥주 아주대점","tel":"031-217-7539","addr":"경기도 수원시 영통구 원천동 28-27번지 104호","category":"일반휴게음식 - 주점"},{"name":"셰프의 포차","tel":"031-212-9559","addr":"경기도 수원시 영통구 원천동 28-27번지 201호","category":"일반휴게음식 - 일반한식"},{"name":"옥집","tel":"031-214-8592","addr":"경기도 수원시 영통구 원천동 28-27번지 1층","category":"일반휴게음식 - 주점"},{"name":"이밤","tel":"031-212-0189","addr":"경기도 수원시 영통구 원천동 28-27번지 102호","category":"일반휴게음식 - 일반한식"},{"name":"줄리앙와플","tel":"031-216-0191","addr":"경기도 수원시 영통구 원천동 28-27번지 106호","category":"일반휴게음식 - 서양음식"},{"name":"칸노래연습장","tel":"031-214-0895","addr":"경기도 수원시 영통구 원천동 28-27번지 3층 302호","category":"레저업소 - 노 래 방"},{"name":"크린토피아 아주대점","tel":"031-216-0191","addr":"경기도 수원시 영통구 원천동 28-27번지 106호","category":"수리서비스 - 세탁소"}]},{"lat":"37.274929907","long":"127.04717036","items":[{"name":"돈앤떡","tel":"031-212-2636","addr":"경기도 수원시 영통구 원천동 72-119번지 101호","category":"일반휴게음식 - 일반한식"},{"name":"물만두집","tel":"031-216-5878","addr":"경기도 수원시 영통구 원천동 72-119번지 102호","category":"일반휴게음식 - 스넥"},{"name":"피자 어셈블","tel":"031-212-3877","addr":"경기도 수원시 영통구 원천동 72-119번지 1층 103호","category":"일반휴게음식 - 서양음식"}]},{"lat":"37.274182189","long":"127.04680912","items":[{"name":"돌돌말이국수","tel":"031-212-8088","addr":"경기도 수원시 영통구 원천동 75-3번지 101호","category":"일반휴게음식 - 스넥"},{"name":"선우인쇄","tel":"031-234-0705","addr":"경기도 수원시 영통구 원천동 75-3번지","category":"서적문구 - 출판 및 인쇄물"},{"name":"신주쿠헤어","tel":"031-211-4442","addr":"경기도 수원시 영통구 원천동 75-3번지","category":"보건위생 - 미용원"}]},{"lat":"37.274263083","long":"127.04733909","items":[{"name":"돌샘해신탕","tel":"031-211-7907","addr":"경기도 수원시 영통구 원천동 77-23번지 1층","category":"일반휴게음식 - 일반한식"},{"name":"시골밥상","tel":"031-212-6617","addr":"경기도 수원시 영통구 원천동 77-23번지","category":"일반휴게음식 - 일반한식"}]},{"lat":"37.266851176","long":"127.06005163","items":[{"name":"동경축산","tel":"031-217-7747","addr":"경기도 수원시 영통구 원천동 468 1층102-1호","category":"음료식품 - 정육점"},{"name":"이모네 갈치조림","tel":"031-271-4119","addr":"경기도 수원시 영통구 원천동 468번지 이레빌딩 101호","category":"일반휴게음식 - 주점"},{"name":"축산이야기","tel":"031-217-7747","addr":"경기도 수원시 영통구 원천동 468번지 1층","category":"일반휴게음식 - 일반한식"}]},{"lat":"37.277039446","long":"127.04402577","items":[{"name":"동대문엽기떡볶이 아주대점","tel":"031-212-4858","addr":"경기도 수원시 영통구 원천동 25-18번지","category":"일반휴게음식 - 일반한식"},{"name":"맥학분식포차","tel":"031-797-9846","addr":"경기도 수원시 영통구 원천동 25-18번지","category":"일반휴게음식 - 주점"},{"name":"우드스탁","tel":"031-893-0062","addr":"경기도 수원시 영통구 원천동 25-18번지 3층","category":"일반휴게음식 - 주점"},{"name":"준스튜디오","tel":"031-214-6777","addr":"경기도 수원시 영통구 원천동 25-18번지","category":"광학제품 - 사진관"},{"name":"카피랜드","tel":"031-217-9978","addr":"경기도 수원시 영통구 원천동 25-18번지","category":"서적문구 - 출판 및 인쇄물"}]},{"lat":"37.276733085","long":"127.04405943","items":[{"name":"동떡이즉석떡볶이","tel":"031-215-0208","addr":"경기도 수원시 영통구 원천동 25-12번지 2층","category":"일반휴게음식 - 스넥"},{"name":"아주스튜디오","tel":"031-215-2546","addr":"경기도 수원시 영통구 원천동 25-12번지","category":"광학제품 - 사진관"},{"name":"약손피부관리실","tel":"031-256-4277","addr":"경기도 수원시 영통구 원천동 25-12번지 4층","category":"보건위생 - 피부미용실"},{"name":"이니스프리 아주대점","tel":"031-211-6477","addr":"경기도 수원시 영통구 원천동 25-12번지 2층 좌측 2층","category":"보건위생 - 화장품"}]},{"lat":"37.280767148","long":"127.05080463","items":[{"name":"동문솔약국","tel":"031-307-7579","addr":"경기도 수원시 영통구 원천동 556번지 광교두산위브 노인복지주택 근린생활시설 지하2층 106호","category":"약국 - 약국"},{"name":"명품쎈텐(호전실업)광교점","tel":"031-215-5510","addr":"경기도 수원시 영통구 원천동 556번지 광교두산위브 상가 104호","category":"의류 - 단체복"},{"name":"아주사랑한의원","tel":"031-548-0369","addr":"경기도 수원시 영통구 원천동 556번지 광교두산위브 201,202호","category":"의원 - 한의원"},{"name":"워시프렌즈 셀프빨래방 수원 원천동점","tel":"031-111-1111","addr":"경기도 수원시 영통구 원천동 556번지 광교두산위브 107호","category":"수리서비스 - 세탁소"},{"name":"주식회사 랩미","tel":"031-8002-0422","addr":"경기도 수원시 영통구 원천동 556번지 광교두산위브 상가동 108호","category":"일반휴게음식 - 서양음식"}]},{"lat":"37.267768341","long":"127.06382911","items":[{"name":"동보섬유","tel":"031-211-3477","addr":"경기도 수원시 영통구 원천동 270-1번지 일부 1층","category":"직물 - 옷감·직물"}]},{"lat":"37.27457023","long":"127.0451632","items":[{"name":"동수원음악학원","tel":"031-214-0700","addr":"경기도 수원시 영통구 원천동 79-6번지 지하1층","category":"회원제형태 - 학원"},{"name":"락당구장","tel":"031-257-5657","addr":"경기도 수원시 영통구 원천동 79-6번지 3층","category":"레저업소 - 당 구 장"},{"name":"박정배치과의원","tel":"031-211-1223","addr":"경기도 수원시 영통구 원천동 79-6번지","category":"의원 - 치과의원"},{"name":"스터디랩학원","tel":"031-302-1114","addr":"경기도 수원시 영통구 원천동 79-6번지 2층","category":"학원 - 보습학원"}]},{"lat":"37.266847631","long":"127.06697377","items":[{"name":"동수원종합상사","tel":"031-216-0988","addr":"경기도 수원시 영통구 원천동 319-4번지 1층 2호","category":"기타 - 기계공구"},{"name":"스위트캔디","tel":"031-8013-7014","addr":"경기도 수원시 영통구 원천동 319-4번지 1층1칸","category":"의류 - 정장"},{"name":"클래스원(CLASS1)","tel":"031-202-7686","addr":"경기도 수원시 영통구 원천동 319-4번지 1층","category":"자동차정비 유지 - 자동차부품"}]},{"lat":"37.278291815","long":"127.04419558","items":[{"name":"두꺼비부대찌개 볶음","tel":"031-212-1813","addr":"경기도 수원시 영통구 원천동 18-12번지 2층","category":"일반휴게음식 - 일반한식"},{"name":"씨앤피","tel":"031-273-6179","addr":"경기도 수원시 영통구 원천동 18-12번지 지하1층","category":"용역 서비스 - 사무서비스"},{"name":"화산","tel":"031-304-1502","addr":"경기도 수원시 영통구 원천동 18-12번지 2층전체","category":"일반휴게음식 - 일반한식"}]},{"lat":"37.274290333","long":"127.04675281","items":[{"name":"두영유리","tel":"031-216-5656","addr":"경기도 수원시 영통구 원천동 72-33번지","category":"건축자재 - 유리"},{"name":"아주대 장군집","tel":"","addr":"경기도 수원시 영통구 원천동 72-33번지","category":"일반휴게음식 - 일반한식"}]},{"lat":"37.266291263","long":"127.0626329","items":[{"name":"드링크펍","tel":"031-217-4455","addr":"경기도 수원시 영통구 원천동 253-4번지 1층 101호","category":"일반휴게음식 - 서양음식"}]},{"lat":"37.277406328","long":"127.05077994","items":[{"name":"디셀프스튜디오","tel":"031-216-8417","addr":"경기도 수원시 영통구 원천동 577-6번지","category":"광학제품 - 사진관"}]},{"lat":"37.276955851","long":"127.05068946","items":[{"name":"디아너스커피","tel":"031-216-1672","addr":"경기도 수원시 영통구 원천동 580-8번지","category":"일반휴게음식 - 서양음식"},{"name":"오이엠디테일링","tel":"031-215-5580","addr":"경기도 수원시 영통구 원천동 580-8번지 1층","category":"자동차정비 유지 - 자동차부품"}]},{"lat":"37.275462617","long":"127.04411511","items":[{"name":"따숩","tel":"","addr":"경기도 수원시 영통구 원천동 27-10번지 1층","category":"일반휴게음식 - 일반한식"},{"name":"따숩","tel":"","addr":"경기도 수원시 영통구 원천동 27-10번지 1층","category":"일반휴게음식 - 일반한식"}]},{"lat":"37.266741365","long":"127.06344497","items":[{"name":"떡볶이박사","tel":"031-217-0119","addr":"경기도 수원시 영통구 원천동 258-18번지","category":"일반휴게음식 - 스넥"},{"name":"송학냉면&제이엠티푸드","tel":"","addr":"경기도 수원시 영통구 원천동 258-18번지 1,2층","category":"일반휴게음식 - 일반한식"}]},{"lat":"37.265543009","long":"127.06342146","items":[{"name":"뚜레쥬르 수원원천삼성","tel":"031-243-5070","addr":"경기도 수원시 영통구 원천동 256-1번지 1,2층","category":"음료식품 - 제과점"}]},{"lat":"37.274623053","long":"127.04850063","items":[{"name":"라이프스토리","tel":"031-234-6126","addr":"경기도 수원시 영통구 원천동 78-53번지 101호","category":"일반휴게음식 - 서양음식"}]},{"lat":"37.274930568","long":"127.04536635","items":[{"name":"라임건설중기","tel":"","addr":"경기도 수원시 영통구 원천동 79-19번지","category":"기타 - 기계공구"},{"name":"숯불직화꼬치구이(아주대점)","tel":"031-217-5792","addr":"경기도 수원시 영통구 원천동 79-19번지 1층","category":"일반휴게음식 - 일반한식"}]},{"lat":"37.275732917","long":"127.04413781","items":[{"name":"라화쿵푸 아주대점","tel":"","addr":"경기도 수원시 영통구 원천동 28-2번지 2층","category":"일반휴게음식 - 중국식"}]},{"lat":"37.275596417","long":"127.04783598","items":[{"name":"럭키마트","tel":"031-216-2188","addr":"경기도 수원시 영통구 원천동 77-77번지","category":"유통업 영리 - 슈퍼마켓"},{"name":"에스지(S.G)컴퓨터","tel":"031-211-1910","addr":"경기도 수원시 영통구 원천동 77-77번지","category":"사무통신 - 컴퓨터"},{"name":"영림문화사/원격지","tel":"031-215-3367","addr":"경기도 수원시 영통구 원천동 77-77번지 1층","category":"기타 - 기타 전문점"}]},{"lat":"37.277102253","long":"127.04478125","items":[{"name":"레알공신","tel":"","addr":"경기도 수원시 영통구 원천동 29-32번지 1층","category":"일반휴게음식 - 스넥"},{"name":"아주인쇄.복사","tel":"031-215-8160","addr":"경기도 수원시 영통구 원천동 29-32번지","category":"서적문구 - 문구용품"}]},{"lat":"37.263514877","long":"127.06499811","items":[{"name":"레이크골프 김기남","tel":"","addr":"경기도 수원시 영통구 원천동 337-74번지 406호","category":"레저업소 - 골프연습장"}]},{"lat":"37.278517138","long":"127.04400402","items":[{"name":"렌즈미아주대점","tel":"031-213-9009","addr":"경기도 수원시 영통구 원천동 18-2번지 아카데미빌딩 1층","category":"보건위생 - 안경"},{"name":"메가커피 수원아주대점","tel":"031-215-6762","addr":"경기도 수원시 영통구 원천동 18-2번지 아카데미빌딩 1층","category":"일반휴게음식 - 서양음식"},{"name":"별미스넥","tel":"031-231-9990","addr":"경기도 수원시 영통구 원천동 18-2번지","category":"일반휴게음식 - 스넥"},{"name":"인스타헤어 아주대점","tel":"","addr":"경기도 수원시 영통구 원천동 18-2번지 아카데미빌딩","category":"보건위생 - 미용원"},{"name":"카페커스","tel":"031-242-5566","addr":"경기도 수원시 영통구 원천동 18-2번지 3층전체","category":"일반휴게음식 - 서양음식"},{"name":"픽미픽미아이스 아주대점","tel":"031-215-0482","addr":"경기도 수원시 영통구 원천동 18-2번지 아카데미빌딩 1층","category":"유통업 영리 - 편 의 점"}]},{"lat":"37.275597771","long":"127.04411519","items":[{"name":"로꼬 미용실","tel":"031-216-4422","addr":"경기도 수원시 영통구 원천동 27-3번지 1층","category":"보건위생 - 미용원"},{"name":"스튜디오청춘","tel":"031-241-5572","addr":"경기도 수원시 영통구 원천동 27-3번지 2층","category":"광학제품 - 사진관"},{"name":"펜기획","tel":"031-211-4741","addr":"경기도 수원시 영통구 원천동 27-3번지","category":"서적문구 - 출판 및 인쇄물"}]},{"lat":"37.273567208","long":"127.05258149","items":[{"name":"로로샵 (LoLoshop)","tel":"","addr":"경기도 수원시 영통구 원천동 96-1번지 801호","category":"의류 - 정장"},{"name":"삼부자갈비","tel":"031-212-3805","addr":"경기도 수원시 영통구 원천동 96-1번지","category":"일반휴게음식 - 일반한식"},{"name":"이마트24 광교원천점","tel":"","addr":"경기도 수원시 영통구 원천동 96-1번지 삼부리치안 211호","category":"유통업 영리 - 편 의 점"}]},{"lat":"37.274795414","long":"127.04536628","items":[{"name":"로맨틱하우스공인중개사사무소","tel":"031-213-2453","addr":"경기도 수원시 영통구 원천동 79-3번지 화성상가 104호","category":"용역 서비스 - 부동산 중개·임대"},{"name":"무지개노래연습장","tel":"031-0000-0000","addr":"경기도 수원시 영통구 원천동 79-3번지 지층 1호","category":"레저업소 - 노 래 방"},{"name":"부자114(푸른경매)","tel":"02-1599-9905","addr":"경기도 수원시 영통구 원천동 79-3번지 302호","category":"회원제형태 - 기타4"},{"name":"앨리피플","tel":"031-0000-0000","addr":"경기도 수원시 영통구 원천동 79-3번지 107호","category":"일반휴게음식 - 일반한식"},{"name":"주막거리 전","tel":"","addr":"경기도 수원시 영통구 원천동 79-3번지 105호","category":"일반휴게음식 - 일반한식"},{"name":"패션사계절","tel":"031-293-7749","addr":"경기도 수원시 영통구 원천동 79-3번지 107호","category":"의류 - 기타의류"},{"name":"한국독서코칭교육센터","tel":"031-213-5421","addr":"경기도 수원시 영통구 원천동 79-3번지 302호","category":"학원 - 기타 교육기관"}]},{"lat":"37.269464396","long":"127.05955754","items":[{"name":"루마&쉴드런 CARZONE","tel":"070-4843-3528","addr":"경기도 수원시 영통구 원천동 462-5번지","category":"자동차정비 유지 - 자동차부품"},{"name":"오메가카인테리어","tel":"031-214-5290","addr":"경기도 수원시 영통구 원천동 462-5번지","category":"자동차정비 유지 - 자동차정비"}]},{"lat":"37.273983227","long":"127.04874829","items":[{"name":"룩스웰컴퍼니","tel":"031-256-6310","addr":"경기도 수원시 영통구 원천동 87번지 대원빌딩 4층","category":"신변잡화 - 기타잡화"},{"name":"법률사무소 이삭","tel":"031-212-0005","addr":"경기도 수원시 영통구 원천동 87번지 201호","category":"용역 서비스 - 법률회계서비스(개인)"},{"name":"법무사이재선사무소","tel":"031-215-2020","addr":"경기도 수원시 영통구 원천동 87번지 대원빌딩 1층","category":"용역 서비스 - 법률회계서비스(개인)"},{"name":"손님오시는날엔(한식식당)","tel":"031-217-9008","addr":"경기도 수원시 영통구 원천동 87번지 대원빌딩 103,104호","category":"일반휴게음식 - 스넥"},{"name":"정원속기사사무소","tel":"031-214-2460","addr":"경기도 수원시 영통구 원천동 87번지 대원빌딩 104호","category":"용역 서비스 - 사무서비스"}]},{"lat":"37.270157868","long":"127.06022325","items":[{"name":"르네","tel":"070-7799-1669","addr":"경기도 수원시 영통구 원천동 194-3번지 102호","category":"회원제형태 - 기타4"}]},{"lat":"37.266460638","long":"127.06613918","items":[{"name":"르노삼성엔제리너스수원점","tel":"031-211-1600","addr":"경기도 수원시 영통구 원천동 320-1번지 나동 1층 주삼성물산","category":"일반휴게음식 - 서양음식"},{"name":"르노삼성자동차(주) AUTO STATION 수원사업","tel":"031-218-3333","addr":"경기도 수원시 영통구 원천동 320-1번지","category":"자동차정비 유지 - 자동차정비"}]},{"lat":"37.270708238","long":"127.05866779","items":[{"name":"르노삼성자동차원천점","tel":"031-216-7878","addr":"경기도 수원시 영통구 원천동 198-6번지","category":"자동차정비 유지 - 자동차정비"}]},{"lat":"37.276487425","long":"127.05041855","items":[{"name":"리아쿠킹","tel":"","addr":"경기도 수원시 영통구 원천동 582-6번지 뉴에보 101호","category":"일반휴게음식 - 서양음식"},{"name":"마샬 브라이드(Marshall Bride)","tel":"","addr":"경기도 수원시 영통구 원천동 582-6번지 뉴에보 103호","category":"용역 서비스 - 혼례서비스"}]},{"lat":"37.273875178","long":"127.04855655","items":[{"name":"리홈쿠첸동수원서비스센터","tel":"031-217-2797","addr":"경기도 수원시 영통구 원천동 85-23번지 1층","category":"수리서비스 - 가정용품수리"},{"name":"법무사이상도사무소","tel":"031-217-2255","addr":"경기도 수원시 영통구 원천동 85-23번지","category":"용역 서비스 - 법률회계서비스(개인)"},{"name":"변호사 박영수 법률사무소","tel":"031-217-1555","addr":"경기도 수원시 영통구 원천동 85-23번지","category":"용역 서비스 - 법률회계서비스(개인)"},{"name":"변호사신성호법률사무소","tel":"031-217-1555","addr":"경기도 수원시 영통구 원천동 85-23번지","category":"용역 서비스 - 법률회계서비스(개인)"},{"name":"변호사한진희법률사무소","tel":"031-214-6464","addr":"경기도 수원시 영통구 원천동 85-23번지","category":"용역 서비스 - 법률회계서비스(개인)"},{"name":"카페410앤독","tel":"031-211-8232","addr":"경기도 수원시 영통구 원천동 85-23번지 서광빌딩 지하1층","category":"일반휴게음식 - 서양음식"}]},{"lat":"37.27393575","long":"127.05463376","items":[{"name":"린쌤영어교습소","tel":"070-4334-0505","addr":"경기도 수원시 영통구 원천동 607번지 201호","category":"학원 - 외국어학원"},{"name":"마루수산&치킨.피자.분식.호프","tel":"031-215-0600","addr":"경기도 수원시 영통구 원천동 607번지 인터프라자 202호","category":"일반휴게음식 - 일식·회집"},{"name":"만두언니네 부엌","tel":"","addr":"경기도 수원시 영통구 원천동 607번지 1층 104호","category":"일반휴게음식 - 일반한식"},{"name":"주식회사 에스비","tel":"031-214-0600","addr":"경기도 수원시 영통구 원천동 607번지 103층","category":"용역 서비스 - 종합용역"},{"name":"치킨마루(수원법원사거리)","tel":"031-214-0600","addr":"경기도 수원시 영통구 원천동 607번지 1층 103호","category":"일반휴게음식 - 스넥"}]},{"lat":"37.273845912","long":"127.05402486","items":[{"name":"린쌤영어학원","tel":"070-4334-0505","addr":"경기도 수원시 영통구 원천동 608-1번지 대산프라자 3층 302호","category":"학원 - 보습학원"},{"name":"법률사무소기산","tel":"031-212-1126","addr":"경기도 수원시 영통구 원천동 608-1번지 대산프라자 4층 404호","category":"용역 서비스 - 법률회계서비스(개인)"},{"name":"변호사박준영법률사무소","tel":"031-213-0113","addr":"경기도 수원시 영통구 원천동 608-1번지 대산프라자 301호","category":"용역 서비스 - 법률회계서비스(개인)"},{"name":"변호사장성근법률사무소","tel":"031-211-3311","addr":"경기도 수원시 영통구 원천동 608-1번지 대산프라자 302호","category":"용역 서비스 - 법률회계서비스(개인)"},{"name":"유유식당","tel":"031-202-6050","addr":"경기도 수원시 영통구 원천동 608-1번지 대산프라자 1층 106호","category":"일반휴게음식 - 일반한식"},{"name":"테리하우스/(주)케이씨엠코퍼레이션","tel":"031-214-0660","addr":"경기도 수원시 영통구 원천동 608-1번지 대산프라자 103~105호","category":"일반휴게음식 - 일반한식"}]},{"lat":"37.277100402","long":"127.04971987","items":[{"name":"마라나타","tel":"031-215-4388","addr":"경기도 수원시 영통구 원천동 582-1번지 1층","category":"일반휴게음식 - 서양음식"}]},{"lat":"37.266929413","long":"127.06568862","items":[{"name":"마스터골프","tel":"070-8260-3322","addr":"경기도 수원시 영통구 원천동 322-7번지 2층","category":"레져용품 - 골프용품 전문점"},{"name":"엔카플레이(스미스클럽수원)","tel":"031-1566-2374","addr":"경기도 수원시 영통구 원천동 322-7번지 1층","category":"자동차정비 유지 - 자동차부품"}]},{"lat":"37.26682142","long":"127.0654405","items":[{"name":"마이카","tel":"031-214-8881","addr":"경기도 수원시 영통구 원천동 320-6번지","category":"자동차정비 유지 - 자동차부품"}]},{"lat":"37.277624861","long":"127.04474772","items":[{"name":"막창꾼","tel":"031-217-1979","addr":"경기도 수원시 영통구 원천동 29-53번지 1층","category":"일반휴게음식 - 일반한식"}]},{"lat":"37.274930401","long":"127.04582863","items":[{"name":"만개호떡","tel":"031-214-5355","addr":"경기도 수원시 영통구 원천동 72-82번지 1층 101호","category":"일반휴게음식 - 일반한식"},{"name":"씨유원천주공점","tel":"031-742-0387","addr":"경기도 수원시 영통구 원천동 72-82번지 1층 103호","category":"유통업 영리 - 편 의 점"},{"name":"이솝베이커리","tel":"031-217-1213","addr":"경기도 수원시 영통구 원천동 72-82번지","category":"음료식품 - 제과점"},{"name":"코랜드치킨","tel":"031-216-8965","addr":"경기도 수원시 영통구 원천동 72-82번지","category":"일반휴게음식 - 주점"}]},{"lat":"37.274129644","long":"127.06374404","items":[{"name":"매원초등학교","tel":"070-4496-4100","addr":"경기도 수원시 영통구 원천동 595번지","category":"학원 - 초중고교육기관"}]},{"lat":"37.274461863","long":"127.04583964","items":[{"name":"매일영어수원지사","tel":"031-212-0502","addr":"경기도 수원시 영통구 원천동 79-5번지","category":"서적문구 - 교육용테이프판매"},{"name":"재재안경콘텍트","tel":"031-215-2295","addr":"경기도 수원시 영통구 원천동 79-5번지 1층","category":"보건위생 - 안경"}]},{"lat":"37.277877116","long":"127.04483806","items":[{"name":"맥스컴퓨터","tel":"031-211-1130","addr":"경기도 수원시 영통구 원천동 29-59","category":"사무통신 - 컴퓨터"}]},{"lat":"37.278318564","long":"127.04499616","items":[{"name":"맥주밤","tel":"031-211-3339","addr":"경기도 수원시 영통구 원천동 30-61번지","category":"일반휴게음식 - 주점"}]},{"lat":"37.277181548","long":"127.04958461","items":[{"name":"메종","tel":"031-216-8227","addr":"경기도 수원시 영통구 원천동 582번지 1층","category":"일반휴게음식 - 일반한식"}]},{"lat":"37.277931021","long":"127.04527784","items":[{"name":"멘야고코로","tel":"031-215-1259","addr":"경기도 수원시 영통구 원천동 30-66번지 1층","category":"일반휴게음식 - 일식·회집"},{"name":"숯불소갈비전문점소간지","tel":"031-214-3066","addr":"경기도 수원시 영통구 원천동 30-66번지 지하1층","category":"일반휴게음식 - 일반한식"}]},{"lat":"37.273929758","long":"127.04719232","items":[{"name":"명당슈퍼","tel":"031-215-1356","addr":"경기도 수원시 영통구 원천동 76-1번지","category":"유통업 영리 - 슈퍼마켓"},{"name":"에이스스튜디오","tel":"031-212-0470","addr":"경기도 수원시 영통구 원천동 76-1번지","category":"광학제품 - 사진관"}]},{"lat":"37.267463002","long":"127.06183338","items":[{"name":"명성사무기","tel":"031-222-2118","addr":"경기도 수원시 영통구 원천동 237번지 1층","category":"사무통신 - 사무용 OA기기"}]},{"lat":"37.267237103","long":"127.06310715","items":[{"name":"명품세탁","tel":"031-211-3342","addr":"경기도 수원시 영통구 원천동 259-6번지 101호","category":"수리서비스 - 세탁소"},{"name":"필노래연습장","tel":"031-211-2202","addr":"경기도 수원시 영통구 원천동 259-6번지 2층","category":"레저업소 - 노 래 방"}]},{"lat":"37.276156242","long":"127.04458905","items":[{"name":"모던살롱(Modern salon)","tel":"031-211-9890","addr":"경기도 수원시 영통구 원천동 29-15번지 102호","category":"보건위생 - 미용원"},{"name":"엉클키친","tel":"","addr":"경기도 수원시 영통구 원천동 29-15번지 1층 103호","category":"일반휴게음식 - 서양음식"},{"name":"유메야 아주대점","tel":"070-4649-1101","addr":"경기도 수원시 영통구 원천동 29-15번지 2층","category":"일반휴게음식 - 서양음식"},{"name":"육회한 언니","tel":"031-211-2228","addr":"경기도 수원시 영통구 원천동 29-15번지 1층 101호","category":"일반휴게음식 - 일반한식"},{"name":"태후사랑","tel":"031-213-5929","addr":"경기도 수원시 영통구 원천동 29-15번지","category":"보건위생 - 화장품"}]},{"lat":"37.266990186","long":"127.06988254","items":[{"name":"모던인테리어","tel":"031-253-7321","addr":"경기도 수원시 영통구 원천동 296-6번지 아크로파크 104동 504호","category":"가구 - 기타가구"},{"name":"바네사케이(vanessa k)","tel":"070-8819-1358","addr":"경기도 수원시 영통구 원천동 296-6번지 수원영통아크로파크 104동 604호","category":"신변잡화 - 기타잡화"},{"name":"웰니스캔들(DIY)","tel":"031-204-2563","addr":"경기도 수원시 영통구 원천동 296-6번지 아크로파크 104동 803호","category":"회원제형태 - 기타4"}]},{"lat":"37.26977048","long":"127.06011021","items":[{"name":"모던전자","tel":"031-214-7270","addr":"경기도 수원시 영통구 원천동 462-1번지","category":"수리서비스 - 가정용품수리"}]},{"lat":"37.261291526","long":"127.06066745","items":[{"name":"몬테로사","tel":"031-214-4014","addr":"경기도 수원시 영통구 원천동 352-9번지 1층","category":"일반휴게음식 - 서양음식"},{"name":"세븐일레븐수원삼성센트럴파크점","tel":"","addr":"경기도 수원시 영통구 원천동 352-9","category":"유통업 영리 - 편 의 점"},{"name":"세븐일레븐수원삼성센트럴파크점","tel":"031-1577-0711","addr":"경기도 수원시 영통구 원천동 352-9번지 102호","category":"유통업 영리 - 편 의 점"}]},{"lat":"37.258820437","long":"127.0651408","items":[{"name":"무봉리토종순대","tel":"031-215-8678","addr":"경기도 수원시 영통구 원천동 416-1번지","category":"일반휴게음식 - 일반한식"}]},{"lat":"37.275372104","long":"127.0452764","items":[{"name":"무제","tel":"","addr":"경기도 수원시 영통구 원천동 32-18번지","category":"일반휴게음식 - 주점"},{"name":"미클럽헤어","tel":"031-214-6562","addr":"경기도 수원시 영통구 원천동 32-18번지 102호","category":"보건위생 - 미용원"},{"name":"일호선","tel":"","addr":"경기도 수원시 영통구 원천동 32-18번지 1층 101호","category":"일반휴게음식 - 일반한식"},{"name":"작은술집","tel":"070-8867-2937","addr":"경기도 수원시 영통구 원천동 32-18번지 103호","category":"일반휴게음식 - 일반한식"}]},{"lat":"37.278544063","long":"127.04430848","items":[{"name":"무한통삼 아주대점","tel":"031-211-9293","addr":"경기도 수원시 영통구 원천동 18-16번지 1층","category":"일반휴게음식 - 일반한식"},{"name":"비바 노래연습장","tel":"031-212-2285","addr":"경기도 수원시 영통구 원천동 18-16번지 지하1층","category":"레저업소 - 노 래 방"},{"name":"쿠이시","tel":"031-271-4653","addr":"경기도 수원시 영통구 원천동 18-16번지 2층","category":"일반휴게음식 - 주점"}]},{"lat":"37.260155318","long":"127.06250405","items":[{"name":"문예공간","tel":"031-213-5415","addr":"경기도 수원시 영통구 원천동 370-1번지","category":"문화.취미 - 화방·표구점"}]},{"lat":"37.277289782","long":"127.04930279","items":[{"name":"물고기자리","tel":"031-214-0087","addr":"경기도 수원시 영통구 원천동 576-3번지 101호","category":"일반휴게음식 - 일반한식"},{"name":"양평해장국","tel":"031-213-6100","addr":"경기도 수원시 영통구 원천동 576-3번지 105호 103 104","category":"일반휴게음식 - 일반한식"}]},{"lat":"37.267354277","long":"127.06302833","items":[{"name":"뮤노래연습장","tel":"031-211-6001","addr":"경기도 수원시 영통구 원천동 259-5번지","category":"레저업소 - 노 래 방"},{"name":"삼국지","tel":"31-216-5552","addr":"경기도 수원시 영통구 원천동 259-5번지","category":"일반휴게음식 - 일반한식"},{"name":"유니베라","tel":"031-216-6626","addr":"경기도 수원시 영통구 원천동 259-5번지 성훈빌딩 302호","category":"건강식품 - 기타건강식품"}]},{"lat":"37.276516525","long":"127.04495006","items":[{"name":"미강","tel":"031-212-5603","addr":"경기도 수원시 영통구 원천동 29-38번지 1층","category":"일반휴게음식 - 일반한식"}]},{"lat":"37.260569961","long":"127.06216619","items":[{"name":"미니스톱 원천타운점","tel":"031-1577-9621","addr":"경기도 수원시 영통구 원천동 353-18번지","category":"유통업 영리 - 편 의 점"}]},{"lat":"37.277982939","long":"127.05089306","items":[{"name":"미라클사운드","tel":"031-273-8890","addr":"경기도 수원시 영통구 원천동 575-3번지","category":"자동차정비 유지 - 자동차부품"}]},{"lat":"37.277183599","long":"127.04405967","items":[{"name":"미쳐버린파닭(아주대점)","tel":"031-216-9245","addr":"경기도 수원시 영통구 원천동 25-13번지","category":"일반휴게음식 - 스넥"},{"name":"유니네일","tel":"031-212-6616","addr":"경기도 수원시 영통구 원천동 25-13번지 지하1층","category":"보건위생 - 피부미용실"}]},{"lat":"37.269933613","long":"127.05811478","items":[{"name":"민들레다락방","tel":"","addr":"경기도 수원시 영통구 원천동 209-59번지","category":"신변잡화 - 기타잡화"}]},{"lat":"37.27531729","long":"127.04732844","items":[{"name":"바비뽀뽀","tel":"070-7395-7375","addr":"경기도 수원시 영통구 원천동 72-31번지 상가 1층 101호","category":"의류 - 정장"}]},{"lat":"37.26640842","long":"127.0625879","items":[{"name":"박군치킨","tel":"031-213-8830","addr":"경기도 수원시 영통구 원천동 253-14번지 1층","category":"일반휴게음식 - 스넥"},{"name":"홍구등갈비","tel":"031-215-7153","addr":"경기도 수원시 영통구 원천동 253-14번지","category":"일반휴게음식 - 일반한식"}]},{"lat":"37.259741166","long":"127.06186118","items":[{"name":"배감독의 베이스볼아카데미","tel":"070-4134-3546","addr":"경기도 수원시 영통구 원천동 377-1번지 석포빌딩 3층 305호","category":"레저업소 - 기타레져업소"},{"name":"주식회사 에스시알엠","tel":"031-000-0000","addr":"경기도 수원시 영통구 원천동 377-1번지 석포빌딩 105호","category":"자동차정비 유지 - 자동차정비"},{"name":"주식회사아주엔비씨/원격지","tel":"031-212-6760","addr":"경기도 수원시 영통구 원천동 377-1번지 석포빌딩 302호","category":"기타 - 기타 전문점"}]},{"lat":"37.274767756","long":"127.04708007","items":[{"name":"배달5삼겹아주대점","tel":"031-211-8592","addr":"경기도 수원시 영통구 원천동 72-11번지 1층","category":"일반휴게음식 - 일반한식"},{"name":"티파니노래연습장","tel":"031-215-1648","addr":"경기도 수원시 영통구 원천동 72-11번지","category":"레저업소 - 노 래 방"}]},{"lat":"37.273595118","long":"127.05043928","items":[{"name":"법률사무소 고미","tel":"031-216-7057","addr":"경기도 수원시 영통구 원천동 90-25번지 301호","category":"용역 서비스 - 법률회계서비스(개인)"},{"name":"변호사 오도환법률사무소","tel":"031-211-7307","addr":"경기도 수원시 영통구 원천동 90-25번지 3층","category":"용역 서비스 - 법률회계서비스(개인)"},{"name":"변호사임용호법률사무소","tel":"031-215-9377","addr":"경기도 수원시 영통구 원천동 90-25번지 2층","category":"용역 서비스 - 법률회계서비스(개인)"},{"name":"변호사한두환법률사무소","tel":"031-214-5993","addr":"경기도 수원시 영통구 원천동 90-25번지 2층","category":"용역 서비스 - 법률회계서비스(개인)"},{"name":"이레상사","tel":"031-273-7796","addr":"경기도 수원시 영통구 원천동 90-25번지 1층","category":"자동차정비 유지 - 카인테리어"},{"name":"이재열 법률사무소","tel":"031-216-7057","addr":"경기도 수원시 영통구 원천동 90-25번지 덕임빌딩 3층","category":"용역 서비스 - 법률회계서비스(개인)"},{"name":"카플러스","tel":"031-212-6968","addr":"경기도 수원시 영통구 원천동 90-25번지 1층","category":"자동차정비 유지 - 자동차부품"}]},{"lat":"37.274595644","long":"127.04947026","items":[{"name":"법률사무소 관천","tel":"031-213-2005","addr":"경기도 수원시 영통구 원천동 83-12번지 화산빌딩 4층 403호","category":"용역 서비스 - 법률회계서비스(개인)"},{"name":"법무법인 도움","tel":"031-211-3688","addr":"경기도 수원시 영통구 원천동 83-12번지 화산빌딩 304호","category":"용역 서비스 - 법률회계서비스(법인)"},{"name":"법무사원복동사무소","tel":"031-214-6655","addr":"경기도 수원시 영통구 원천동 83-12번지 화산빌딩 1층 104호","category":"용역 서비스 - 법률회계서비스(개인)"},{"name":"변호사유대성법률사무소","tel":"031-212-8151","addr":"경기도 수원시 영통구 원천동 83-12번지 화산빌딩 3층 301호","category":"용역 서비스 - 법률회계서비스(개인)"},{"name":"카페마들렌","tel":"031-214-7002","addr":"경기도 수원시 영통구 원천동 83-12번지 화산빌딩 101호","category":"일반휴게음식 - 서양음식"},{"name":"황영옥속기사무실","tel":"031-213-6497","addr":"경기도 수원시 영통구 원천동 83-12번지 화산빌딩 103호","category":"용역 서비스 - 사무서비스"}]},{"lat":"37.273767107","long":"127.04842119","items":[{"name":"법률사무소 글로리 강종훈 변호사","tel":"031-216-7020","addr":"경기도 수원시 영통구 원천동 85-22번지 대성빌딩 2층 201호","category":"용역 서비스 - 법률회계서비스(개인)"},{"name":"법무사김경곤","tel":"031-211-0040","addr":"경기도 수원시 영통구 원천동 85-22번지 대성빌딩 1층 101호","category":"용역 서비스 - 법률회계서비스(개인)"},{"name":"법무사김의식사무소","tel":"031-211-5533","addr":"경기도 수원시 영통구 원천동 85-22번지 대성빌딩 101호","category":"용역 서비스 - 법률회계서비스(개인)"},{"name":"법무사박동한사무소","tel":"031-211-5665","addr":"경기도 수원시 영통구 원천동 85-22번지","category":"용역 서비스 - 법률회계서비스(개인)"},{"name":"변호사김영일법률사무소","tel":"031-214-3579","addr":"경기도 수원시 영통구 원천동 85-22번지 대성빌딩 201호","category":"용역 서비스 - 법률회계서비스(개인)"},{"name":"한솥식당","tel":"031-212-3412","addr":"경기도 수원시 영통구 원천동 85-22번지","category":"일반휴게음식 - 일반한식"}]},{"lat":"37.274513952","long":"127.05096979","items":[{"name":"법률사무소 새수원","tel":"031-214-9081","addr":"경기도 수원시 영통구 원천동 617-5번지 1층","category":"용역 서비스 - 법률회계서비스(개인)"}]},{"lat":"37.276235047","long":"127.0506439","items":[{"name":"법률사무소 율벗","tel":"031-548-2906","addr":"경기도 수원시 영통구 원천동 582-8번지 상가동 101호","category":"용역 서비스 - 법률회계서비스(개인)"}]},{"lat":"37.276622489","long":"127.05064414","items":[{"name":"법률사무소 정도","tel":"031-546-8254","addr":"경기도 수원시 영통구 원천동 580-6번지 1층","category":"용역 서비스 - 법률회계서비스(개인)"},{"name":"유한책임회사투앤티띵스 (twenty things)","tel":"031-233-2057","addr":"경기도 수원시 영통구 원천동 580-6번지 지하1층 1호","category":"가구 - 일반가구"}]},{"lat":"37.274351854","long":"127.05075546","items":[{"name":"법률사무소 채움","tel":"031-548-0037","addr":"경기도 수원시 영통구 원천동 617-4번지 1층 102호","category":"용역 서비스 - 법률회계서비스(개인)"},{"name":"변호사 배수진 법률사무소","tel":"031-212-0226","addr":"경기도 수원시 영통구 원천동 617-4번지 102호","category":"용역 서비스 - 법률회계서비스(개인)"},{"name":"변호사김윤진법률사무소","tel":"031-546-8734","addr":"경기도 수원시 영통구 원천동 617-4번지 102호","category":"용역 서비스 - 법률회계서비스(개인)"},{"name":"씨유광교원천점","tel":"031-898-6566","addr":"경기도 수원시 영통구 원천동 617-4번지","category":"유통업 영리 - 편 의 점"}]},{"lat":"37.274044099","long":"127.05411519","items":[{"name":"법무법인 고운","tel":"031-000-0000","addr":"경기도 수원시 영통구 원천동 608번지","category":"용역 서비스 - 법률회계서비스(법인)"},{"name":"변호사 최효재 법률사무소","tel":"031-302-5522","addr":"경기도 수원시 영통구 원천동 608번지 3동 8층","category":"용역 서비스 - 법률회계서비스(개인)"},{"name":"세무회계 고운","tel":"031-302-5522","addr":"경기도 수원시 영통구 원천동 608번지 2층","category":"용역 서비스 - 법률회계서비스(개인)"},{"name":"씨푸드락","tel":"031-212-9357","addr":"경기도 수원시 영통구 원천동 608번지","category":"일반휴게음식 - 일반한식"}]},{"lat":"37.27390184","long":"127.04950366","items":[{"name":"법무법인로쿨","tel":"031-216-3700","addr":"경기도 수원시 영통구 원천동 84-22번지 법조빌딩 3층","category":"용역 서비스 - 법률회계서비스(법인)"},{"name":"법무사윤광섭사무소","tel":"031-217-3366","addr":"경기도 수원시 영통구 원천동 84-22번지 법조빌딩 103호","category":"용역 서비스 - 법률회계서비스(개인)"},{"name":"변호사민학기법률사무소","tel":"031-217-6655","addr":"경기도 수원시 영통구 원천동 84-22번지 법조빌딩 102호","category":"용역 서비스 - 법률회계서비스(개인)"},{"name":"하오산 국가공인 외국어번역행정사사무소","tel":"031-207-0213","addr":"경기도 수원시 영통구 원천동 84-22번지 법조빌딩 103호","category":"용역 서비스 - 법률회계서비스(개인)"}]},{"lat":"37.274126932","long":"127.04992097","items":[{"name":"법무사 김성현사무소","tel":"031-215-6333","addr":"경기도 수원시 영통구 원천동 619-3번지 지1층 B2호","category":"용역 서비스 - 법률회계서비스(개인)"},{"name":"오퍼스","tel":"031-213-3513","addr":"경기도 수원시 영통구 원천동 619-3번지 지하1층 101호","category":"일반휴게음식 - 서양음식"}]},{"lat":"37.274325194","long":"127.0498309","items":[{"name":"법무사권영택사무소","tel":"031-211-1331","addr":"경기도 수원시 영통구 원천동 85-55민원빌딩","category":"용역 서비스 - 법률회계서비스(개인)"}]},{"lat":"37.275181711","long":"127.04844459","items":[{"name":"법무사김욱태사무소","tel":"031-217-3700","addr":"경기도 수원시 영통구 원천동 78-87번지","category":"용역 서비스 - 법률회계서비스(개인)"},{"name":"법무사변원섭사무소","tel":"031-211-0432","addr":"경기도 수원시 영통구 원천동 78-87번지 1층","category":"용역 서비스 - 법률회계서비스(개인)"}]},{"lat":"37.274406945","long":"127.0481397","items":[{"name":"법무사김정구사무소","tel":"02-1566-0747","addr":"경기도 수원시 영통구 원천동 78-40번지","category":"용역 서비스 - 법률회계서비스(개인)"},{"name":"삼정","tel":"031-214-0975","addr":"경기도 수원시 영통구 원천동 78-40번지 1층","category":"일반휴게음식 - 일반한식"},{"name":"수원통보쌈","tel":"031-215-3023","addr":"경기도 수원시 영통구 원천동 78-40번지 1층 102호","category":"일반휴게음식 - 일반한식"}]},{"lat":"37.27512682","long":"127.050553","items":[{"name":"법무사김형진사무소","tel":"031-211-1669","addr":"경기도 수원시 영통구 원천동 84-1번지 전원빌딩 107호","category":"용역 서비스 - 법률회계서비스(개인)"},{"name":"법무사선병철사무소","tel":"031-211-2000","addr":"경기도 수원시 영통구 원천동 84-1번지 전원빌딩 112호","category":"용역 서비스 - 법률회계서비스(개인)"},{"name":"법무사오영철사무소","tel":"031-211-2552","addr":"경기도 수원시 영통구 원천동 84-1번지 전원빌딩 지하층 3호","category":"용역 서비스 - 법률회계서비스(개인)"},{"name":"법무사윤훈열사무소","tel":"031-213-0067","addr":"경기도 수원시 영통구 원천동 84-1번지 전원빌딩 106호","category":"용역 서비스 - 법률회계서비스(개인)"},{"name":"엔터로법무사사무소","tel":"031-217-1759","addr":"경기도 수원시 영통구 원천동 84-1번지 전원빌딩 109호","category":"용역 서비스 - 법률회계서비스(개인)"},{"name":"이상후법무사","tel":"031-211-2345","addr":"경기도 수원시 영통구 원천동 84-1번지 전원빌딩 105호","category":"용역 서비스 - 법률회계서비스(개인)"},{"name":"행정사 이정은 사무소","tel":"031-217-1759","addr":"경기도 수원시 영통구 원천동 84-1번지 전원빌딩 109호","category":"용역 서비스 - 법률회계서비스(개인)"}]},{"lat":"37.274903598","long":"127.04519721","items":[{"name":"법무사박종석사무소","tel":"031-217-5822","addr":"경기도 수원시 영통구 원천동 79-21번지","category":"용역 서비스 - 법률회계서비스(개인)"},{"name":"법무사최균희사무소","tel":"031-217-2631","addr":"경기도 수원시 영통구 원천동 79-21번지","category":"용역 서비스 - 법률회계서비스(개인)"},{"name":"벨에스테틱","tel":"070-4696-7930","addr":"경기도 수원시 영통구 원천동 79-21번지 용진빌딩 302호","category":"가구 - 일반가구"}]},{"lat":"37.274820826","long":"127.04966208","items":[{"name":"법무사박화성","tel":"031-211-0432","addr":"경기도 수원시 영통구 원천동 83-18 혜성빌딩5층","category":"용역 서비스 - 법률회계서비스(개인)"},{"name":"변호사이상훈법률사무소","tel":"031-214-5600","addr":"경기도 수원시 영통구 원천동 83-18번지 혜성빌딩","category":"용역 서비스 - 법률회계서비스(개인)"}]},{"lat":"37.274928716","long":"127.05024845","items":[{"name":"법무사윤보영사무소","tel":"031-217-4646","addr":"경기도 수원시 영통구 원천동 84-3번지","category":"용역 서비스 - 법률회계서비스(개인)"},{"name":"변호사장미애법률사무소","tel":"031-212-8100","addr":"경기도 수원시 영통구 원천동 84-3번지 제일","category":"용역 서비스 - 법률회계서비스(개인)"},{"name":"참새와꿀배","tel":"031-212-7676","addr":"경기도 수원시 영통구 원천동 84-3번지 지하1층","category":"일반휴게음식 - 일반한식"}]},{"lat":"37.278489569","long":"127.04552621","items":[{"name":"법무사이동화사무소","tel":"031-213-0390","addr":"경기도 수원시 영통구 원천동 37-7번지 삼아빌딩 3층 301호","category":"용역 서비스 - 법률회계서비스(개인)"},{"name":"비담비 아주대점","tel":"031-216-3450","addr":"경기도 수원시 영통구 원천동 37-7번지 삼아빌딩 303호","category":"일반휴게음식 - 일반한식"},{"name":"손두부가","tel":"031-215-2089","addr":"경기도 수원시 영통구 원천동 37-7번지 삼아빌딩 1층","category":"일반휴게음식 - 일반한식"},{"name":"아주의료기","tel":"031-216-5685","addr":"경기도 수원시 영통구 원천동 37-7번지","category":"보건위생 - 의료용품"},{"name":"청운고시텔","tel":"031-211-0856","addr":"경기도 수원시 영통구 원천동 37-7번지 삼아빌딩 3층","category":"학원 - 독서실"},{"name":"탕화쿵푸마라탕","tel":"031-747-8874","addr":"경기도 수원시 영통구 원천동 37-7번지 삼아빌딩 301호","category":"일반휴게음식 - 중국식"},{"name":"파티스리듀쿠플","tel":"031-215-3011","addr":"경기도 수원시 영통구 원천동 37-7번지 1층","category":"음료식품 - 제과점"},{"name":"하이장","tel":"031-216-5239","addr":"경기도 수원시 영통구 원천동 37-7번지 삼아빌딩 2층","category":"일반휴게음식 - 일반한식"}]},{"lat":"37.274352956","long":"127.04794799","items":[{"name":"법무사이창렬사무소","tel":"031-213-2022","addr":"경기도 수원시 영통구 원천동 78-38번지 1층","category":"용역 서비스 - 법률회계서비스(개인)"},{"name":"주하카페","tel":"031-8015-1691","addr":"경기도 수원시 영통구 원천동 78-38번지 1층","category":"일반휴게음식 - 서양음식"}]},{"lat":"37.273848277","long":"127.04821829","items":[{"name":"법무사허윤성사무소","tel":"031-211-6060","addr":"경기도 수원시 영통구 원천동 85-21번지","category":"용역 서비스 - 법률회계서비스(개인)"},{"name":"변호사소윤수법률사무소","tel":"031-217-8181","addr":"경기도 수원시 영통구 원천동 85-21번지 안전빌딩 3층","category":"용역 서비스 - 법률회계서비스(개인)"}]},{"lat":"37.275541315","long":"127.05049688","items":[{"name":"법무사홍대용사무소","tel":"031-211-8701","addr":"경기도 수원시 영통구 원천동 78-85번지","category":"용역 서비스 - 법률회계서비스(개인)"},{"name":"변호사전성철사무소","tel":"031-216-8300","addr":"경기도 수원시 영통구 원천동 78-85번지 5층","category":"용역 서비스 - 법률회계서비스(개인)"},{"name":"이진상법무사사무소","tel":"031-212-8160","addr":"경기도 수원시 영통구 원천동 78-85번지","category":"용역 서비스 - 법률회계서비스(개인)"}]},{"lat":"37.277877136","long":"127.04478168","items":[{"name":"베트남노상식당 아주대점","tel":"031-215-5322","addr":"경기도 수원시 영통구 원천동 29-52번지 1층","category":"일반휴게음식 - 서양음식"},{"name":"진이고시원","tel":"031-548-0506","addr":"경기도 수원시 영통구 원천동 29-52, 29-59","category":"학원 - 독서실"}]},{"lat":"37.261128024","long":"127.0633052","items":[{"name":"베트빌","tel":"031-214-0345","addr":"경기도 수원시 영통구 원천동 362-15번지 정명물산 B동 403호","category":"보건위생 - 의료용품"},{"name":"제스텍이에스디","tel":"031-211-4742","addr":"경기도 수원시 영통구 원천동 362-15번지 2층","category":"전기제품 - 기타전기제품"}]},{"lat":"37.273874658","long":"127.04988699","items":[{"name":"변호사 이해기 법률사무소","tel":"031-305-0002","addr":"경기도 수원시 영통구 원천동 90-14번지 3층","category":"용역 서비스 - 법률회계서비스(개인)"},{"name":"변호사배정완사무소","tel":"031-211-3733","addr":"경기도 수원시 영통구 원천동 90-14번지 미송빌딩 5층","category":"용역 서비스 - 법률회계서비스(개인)"},{"name":"변호사서영준법률사무소","tel":"031-211-3733","addr":"경기도 수원시 영통구 원천동 90-14번지 미송빌딩 5층","category":"용역 서비스 - 법률회계서비스(개인)"},{"name":"변호사차명심법률사무소","tel":"031-217-6177","addr":"경기도 수원시 영통구 원천동 90-14번지 미송빌딩","category":"용역 서비스 - 법률회계서비스(개인)"},{"name":"변호사최선호법률사무소","tel":"031-217-0123","addr":"경기도 수원시 영통구 원천동 90-14번지 마송빌딩 3층","category":"용역 서비스 - 법률회계서비스(개인)"},{"name":"엔터로법무사사무소","tel":"031-214-0239","addr":"경기도 수원시 영통구 원천동 90-14번지 미송빌딩 102호","category":"용역 서비스 - 법률회계서비스(개인)"},{"name":"중앙행정 행정사사무소","tel":"031-212-8588","addr":"경기도 수원시 영통구 원천동 90-14번지 미송빌딩 5층 502호","category":"용역 서비스 - 법률회계서비스(개인)"},{"name":"행정심판전문센터","tel":"031-216-6106","addr":"경기도 수원시 영통구 원천동 90-14번지 마송빌딩 301호","category":"용역 서비스 - 사무서비스"}]},{"lat":"37.27435281","long":"127.04833134","items":[{"name":"변호사김현수법률사무소","tel":"031-217-7351","addr":"경기도 수원시 영통구 원천동 78-55번지","category":"용역 서비스 - 법률회계서비스(개인)"}]},{"lat":"37.274487486","long":"127.0495604","items":[{"name":"변호사노제설법률사무소","tel":"031-214-9900","addr":"경기도 수원시 영통구 원천동 85-3 화산빌딩 302","category":"용역 서비스 - 법률회계서비스(개인)"}]},{"lat":"37.27363058","long":"127.05185994","items":[{"name":"변호사박국병법률사무소","tel":"031-211-8073","addr":"경기도 수원시 영통구 원천동 92-9번지 삼원빌딩 4층","category":"용역 서비스 - 법률회계서비스(개인)"},{"name":"수원에넥스","tel":"031-214-7602","addr":"경기도 수원시 영통구 원천동 92-9번지 삼원빌딩 1층","category":"가구 - 기타가구"}]},{"lat":"37.274072366","long":"127.05117245","items":[{"name":"변호사조재평법률사무소","tel":"031-216-0264","addr":"경기도 수원시 영통구 원천동 615-5번지 101호","category":"용역 서비스 - 법률회계서비스(개인)"},{"name":"키온 (KEY ON)","tel":"","addr":"경기도 수원시 영통구 원천동 615-5번지 1층","category":"자동차정비 유지 - 자동차부품"}]},{"lat":"37.266740548","long":"127.06502331","items":[{"name":"보가","tel":"031-211-9292","addr":"경기도 수원시 영통구 원천동 326-4번지","category":"일반휴게음식 - 일반한식"}]},{"lat":"37.276153799","long":"127.05102721","items":[{"name":"보헤미안사람들","tel":"070-4799-7004","addr":"경기도 수원시 영통구 원천동 579-3번지 101호","category":"일반휴게음식 - 서양음식"},{"name":"수원블랙박스","tel":"031-216-8811","addr":"경기도 수원시 영통구 원천동 579-3번지 1층","category":"자동차정비 유지 - 자동차부품"}]},{"lat":"37.277073942","long":"127.04825405","items":[{"name":"본가영양탕","tel":"031-213-2500","addr":"경기도 수원시 영통구 원천동 66-7번지","category":"일반휴게음식 - 일반한식"}]},{"lat":"37.265597957","long":"127.06166282","items":[{"name":"볼보서비스","tel":"031-211-8575","addr":"경기도 수원시 영통구 원천동 245-1번지","category":"자동차정비 유지 - 자동차정비"}]},{"lat":"37.27901249","long":"127.04461318","items":[{"name":"봉추찜닭","tel":"031-211-6981","addr":"경기도 수원시 영통구 원천동 16-2번지 3층 외2필지동문빌딩","category":"일반휴게음식 - 일반한식"}]},{"lat":"37.266458483","long":"127.07005118","items":[{"name":"부림가스","tel":"031-202-5566","addr":"경기도 수원시 영통구 원천동 300-2번지","category":"연료판매점 - LPG 취급점"}]},{"lat":"37.266461902","long":"127.06372659","items":[{"name":"부영집","tel":"031-211-4384","addr":"경기도 수원시 영통구 원천동 257-15번지","category":"일반휴게음식 - 일반한식"}]},{"lat":"37.277985524","long":"127.04402628","items":[{"name":"불로만숯불바베큐","tel":"031-217-9292","addr":"경기도 수원시 영통구 원천동 18-13번지","category":"일반휴게음식 - 주점"},{"name":"스플래쉬","tel":"031-216-4880","addr":"경기도 수원시 영통구 원천동 18-13번지 2층","category":"일반휴게음식 - 일반한식"},{"name":"아주캠프","tel":"031-225-2300","addr":"경기도 수원시 영통구 원천동 18-13번지 2층","category":"일반휴게음식 - 일반한식"},{"name":"오뚜기","tel":"031-215-6428","addr":"경기도 수원시 영통구 원천동 18-13번지 지하층","category":"일반휴게음식 - 일반한식"}]},{"lat":"37.274623161","long":"127.04821876","items":[{"name":"붕붕모터스","tel":"031-548-0767","addr":"경기도 수원시 영통구 원천동 78-42번지","category":"자동차정비 유지 - 자동차정비"}]},{"lat":"37.274099658","long":"127.0505298","items":[{"name":"브라더스펫","tel":"031-214-4443","addr":"경기도 수원시 영통구 원천동 615-1번지 지하 상가","category":"문화.취미 - 애완동물"},{"name":"요미독(수원점)","tel":"031-214-4443","addr":"경기도 수원시 영통구 원천동 615-1번지","category":"문화.취미 - 애완동물"}]},{"lat":"37.278262317","long":"127.05074666","items":[{"name":"브솔 협동조합","tel":"070-7018-1401","addr":"경기도 수원시 영통구 원천동 573-6번지 101호","category":"보건위생 - 기타대인서비스"}]},{"lat":"37.27363066","long":"127.05166827","items":[{"name":"브이쿨 수원점 모든카","tel":"031-217-0085","addr":"경기도 수원시 영통구 원천동 92-8번지","category":"회원제형태 - 기타4"},{"name":"현대법률경매정보(주)","tel":"031-213-1538","addr":"경기도 수원시 영통구 원천동 92-8번지 2층","category":"회원제형태 - 기타4"}]},{"lat":"37.275597577","long":"127.04466767","items":[{"name":"비어스토리","tel":"070-2785-8444","addr":"경기도 수원시 영통구 원천동 28-13번지 1층","category":"일반휴게음식 - 일반한식"},{"name":"술합니다","tel":"070-7500-1618","addr":"경기도 수원시 영통구 원천동 28-13번지 1층","category":"일반휴게음식 - 일반한식"}]},{"lat":"37.276705773","long":"127.04485996","items":[{"name":"비어첸아주대점","tel":"031-213-2006","addr":"경기도 수원시 영통구 원천동 29-25번지","category":"일반휴게음식 - 주점"},{"name":"인근주민 아주대점","tel":"070-4064-2925","addr":"경기도 수원시 영통구 원천동 29-25번지 2층","category":"일반휴게음식 - 스넥"}]},{"lat":"37.261938294","long":"127.06457971","items":[{"name":"비전카페","tel":"031-204-9688","addr":"경기도 수원시 영통구 원천동 337-55번지","category":"일반휴게음식 - 서양음식"}]},{"lat":"37.267477166","long":"127.06912762","items":[{"name":"비티(BT)","tel":"031-695-7597","addr":"경기도 수원시 영통구 원천동 296-6번지 수원영통아크로파크 101동 1102호","category":"회원제형태 - 기타4"},{"name":"수아트플라워","tel":"031-212-5577","addr":"경기도 수원시 영통구 원천동 296-6번지 수원영통아크로파크 101동 105호","category":"문화.취미 - 화원"},{"name":"전주식당","tel":"031-211-6706","addr":"경기도 수원시 영통구 원천동 296-6번지 아크로파크 101동 108호","category":"일반휴게음식 - 일반한식"}]},{"lat":"37.274541138","long":"127.05058645","items":[{"name":"빈앤클랑","tel":"","addr":"경기도 수원시 영통구 원천동 618-3번지 1층","category":"자동차정비 유지 - 세차장"}]},{"lat":"37.278379304","long":"127.05110755","items":[{"name":"빔플 프로젝터 수원지점","tel":"031-211-2326","addr":"경기도 수원시 영통구 원천동 573-3번지 1층","category":"사무통신 - 사무용 OA기기"}]},{"lat":"37.274099535","long":"127.05083422","items":[{"name":"사운드스타일","tel":"070-8809-5209","addr":"경기도 수원시 영통구 원천동 615-3번지 1층","category":"자동차정비 유지 - 자동차부품"}]},{"lat":"37.274574488","long":"127.05685537","items":[{"name":"사회복지법인브솔복지재단","tel":"070-7018-1401","addr":"경기도 수원시 영통구 원천동 134-3번지 중앙기독교초등학교 신관 340호","category":"레저업소 - 수 영 장"},{"name":"여유","tel":"","addr":"경기도 수원시 영통구 원천동 134-3번지 중앙기독교초등학교 신관 3층 서점 내","category":"서적문구 - 전문서적"},{"name":"중앙기독중학교","tel":"070-7018-1307","addr":"경기도 수원시 영통구 원천동 134-3번지","category":"학원 - 초중고교육기관"}]},{"lat":"37.259937844","long":"127.06489372","items":[{"name":"삼대째손두부","tel":"031-211-9033","addr":"경기도 수원시 영통구 원천동 417-2번지","category":"일반휴게음식 - 일반한식"},{"name":"이화수전통육개장 수원영통원천점","tel":"031-212-8081","addr":"경기도 수원시 영통구 원천동 417-2번지","category":"일반휴게음식 - 일반한식"},{"name":"초가지붕남원추어탕","tel":"031-211-5300","addr":"경기도 수원시 영통구 원천동 417-2번지","category":"일반휴게음식 - 일반한식"},{"name":"큐노래연습장","tel":"031-212-5650","addr":"경기도 수원시 영통구 원천동 417-2번지 2층","category":"레저업소 - 노 래 방"}]},{"lat":"37.2655175","long":"127.06036629","items":[{"name":"삼미글로벌(주)","tel":"031-211-5597","addr":"경기도 수원시 영통구 원천동 496번지","category":"의류 - 아동의류"}]},{"lat":"37.274155066","long":"127.04705716","items":[{"name":"삼미식당","tel":"031-211-2665","addr":"경기도 수원시 영통구 원천동 77-6번지","category":"일반휴게음식 - 일반한식"}]},{"lat":"37.266740459","long":"127.06519241","items":[{"name":"삼성돌솥부대찌개","tel":"031-212-0848","addr":"경기도 수원시 영통구 원천동 326-9번지 2층","category":"일반휴게음식 - 일반한식"},{"name":"오너카센타","tel":"031-213-0848","addr":"경기도 수원시 영통구 원천동 326-9 326-5","category":"자동차정비 유지 - 자동차정비"}]},{"lat":"37.269599947","long":"127.05872335","items":[{"name":"삼성마트","tel":"031-211-2620","addr":"경기도 수원시 영통구 원천동 203-7번지","category":"유통업 영리 - 슈퍼마켓"}]},{"lat":"37.259568786","long":"127.0641945","items":[{"name":"삼성모터스세차장","tel":"031-217-8337","addr":"경기도 수원시 영통구 원천동 366-7번지","category":"자동차정비 유지 - 세차장"},{"name":"주식회사삼성모터스","tel":"031-213-9797","addr":"경기도 수원시 영통구 원천동 366-7번지","category":"자동차정비 유지 - 자동차부품"}]},{"lat":"37.266653584","long":"127.05872117","items":[{"name":"삼성영어원일학원","tel":"031-212-3310","addr":"경기도 수원시 영통구 원천동 550-3번지 선우빌딩 202호 신우빌딩","category":"학원 - 외국어학원"},{"name":"세원학원","tel":"031-213-0333","addr":"경기도 수원시 영통구 원천동 550-3번지 선우빌딩 5층 501호","category":"회원제형태 - 학원"},{"name":"연세소아청소년과의원","tel":"031-212-3375","addr":"경기도 수원시 영통구 원천동 465-6번지 선우빌딩 3층","category":"의원 - 의원"},{"name":"점핑블럭타운","tel":"070-7767-0079","addr":"경기도 수원시 영통구 원천동 550-3번지 401,402호","category":"레저업소 - 기타레져업소"},{"name":"좋은나무치과의원","tel":"031-216-2230","addr":"경기도 수원시 영통구 원천동 550-3번지 301호","category":"의원 - 치과의원"}]},{"lat":"37.265659064","long":"127.06549591","items":[{"name":"삼성전자서비스주식회사안동","tel":"02-1588-3366","addr":"경기도 수원시 영통구 원천동 327번지","category":"수리서비스 - 가정용품수리"}]},{"lat":"37.261073505","long":"127.06419572","items":[{"name":"삼성타이어","tel":"031-216-6536","addr":"경기도 수원시 영통구 원천동 362-8번지 2층","category":"자동차정비 유지 - 자동차시트·타이어"},{"name":"수성키즈","tel":"031-217-3302","addr":"경기도 수원시 영통구 원천동 362-8번지","category":"음료식품 - 기타음료식품"},{"name":"튼튼교육","tel":"031-292-3887","addr":"경기도 수원시 영통구 원천동 362-8번지","category":"학원 - 기타 교육기관"}]},{"lat":"37.264516151","long":"127.0628006","items":[{"name":"삼성할인마트","tel":"031-215-0513","addr":"경기도 수원시 영통구 원천동 333-3","category":"유통업 영리 - 슈퍼마켓"}]},{"lat":"37.266210057","long":"127.06285831","items":[{"name":"삼일평생교육원 및 온누리에듀뉴스","tel":"031-211-0085","addr":"경기도 수원시 영통구 원천동 254-1번지 1층 삼일선교원 일부","category":"회원제형태 - 학원"},{"name":"온리원국제어학원","tel":"031-217-5556","addr":"경기도 수원시 영통구 원천동 254-1번지 , 1,2층","category":"학원 - 외국어학원"}]},{"lat":"37.260208575","long":"127.06408229","items":[{"name":"삼정자동차서비스","tel":"031-214-6778","addr":"경기도 수원시 영통구 원천동 366-2번지","category":"자동차정비 유지 - 자동차정비"}]},{"lat":"37.278544023","long":"127.04442123","items":[{"name":"삼촌네가게","tel":"031-216-2372","addr":"경기도 수원시 영통구 원천동 18-15번지","category":"일반휴게음식 - 주점"},{"name":"솥뚜껑삼겹살","tel":"031-211-2747","addr":"경기도 수원시 영통구 원천동 18-15번지 1층","category":"일반휴게음식 - 일반한식"}]},{"lat":"37.267208298","long":"127.06650057","items":[{"name":"삼화종합상사","tel":"031-212-0704","addr":"경기도 수원시 영통구 원천동 319-6번지","category":"건축자재 - 페인트"},{"name":"애니오토 수원점","tel":"031-211-2771","addr":"경기도 수원시 영통구 원천동 319-6번지","category":"자동차정비 유지 - 자동차정비"}]},{"lat":"37.25929803","long":"127.06505101","items":[{"name":"생생직판장","tel":"070-7750-7577","addr":"경기도 수원시 영통구 원천동 417-5번지 1층","category":"음료식품 - 정육점"},{"name":"회랑소랑","tel":"031-215-7576","addr":"경기도 수원시 영통구 원천동 417-5번지 1층","category":"일반휴게음식 - 일반한식"}]},{"lat":"37.278462844","long":"127.04466925","items":[{"name":"샤브샤브","tel":"031-214-4846","addr":"경기도 수원시 영통구 원천동 29-2번지 2층","category":"일반휴게음식 - 일반한식"},{"name":"수철이네왕새우튀김아주대점","tel":"031-215-3393","addr":"경기도 수원시 영통구 원천동 29-2번지 1층","category":"일반휴게음식 - 일반한식"},{"name":"채플린노래연습장","tel":"031-212-6010","addr":"경기도 수원시 영통구 원천동 29-2번지","category":"레저업소 - 노 래 방"}]},{"lat":"37.277928708","long":"127.05131022","items":[{"name":"샤인바이러스","tel":"031-111-1111","addr":"경기도 수원시 영통구 원천동 574-3번지","category":"자동차정비 유지 - 카인테리어"}]},{"lat":"37.26962721","long":"127.0582273","items":[{"name":"서광세차장","tel":"031-212-0486","addr":"경기도 수원시 영통구 원천동 203-2번지 1호","category":"자동차정비 유지 - 세차장"}]},{"lat":"37.269131279","long":"127.05900486","items":[{"name":"서광자동차정비","tel":"031-211-9119","addr":"경기도 수원시 영통구 원천동 209-13번지 1층","category":"자동차정비 유지 - 자동차정비"}]},{"lat":"37.274406667","long":"127.0488613","items":[{"name":"서리담","tel":"031-214-1414","addr":"경기도 수원시 영통구 원천동 85-11번지 1층","category":"일반휴게음식 - 일반한식"},{"name":"은성기법무사","tel":"031-214-1133","addr":"경기도 수원시 영통구 원천동 85-11번지","category":"용역 서비스 - 법률회계서비스(개인)"},{"name":"테라스","tel":"070-8746-9394","addr":"경기도 수원시 영통구 원천동 85-11번지 1층 3호","category":"일반휴게음식 - 서양음식"}]},{"lat":"37.278595412","long":"127.05144596","items":[{"name":"서진커텐","tel":"031-211-4184","addr":"경기도 수원시 영통구 원천동 571-5번지","category":"직물 - 카페트,커튼,천막,지물"},{"name":"카페유하","tel":"070-4606-1952","addr":"경기도 수원시 영통구 원천동 571-5번지 1층 103호","category":"일반휴게음식 - 서양음식"},{"name":"커튼전문점","tel":"031-211-4184","addr":"경기도 수원시 영통구 원천동 571-5번지","category":"직물 - 카페트,커튼,천막,지물"}]},{"lat":"37.269852325","long":"127.05853187","items":[{"name":"서현교육","tel":"031-893-3366","addr":"경기도 수원시 영통구 원천동 203-5번지 2층","category":"회원제형태 - 서적"}]},{"lat":"37.276408434","long":"127.0448598","items":[{"name":"선술집모로미식당 아주대점","tel":"031-225-0770","addr":"경기도 수원시 영통구 원천동 29-23번지","category":"일반휴게음식 - 주점"}]},{"lat":"37.270492018","long":"127.05861126","items":[{"name":"선영","tel":"031-211-7738","addr":"경기도 수원시 영통구 원천동 199-7번지","category":"용역 서비스 - 가례서비스업"}]},{"lat":"37.277433495","long":"127.0504417","items":[{"name":"설원칡냉면 수원광교아주대병원점","tel":"031-213-8822","addr":"경기도 수원시 영통구 원천동 577-8번지 1층","category":"일반휴게음식 - 일반한식"}]},{"lat":"37.266128597","long":"127.06357976","items":[{"name":"성신유공압","tel":"031-213-1454","addr":"경기도 수원시 영통구 원천동 257-3번지","category":"기타 - 기계공구"},{"name":"신호등카서비스","tel":"031-216-8006","addr":"경기도 수원시 영통구 원천동 257-3번지","category":"자동차정비 유지 - 자동차정비"}]},{"lat":"37.269680443","long":"127.05997485","items":[{"name":"세덴(SEDEN)","tel":"031-213-5832","addr":"경기도 수원시 영통구 원천동 462-2번지","category":"자동차정비 유지 - 자동차시트·타이어"}]},{"lat":"37.274822327","long":"127.04569327","items":[{"name":"세브란스의원","tel":"031-216-2196","addr":"경기도 수원시 영통구 원천동 456-7번지 주공2단지종합상가 205호","category":"의원 - 의원"}]},{"lat":"37.278129456","long":"127.04469162","items":[{"name":"세븐일레븐 아주대점","tel":"031-215-7971","addr":"경기도 수원시 영통구 원천동 29-51번지","category":"유통업 영리 - 편 의 점"}]},{"lat":"37.266984545","long":"127.06363682","items":[{"name":"세븐일레븐수원원천베스트점","tel":"031-1577-0711","addr":"경기도 수원시 영통구 원천동 259-4번지 1층","category":"유통업 영리 - 편 의 점"},{"name":"풀타임PC방","tel":"070-7194-1552","addr":"경기도 수원시 영통구 원천동 259-4번지 하나로빌딩 2층","category":"레저업소 - 기타레져업소"}]},{"lat":"37.277487228","long":"127.05125356","items":[{"name":"세븐일레븐수원원천청아점","tel":"","addr":"경기도 수원시 영통구 원천동 578번지","category":"유통업 영리 - 편 의 점"}]},{"lat":"37.275624488","long":"127.04500594","items":[{"name":"셰프의고깃집","tel":"031-213-9038","addr":"경기도 수원시 영통구 원천동 31-1번지 1층","category":"일반휴게음식 - 일반한식"}]},{"lat":"37.278769193","long":"127.04466942","items":[{"name":"소고","tel":"031-213-1630","addr":"경기도 수원시 영통구 원천동 29-1번지 1층","category":"일반휴게음식 - 일식·회집"},{"name":"이번지깡통집아주대점","tel":"031-213-1116","addr":"경기도 수원시 영통구 원천동 29-1번지 지하1층","category":"일반휴게음식 - 일반한식"},{"name":"제이투(J2)","tel":"031-212-2848","addr":"경기도 수원시 영통구 원천동 29-1번지 2층","category":"일반휴게음식 - 주점"}]},{"lat":"37.276622425","long":"127.050802","items":[{"name":"소공동 뚝배기집","tel":"031-211-1936","addr":"경기도 수원시 영통구 원천동 580-4번지 1층","category":"일반휴게음식 - 일반한식"}]},{"lat":"37.276902056","long":"127.05002418","items":[{"name":"소낙스 수원점","tel":"031-216-2623","addr":"경기도 수원시 영통구 원천동 582-3번지 상가 1층 전체","category":"자동차정비 유지 - 카인테리어"},{"name":"소담","tel":"031-224-6090","addr":"경기도 수원시 영통구 원천동 582-3번지","category":"일반휴게음식 - 일반한식"}]},{"lat":"37.269516307","long":"127.06388689","items":[{"name":"소담한상","tel":"031-212-6531","addr":"경기도 수원시 영통구 원천동 600-5번지 101호","category":"일반휴게음식 - 일반한식"},{"name":"유니콘디테일링","tel":"031-000-0000","addr":"경기도 수원시 영통구 원천동 600-5번지 1층 107호","category":"자동차정비 유지 - 카인테리어"}]},{"lat":"37.275651559","long":"127.0448932","items":[{"name":"소문난대구막창","tel":"031-212-2213","addr":"경기도 수원시 영통구 원천동 31-3번지","category":"일반휴게음식 - 일반한식"}]},{"lat":"37.259018681","long":"127.06510714","items":[{"name":"소문난솥뚜껑 삼겹살","tel":"031-212-1066","addr":"경기도 수원시 영통구 원천동 417-6번지 1층","category":"일반휴게음식 - 일반한식"}]},{"lat":"37.26659771","long":"127.06244149","items":[{"name":"소소일상","tel":"031-214-2231","addr":"경기도 수원시 영통구 원천동 253-15번지 1층 101호","category":"일반휴게음식 - 일반한식"}]},{"lat":"37.276516693","long":"127.0444765","items":[{"name":"속눈썹","tel":"","addr":"경기도 수원시 영통구 원천동 29-93번지 1층","category":"보건위생 - 피부미용실"}]},{"lat":"37.278237579","long":"127.04469168","items":[{"name":"송림식당","tel":"031-213-6116","addr":"경기도 수원시 영통구 원천동 29-56번지 1층 2호","category":"일반휴게음식 - 일반한식"},{"name":"시골집","tel":"031-211-4799","addr":"경기도 수원시 영통구 원천동 29-56번지","category":"일반휴게음식 - 일반한식"}]},{"lat":"37.270518734","long":"127.05927647","items":[{"name":"송이네","tel":"031-215-4334","addr":"경기도 수원시 영통구 원천동 196-4번지","category":"회원제형태 - 기타4"},{"name":"해일상사","tel":"031-211-1624","addr":"경기도 수원시 영통구 원천동 196-4번지","category":"직물 - 카페트,커튼,천막,지물"}]},{"lat":"37.265071815","long":"127.06841528","items":[{"name":"수원법원우체국","tel":"031-213-7231","addr":"경기도 수원시 영통구 원천동 산80번지","category":"용역 서비스 - 공공요금대행서비스/소"}]},{"lat":"37.267459391","long":"127.06868792","items":[{"name":"수원상사","tel":"031-213-0878","addr":"경기도 수원시 영통구 원천동 295-5번지","category":"자동차정비 유지 - 자동차부품"}]},{"lat":"37.269849295","long":"127.06464253","items":[{"name":"수원언어치료실","tel":"031-215-5575","addr":"경기도 수원시 영통구 원천동 179-5,2층","category":"기타의료기관 - 기타의료기관 및 기타"}]},{"lat":"37.265822586","long":"127.06291437","items":[{"name":"수원의료소비자생활협동조합","tel":"031-215-0396","addr":"경기도 수원시 영통구 원천동 250-9번지","category":"건강식품 - 기타건강식품"}]},{"lat":"37.275622718","long":"127.04971895","items":[{"name":"수원정보과학고등학교","tel":"031-218-4009","addr":"경기도 수원시 영통구 원천동 78-8번지 수원정보과학고등학교","category":"학원 - 초중고교육기관"},{"name":"수원정보과학고등학교_수업료","tel":"031-218-4009","addr":"경기도 수원시 영통구 원천동 78-8번지 수원정보과학고등학교","category":"학원 - 초중고교육기관"}]},{"lat":"37.27465147","long":"127.04474607","items":[{"name":"수원종합동물병원","tel":"031-214-5527","addr":"경기도 수원시 영통구 원천동 79-9번지 2층","category":"기타의료기관 - 동물병원"},{"name":"수원종합팻마켓","tel":"031-214-5527","addr":"경기도 수원시 영통구 원천동 79-9번지","category":"문화.취미 - 애완동물"},{"name":"수원펫월드","tel":"031-214-5527","addr":"경기도 수원시 영통구 원천동 79-9번지 1층","category":"문화.취미 - 애완동물"}]},{"lat":"37.276487156","long":"127.05108379","items":[{"name":"수제샌드위치","tel":"031-239-0897","addr":"경기도 수원시 영통구 원천동 579-1번지","category":"일반휴게음식 - 스넥"},{"name":"우도갈비앤 막국수","tel":"","addr":"경기도 수원시 영통구 원천동 579-1번지 1층 101호","category":"일반휴게음식 - 일반한식"}]},{"lat":"37.276074604","long":"127.04611116","items":[{"name":"수지피아노교습소","tel":"032-222-9628","addr":"경기도 수원시 영통구 원천동 35-3번지 204호,207호","category":"학원 - 예·체능계학원"},{"name":"스포츠친구(수원 원천)","tel":"031-213-6442","addr":"경기도 수원시 영통구 원천동 35-3번지 원천주공 복합 상가동 107호","category":"레져용품 - 스포츠·레져용품"},{"name":"해맑은피아노교습소","tel":"031-212-5901","addr":"경기도 수원시 영통구 원천동 35-3번지 원천주공 상가 204동 207호","category":"학원 - 예·체능계학원"}]},{"lat":"37.278517079","long":"127.04417316","items":[{"name":"수해복마라탕","tel":"031-211-9731","addr":"경기도 수원시 영통구 원천동 18-14번지 2층","category":"일반휴게음식 - 중국식"},{"name":"신나라노래연습장","tel":"070-4922-1261","addr":"경기도 수원시 영통구 원천동 18-14번지 지층","category":"레저업소 - 노 래 방"}]},{"lat":"37.267715222","long":"127.06196886","items":[{"name":"순이네 양꼬치 양다리구이","tel":"031-213-5292","addr":"경기도 수원시 영통구 원천동 235-5번지","category":"일반휴게음식 - 일반한식"},{"name":"참살이생고깃간정육식당","tel":"031-216-0075","addr":"경기도 수원시 영통구 원천동 235-5번지","category":"일반휴게음식 - 일반한식"},{"name":"한세유통 (원천점)정육코너","tel":"031-216-0075","addr":"경기도 수원시 영통구 원천동 235-5번지","category":"음료식품 - 정육점"}]},{"lat":"37.278291404","long":"127.04535697","items":[{"name":"쉼1","tel":"070-4158-2155","addr":"경기도 수원시 영통구 원천동 37-15번지 7번가1층","category":"일반휴게음식 - 일반한식"}]},{"lat":"37.266408312","long":"127.0628021","items":[{"name":"스마트에어컨","tel":"043-844-0533","addr":"경기도 수원시 영통구 원천동 253-25번지 204 7/4","category":"용역 서비스 - 기타용역서비스"}]},{"lat":"37.277955844","long":"127.0510509","items":[{"name":"스퀘어룰(SQUAREAULE)","tel":"031-216-1126","addr":"경기도 수원시 영통구 원천동 575-4번지","category":"가구 - 일반가구"}]},{"lat":"37.265703368","long":"127.06689388","items":[{"name":"스템바이오사이언스","tel":"031-513-0123","addr":"경기도 수원시 영통구 원천동 318-2번지 신동아파라디움오피스텔 102동 1102호","category":"서적문구 - 과학기자재"},{"name":"푸른샘물유통","tel":"031-211-2795","addr":"경기도 수원시 영통구 원천동 318-2번지 신동아파라디움오피스텔 102동 204호","category":"회원제형태 - 기타4"}]},{"lat":"37.277595666","long":"127.05047563","items":[{"name":"스트릿 오토(STREET AUTO)","tel":"070-7553-5820","addr":"경기도 수원시 영통구 원천동 577-1번지 101호","category":"자동차정비 유지 - 자동차부품"}]},{"lat":"37.278046202","long":"127.05041953","items":[{"name":"스플렌디노 수원점","tel":"031-211-1056","addr":"경기도 수원시 영통구 원천동 575번지","category":"의류 - 정장"}]},{"lat":"37.270546264","long":"127.0582167","items":[{"name":"시립호수어린이집[아이행복]","tel":"031-215-2279","addr":"경기도 수원시 영통구 원천동 199-9번지","category":"학원 - 유아원"},{"name":"시립호수어린이집[아이행복]","tel":"031-215-2279","addr":"경기도 수원시 영통구 원천동 199-9번지","category":"학원 - 유아원"}]},{"lat":"37.260822012","long":"127.06263985","items":[{"name":"신광자동차공업사","tel":"031-214-1174","addr":"경기도 수원시 영통구 원천동 360-2번지","category":"자동차정비 유지 - 자동차정비"}]},{"lat":"37.262408309","long":"127.06167161","items":[{"name":"신성제약주식회사","tel":"031-251-6785","addr":"경기도 수원시 영통구 원천동 552번지 영통이노플렉스-1단지","category":"약국 - 제약회사"},{"name":"이노플렉스운영위원회","tel":"031-8002-2114","addr":"경기도 수원시 영통구 원천동 552번지 1층(1동 B3층)","category":"자동차정비 유지 - 주차장"},{"name":"장지리 사골 순대국","tel":"031-8002-3300","addr":"경기도 수원시 영통구 원천동 552번지 영통이노플렉스-1단지 2동 2-110호","category":"일반휴게음식 - 일반한식"}]},{"lat":"37.274099734","long":"127.05033813","items":[{"name":"신씨네 육곳간","tel":"031-212-7971","addr":"경기도 수원시 영통구 원천동 615번지 1층","category":"일반휴게음식 - 일반한식"}]},{"lat":"37.267102399","long":"127.06221641","items":[{"name":"신우가스시스템","tel":"031-213-1171","addr":"경기도 수원시 영통구 원천동 260-10번지","category":"용역 서비스 - 기타용역서비스"}]},{"lat":"37.267017711","long":"127.06900321","items":[{"name":"신한냉동","tel":"031-281-2430","addr":"경기도 수원시 영통구 원천동 295-1번지","category":"기타 - 기타 전문점"},{"name":"에스비(SB)사운드철가방","tel":"070-7872-8733","addr":"경기도 수원시 영통구 원천동 295-1번지 1층 일부","category":"수리서비스 - 가정용품수리"}]},{"lat":"37.275984951","long":"127.04485956","items":[{"name":"싱싱회포차","tel":"031-215-7061","addr":"경기도 수원시 영통구 원천동 30-22번지 1층","category":"일반휴게음식 - 일반한식"}]},{"lat":"37.263021109","long":"127.06146917","items":[{"name":"쌍용매점","tel":"031-211-5582","addr":"경기도 수원시 영통구 원천동 340-2번지 2층","category":"음료식품 - 기타음료식품"}]},{"lat":"37.259100805","long":"127.06311195","items":[{"name":"씽크랑가구","tel":"031-214-2742","addr":"경기도 수원시 영통구 원천동 394-5번지","category":"주방용구 - 주방용구"},{"name":"주식회사자연과이레","tel":"031-202-3008","addr":"경기도 수원시 영통구 원천동 394-5번지 2층","category":"농업 - 비료,사료,종자"}]},{"lat":"37.277318331","long":"127.04525494","items":[{"name":"아기마을어린이집[아이행복]","tel":"031-216-4521","addr":"경기도 수원시 영통구 원천동 30-12번지","category":"학원 - 유아원"}]},{"lat":"37.274325037","long":"127.05022552","items":[{"name":"아미네일","tel":"031-214-5885","addr":"경기도 수원시 영통구 원천동 619-1번지 1층 2호","category":"보건위생 - 피부미용실"}]},{"lat":"37.276012236","long":"127.04413796","items":[{"name":"아웃닭 아주대점","tel":"031-214-0137","addr":"경기도 수원시 영통구 원천동 28-8번지 1층","category":"일반휴게음식 - 주점"}]},{"lat":"37.267125575","long":"127.06946553","items":[{"name":"아이디스토리","tel":"031-217-2490","addr":"경기도 수원시 영통구 원천동 296-6번지 아크로파크 105동 601호","category":"전기제품 - 기타전기제품"},{"name":"이레식당","tel":"070-4922-1261","addr":"경기도 수원시 영통구 원천동 296-6번지 수원영통아크로파크 1층 101호","category":"일반휴게음식 - 일반한식"},{"name":"처갓집양념통닭 원천흥덕점","tel":"031-217-9283","addr":"경기도 수원시 영통구 원천동 296-6번지 수원영통아크로파크 1층","category":"일반휴게음식 - 스넥"}]},{"lat":"37.276308609","long":"127.04682164","items":[{"name":"아이마음","tel":"031-889-5127","addr":"경기도 수원시 영통구 원천동 35번지 주공아파트 101동 202호","category":"용역 서비스 - 종합용역"}]},{"lat":"37.273874491","long":"127.05030416","items":[{"name":"아임 에띠임","tel":"070-2136-7584","addr":"경기도 수원시 영통구 원천동 90-20번지 안일빌라 B01호","category":"회원제형태 - 기타1"}]},{"lat":"37.274155229","long":"127.04661744","items":[{"name":"아주간판연구소","tel":"031-215-1555","addr":"경기도 수원시 영통구 원천동 72-28번지","category":"용역 서비스 - 종합용역"}]},{"lat":"37.274569714","long":"127.04658385","items":[{"name":"아주손칼국수","tel":"031-213-0068","addr":"경기도 수원시 영통구 원천동 71-11번지 1층","category":"일반휴게음식 - 일반한식"}]},{"lat":"37.274623958","long":"127.04608778","items":[{"name":"아주한솔주니어학원","tel":"031-215-5054","addr":"경기도 수원시 영통구 원천동 72-14번지 2층","category":"학원 - 기타 교육기관"},{"name":"하늘나무","tel":"070-8235-8006","addr":"경기도 수원시 영통구 원천동 72-14번지","category":"가구 - 일반가구"}]},{"lat":"37.27510051","long":"127.04872642","items":[{"name":"알파타운","tel":"031-215-9520","addr":"경기도 수원시 영통구 원천동 78-84번지","category":"서적문구 - 문구용품"}]},{"lat":"37.267373078","long":"127.06147254","items":[{"name":"애니카랜드원천점","tel":"031-214-9275","addr":"경기도 수원시 영통구 원천동 235-7번지","category":"자동차정비 유지 - 자동차정비"}]},{"lat":"37.27351417","long":"127.05007844","items":[{"name":"액상나라","tel":"031-214-8136","addr":"경기도 수원시 영통구 원천동 90-31번지","category":"전기제품 - 기타전기제품"},{"name":"코리아관광(주)","tel":"031-225-1885","addr":"경기도 수원시 영통구 원천동 90-31번지","category":"여행 - 관광여행"}]},{"lat":"37.275408468","long":"127.04436314","items":[{"name":"어풍당당","tel":"031-211-7289","addr":"경기도 수원시 영통구 원천동 27-8번지 1층","category":"일반휴게음식 - 일식·회집"}]},{"lat":"37.274044866","long":"127.0523112","items":[{"name":"언니네","tel":"031-215-7271","addr":"경기도 수원시 영통구 원천동 614-2번지 1층","category":"일반휴게음식 - 서양음식"}]},{"lat":"37.278597998","long":"127.04466933","items":[{"name":"엉터리생고기아주대점","tel":"031-215-1153","addr":"경기도 수원시 영통구 원천동 29-90번지 1층","category":"일반휴게음식 - 일반한식"}]},{"lat":"37.274486853","long":"127.05113889","items":[{"name":"에스와이제이하우스","tel":"031-111-1111","addr":"경기도 수원시 영통구 원천동 617-1번지","category":"용역 서비스 - 사무서비스"}]},{"lat":"37.260155084","long":"127.06296624","items":[{"name":"에스티에스(STS)","tel":"031-217-8788","addr":"경기도 수원시 영통구 원천동 368번지 3층 일부","category":"광학제품 - 기타광학제품"},{"name":"주식회사아이씨엠티/카페마르코","tel":"031-214-8107","addr":"경기도 수원시 영통구 원천동 368번지 101호","category":"일반휴게음식 - 서양음식"}]},{"lat":"37.266625973","long":"127.05993872","items":[{"name":"에이치(H)마트 영통점","tel":"031-217-8245","addr":"경기도 수원시 영통구 원천동 469번지","category":"유통업 영리 - 슈퍼마켓"}]},{"lat":"37.277180901","long":"127.05119699","items":[{"name":"엘까미노","tel":"031-217-8688","addr":"경기도 수원시 영통구 원천동 578-2번지 1층","category":"일반휴게음식 - 서양음식"}]},{"lat":"37.273486313","long":"127.05210789","items":[{"name":"연세산부인과의원","tel":"031-211-5151","addr":"경기도 수원시 영통구 원천동 96-7번지","category":"의원 - 의원"},{"name":"연세산후조리원","tel":"031-548-2020","addr":"경기도 수원시 영통구 원천동 96-7번지 5~6층","category":"기타의료기관 - 산후조리원"}]},{"lat":"37.270158467","long":"127.0589718","items":[{"name":"열국누수방수공사","tel":"031-0000-0000","addr":"경기도 수원시 영통구 원천동 201-6번지 102호","category":"용역 서비스 - 기타용역서비스"},{"name":"한국누수방수공사","tel":"031-217-7788","addr":"경기도 수원시 영통구 원천동 201-6번지 1층","category":"용역 서비스 - 기타용역서비스"}]},{"lat":"37.275877022","long":"127.04430702","items":[{"name":"예일고시원","tel":"031-217-2738","addr":"경기도 수원시 영통구 원천동 28-15번지","category":"학원 - 기타 교육기관"}]},{"lat":"37.260434329","long":"127.06311301","items":[{"name":"옛날통닭도야지한마리","tel":"031-9752-8245","addr":"경기도 수원시 영통구 원천동 364-1번지 102호","category":"일반휴게음식 - 일반한식"},{"name":"원솔루션(ONE SOLUTION)","tel":"031-212-9107","addr":"경기도 수원시 영통구 원천동 364-1번지 201호","category":"전기제품 - 기타전기제품"}]},{"lat":"37.264100646","long":"127.06480694","items":[{"name":"오렌지마트","tel":"031-211-9720","addr":"경기도 수원시 영통구 원천동 337-2번지","category":"유통업 영리 - 슈퍼마켓"}]},{"lat":"37.260993093","long":"127.06286545","items":[{"name":"오르스커피/주식회사 오르스","tel":"031-215-7713","addr":"경기도 수원시 영통구 원천동 360-5번지","category":"일반휴게음식 - 서양음식"}]},{"lat":"37.261543759","long":"127.06078037","items":[{"name":"오성모터스","tel":"031-214-4000","addr":"경기도 수원시 영통구 원천동 348-2,349번지","category":"자동차정비 유지 - 자동차정비"},{"name":"전주한식부페","tel":"031-213-7756","addr":"경기도 수원시 영통구 원천동 348-2번지","category":"일반휴게음식 - 일반한식"}]},{"lat":"37.277127032","long":"127.05072339","items":[{"name":"오이엠디테일링","tel":"031-215-5580","addr":"경기도 수원시 영통구 원천동 580번지","category":"자동차정비 유지 - 카인테리어"},{"name":"테레사 디테일링 라운지 (Teresa detailing","tel":"","addr":"경기도 수원시 영통구 원천동 580번지 101호","category":"자동차정비 유지 - 세차장"}]},{"lat":"37.278595481","long":"127.05127682","items":[{"name":"오토리비스","tel":"031-202-5599","addr":"경기도 수원시 영통구 원천동 571-4번지","category":"자동차정비 유지 - 카인테리어"}]},{"lat":"37.274071688","long":"127.05280732","items":[{"name":"오토블링 디테일링센터","tel":"","addr":"경기도 수원시 영통구 원천동 614-5번지 102,103","category":"자동차정비 유지 - 카인테리어"}]},{"lat":"37.278433498","long":"127.05078059","items":[{"name":"오토플러스","tel":"031-211-1126","addr":"경기도 수원시 영통구 원천동 573-1번지 101호","category":"자동차정비 유지 - 자동차부품"}]},{"lat":"37.269212542","long":"127.05864414","items":[{"name":"오토피아카서비스","tel":"031-213-2112","addr":"경기도 수원시 영통구 원천동 208-3번지","category":"자동차정비 유지 - 자동차정비"}]},{"lat":"37.268960476","long":"127.05817044","items":[{"name":"온새미로","tel":"031-216-4928","addr":"경기도 수원시 영통구 원천동 209-37번지","category":"일반휴게음식 - 일반한식"}]},{"lat":"37.265903621","long":"127.06302717","items":[{"name":"와이","tel":"031-213-9090","addr":"경기도 수원시 영통구 원천동 250-10 1층","category":"일반휴게음식 - 서양음식"}]},{"lat":"37.274072163","long":"127.05166855","items":[{"name":"와이제이","tel":"02-111-1111","addr":"경기도 수원시 영통구 원천동 615-8번지 1층 101호","category":"자동차정비 유지 - 자동차부품"}]},{"lat":"37.268183155","long":"127.06316427","items":[{"name":"요리와중식","tel":"031-211-1020","addr":"경기도 수원시 영통구 원천동 223번지 1층","category":"일반휴게음식 - 중국식"},{"name":"코리안숯불닭바베큐원천점","tel":"031-215-9295","addr":"경기도 수원시 영통구 원천동 223번지","category":"일반휴게음식 - 스넥"}]},{"lat":"37.274071631","long":"127.05294262","items":[{"name":"우리엥","tel":"031-213-3052","addr":"경기도 수원시 영통구 원천동 614-6번지 1층 일부호","category":"일반휴게음식 - 일반한식"},{"name":"코리아유통","tel":"031-8003-3649","addr":"경기도 수원시 영통구 원천동 614-6번지","category":"용역 서비스 - 종합용역"}]},{"lat":"37.272266141","long":"127.06049544","items":[{"name":"우리원갈비","tel":"031-211-5647","addr":"경기도 수원시 영통구 원천동 163-8번지 2통1반","category":"일반휴게음식 - 일반한식"}]},{"lat":"37.276516376","long":"127.04536724","items":[{"name":"우리집","tel":"031-214-3050","addr":"경기도 수원시 영통구 원천동 30-50번지","category":"일반휴게음식 - 일반한식"}]},{"lat":"37.269545408","long":"127.05972672","items":[{"name":"우리카서비스","tel":"031-221-9701","addr":"경기도 수원시 영통구 원천동 462-4번지","category":"자동차정비 유지 - 자동차정비"}]},{"lat":"37.267623803","long":"127.06455052","items":[{"name":"우주건축설비","tel":"031-275-8681","addr":"경기도 수원시 영통구 원천동 267-1번지","category":"건축자재 - 인테리어전문"},{"name":"태현시스템","tel":"070-7629-1577","addr":"경기도 수원시 영통구 원천동 267-1번지 1층 104호","category":"용역 서비스 - 기타용역서비스"}]},{"lat":"37.276649664","long":"127.05028335","items":[{"name":"워시박스","tel":"031-215-7745","addr":"경기도 수원시 영통구 원천동 582-5번지 1층","category":"자동차정비 유지 - 카인테리어"},{"name":"워시박스","tel":"031-215-7745","addr":"경기도 수원시 영통구 원천동 582-5번지 1층","category":"자동차정비 유지 - 자동차부품"}]},{"lat":"37.267572053","long":"127.05993944","items":[{"name":"원일초등학교","tel":"031-216-8943","addr":"경기도 수원시 영통구 원천동 549-1번지 원일초등학교","category":"학원 - 초중고교육기관"}]},{"lat":"37.261352882","long":"127.06408322","items":[{"name":"원천갈비설렁탕","tel":"031-212-8188","addr":"경기도 수원시 영통구 원천동 362-10번지 1층","category":"일반휴게음식 - 일반한식"}]},{"lat":"37.273431782","long":"127.05322406","items":[{"name":"원천동주민자치위원회","tel":"031-228-8687","addr":"경기도 수원시 영통구 원천동 610번지","category":"문화.취미 - 문화취미기타"}]},{"lat":"37.277074591","long":"127.04652892","items":[{"name":"원천슈퍼","tel":"031-211-7274","addr":"경기도 수원시 영통구 원천동 35번지 주공아파트","category":"유통업 영리 - 슈퍼마켓"}]},{"lat":"37.274821148","long":"127.048839","items":[{"name":"원천스크린골프","tel":"031-217-7100","addr":"경기도 수원시 영통구 원천동 78-103번지","category":"회원제형태 - 레져업소"}]},{"lat":"37.259768665","long":"127.06091428","items":[{"name":"원천주먹구이","tel":"031-213-8782","addr":"경기도 수원시 영통구 원천동 378-2번지 1층","category":"일반휴게음식 - 일반한식"},{"name":"지오윤활유","tel":"070-4225-2073","addr":"경기도 수원시 영통구 원천동 378-2번지 용현빌 1층 상가","category":"자동차정비 유지 - 윤활유 전문 판매"}]},{"lat":"37.276073589","long":"127.04880594","items":[{"name":"원천중학교","tel":"031-211-4291","addr":"경기도 수원시 영통구 원천동 78-7번지 원천중학교","category":"학원 - 초중고교육기관"}]},{"lat":"37.278622568","long":"127.05114153","items":[{"name":"윈도우앤스타일 광교점","tel":"031-214-6652","addr":"경기도 수원시 영통구 원천동 571-3번지 1층","category":"직물 - 카페트,커튼,천막,지물"}]},{"lat":"37.257514878","long":"127.06333613","items":[{"name":"유경식당","tel":"031-211-0366","addr":"경기도 수원시 영통구 원천동 400-1번지","category":"일반휴게음식 - 일반한식"}]},{"lat":"37.259045605","long":"127.06531007","items":[{"name":"유나인원천점","tel":"031-213-5256","addr":"경기도 수원시 영통구 원천동 417번지 삼성테크노파크 106호","category":"일반휴게음식 - 일반한식"}]},{"lat":"37.267462446","long":"127.06293822","items":[{"name":"이군포차","tel":"031-214-2678","addr":"경기도 수원시 영통구 원천동 259번지 외1필지1층상가","category":"일반휴게음식 - 일반한식"}]},{"lat":"37.278100408","long":"127.05005875","items":[{"name":"이화수전통육개장 수원아주대점","tel":"031-213-6746","addr":"경기도 수원시 영통구 원천동 572-3번지 1층 102,103호","category":"일반휴게음식 - 일반한식"},{"name":"커피스톡","tel":"031-215-1333","addr":"경기도 수원시 영통구 원천동 572-3번지 링크프라자 101호","category":"일반휴게음식 - 일반한식"},{"name":"티철판요리","tel":"031-233-0044","addr":"경기도 수원시 영통구 원천동 572-3번지 2층","category":"일반휴게음식 - 일식·회집"}]},{"lat":"37.261128588","long":"127.06218917","items":[{"name":"자은미르","tel":"031-211-2857","addr":"경기도 수원시 영통구 원천동 360-1번지 2층","category":"용역 서비스 - 기타용역서비스"}]},{"lat":"37.275208816","long":"127.04825293","items":[{"name":"쟈스민레지던스 고시원","tel":"031-213-3286","addr":"경기도 수원시 영통구 원천동 77-45번지","category":"학원 - 독서실"}]},{"lat":"37.275128422","long":"127.0463925","items":[{"name":"정우정보통신","tel":"031-211-3165","addr":"경기도 수원시 영통구 원천동 71-1 상가동1층3호","category":"사무통신 - 컴퓨터"}]},{"lat":"37.274208899","long":"127.04766604","items":[{"name":"정주할인마트","tel":"031-211-7188","addr":"경기도 수원시 영통구 원천동 78-64번지","category":"유통업 영리 - 슈퍼마켓"}]},{"lat":"37.274154773","long":"127.04783513","items":[{"name":"정평 법무사 사무소","tel":"031-306-2271","addr":"경기도 수원시 영통구 원천동 78-59번지","category":"용역 서비스 - 법률회계서비스(개인)"}]},{"lat":"37.276609241","long":"127.06019431","items":[{"name":"제니스홈","tel":"","addr":"경기도 수원시 영통구 원천동 590번지 수원광교에일린의뜰 1102동 101호","category":"건축자재 - 기타건축자재"}]},{"lat":"37.274929337","long":"127.04866994","items":[{"name":"족보당","tel":"031-213-7878","addr":"경기도 수원시 영통구 원천동 78-20번지 1층 101호","category":"일반휴게음식 - 일반한식"}]},{"lat":"37.276793606","long":"127.05083593","items":[{"name":"종합법률사무소다빈","tel":"031-217-0051","addr":"경기도 수원시 영통구 원천동 580-3번지","category":"용역 서비스 - 법률회계서비스(개인)"}]},{"lat":"37.274344239","long":"127.04717002","items":[{"name":"주식회사 나노렉스","tel":"031-1661-5848","addr":"경기도 수원시 영통구 원천동 77-82번지 에코빌딩 2층","category":"신변잡화 - 기타잡화"},{"name":"청람빨래방","tel":"031-212-7447","addr":"경기도 수원시 영통구 원천동 77-82번지","category":"수리서비스 - 세탁소"}]},{"lat":"37.261796092","long":"127.06069038","items":[{"name":"주식회사 메탈","tel":"031-211-3417","addr":"경기도 수원시 영통구 원천동 344-1번지","category":"기타 - 기계공구"}]},{"lat":"37.258992197","long":"127.06405876","items":[{"name":"주식회사 에버","tel":"031-212-0058","addr":"경기도 수원시 영통구 원천동 410-4번지","category":"여행 - 렌터카"}]},{"lat":"37.27854209","long":"127.049608","items":[{"name":"주식회사 캠코시설관리","tel":"031-361-2038","addr":"경기도 수원시 영통구 원천동 567번지 2층","category":"용역 서비스 - 종합용역"}]},{"lat":"37.27435179","long":"127.05091331","items":[{"name":"주식회사본원","tel":"031-214-9081","addr":"경기도 수원시 영통구 원천동 617-3번지 1층","category":"회원제형태 - 기타4"}]},{"lat":"37.258541786","long":"127.06385549","items":[{"name":"주식회사에바코생활건강","tel":"070-8250-5348","addr":"경기도 수원시 영통구 원천동 404-5번지 델타아이오 (2층)","category":"용역 서비스 - 종합용역"},{"name":"한국바이오메디컬(주)","tel":"070-8250-5348","addr":"경기도 수원시 영통구 원천동 404-5번지","category":"보건위생 - 의료용품"}]},{"lat":"37.278046148","long":"127.05055484","items":[{"name":"주식회사하나이엠에스","tel":"031-267-1339","addr":"경기도 수원시 영통구 원천동 575-1번지 1층","category":"기타의료기관 - 기타의료기관 및 기타"}]},{"lat":"37.27587707","long":"127.04417172","items":[{"name":"중앙인테리어","tel":"031-211-5847","addr":"경기도 수원시 영통구 원천동 28-35번지","category":"직물 - 카페트,커튼,천막,지물"}]},{"lat":"37.258541236","long":"127.06491512","items":[{"name":"지음","tel":"031-308-0884","addr":"경기도 수원시 영통구 원천동 411번지","category":"일반휴게음식 - 서양음식"}]},{"lat":"37.260102057","long":"127.06089199","items":[{"name":"진바이크","tel":"031-232-8949","addr":"경기도 수원시 영통구 원천동 353-20번지 글로벌타운 111동 B01호","category":"자동차판매 - 이륜차판매"}]},{"lat":"37.276210462","long":"127.04413807","items":[{"name":"짚신매운갈비찜","tel":"031-216-0855","addr":"경기도 수원시 영통구 원천동 29-12번지","category":"일반휴게음식 - 일반한식"},{"name":"캠비","tel":"031-214-5330","addr":"경기도 수원시 영통구 원천동 29-12번지 2층","category":"일반휴게음식 - 서양음식"}]},{"lat":"37.274044738","long":"127.05261563","items":[{"name":"쭈비쭈밥","tel":"031-217-3400","addr":"경기도 수원시 영통구 원천동 614-4번지 1층","category":"일반휴게음식 - 일반한식"}]},{"lat":"37.27557037","long":"127.04516376","items":[{"name":"찌개지존","tel":"031-216-1046","addr":"경기도 수원시 영통구 원천동 32-11번지","category":"일반휴게음식 - 일반한식"},{"name":"찌개지존","tel":"031-216-1046","addr":"경기도 수원시 영통구 원천동 32-11번지","category":"일반휴게음식 - 일반한식"}]},{"lat":"37.261822973","long":"127.06099477","items":[{"name":"천산금속","tel":"031-202-5458","addr":"경기도 수원시 영통구 원천동 344-7번지","category":"신변잡화 - 신발"}]},{"lat":"37.260270904","long":"127.06550272","items":[{"name":"체어맨핏","tel":"02-1111-1111","addr":"경기도 수원시 영통구 원천동 419-6번지 호산빌리지 110동 2층 203호","category":"의류 - 정장"}]},{"lat":"37.279569163","long":"127.0498567","items":[{"name":"초록쉼표 광교점","tel":"031-251-9991","addr":"경기도 수원시 영통구 원천동 565번지 수원광교공공실버주택 1층 104호","category":"일반휴게음식 - 서양음식"}]},{"lat":"37.278460742","long":"127.05025066","items":[{"name":"추오정남원추어탕광교점","tel":"031-213-1777","addr":"경기도 수원시 영통구 원천동 572-1번지 1층","category":"일반휴게음식 - 일반한식"}]},{"lat":"37.276324981","long":"127.05106114","items":[{"name":"카스페이스","tel":"031-372-6247","addr":"경기도 수원시 영통구 원천동 579-2번지","category":"자동차정비 유지 - 카인테리어"}]},{"lat":"37.274630985","long":"127.05121791","items":[{"name":"카페 미야","tel":"031-213-0378","addr":"경기도 수원시 영통구 원천동 617번지 1층 102호","category":"일반휴게음식 - 서양음식"}]},{"lat":"37.27801231","long":"127.04472538","items":[{"name":"카페 쿠츠","tel":"","addr":"경기도 수원시 영통구 원천동 29-57번지 행운빌 1층","category":"일반휴게음식 - 서양음식"}]},{"lat":"37.274739232","long":"127.05091355","items":[{"name":"카페423","tel":"031-216-0423","addr":"경기도 수원시 영통구 원천동 618-1번지","category":"일반휴게음식 - 서양음식"}]},{"lat":"37.276379257","long":"127.05053124","items":[{"name":"카페루언","tel":"","addr":"경기도 수원시 영통구 원천동 582-7번지 1층 101호","category":"일반휴게음식 - 서양음식"}]},{"lat":"37.277406396","long":"127.05061081","items":[{"name":"카페리라","tel":"02-4508-8906","addr":"경기도 수원시 영통구 원천동 577-7번지 1층","category":"일반휴게음식 - 서양음식"}]},{"lat":"37.277766523","long":"127.05131012","items":[{"name":"카페벨라","tel":"031-212-3539","addr":"경기도 수원시 영통구 원천동 574-4번지 1층","category":"일반휴게음식 - 서양음식"}]},{"lat":"37.264379982","long":"127.06477335","items":[{"name":"카페진","tel":"031-233-2241","addr":"경기도 수원시 영통구 원천동 337-3번지 1층","category":"일반휴게음식 - 서양음식"}]},{"lat":"37.278379189","long":"127.05138944","items":[{"name":"커튼 팩토리","tel":"031-214-2993","addr":"경기도 수원시 영통구 원천동 574번지 1층","category":"직물 - 카페트,커튼,천막,지물"},{"name":"티에스씨(TSC)","tel":"031-282-4437","addr":"경기도 수원시 영통구 원천동 574번지 1층","category":"레져용품 - 스포츠·레져용품"}]},{"lat":"37.277820777","long":"127.05083658","items":[{"name":"커피 바 나인","tel":"070-7630-0745","addr":"경기도 수원시 영통구 원천동 575-6번지 1층","category":"일반휴게음식 - 서양음식"}]},{"lat":"37.277705764","long":"127.04527771","items":[{"name":"커피다움","tel":"031-212-4550","addr":"경기도 수원시 영통구 원천동 30-7번지","category":"일반휴게음식 - 서양음식"}]},{"lat":"37.274099466","long":"127.05100335","items":[{"name":"케이비 로펌(kb lawfirm)","tel":"031-211-2200","addr":"경기도 수원시 영통구 원천동 615-4번지 1층,2층","category":"용역 서비스 - 법률회계서비스(개인)"}]},{"lat":"37.267086858","long":"127.05704168","items":[{"name":"코알라어린이집[아이행복]","tel":"031-205-0991","addr":"경기도 수원시 영통구 원천동 548번지 원천주공2단지 204동 104호","category":"학원 - 유아원"}]},{"lat":"37.26626386","long":"127.06336567","items":[{"name":"코인워시수원영통원천삼성점","tel":"031-216-7854","addr":"경기도 수원시 영통구 원천동 258-29번지 노블하우스2 1층","category":"수리서비스 - 세탁소"}]},{"lat":"37.275849745","long":"127.04500606","items":[{"name":"큰바위생삼겹살","tel":"031-211-8842","addr":"경기도 수원시 영통구 원천동 30-26번지","category":"일반휴게음식 - 일반한식"}]},{"lat":"37.267071501","long":"127.06948803","items":[{"name":"킴스어패럴 (Shop Kimsapparel)","tel":"031-000-0000","addr":"경기도 수원시 영통구 원천동 296-6번지 수원영통아크로파크 103동 401호","category":"의류 - 정장"}]},{"lat":"37.258351783","long":"127.06536586","items":[{"name":"타이어프로영통삼성점","tel":"031-898-8982","addr":"경기도 수원시 영통구 원천동 413번지","category":"자동차정비 유지 - 자동차시트·타이어"},{"name":"형제상사","tel":"031-211-2381","addr":"경기도 수원시 영통구 원천동 413번지","category":"자동차정비 유지 - 자동차부품"}]},{"lat":"37.276955782","long":"127.05085859","items":[{"name":"타프코트 디놀(수원점)","tel":"031-222-4113","addr":"경기도 수원시 영통구 원천동 580-2번지 1층","category":"자동차정비 유지 - 카인테리어"}]},{"lat":"37.25990383","long":"127.06089184","items":[{"name":"태영생막창","tel":"031-212-9096","addr":"경기도 수원시 영통구 원천동 378-9번지 1층","category":"일반휴게음식 - 일반한식"}]},{"lat":"37.265652764","long":"127.06014092","items":[{"name":"태영세차장","tel":"031-211-0305","addr":"경기도 수원시 영통구 원천동 494번지","category":"자동차정비 유지 - 세차장"}]},{"lat":"37.266686586","long":"127.06483161","items":[{"name":"태평문구(알파문구원천점)","tel":"031-254-3153","addr":"경기도 수원시 영통구 원천동 326-18번지 2층","category":"서적문구 - 문구용품"}]},{"lat":"37.274406061","long":"127.05039469","items":[{"name":"토모카","tel":"031-211-3578","addr":"경기도 수원시 영통구 원천동 619번지 1층 101호","category":"일반휴게음식 - 서양음식"}]},{"lat":"37.260152625","long":"127.06763319","items":[{"name":"트레이드","tel":"02-876-6100","addr":"경기도 수원시 영통구 원천동 421번지 1층","category":"의류 - 정장"},{"name":"펀더멘탈브루잉 주식회사","tel":"031-111-1111","addr":"경기도 수원시 영통구 원천동 421번지","category":"일반휴게음식 - 일반한식"},{"name":"펀더멘탈브루잉 주식회사","tel":"031-111-1111","addr":"경기도 수원시 영통구 원천동 421번지","category":"일반휴게음식 - 일반한식"}]},{"lat":"37.274324441","long":"127.05169126","items":[{"name":"트로이카 수원광교 (TROYCAR)","tel":"031-211-9888","addr":"경기도 수원시 영통구 원천동 616-2번지 1층","category":"자동차정비 유지 - 자동차정비"}]},{"lat":"37.27701873","long":"127.05116306","items":[{"name":"틴트라운지(TINT LOUNGE)","tel":"031-215-3516","addr":"경기도 수원시 영통구 원천동 578-3번지 1층","category":"자동차정비 유지 - 자동차부품"}]},{"lat":"37.268046109","long":"127.06677185","items":[{"name":"퍼시픽스포츠그룹","tel":"031-1811-7773","addr":"경기도 수원시 영통구 원천동 288번지 5층","category":"학원 - 예·체능계학원"}]},{"lat":"37.260569132","long":"127.06380076","items":[{"name":"포이닉스(수원점)","tel":"031-226-4137","addr":"경기도 수원시 영통구 원천동 366-3번지 2층","category":"건축자재 - 인테리어전문"}]},{"lat":"37.274434164","long":"127.04764362","items":[{"name":"폴인 디저트 (Fall in dessert)","tel":"","addr":"경기도 수원시 영통구 원천동 77-80번지 1층","category":"음료식품 - 기타음료식품"}]},{"lat":"37.274072233","long":"127.05149943","items":[{"name":"풀문 컴퍼니","tel":"031-213-2058","addr":"경기도 수원시 영통구 원천동 615-7번지 301호","category":"숙박업 - 여관/기타숙박업"},{"name":"풀문 컴퍼니 (Full Moon)","tel":"031-213-2058","addr":"경기도 수원시 영통구 원천동 615-7번지 301호","category":"가구 - 일반가구"}]},{"lat":"37.274515354","long":"127.04738434","items":[{"name":"프랜드기획","tel":"","addr":"경기도 수원시 영통구 원천동 77-88번지","category":"용역 서비스 - 종합용역"}]},{"lat":"37.274622163","long":"127.05075563","items":[{"name":"하루","tel":"031-214-1093","addr":"경기도 수원시 영통구 원천동 618-2번지 1층","category":"일반휴게음식 - 일반한식"}]},{"lat":"37.275462443","long":"127.04461122","items":[{"name":"하이미나(MINA)","tel":"070-4567-4444","addr":"경기도 수원시 영통구 원천동 28-37번지 1층","category":"일반휴게음식 - 서양음식"},{"name":"행복한쉼터","tel":"070-8947-2549","addr":"경기도 수원시 영통구 원천동 28-37번지 다동호","category":"보건위생 - 기타대인서비스"}]},{"lat":"37.276983202","long":"127.04988892","items":[{"name":"하이파이브스포츠","tel":"031-236-4936","addr":"경기도 수원시 영통구 원천동 582-2번지 1층","category":"레져용품 - 스포츠·레져용품"}]},{"lat":"37.276847544","long":"127.0511404","items":[{"name":"한국에너지","tel":"031-213-6764","addr":"경기도 수원시 영통구 원천동 578-4번지 1층","category":"전기제품 - 기타전기제품"}]},{"lat":"37.267488531","long":"127.06477589","items":[{"name":"한길씽크","tel":"031-217-0667","addr":"경기도 수원시 영통구 원천동 265-24번지","category":"주방용구 - 주방용구"}]},{"lat":"37.266353796","long":"127.06369268","items":[{"name":"한나식당","tel":"031-213-5074","addr":"경기도 수원시 영통구 원천동 257-9번지","category":"일반휴게음식 - 일반한식"},{"name":"한나퀸","tel":"031-238-5566","addr":"경기도 수원시 영통구 원천동 257-9번지","category":"보건위생 - 화장품"}]},{"lat":"37.275435236","long":"127.04510731","items":[{"name":"한마리정육식당","tel":"031-216-8682","addr":"경기도 수원시 영통구 원천동 32-13번지 1층","category":"일반휴게음식 - 일반한식"}]},{"lat":"37.27546257","long":"127.04425041","items":[{"name":"한마음정육식당","tel":"031-217-4116","addr":"경기도 수원시 영통구 원천동 27-7번지","category":"일반휴게음식 - 일반한식"}]},{"lat":"37.277323974","long":"127.0538017","items":[{"name":"한영개발","tel":"031-965-7390","addr":"경기도 수원시 영통구 원천동 산 58-10","category":"자동차정비 유지 - 주차장"}]},{"lat":"37.277379228","long":"127.05094906","items":[{"name":"한우명가","tel":"031-214-9255","addr":"경기도 수원시 영통구 원천동 577-5번지 1층","category":"일반휴게음식 - 일반한식"}]},{"lat":"37.27659767","long":"127.04480353","items":[{"name":"할머니부대찌개","tel":"031-211-7760","addr":"경기도 수원시 영통구 원천동 29-41번지 1층","category":"일반휴게음식 - 일반한식"}]},{"lat":"37.273631","long":"127.05083393","items":[{"name":"해와담/(주)용남이야기","tel":"031-212-6524","addr":"경기도 수원시 영통구 원천동 93-2번지 ,1,2층","category":"일반휴게음식 - 일반한식"}]},{"lat":"37.259569255","long":"127.06328141","items":[{"name":"행복한식뷔페","tel":"031-214-0287","addr":"경기도 수원시 영통구 원천동 407-5번지","category":"일반휴게음식 - 일반한식"}]},{"lat":"37.259848996","long":"127.06244745","items":[{"name":"호남식당","tel":"031-211-4993","addr":"경기도 수원시 영통구 원천동 373번지 1층 전체","category":"일반휴게음식 - 일반한식"}]},{"lat":"37.274542824","long":"127.04620048","items":[{"name":"홈마트","tel":"031-212-6546","addr":"경기도 수원시 영통구 원천동 72-86번지 1층","category":"유통업 영리 - 슈퍼마켓"}]},{"lat":"37.259542068","long":"127.06358575","items":[{"name":"화성써모","tel":"031-214-2286","addr":"경기도 수원시 영통구 원천동 406번지","category":"수리서비스 - 기타수리서비스"}]},{"lat":"37.267155297","long":"127.06449377","items":[{"name":"황금정","tel":"031-211-4833","addr":"경기도 수원시 영통구 원천동 263-1","category":"일반휴게음식 - 일반한식"}]},{"lat":"37.266741111","long":"127.06394102","items":[{"name":"황소곱창","tel":"031-215-5599","addr":"경기도 수원시 영통구 원천동 329-1번지","category":"일반휴게음식 - 일반한식"}]},{"lat":"37.278072863","long":"127.05133287","items":[{"name":"후퍼옵틱 동수원점","tel":"031-217-5020","addr":"경기도 수원시 영통구 원천동 574-2번지","category":"자동차정비 유지 - 카인테리어"}]},{"lat":"37.277850311","long":"127.04419534","items":[{"name":"휴가","tel":"031-297-6055","addr":"경기도 수원시 영통구 원천동 25-1번지 명성연립 109호","category":"문화.취미 - 애완동물"}]}]