[{"lat":"37.683460641","long":"126.70124955","items":[{"name":"KOREA LIMOUSINE(코리아리모엔터프라이즈)","tel":"031-925-0666","addr":"경기도 고양시 일산서구 송산로","category":"자동차정비 유지 - 자동차정비"}]},{"lat":"37.68510006","long":"126.72304359","items":[{"name":"가인무용학원","tel":"031-921-8655","addr":"경기도 고양시 일산서구 송산로","category":"학원 - 예·체능계학원"}]},{"lat":"37.683653902","long":"126.71735806","items":[{"name":"가좌치킨","tel":"031-923-1467","addr":"경기도 고양시 일산서구 송산로","category":"일반휴게음식 - 서양음식"}]},{"lat":"37.685431904","long":"126.72240748","items":[{"name":"경희가좌한의원","tel":"031-923-0175","addr":"경기도 고양시 일산서구 송산로","category":"의원 - 한의원"},{"name":"아이콘베이상사","tel":"031-921-0492","addr":"경기도 고양시 일산서구 송산로","category":"서적문구 - 문구용품"}]},{"lat":"37.688431056","long":"126.7335521","items":[{"name":"나주가마솥곰탕","tel":"031-914-2349","addr":"경기도 고양시 일산서구 송산로","category":"일반휴게음식 - 일반한식"}]},{"lat":"37.682598822","long":"126.70246604","items":[{"name":"미가","tel":"031-923-0669","addr":"경기도 고양시 일산서구 송산로","category":"일반휴게음식 - 일반한식"}]},{"lat":"37.683156922","long":"126.70227107","items":[{"name":"백암토종순대국","tel":"031-923-7199","addr":"경기도 고양시 일산서구 송산로","category":"일반휴게음식 - 일반한식"}]},{"lat":"37.690654841","long":"126.73682064","items":[{"name":"새한마트","tel":"031-916-5206","addr":"경기도 고양시 일산서구 송산로","category":"유통업 영리 - 슈퍼마켓"}]},{"lat":"37.684067654","long":"126.71707305","items":[{"name":"서정식당","tel":"031-976-6987","addr":"경기도 고양시 일산서구 송산로","category":"일반휴게음식 - 일반한식"},{"name":"우리동네꽃족발","tel":"031-918-4232","addr":"경기도 고양시 일산서구 송산로","category":"일반휴게음식 - 일반한식"}]},{"lat":"37.682849759","long":"126.70194355","items":[{"name":"아이러브 컴퍼니","tel":"02-1599-0791","addr":"경기도 고양시 일산서구 송산로","category":"회원제형태 - 기타3"}]},{"lat":"37.690013421","long":"126.73605198","items":[{"name":"일산밧데리가장싼곳","tel":"031-917-3311","addr":"경기도 고양시 일산서구 송산로","category":"자동차정비 유지 - 자동차부품"}]},{"lat":"37.6905725","long":"126.73626539","items":[{"name":"주식회사 카인카모터스","tel":"031-916-3558","addr":"경기도 고양시 일산서구 송산로","category":"자동차정비 유지 - 자동차정비"}]},{"lat":"37.683794064","long":"126.71571371","items":[{"name":"행운마트","tel":"031-970-6270","addr":"경기도 고양시 일산서구 송산로","category":"유통업 영리 - 슈퍼마켓"}]}]