[{"lat":"37.692987938","long":"126.78010086","items":[{"name":"J찬5첩한식","tel":"031-975-6428","addr":"경기도 고양시 일산동구 중산로","category":"일반휴게음식 - 일반한식"}]},{"lat":"37.692240915","long":"126.78051126","items":[{"name":"김밥마당","tel":"031-977-4378","addr":"경기도 고양시 일산동구 중산로","category":"일반휴게음식 - 스넥"},{"name":"웰빙축산","tel":"031-975-2033","addr":"경기도 고양시 일산동구 중산로","category":"음료식품 - 정육점"}]},{"lat":"37.694487301","long":"126.78210324","items":[{"name":"꿈사랑어린이집[아이행복]","tel":"031-975-4399","addr":"경기도 고양시 일산동구 중산로","category":"학원 - 유아원"}]},{"lat":"37.697260736","long":"126.78128997","items":[{"name":"더디자인","tel":"031-913-3813","addr":"경기도 고양시 일산동구 중산로","category":"유통업 영리 - 기타유통업"}]},{"lat":"37.694321996","long":"126.78043701","items":[{"name":"드림실용음악학원","tel":"031-975-7479","addr":"경기도 고양시 일산동구 중산로","category":"회원제형태 - 학원"}]},{"lat":"37.692547411","long":"126.78060105","items":[{"name":"드림에듀아동교육센터","tel":"070-8157-0435","addr":"경기도 고양시 일산동구 중산로","category":"보건위생 - 기타대인서비스"},{"name":"전영베누스","tel":"031-976-1337","addr":"경기도 고양시 일산동구 중산로","category":"보건위생 - 미용원"}]},{"lat":"37.69081928","long":"126.78151322","items":[{"name":"서오능신호등장작구이일산점","tel":"031-977-7457","addr":"경기도 고양시 일산동구 중산로","category":"일반휴게음식 - 일반한식"}]},{"lat":"37.693654968","long":"126.78026893","items":[{"name":"스타일","tel":"031-975-7051","addr":"경기도 고양시 일산동구 중산로","category":"의류 - 정장"}]},{"lat":"37.692403151","long":"126.78054479","items":[{"name":"에스현음악학원","tel":"031-975-9751","addr":"경기도 고양시 일산동구 중산로","category":"학원 - 예·체능계학원"}]},{"lat":"37.680763653","long":"126.78104431","items":[{"name":"오렌지","tel":"031-818-9518","addr":"경기도 고양시 일산동구 중산로","category":"회원제형태 - 기타3"}]},{"lat":"37.694232926","long":"126.78098151","items":[{"name":"용인대 스마트 태권도","tel":"031-975-1184","addr":"경기도 고양시 일산동구 중산로","category":"학원 - 예·체능계학원"}]},{"lat":"37.694177736","long":"126.78038075","items":[{"name":"윤채림핫요가","tel":"031-976-4447","addr":"경기도 고양시 일산동구 중산로","category":"회원제형태 - 레져업소"}]},{"lat":"37.695015155","long":"126.78012881","items":[{"name":"중산농수축산할인매장","tel":"031-976-5400","addr":"경기도 고양시 일산동구 중산로","category":"음료식품 - 정육점"}]},{"lat":"37.685042757","long":"126.78079349","items":[{"name":"테스수학과학경시센터학원","tel":"070-8119-7700","addr":"경기도 고양시 일산동구 중산로","category":"학원 - 보습학원"}]},{"lat":"37.681159755","long":"126.78087309","items":[{"name":"피엠푸드 중산하늘마을점","tel":"031-975-1056","addr":"경기도 고양시 일산동구 중산로","category":"일반휴게음식 - 서양음식"}]}]