[{"lat":"37.048044131","long":"127.19471643","items":[{"name":"(주)대신식품","tel":"031-674-0084","addr":"경기도 안성시 양성면 덕봉리 58-7번지","category":"음료식품 - 농·축·수산품"}]},{"lat":"37.053992847","long":"127.18796356","items":[{"name":"덕봉낚시터","tel":"031-673-4529","addr":"경기도 안성시 양성면 덕봉리 산8","category":"레저업소 - 기타레져업소"}]},{"lat":"37.043824204","long":"127.1851624","items":[{"name":"덕봉농자재","tel":"031-673-9568","addr":"경기도 안성시 양성면 덕봉리 261-5번지","category":"농업 - 기타농업관련"}]},{"lat":"37.043570887","long":"127.185825","items":[{"name":"덕봉아레나","tel":"02-1111-1111","addr":"경기도 안성시 양성면 덕봉리 263-1번지","category":"레저업소 - 기타레져업소"}]},{"lat":"37.044930246","long":"127.19235924","items":[{"name":"삼광건재","tel":"031-663-7380","addr":"경기도 안성시 양성면 덕봉리 120-1번지","category":"건축자재 - 목재·석재·철물"}]},{"lat":"37.045020392","long":"127.1866041","items":[{"name":"선비마을","tel":"031-672-6875","addr":"경기도 안성시 양성면 덕봉리 242번지","category":"음료식품 - 기타음료식품"}]},{"lat":"37.03907377","long":"127.18635373","items":[{"name":"이진명의노리공방","tel":"070-4642-0239","addr":"경기도 안성시 양성면 덕봉리 339번지","category":"음료식품 - 기타음료식품"},{"name":"집밥이이곳에","tel":"031-671-7057","addr":"경기도 안성시 양성면 덕봉리 339번지 가동 1층","category":"일반휴게음식 - 일반한식"}]}]