[{"lat":"37.753813018","long":"126.90835877","items":[{"name":"(주)전통등연구회","tel":"031-941-9138","addr":"경기도 파주시 광탄면 영장리 44","category":"문화.취미 - 민예·공예품"}]},{"lat":"37.774036585","long":"126.90491656","items":[{"name":"18시정육점","tel":"031-946-9218","addr":"경기도 파주시 광탄면 영장리 231번지","category":"음료식품 - 정육점"},{"name":"18시편의점","tel":"031-946-9218","addr":"경기도 파주시 광탄면 영장리 231번지","category":"유통업 영리 - 편 의 점"}]},{"lat":"37.774594567","long":"126.90418939","items":[{"name":"가송가든","tel":"031-948-2111","addr":"경기도 파주시 광탄면 영장리 276-2번지","category":"일반휴게음식 - 일반한식"}]},{"lat":"37.765063523","long":"126.9054164","items":[{"name":"고령농원","tel":"031-948-3333","addr":"경기도 파주시 광탄면 영장리 183-2번지","category":"일반휴게음식 - 일반한식"}]},{"lat":"37.771033003","long":"126.90089129","items":[{"name":"국조카센타","tel":"031-948-1867","addr":"경기도 파주시 광탄면 영장리 313-6","category":"자동차정비 유지 - 자동차부품"}]},{"lat":"37.753123697","long":"126.91403325","items":[{"name":"금호정","tel":"031-948-1025","addr":"경기도 파주시 광탄면 영장리 16-4번지","category":"일반휴게음식 - 일반한식"}]},{"lat":"37.775117422","long":"126.90455191","items":[{"name":"길손","tel":"031-948-2640","addr":"경기도 파주시 광탄면 영장리 234-3","category":"일반휴게음식 - 일반한식"}]},{"lat":"37.753423108","long":"126.91685836","items":[{"name":"꼭대기산장","tel":"031-948-7066","addr":"경기도 파주시 광탄면 영장리 16-16번지","category":"일반휴게음식 - 일반한식"}]},{"lat":"37.774757759","long":"126.90541503","items":[{"name":"나주곰탕","tel":"031-943-1886","addr":"경기도 파주시 광탄면 영장리 233-1번지","category":"일반휴게음식 - 일반한식"},{"name":"호야","tel":"031-947-0995","addr":"경기도 파주시 광탄면 영장리 233-1번지","category":"일반휴게음식 - 일반한식"}]},{"lat":"37.77239456","long":"126.90219469","items":[{"name":"너와집","tel":"031-949-1841","addr":"경기도 파주시 광탄면 영장리 301-5번지","category":"일반휴게음식 - 일반한식"}]},{"lat":"37.753150974","long":"126.91436229","items":[{"name":"노송","tel":"031-943-1053","addr":"경기도 파주시 광탄면 영장리 16-5번지","category":"일반휴게음식 - 일반한식"}]},{"lat":"37.75706875","long":"126.91255332","items":[{"name":"농서의류함","tel":"031-943-5989","addr":"경기도 파주시 광탄면 영장리 92번지","category":"신변잡화 - 기타잡화"},{"name":"현대장작","tel":"031-943-5989","addr":"경기도 파주시 광탄면 영장리 92번지","category":"연료판매점 - 기타연료"}]},{"lat":"37.757227318","long":"126.9079686","items":[{"name":"대고령식당","tel":"031-948-8282","addr":"경기도 파주시 광탄면 영장리 85-5번지","category":"일반휴게음식 - 일반한식"},{"name":"보광편의점","tel":"031-8071-0972","addr":"경기도 파주시 광탄면 영장리 85-5번지","category":"유통업 영리 - 편 의 점"}]},{"lat":"37.752902592","long":"126.91969576","items":[{"name":"대한불교조계종보광사","tel":"031-948-4440","addr":"경기도 파주시 광탄면 영장리 13","category":"보건위생 - 기타대인서비스"}]},{"lat":"37.753206389","long":"126.91618913","items":[{"name":"도자기카페","tel":"","addr":"경기도 파주시 광탄면 영장리 16-13번지","category":"일반휴게음식 - 서양음식"}]},{"lat":"37.753151618","long":"126.91522468","items":[{"name":"도토리집","tel":"031-948-1026","addr":"경기도 파주시 광탄면 영장리 16-18","category":"일반휴게음식 - 일반한식"}]},{"lat":"37.75620066","long":"126.90850325","items":[{"name":"동그라미여관","tel":"031-949-9975","addr":"경기도 파주시 광탄면 영장리 88-2번지","category":"숙박업 - 여관/기타숙박업"}]},{"lat":"37.768897535","long":"126.90064453","items":[{"name":"들꽃요양원","tel":"031-947-4334","addr":"경기도 파주시 광탄면 영장리 332-3번지","category":"기타의료기관 - 기타의료기관 및 기타"}]},{"lat":"37.76500875","long":"126.90455395","items":[{"name":"뚜거몰","tel":"031-000-0000","addr":"경기도 파주시 광탄면 영장리 355-1번지","category":"전기제품 - 가전제품"}]},{"lat":"37.775450849","long":"126.90464228","items":[{"name":"리멤버 호텔","tel":"02-000-0000","addr":"경기도 파주시 광탄면 영장리 234-1번지","category":"숙박업 - 여관/기타숙박업"}]},{"lat":"37.770698435","long":"126.89949571","items":[{"name":"리치케터링","tel":"031-941-5370","addr":"경기도 파주시 광탄면 영장리 314-3번지","category":"일반휴게음식 - 일반한식"}]},{"lat":"37.775451377","long":"126.90527791","items":[{"name":"명가람","tel":"031-948-3810","addr":"경기도 파주시 광탄면 영장리 261-6, -9","category":"일반휴게음식 - 일반한식"}]},{"lat":"37.776591695","long":"126.90069069","items":[{"name":"명품수성광택","tel":"031-946-8934","addr":"경기도 파주시 광탄면 영장리 268-27번지","category":"자동차정비 유지 - 카인테리어"}]},{"lat":"37.775677957","long":"126.90691211","items":[{"name":"목우촌마을파주광탄점","tel":"031-944-9744","addr":"경기도 파주시 광탄면 영장리 238-8번지","category":"일반휴게음식 - 일반한식"}]},{"lat":"37.770924692","long":"126.90066444","items":[{"name":"몽쉘","tel":"031-947-5995","addr":"경기도 파주시 광탄면 영장리 313-9번지","category":"일반휴게음식 - 일반한식"},{"name":"행복한밥상","tel":"031-963-4181","addr":"경기도 파주시 광탄면 영장리 313-9번지","category":"일반휴게음식 - 일반한식"}]},{"lat":"37.76200895","long":"126.90500051","items":[{"name":"미니스톱 파주영장점","tel":"031-1577-9621","addr":"경기도 파주시 광탄면 영장리 165-4번지","category":"유통업 영리 - 편 의 점"}]},{"lat":"37.77131268","long":"126.90133356","items":[{"name":"베이징","tel":"031-945-9997","addr":"경기도 파주시 광탄면 영장리 312-1번지","category":"일반휴게음식 - 중국식"}]},{"lat":"37.752175691","long":"126.91141321","items":[{"name":"부경골가든","tel":"031-941-8058","addr":"경기도 파주시 광탄면 영장리 35번지","category":"일반휴게음식 - 일반한식"}]},{"lat":"37.765088979","long":"126.90353243","items":[{"name":"세븐일레븐파주광탄영장점","tel":"031-1577-0711","addr":"경기도 파주시 광탄면 영장리 357-2번지","category":"유통업 영리 - 편 의 점"}]},{"lat":"37.753233032","long":"126.91566712","items":[{"name":"소나무집","tel":"031-948-1021","addr":"경기도 파주시 광탄면 영장리 16-9","category":"일반휴게음식 - 일반한식"}]},{"lat":"37.77944966","long":"126.90296835","items":[{"name":"소령원숲속","tel":"031-948-0052","addr":"경기도 파주시 광탄면 영장리 268-42번지","category":"일반휴게음식 - 일반한식"}]},{"lat":"37.774260375","long":"126.903191","items":[{"name":"소령원장단콩두부마을","tel":"031-957-6202","addr":"경기도 파주시 광탄면 영장리 277번지","category":"일반휴게음식 - 일반한식"}]},{"lat":"37.75347897","long":"126.9074968","items":[{"name":"소문난밥집","tel":"031-941-9890","addr":"경기도 파주시 광탄면 영장리 60번지","category":"일반휴게음식 - 일반한식"}]},{"lat":"37.754651574","long":"126.90919741","items":[{"name":"소문난카매트앤커피","tel":"","addr":"경기도 파주시 광탄면 영장리 79-3번지","category":"일반휴게음식 - 서양음식"},{"name":"올뉴카매트","tel":"","addr":"경기도 파주시 광탄면 영장리 79-3번지","category":"자동차정비 유지 - 자동차부품"}]},{"lat":"37.753205878","long":"126.91549695","items":[{"name":"솔향기","tel":"031-942-3911","addr":"경기도 파주시 광탄면 영장리 16-8번지","category":"일반휴게음식 - 일반한식"}]},{"lat":"37.758678216","long":"126.90842067","items":[{"name":"송도아구찜.탕","tel":"031-947-8059","addr":"경기도 파주시 광탄면 영장리 97번지","category":"일반휴게음식 - 일반한식"}]},{"lat":"37.773700295","long":"126.90144379","items":[{"name":"슈퍼 사루 디자인","tel":"031-949-3486","addr":"경기도 파주시 광탄면 영장리 289-1번지","category":"건축자재 - 인테리어전문"}]},{"lat":"37.772565361","long":"126.9017518","items":[{"name":"스타닭스","tel":"031-943-4455","addr":"경기도 파주시 광탄면 영장리 295-15","category":"일반휴게음식 - 주점"},{"name":"신만슈퍼","tel":"031-948-4306","addr":"경기도 파주시 광탄면 영장리 295-15번지","category":"유통업 영리 - 슈퍼마켓"}]},{"lat":"37.752400585","long":"126.9109704","items":[{"name":"시골보리밥집","tel":"031-946-0173","addr":"경기도 파주시 광탄면 영장리 37번지 ***연번지,38","category":"일반휴게음식 - 일반한식"}]},{"lat":"37.758011037","long":"126.90783142","items":[{"name":"시실리","tel":"031-948-6338","addr":"경기도 파주시 광탄면 영장리 102-4번지","category":"숙박업 - 여관/기타숙박업"},{"name":"시실리","tel":"031-948-6338","addr":"경기도 파주시 광탄면 영장리 102-4번지","category":"숙박업 - 여관/기타숙박업"},{"name":"시실리","tel":"031-948-6338","addr":"경기도 파주시 광탄면 영장리 102-4번지","category":"숙박업 - 여관/기타숙박업"}]},{"lat":"37.753148013","long":"126.91050424","items":[{"name":"아리솔매장","tel":"","addr":"경기도 파주시 광탄면 영장리 39-2번지","category":"음료식품 - 기타음료식품"}]},{"lat":"37.770563928","long":"126.90022229","items":[{"name":"연수네","tel":"031-941-8077","addr":"경기도 파주시 광탄면 영장리 314-9번지","category":"일반휴게음식 - 일반한식"},{"name":"진이네식당","tel":"031-946-4968","addr":"경기도 파주시 광탄면 영장리 314-9","category":"일반휴게음식 - 일반한식"}]},{"lat":"37.775706114","long":"126.9083082","items":[{"name":"영장주유소","tel":"031-948-7772","addr":"경기도 파주시 광탄면 영장리 244-2번지","category":"연료판매점 - 현대정유(오일뱅크)"}]},{"lat":"37.765227127","long":"126.90716394","items":[{"name":"예목몰","tel":"031-948-1566","addr":"경기도 파주시 광탄면 영장리 186-1번지","category":"용역 서비스 - 가례서비스업"}]},{"lat":"37.762342603","long":"126.90536323","items":[{"name":"오복이네한식부페&선지해장국","tel":"031-949-1518","addr":"경기도 파주시 광탄면 영장리 166번지","category":"일반휴게음식 - 일반한식"}]},{"lat":"37.757371762","long":"126.90833155","items":[{"name":"왕솥뚜껑삼겹살","tel":"031-947-2041","addr":"경기도 파주시 광탄면 영장리 85-4번지","category":"일반휴게음식 - 일반한식"}]},{"lat":"37.775559472","long":"126.90525507","items":[{"name":"우연심","tel":"070-4307-1754","addr":"경기도 파주시 광탄면 영장리 261-2번지","category":"일반휴게음식 - 일반한식"}]},{"lat":"37.773754732","long":"126.90188638","items":[{"name":"움터","tel":"031-967-1285","addr":"경기도 파주시 광탄면 영장리 287번지","category":"일반휴게음식 - 일반한식"}]},{"lat":"37.756866626","long":"126.90758324","items":[{"name":"원니스","tel":"","addr":"경기도 파주시 광탄면 영장리 83번지","category":"직물 - 카페트,커튼,천막,지물"},{"name":"주식회사 한성컴퍼니","tel":"031-947-8551","addr":"경기도 파주시 광탄면 영장리 83번지","category":"의류 - 아동의류"}]},{"lat":"37.773142774","long":"126.90269308","items":[{"name":"은진식당","tel":"031-948-5241","addr":"경기도 파주시 광탄면 영장리 304-6번지","category":"일반휴게음식 - 일반한식"}]},{"lat":"37.756506957","long":"126.90846882","items":[{"name":"이즈아이","tel":"032-947-1221","addr":"경기도 파주시 광탄면 영장리 86-23번지","category":"가구 - 일반가구"}]},{"lat":"37.774921408","long":"126.90721955","items":[{"name":"전주가든","tel":"031-947-6261","addr":"경기도 파주시 광탄면 영장리 243-1번지","category":"일반휴게음식 - 일반한식"}]},{"lat":"37.763846267","long":"126.90424907","items":[{"name":"정코퍼레이션","tel":"031-941-0666","addr":"경기도 파주시 광탄면 영장리 179-50번지","category":"기타 - 기계공구"}]},{"lat":"37.764116874","long":"126.90463457","items":[{"name":"제이투모로우","tel":"070-4150-1896","addr":"경기도 파주시 광탄면 영장리 179-19번지","category":"신변잡화 - 가방"}]},{"lat":"37.760479517","long":"126.90766939","items":[{"name":"청수골","tel":"031-945-8540","addr":"경기도 파주시 광탄면 영장리 128-10번지","category":"일반휴게음식 - 일반한식"}]},{"lat":"37.756373076","long":"126.91005767","items":[{"name":"태은산업","tel":"031-948-0022","addr":"경기도 파주시 광탄면 영장리 88-14번지","category":"가구 - 일반가구"}]},{"lat":"37.754812811","long":"126.90802842","items":[{"name":"통나무언덕길전통차커피","tel":"031-949-5251","addr":"경기도 파주시 광탄면 영장리 80-1번지","category":"일반휴게음식 - 일반한식"}]},{"lat":"37.756755605","long":"126.90405422","items":[{"name":"파이널스타디움 주식회사","tel":"031-945-7717","addr":"경기도 파주시 광탄면 영장리 68-2번지","category":"레져용품 - 스포츠·레져용품"}]},{"lat":"37.757732216","long":"126.90842187","items":[{"name":"평양막국수","tel":"031-948-4631","addr":"경기도 파주시 광탄면 영장리 102-7번지","category":"일반휴게음식 - 일반한식"}]},{"lat":"37.755398894","long":"126.9086064","items":[{"name":"플레이랜드","tel":"031-941-0209","addr":"경기도 파주시 광탄면 영장리 90-4번지","category":"일반휴게음식 - 서양음식"}]},{"lat":"37.755922206","long":"126.90955894","items":[{"name":"플레이랜드 캠핑장","tel":"031-942-2557","addr":"경기도 파주시 광탄면 영장리 90-1번지","category":"숙박업 - 여관/기타숙박업"}]},{"lat":"37.764560855","long":"126.9076982","items":[{"name":"한아름","tel":"031-946-4079","addr":"경기도 파주시 광탄면 영장리 182-2","category":"음료식품 - 기타음료식품"}]},{"lat":"37.775398255","long":"126.90641304","items":[{"name":"한자리찻집","tel":"031-947-7082","addr":"경기도 파주시 광탄면 영장리 238-1번지","category":"일반휴게음식 - 서양음식"}]},{"lat":"37.755651161","long":"126.90860608","items":[{"name":"효자관","tel":"031-943-9966","addr":"경기도 파주시 광탄면 영장리 89-6번지","category":"일반휴게음식 - 중국식"}]}]