[{"lat":"37.62200159","long":"126.8350574","items":[{"name":"S.M공조","tel":"070-7584-1543","addr":"경기도 고양시 덕양구 충장로","category":"용역 서비스 - 기타용역서비스"},{"name":"샘터아이누리어린이집[아이행복]","tel":"031-971-7006","addr":"경기도 고양시 덕양구 충장로","category":"학원 - 유아원"}]},{"lat":"37.622667889","long":"126.83476139","items":[{"name":"꿈의나무 음악학원","tel":"031-971-7900","addr":"경기도 고양시 덕양구 충장로","category":"학원 - 예·체능계학원"},{"name":"샘터목욕탕","tel":"031-976-7798","addr":"경기도 고양시 덕양구 충장로","category":"보건위생 - 사우나"},{"name":"통큰아구찜","tel":"031-973-4797","addr":"경기도 고양시 덕양구 충장로","category":"일반휴게음식 - 일반한식"}]},{"lat":"37.613134044","long":"126.83368424","items":[{"name":"노가리까자","tel":"031-812-8282","addr":"경기도 고양시 덕양구 충장로","category":"일반휴게음식 - 일반한식"}]},{"lat":"37.61996831","long":"126.83712347","items":[{"name":"노니타임","tel":"031-814-0569","addr":"경기도 고양시 덕양구 충장로","category":"회원제형태 - 기타1"}]},{"lat":"37.614720824","long":"126.83442817","items":[{"name":"리멤버(Remember)","tel":"031-0000-0000","addr":"경기도 고양시 덕양구 충장로","category":"일반휴게음식 - 서양음식"}]},{"lat":"37.622272332","long":"126.83537395","items":[{"name":"베리스타행신독서실","tel":"031-970-8209","addr":"경기도 고양시 덕양구 충장로 118","category":"학원 - 독서실"},{"name":"정가빈헤어","tel":"031-970-0888","addr":"경기도 고양시 덕양구 충장로","category":"보건위생 - 미용원"}]},{"lat":"37.61421628","long":"126.83442931","items":[{"name":"비바체당구클럽","tel":"032-670-7350","addr":"경기도 고양시 덕양구 충장로","category":"레저업소 - 당 구 장"},{"name":"아모레카운셀러","tel":"031-978-9361","addr":"경기도 고양시 덕양구 충장로","category":"보건위생 - 화장품"},{"name":"아모레퍼시픽카운셀러","tel":"031-978-9361","addr":"경기도 고양시 덕양구 충장로","category":"보건위생 - 화장품"}]},{"lat":"37.621471063","long":"126.83579485","items":[{"name":"아란스킨케어","tel":"031-970-2520","addr":"경기도 고양시 덕양구 충장로","category":"회원제형태 - 기타4"}]},{"lat":"37.624298887","long":"126.83492763","items":[{"name":"앤솝(EnSOAP)","tel":"070-7807-2818","addr":"경기도 고양시 덕양구 충장로","category":"신변잡화 - 기타잡화"},{"name":"주식회사 소노콘(SONOCON.Co.Ltd)","tel":"031-979-5848","addr":"경기도 고양시 덕양구 충장로","category":"전기제품 - 가전제품"},{"name":"풍뎅이영어도서관","tel":"031-974-0588","addr":"경기도 고양시 덕양구 충장로","category":"학원 - 보습학원"},{"name":"피자알볼로","tel":"031-978-8495","addr":"경기도 고양시 덕양구 충장로","category":"일반휴게음식 - 스넥"}]},{"lat":"37.613719627","long":"126.83364893","items":[{"name":"에코이즈","tel":"031-978-2725","addr":"경기도 고양시 덕양구 충장로","category":"회원제형태 - 기타4"},{"name":"피자헛행신역점","tel":"031-971-5700","addr":"경기도 고양시 덕양구 충장로","category":"일반휴게음식 - 서양음식"}]},{"lat":"37.624632569","long":"126.83515343","items":[{"name":"이삭기독백화점","tel":"031-970-1145","addr":"경기도 고양시 덕양구 충장로","category":"서적문구 - 전문서적"}]},{"lat":"37.614549639","long":"126.83442856","items":[{"name":"종심이닭도리탕","tel":"031-974-3989","addr":"경기도 고양시 덕양구 충장로","category":"일반휴게음식 - 일반한식"},{"name":"한사발","tel":"031-938-0055","addr":"경기도 고양시 덕양구 충장로","category":"일반휴게음식 - 일반한식"}]},{"lat":"37.613945988","long":"126.83442992","items":[{"name":"주식회사 아이엔피/비씨","tel":"","addr":"경기도 고양시 덕양구 충장로","category":"별도관리 - 자체물품대금"}]},{"lat":"37.620896978","long":"126.83759714","items":[{"name":"하나린어린이집[아이행복]","tel":"031-938-0700","addr":"경기도 고양시 덕양구 충장로","category":"학원 - 유아원"}]},{"lat":"37.625111464","long":"126.83612654","items":[{"name":"행신조은의원","tel":"031-971-3385","addr":"경기도 고양시 덕양구 충장로","category":"의원 - 의원"}]},{"lat":"37.613360389","long":"126.83445389","items":[{"name":"현대그린행신점세차장","tel":"031-972-8221","addr":"경기도 고양시 덕양구 충장로 6","category":""}]}]