[{"lat":"37.533261975","long":"127.18431029","items":[{"name":"(주)고향유통(서울지사)","tel":"031-792-1806","addr":"경기도 하남시 초일동 219-1번지","category":"음료식품 - 정육점"}]},{"lat":"37.53609387","long":"127.18831108","items":[{"name":"(주)금홍팬시","tel":"031-793-2965","addr":"경기도 하남시 초일동 140번지","category":"서적문구 - 문구용품"},{"name":"주식회사 스튜디오8","tel":"","addr":"경기도 하남시 초일동 140번지","category":"신변잡화 - 기념품점"}]},{"lat":"37.533209493","long":"127.18328061","items":[{"name":"(주)드림오션","tel":"031-792-8010","addr":"경기도 하남시 초일동 257-1번지","category":"문화.취미 - 수족관"},{"name":"주식회사 대산이엔지","tel":"031-793-8872","addr":"경기도 하남시 초일동 257-1번지","category":"전기제품 - 냉열기기"}]},{"lat":"37.539929093","long":"127.18442828","items":[{"name":"(주)보성녹돈서울경기센타","tel":"031-765-4572","addr":"경기도 하남시 초일동 101-6번지","category":"음료식품 - 정육점"},{"name":"주식회사 대성푸드시스템","tel":"031-794-1314","addr":"경기도 하남시 초일동 101-6번지","category":"음료식품 - 정육점"}]},{"lat":"37.534154296","long":"127.18408618","items":[{"name":"(주)썬바라이앤씨","tel":"02-475-1605","addr":"경기도 하남시 초일동 213-2번지","category":"건축자재 - 기타건축자재"}]},{"lat":"37.532903746","long":"127.18289521","items":[{"name":"(주)웰트리","tel":"031-792-1915","addr":"경기도 하남시 초일동 277-2번지","category":"직물 - 침구·수예점"}]},{"lat":"37.533514372","long":"127.18423171","items":[{"name":"(주)중앙엔트리","tel":"031-793-4289","addr":"경기도 하남시 초일동 215-7번지","category":"건축자재 - 기타건축자재"}]},{"lat":"37.539955409","long":"127.18489225","items":[{"name":"(주)지엔씨팜","tel":"","addr":"경기도 하남시 초일동 101-8번지","category":"기타 - 기계공구"}]},{"lat":"37.534622808","long":"127.18408731","items":[{"name":"(주)한군컴퍼니","tel":"031-1577-3209","addr":"경기도 하남시 초일동 203-2번지","category":"문화.취미 - 애완동물"}]},{"lat":"37.537127836","long":"127.18390103","items":[{"name":"(주)헤브론에프씨","tel":"02-396-0272","addr":"경기도 하남시 초일동 195번지","category":"의류 - 정장"}]},{"lat":"37.538263941","long":"127.17734133","items":[{"name":"강남메디","tel":"031-225-2724","addr":"경기도 하남시 초일동 318-8번지 1층","category":"의류 - 내의판매"}]},{"lat":"37.531100672","long":"127.18361494","items":[{"name":"고울자연염색","tel":"031-794-4241","addr":"경기도 하남시 초일동 246번지 1,2층","category":"신변잡화 - 기타잡화"}]},{"lat":"37.538237907","long":"127.18850873","items":[{"name":"광명냉동탑공업사","tel":"031-796-9173","addr":"경기도 하남시 초일동 127-1번지","category":"수리서비스 - 기타수리서비스"}]},{"lat":"37.543100655","long":"127.18436808","items":[{"name":"군계일학","tel":"","addr":"경기도 하남시 초일동 산2-1번지","category":"레져용품 - 스포츠·레져용품"}]},{"lat":"37.542511993","long":"127.18042896","items":[{"name":"군계일학","tel":"02-2203-1733","addr":"경기도 하남시 초일동 49번지","category":"레져용품 - 스포츠·레져용품"},{"name":"주식회사 일학","tel":"031-793-1766","addr":"경기도 하남시 초일동 49번지","category":"레져용품 - 스포츠·레져용품"}]},{"lat":"37.535323903","long":"127.18517516","items":[{"name":"금성테크","tel":"031-793-6318","addr":"경기도 하남시 초일동 186번지","category":"회원제형태 - 기타4"}]},{"lat":"37.531847934","long":"127.18397877","items":[{"name":"네스몰 주식회사","tel":"02-1544-3656","addr":"경기도 하남시 초일동 241-3번지","category":"전기제품 - 가전제품"},{"name":"아쿠아월드코리아(주)","tel":"02-412-5616","addr":"경기도 하남시 초일동 241-3번지","category":"주방용구 - 정수기"},{"name":"주식회사 유주약품","tel":"031-795-5480","addr":"경기도 하남시 초일동 241-3번지","category":"약국 - 제약회사"}]},{"lat":"37.535765856","long":"127.18487075","items":[{"name":"뉴네비원","tel":"02-455-1056","addr":"경기도 하남시 초일동 187-1번지","category":"자동차정비 유지 - 자동차부품"}]},{"lat":"37.532621372","long":"127.18489705","items":[{"name":"대경","tel":"02-445-3076","addr":"경기도 하남시 초일동 226-1번지","category":"음료식품 - 농·축·수산품"}]},{"lat":"37.537514842","long":"127.18417351","items":[{"name":"대진풍력","tel":"031-791-3384","addr":"경기도 하남시 초일동 194-1","category":"전기제품 - 기타전기제품"}]},{"lat":"37.53496274","long":"127.1856721","items":[{"name":"더 퍼스트","tel":"031-795-0357","addr":"경기도 하남시 초일동 207","category":"신변잡화 - 기타잡화"}]},{"lat":"37.53779188","long":"127.18564506","items":[{"name":"동아하이테크자바라","tel":"02-1588-5662","addr":"경기도 하남시 초일동 115-3번지","category":"건축자재 - 기타건축자재"}]},{"lat":"37.534323515","long":"127.18536506","items":[{"name":"동우건설중기","tel":"031-796-6842","addr":"경기도 하남시 초일동 206번지","category":"자동차정비 유지 - 자동차정비"}]},{"lat":"37.534545357","long":"127.17564688","items":[{"name":"동화냉동","tel":"02-428-6882","addr":"경기도 하남시 초일동 337-2","category":"전기제품 - 냉열기기"}]},{"lat":"37.545623711","long":"127.17820715","items":[{"name":"동화물류","tel":"02-443-6934","addr":"경기도 하남시 초일동 6-2","category":"건축자재 - 기타건축자재"},{"name":"힐링펠트(Healing Felt)","tel":"031-000-0000","addr":"경기도 하남시 초일동 6-2번지","category":"문화.취미 - 문화취미기타"}]},{"lat":"37.536958458","long":"127.1885395","items":[{"name":"동화상재","tel":"02-487-8672","addr":"경기도 하남시 초일동 131-1번지","category":"직물 - 카페트,커튼,천막,지물"}]},{"lat":"37.540648536","long":"127.17937225","items":[{"name":"라이트앤그립(Light N Grip)","tel":"031-794-3565","addr":"경기도 하남시 초일동 37-1번지","category":"건축자재 - 조명기구"}]},{"lat":"37.535712354","long":"127.18450857","items":[{"name":"라이트텍","tel":"","addr":"경기도 하남시 초일동 187-2번지","category":"기타 - 기계공구"}]},{"lat":"37.535404135","long":"127.18572975","items":[{"name":"라플람","tel":"","addr":"경기도 하남시 초일동 179-1번지","category":"용역 서비스 - 종합용역"}]},{"lat":"37.539459868","long":"127.18489104","items":[{"name":"렌탈천국","tel":"031-1644-1624","addr":"경기도 하남시 초일동 108-4번지 다동","category":"직물 - 카페트,커튼,천막,지물"}]},{"lat":"37.543182681","long":"127.18375725","items":[{"name":"루나상사","tel":"070-7752-7989","addr":"경기도 하남시 초일동 59-5","category":"레져용품 - 스포츠·레져용품"}]},{"lat":"37.534766061","long":"127.18467599","items":[{"name":"리피플로링","tel":"031-792-8180","addr":"경기도 하남시 초일동 204-1번지 나동","category":"건축자재 - 기타건축자재"}]},{"lat":"37.533292841","long":"127.18764794","items":[{"name":"부국통상","tel":"031-791-8908","addr":"경기도 하남시 초일동 160-1번지","category":"기타 - 기계공구"}]},{"lat":"37.531984777","long":"127.18287037","items":[{"name":"빅애플디자인","tel":"070-4659-2395","addr":"경기도 하남시 초일동 285번지","category":"용역 서비스 - 종합용역"}]},{"lat":"37.533407104","long":"127.18367707","items":[{"name":"사랑노인전문요양원","tel":"031-791-3114","addr":"경기도 하남시 초일동 258번지","category":"기타의료기관 - 기타의료기관 및 기타"}]},{"lat":"37.535649842","long":"127.18414636","items":[{"name":"삼거리식당","tel":"031-792-7798","addr":"경기도 하남시 초일동 201-1번지","category":"일반휴게음식 - 일반한식"}]},{"lat":"37.53653818","long":"127.18650189","items":[{"name":"삼원창호","tel":"031-794-7377","addr":"경기도 하남시 초일동 180번지","category":"건축자재 - 기타건축자재"}]},{"lat":"37.531872962","long":"127.1852799","items":[{"name":"상화울가든","tel":"031-793-0093","addr":"경기도 하남시 초일동 233번지","category":"일반휴게음식 - 일반한식"}]},{"lat":"37.536790754","long":"127.18631016","items":[{"name":"석호G.M.E","tel":"031-791-7533","addr":"경기도 하남시 초일동 182-7번지","category":"건축자재 - 유리"}]},{"lat":"37.538596601","long":"127.17781731","items":[{"name":"성기부동산","tel":"031-793-1515","addr":"경기도 하남시 초일동 318-14번지","category":"용역 서비스 - 부동산 중개·임대"}]},{"lat":"37.541565293","long":"127.18675183","items":[{"name":"성우금속인테리어","tel":"031-111-1111","addr":"경기도 하남시 초일동 105-4번지 외1필지(산2-1)","category":"건축자재 - 인테리어전문"}]},{"lat":"37.537375001","long":"127.18720544","items":[{"name":"소나무금속창호","tel":"070-4238-7107","addr":"경기도 하남시 초일동 121","category":"용역 서비스 - 기타용역서비스"}]},{"lat":"37.533932061","long":"127.18795499","items":[{"name":"소나무종합목재","tel":"031-792-7394","addr":"경기도 하남시 초일동 154-2번지","category":"건축자재 - 기타건축자재"}]},{"lat":"37.53429445","long":"127.18667741","items":[{"name":"쉬즈찜머","tel":"031-796-6188","addr":"경기도 하남시 초일동 172-2번지","category":"주방용구 - 주방용구"}]},{"lat":"37.532902519","long":"127.18369848","items":[{"name":"스타일랩(stylelab)","tel":"031-796-2663","addr":"경기도 하남시 초일동 256번지","category":"자동차정비 유지 - 자동차부품"}]},{"lat":"37.536516193","long":"127.18903624","items":[{"name":"시소라이팅","tel":"02-1899-8683","addr":"경기도 하남시 초일동 130번지","category":"건축자재 - 조명기구"}]},{"lat":"37.532652262","long":"127.18237417","items":[{"name":"아웃라인","tel":"031-789-5182","addr":"경기도 하남시 초일동 281-1번지 1동 1층 1호","category":"자동차정비 유지 - 자동차부품"}]},{"lat":"37.537706327","long":"127.18850742","items":[{"name":"아이원엘앤씨 주식회사","tel":"031-791-0660","addr":"경기도 하남시 초일동 126번지","category":"의류 - 정장"},{"name":"진우애드","tel":"02-475-2852","addr":"경기도 하남시 초일동 126번지","category":"용역 서비스 - 종합용역"}]},{"lat":"37.531290208","long":"127.18340044","items":[{"name":"아크릴하우스","tel":"031-795-7110","addr":"경기도 하남시 초일동 247번지 1층","category":"기타 - 기타 전문점"}]},{"lat":"37.545955558","long":"127.17922634","items":[{"name":"엄지스포츠","tel":"","addr":"경기도 하남시 초일동 3번지 지층","category":"회원제형태 - 학원"},{"name":"엄지스포츠","tel":"031-792-3887","addr":"경기도 하남시 초일동 3번지 2층","category":"학원 - 기타 교육기관"},{"name":"엄지스포츠아카데미","tel":"","addr":"경기도 하남시 초일동 3번지","category":"학원 - 기타 교육기관"},{"name":"엄지유아체육&이벤트","tel":"","addr":"경기도 하남시 초일동 3번지","category":"학원 - 기타 교육기관"}]},{"lat":"37.538654354","long":"127.18137024","items":[{"name":"에어팰리스어린이집[아이행복]","tel":"02-481-7700","addr":"경기도 하남시 초일동 산64-2번지","category":"학원 - 유아원"}]},{"lat":"37.539347152","long":"127.18200552","items":[{"name":"에이앤비(A&B)","tel":"02-486-7731","addr":"경기도 하남시 초일동 84-4번지","category":"사무통신 - 사무용 OA기기"}]},{"lat":"37.533570734","long":"127.17670813","items":[{"name":"영레이저","tel":"02-442-3802","addr":"경기도 하남시 초일동 363-1번지","category":"건축자재 - 기타건축자재"}]},{"lat":"37.545287374","long":"127.18019791","items":[{"name":"영신상사","tel":"031-793-2053","addr":"경기도 하남시 초일동 3-6번지","category":"기타 - 기계공구"}]},{"lat":"37.531873381","long":"127.18500837","items":[{"name":"원축산","tel":"070-4320-5946","addr":"경기도 하남시 초일동 232번지","category":"음료식품 - 정육점"}]},{"lat":"37.532233041","long":"127.18548442","items":[{"name":"이성산칼국수","tel":"031-791-1946","addr":"경기도 하남시 초일동 227-3번지 외1필지","category":"일반휴게음식 - 일반한식"}]},{"lat":"37.534461773","long":"127.18914427","items":[{"name":"이오골재산업","tel":"02-443-8912","addr":"경기도 하남시 초일동 148번지","category":"건축자재 - 기타건축자재"}]},{"lat":"37.541817427","long":"127.18684297","items":[{"name":"정 플로링","tel":"031-796-0884","addr":"경기도 하남시 초일동 106-4번지","category":"건축자재 - 기타건축자재"}]},{"lat":"37.535624215","long":"127.18322986","items":[{"name":"조우F&D","tel":"02-475-8001","addr":"경기도 하남시 초일동 268-1번지","category":"직물 - 카페트,커튼,천막,지물"}]},{"lat":"37.533323283","long":"127.18545314","items":[{"name":"주 에스앤디엔지니어링","tel":"070-0000-0000","addr":"경기도 하남시 초일동 222-10번지 1층","category":"용역 서비스 - 사무서비스"}]},{"lat":"37.540567701","long":"127.17920234","items":[{"name":"주식회사 시티엔텍","tel":"","addr":"경기도 하남시 초일동 38-1번지 1층","category":"건축자재 - 기타건축자재"}]},{"lat":"37.534537681","long":"127.18670064","items":[{"name":"주식회사 유성씨씨엘","tel":"031-795-4020","addr":"경기도 하남시 초일동 172-1번지","category":"용역 서비스 - 종합용역"}]},{"lat":"37.544291062","long":"127.18364677","items":[{"name":"준컴퓨터","tel":"02-428-0884","addr":"경기도 하남시 초일동 산2-3번지","category":"사무통신 - 컴퓨터"}]},{"lat":"37.538513122","long":"127.17942379","items":[{"name":"철인산업","tel":"02-427-3261","addr":"경기도 하남시 초일동 312번지","category":"주방용구 - 주방용구"}]},{"lat":"37.534209585","long":"127.18328302","items":[{"name":"초일조경","tel":"031-794-5952","addr":"경기도 하남시 초일동 263","category":"농업 - 비료,사료,종자"}]},{"lat":"37.533287541","long":"127.18526071","items":[{"name":"페가스유통","tel":"02-400-8250","addr":"경기도 하남시 초일동 222-1번지 한영빌딩 13층","category":"음료식품 - 기타음료식품"}]},{"lat":"37.533072421","long":"127.18453611","items":[{"name":"한솔 A/S 센터","tel":"02-1111-1111","addr":"경기도 하남시 초일동 219-5번지","category":"기타 - 기계공구"}]},{"lat":"37.533151746","long":"127.18567899","items":[{"name":"한영기업","tel":"031-793-7935","addr":"경기도 하남시 초일동 222번지","category":"기타 - 기계공구"}]}]