[{"lat":"37.81978464","long":"127.09209435","items":[{"name":"(주) 대성안전시스템","tel":"031-868-9411","addr":"경기도 양주시 옥정동 963-10번지 한길프라자 1층","category":"자동차정비 유지 - 주차장"},{"name":"(주)대성안전시스템","tel":"031-868-9412","addr":"경기도 양주시 옥정동 963-10번지 한길프라자 1층","category":"자동차정비 유지 - 주차장"},{"name":"경희 선 한의원","tel":"031-928-5637","addr":"경기도 양주시 옥정동 963-10번지 한길프라자 3층 305~307호","category":"의원 - 한의원"},{"name":"교정앞분식(양주옥정점)","tel":"031-868-8255","addr":"경기도 양주시 옥정동 963-10번지 한길프라자 114호","category":"일반휴게음식 - 스넥"},{"name":"더블유제이복싱클럽","tel":"031-865-2121","addr":"경기도 양주시 옥정동 963-10번지 8층 805호","category":"레저업소 - 헬스클럽"},{"name":"레고플레이","tel":"031-861-1102","addr":"경기도 양주시 옥정동 963-10번지 한길프라자 605호","category":"학원 - 기타 교육기관"},{"name":"르누아 플로르","tel":"070-8844-0608","addr":"경기도 양주시 옥정동 963-10번지 105호","category":"문화.취미 - 화원"},{"name":"멍냥스토리","tel":"031-857-7977","addr":"경기도 양주시 옥정동 963-10번지 4층 403호","category":"문화.취미 - 애완동물"},{"name":"명랑시대 쌀핫도그 양주옥정점","tel":"","addr":"경기도 양주시 옥정동 963-10번지 1층 113호","category":"일반휴게음식 - 일반한식"},{"name":"모토","tel":"031-861-8832","addr":"경기도 양주시 옥정동 963-10번지 한길프라자 1층 108호","category":"의류 - 아동의류"},{"name":"미소(miso) LED","tel":"02-2261-3601","addr":"경기도 양주시 옥정동 963-10번지 한길프라자 5층 505호","category":"건축자재 - 조명기구"},{"name":"설빙카페옥정점","tel":"031-866-1003","addr":"경기도 양주시 옥정동 963-10번지 한길프라자 2층 204호","category":"일반휴게음식 - 서양음식"},{"name":"아리바학원","tel":"","addr":"경기도 양주시 옥정동 963-10번지 4층 1호","category":"학원 - 보습학원"},{"name":"에듀앤에스","tel":"","addr":"경기도 양주시 옥정동 963-10번지 515호","category":"학원 - 기타 교육기관"},{"name":"옥정줄리어드음악학원","tel":"031-866-3737","addr":"경기도 양주시 옥정동 963-10번지 705호","category":"학원 - 예·체능계학원"},{"name":"옥정필아트미술학원","tel":"031-859-3737","addr":"경기도 양주시 옥정동 963-10번지 402호","category":"학원 - 예·체능계학원"},{"name":"옥정한식뷔페","tel":"031-858-9080","addr":"경기도 양주시 옥정동 963-10번지 207호","category":"일반휴게음식 - 일반한식"},{"name":"올트(AIIT)","tel":"","addr":"경기도 양주시 옥정동 963-10번지 한길프라자 9층 907호","category":"레저업소 - 헬스클럽"},{"name":"용인대 청명태권도장","tel":"031-866-1140","addr":"경기도 양주시 옥정동 963-10번지 7층 706호","category":"학원 - 예·체능계학원"},{"name":"유투엠옥정학원","tel":"031-858-1155","addr":"경기도 양주시 옥정동 963-10번지 한길프라자 6층 601,602호","category":"학원 - 보습학원"},{"name":"이디야 양주옥정로데오점","tel":"031-868-4323","addr":"경기도 양주시 옥정동 963-10번지 107호","category":"일반휴게음식 - 서양음식"},{"name":"이마트24양주신도시랜드마크점","tel":"","addr":"경기도 양주시 옥정동 963-10번지 1층 111호","category":"유통업 영리 - 편 의 점"},{"name":"제로헤어","tel":"031-857-0780","addr":"경기도 양주시 옥정동 963-10번지 한길프라자 106호","category":"보건위생 - 미용원"},{"name":"주식회사 오앤오스타린넨","tel":"031-859-3379","addr":"경기도 양주시 옥정동 963-10번지 5층 502호","category":"직물 - 침구·수예점"},{"name":"주식회사 위닌(WININ)","tel":"","addr":"경기도 양주시 옥정동 963-10번지 514호","category":"용역 서비스 - 사무서비스"},{"name":"주식회사 플랜비","tel":"031-111-1111","addr":"경기도 양주시 옥정동 963-10번지 한길프라자 5층 509호","category":"전기제품 - 기타전기제품"},{"name":"죽이야기","tel":"031-866-6233","addr":"경기도 양주시 옥정동 963-10번지 한길프라 자동 115호","category":"일반휴게음식 - 일반한식"},{"name":"최강에듀학원","tel":"031-864-3077","addr":"경기도 양주시 옥정동 963-10번지 한길프라자 701호","category":"학원 - 보습학원"},{"name":"케이엘(KL)교육","tel":"","addr":"경기도 양주시 옥정동 963-10번지 5층 503호 KL교육","category":"서적문구 - 기타서적문구"},{"name":"토즈 멤버십라운지 옥정센터","tel":"031-857-0509","addr":"경기도 양주시 옥정동 963-10번지 10층 1호 ,2,3호","category":"용역 서비스 - 사무서비스"},{"name":"토즈스터디센터 옥정독서실","tel":"031-857-0509","addr":"경기도 양주시 옥정동 963-10번지 10층 1,2,3(일부)호","category":"학원 - 독서실"},{"name":"프레리키즈카페 옥정점","tel":"070-7556-9003","addr":"경기도 양주시 옥정동 963-10번지 9층 2.3 4호","category":"레저업소 - 기타레져업소"},{"name":"헤라텔레콤 (옥정점)","tel":"031-868-9894","addr":"경기도 양주시 옥정동 963-10번지 101호","category":"사무통신 - 통신기기"}]},{"lat":"37.815476357","long":"127.08195895","items":[{"name":"(주)라온아띠문화놀이체육연구소","tel":"031-000-0000","addr":"경기도 양주시 옥정동 544번지","category":"학원 - 기타 교육기관"},{"name":"서민가구","tel":"031-543-1446","addr":"경기도 양주시 옥정동 544번지","category":"가구 - 일반가구"}]},{"lat":"37.821307234","long":"127.09209619","items":[{"name":"(주)연안식당 옥정점","tel":"031-866-4696","addr":"경기도 양주시 옥정동 963-4번지 1동 106호","category":"일반휴게음식 - 일반한식"},{"name":"게이트","tel":"031-747-8874","addr":"경기도 양주시 옥정동 963-4번지 906호","category":"일반휴게음식 - 주점"},{"name":"꿈꾸는기타드럼학원","tel":"","addr":"경기도 양주시 옥정동 963-4번지 902호","category":"학원 - 예·체능계학원"},{"name":"맛나슈퍼(옥정점)","tel":"","addr":"경기도 양주시 옥정동 963-4번지 110호","category":"일반휴게음식 - 일반한식"},{"name":"서울수려한치과","tel":"031-928-5098","addr":"경기도 양주시 옥정동 963-4번지 402호, 403호","category":"의원 - 치과의원"},{"name":"시크릿복싱에어로빅","tel":"","addr":"경기도 양주시 옥정동 963-4번지 901호","category":"레저업소 - 헬스클럽"},{"name":"신참떡볶이 양주옥정점","tel":"031-865-0316","addr":"경기도 양주시 옥정동 963-4번지 1동 103호","category":"일반휴게음식 - 스넥"},{"name":"양주바리스타학원","tel":"031-836-6209","addr":"경기도 양주시 옥정동 963-4번지 스카이타워 1동 802호","category":"학원 - 기능학원"},{"name":"양주옥정 울트라주짓수","tel":"","addr":"경기도 양주시 옥정동 963-4번지 스카이타워 901호","category":"레저업소 - 헬스클럽"},{"name":"옥정 아르떼 음악학원","tel":"031-827-9288","addr":"경기도 양주시 옥정동 963-4번지 옥정스카이 701호","category":"학원 - 예·체능계학원"},{"name":"옥정온누리약국","tel":"031-868-7939","addr":"경기도 양주시 옥정동 963-4번지 108호","category":"약국 - 약국"},{"name":"제너스학원","tel":"031-111-1111","addr":"경기도 양주시 옥정동 963-4번지 601,602호","category":"학원 - 보습학원"},{"name":"피자스쿨(옥정점)","tel":"031-858-0770","addr":"경기도 양주시 옥정동 963-4번지 스카이타워 102호","category":"일반휴게음식 - 서양음식"}]},{"lat":"37.814814799","long":"127.09925442","items":[{"name":"(주)이루마교육(정상어학원 양주국제분원)","tel":"031-865-9000","addr":"경기도 양주시 옥정동 1085-1번지 401,402","category":"학원 - 외국어학원"},{"name":"장터치킨","tel":"031-866-5060","addr":"경기도 양주시 옥정동 1085-1번지 108호","category":"일반휴게음식 - 스넥"},{"name":"정상 양주분원","tel":"","addr":"경기도 양주시 옥정동 1085-1번지 401,402,403호","category":"서적문구 - 일반서적"},{"name":"트리니티헤어 옥정신도시점","tel":"031-868-9696","addr":"경기도 양주시 옥정동 1085-1번지 2016호","category":"보건위생 - 미용원"},{"name":"파리바게뜨 옥정제이드웰점","tel":"031-857-8082","addr":"경기도 양주시 옥정동 1085-1번지 102호 101호,102호","category":"음료식품 - 제과점"}]},{"lat":"37.816393603","long":"127.0965876","items":[{"name":"53나드리","tel":"031-844-5353","addr":"경기도 양주시 옥정동 1074-6번지 주건축물제 1동 1층 일부","category":"일반휴게음식 - 일반한식"}]},{"lat":"37.814533981","long":"127.08962365","items":[{"name":"60계치킨 (옥정점)","tel":"031-866-8842","addr":"경기도 양주시 옥정동 1049-4번지 102호","category":"일반휴게음식 - 스넥"},{"name":"더피아노 음악교습소","tel":"","addr":"경기도 양주시 옥정동 1049-4번지 다올스퀘어 501호","category":"학원 - 예·체능계학원"},{"name":"머리잘헤어#","tel":"031-000-0000","addr":"경기도 양주시 옥정동 1049-4번지 2층","category":"보건위생 - 미용원"},{"name":"밤바다","tel":"031-857-0292","addr":"경기도 양주시 옥정동 1049-4번지 103호,104호","category":"일반휴게음식 - 일반한식"},{"name":"옥정든든치과의원","tel":"031-526-7528","addr":"경기도 양주시 옥정동 1049-4번지 다올스퀘어빌딩 제1동2층202,204호","category":"의원 - 치과의원"},{"name":"이화한솔영어학원","tel":"031-866-2805","addr":"경기도 양주시 옥정동 1049-4번지 다올스퀘어4 403호","category":"학원 - 외국어학원"},{"name":"점프윙스 줄넘기클럽 양주옥정점","tel":"031-857-5633","addr":"경기도 양주시 옥정동 1049-4번지 502호","category":"학원 - 예·체능계학원"},{"name":"한솔수학+학원","tel":"031-868-7588","addr":"경기도 양주시 옥정동 1049-4번지 201호","category":"학원 - 보습학원"}]},{"lat":"37.831338302","long":"127.09900328","items":[{"name":"9900축산","tel":"","addr":"경기도 양주시 옥정동 1032-1번지 1층 109호","category":"음료식품 - 정육점"},{"name":"뉴스마트학원","tel":"031-866-6633","addr":"경기도 양주시 옥정동 1032-1번지 옥정메디탈프라자 401호","category":"학원 - 보습학원"},{"name":"서울연합소아청소년과의원","tel":"031-857-8474","addr":"경기도 양주시 옥정동 1032-1번지 3층 302호","category":"의원 - 의원"},{"name":"영웅K타이거즈 태권도","tel":"031-840-8442","addr":"경기도 양주시 옥정동 1032-1번지","category":"학원 - 예·체능계학원"},{"name":"옥정김밥","tel":"031-857-0477","addr":"경기도 양주시 옥정동 1032-1번지 옥정메디컬프라자 101호","category":"일반휴게음식 - 일반한식"},{"name":"옥정약국","tel":"031-866-5136","addr":"경기도 양주시 옥정동 1032-1번지 1동 1층 105호","category":"약국 - 약국"},{"name":"이레음악학원","tel":"031-858-2501","addr":"경기도 양주시 옥정동 1032-1번지 502-503호","category":"학원 - 예·체능계학원"},{"name":"정담은한의원","tel":"031-862-5551","addr":"경기도 양주시 옥정동 1032-1번지 1동 3층 303호","category":"의원 - 한의원"},{"name":"파리바게트 양주옥정점","tel":"031-858-4915","addr":"경기도 양주시 옥정동 1032-1번지 1층 103,104호","category":"음료식품 - 제과점"},{"name":"헤어콜","tel":"","addr":"경기도 양주시 옥정동 1032-1번지 1층 107호","category":"보건위생 - 화장품"},{"name":"화인치과의원","tel":"031-862-2879","addr":"경기도 양주시 옥정동 1032-1번지 3층 301호","category":"의원 - 치과의원"}]},{"lat":"37.823563528","long":"127.0985616","items":[{"name":"BBQ옥정호수공원점","tel":"031-863-7818","addr":"경기도 양주시 옥정동 1041-1번지 블루타워 106호","category":"일반휴게음식 - 스넥"},{"name":"마카롱언니","tel":"031-2111-1111","addr":"경기도 양주시 옥정동 1041-1번지 블루타워 202호","category":"문화.취미 - 문화취미기타"},{"name":"믿음cook(쿡)","tel":"","addr":"경기도 양주시 옥정동 1041-1번지 403호","category":"음료식품 - 기타음료식품"},{"name":"새콤달콤","tel":"031-888-9999","addr":"경기도 양주시 옥정동 1041-1번지 101호","category":"음료식품 - 기타음료식품"},{"name":"스모키존187","tel":"031-866-0187","addr":"경기도 양주시 옥정동 1041-1번지 블루타워 5층 501호,502호","category":"일반휴게음식 - 일반한식"},{"name":"옥정코다리","tel":"031-868-9233","addr":"경기도 양주시 옥정동 1041-1번지 3층","category":"일반휴게음식 - 일반한식"},{"name":"옥정코다리","tel":"031-868-9233","addr":"경기도 양주시 옥정동 1041-1번지 3층 301호","category":"일반휴게음식 - 일반한식"},{"name":"이디야커피(옥정호수공원점)","tel":"031-858-3241","addr":"경기도 양주시 옥정동 1041-1번지 블루타워 104, 105호","category":"일반휴게음식 - 서양음식"},{"name":"카페 솔","tel":"031-868-0804","addr":"경기도 양주시 옥정동 1041-1번지 블루타워 2층 204호","category":"일반휴게음식 - 서양음식"},{"name":"하랑","tel":"031-868-0351","addr":"경기도 양주시 옥정동 1041-1번지 201호","category":"보건위생 - 화장품"},{"name":"하랑","tel":"031-868-0351","addr":"경기도 양주시 옥정동 1041-1번지 다올블루타워 2층 201호","category":"보건위생 - 피부미용실"}]},{"lat":"37.830810287","long":"127.09456119","items":[{"name":"GS25옥정리젠시빌점","tel":"","addr":"경기도 양주시 옥정동 1026번지 상가동(1) 103~104호","category":"유통업 영리 - 편 의 점"},{"name":"STM창의교육연구소","tel":"","addr":"경기도 양주시 옥정동 1026번지 리젠시빌란트 108동 502호","category":"학원 - 기타 교육기관"},{"name":"제이에스(J.S)스포츠","tel":"","addr":"경기도 양주시 옥정동 1026번지 리젠시빌란트 607동 903호","category":"학원 - 기타 교육기관"},{"name":"크린에이드(양주율정점)","tel":"031-866-3657","addr":"경기도 양주시 옥정동 1026번지 리젠시빌란트 제상가동 (2)동 1층 제비 01호","category":"수리서비스 - 세탁소"}]},{"lat":"37.816086611","long":"127.09742762","items":[{"name":"GS25옥정본점","tel":"","addr":"경기도 양주시 옥정동 1079-1번지 102호","category":"유통업 영리 - 편 의 점"}]},{"lat":"37.818450761","long":"127.09272875","items":[{"name":"GS25옥정엠타워점","tel":"","addr":"경기도 양주시 옥정동 963-15번지 1층 105호","category":"유통업 영리 - 편 의 점"},{"name":"가장맛있는족발(양주옥정신도시점)","tel":"031-867-5849","addr":"경기도 양주시 옥정동 963-15번지 옥정동M타워 120,121호","category":"일반휴게음식 - 일반한식"},{"name":"넘버원공인중개사사무소","tel":"032-859-0081","addr":"경기도 양주시 옥정동 963-15번지 114호","category":"용역 서비스 - 부동산 중개·임대"},{"name":"늘편한신경내과","tel":"031-858-7321","addr":"경기도 양주시 옥정동 963-15번지 503호","category":"의원 - 의원"},{"name":"더맑은내과","tel":"031-862-1311","addr":"경기도 양주시 옥정동 963-15번지 6층 601-602호","category":"의원 - 의원"},{"name":"롯데리아 양주옥정점","tel":"031-857-9097","addr":"경기도 양주시 옥정동 963-15번지 M타워 101호 ,102,103호","category":"일반휴게음식 - 서양음식"},{"name":"바나바나 리딩아트학원","tel":"031-857-4410","addr":"경기도 양주시 옥정동 963-15번지 M타워 5층 504호","category":"학원 - 예·체능계학원"},{"name":"백마당구클럽","tel":"034-863-7553","addr":"경기도 양주시 옥정동 963-15번지 703호, 704호","category":"레저업소 - 당 구 장"},{"name":"백반하우스","tel":"031-0000-0000","addr":"경기도 양주시 옥정동 963-15번지 엠타워상가 2층 204호205호","category":"일반휴게음식 - 일반한식"},{"name":"비비큐갈비쓰","tel":"031-867-5455","addr":"경기도 양주시 옥정동 963-15번지 117호","category":"일반휴게음식 - 일반한식"},{"name":"비어 앤 크림","tel":"","addr":"경기도 양주시 옥정동 963-15번지 m타워 1,07호","category":"유통업 영리 - 편 의 점"},{"name":"생고기제작소","tel":"031-866-9895","addr":"경기도 양주시 옥정동 963-15번지 3층","category":"일반휴게음식 - 일반한식"},{"name":"스마일찰진꽈배기","tel":"031-847-0991","addr":"경기도 양주시 옥정동 963-15번지 118호","category":"일반휴게음식 - 스넥"},{"name":"아레나 X","tel":"02-2222-2222","addr":"경기도 양주시 옥정동 963-15번지 엠타워 403호","category":"레저업소 - 기타레져업소"},{"name":"열린이비인후과","tel":"031-867-2227","addr":"경기도 양주시 옥정동 963-15번지 양주M타워 402호","category":"의원 - 의원"},{"name":"오렌즈아이웨어 양주옥정신도시점","tel":"031-857-0867","addr":"경기도 양주시 옥정동 963-15번지 M타워 1층 111호","category":"보건위생 - 안경"},{"name":"옥정태평양약국","tel":"031-865-5855","addr":"경기도 양주시 옥정동 963-15번지 엠타워 112호","category":"약국 - 약국"},{"name":"옥탑방 오봉자싸롱 옥정점","tel":"070-7522-9714","addr":"경기도 양주시 옥정동 963-15번지 엠타워 115호","category":"일반휴게음식 - 일반한식"},{"name":"커피마마 양주옥정점","tel":"031-866-9914","addr":"경기도 양주시 옥정동 963-15번지 103호","category":"일반휴게음식 - 서양음식"},{"name":"투썸플레이스 양주옥정점","tel":"031-866-1922","addr":"경기도 양주시 옥정동 963-15번지 M타워 206호","category":"일반휴게음식 - 서양음식"},{"name":"플랜 제이 (PLAN J)","tel":"070-9856-8587","addr":"경기도 양주시 옥정동 963-15번지 M타워 110호","category":"보건위생 - 미용원"},{"name":"한솥도시락 양주옥정M타워점","tel":"031-867-1005","addr":"경기도 양주시 옥정동 963-15번지 104호","category":"일반휴게음식 - 일반한식"},{"name":"화이트라인치과","tel":"031-865-7700","addr":"경기도 양주시 옥정동 963-15번지 301,302호","category":"의원 - 치과의원"}]},{"lat":"37.815474386","long":"127.08484356","items":[{"name":"GS25옥정이편한점","tel":"","addr":"경기도 양주시 옥정동 936번지 e편한세상 옥정 더퍼스트 상가동 104호","category":"유통업 영리 - 편 의 점"},{"name":"나수쌤수학교실","tel":"031-827-9288","addr":"경기도 양주시 옥정동 936번지 e편한세상옥정더퍼스트 1511동 102호","category":"학원 - 기타 교육기관"},{"name":"로봇코딩 공부방","tel":"","addr":"경기도 양주시 옥정동 936번지 e편한세상옥정더퍼스트 1503동 302호","category":"학원 - 기타 교육기관"},{"name":"씨유옥정이편한점","tel":"02-1577-8007","addr":"경기도 양주시 옥정동 936번지 e편한세상 3차 옥정더퍼스트 상가 108호","category":"유통업 영리 - 편 의 점"},{"name":"초록가위","tel":"031-864-1141","addr":"경기도 양주시 옥정동 936번지 e편한세상옥정더퍼스트 상가동 202호","category":"보건위생 - 미용원"}]},{"lat":"37.820117489","long":"127.09275349","items":[{"name":"GS25옥정중앙점","tel":"","addr":"경기도 양주시 옥정동 966-1번지 대길프라자 109호","category":"유통업 영리 - 편 의 점"},{"name":"댕댕월드","tel":"031-822-7268","addr":"경기도 양주시 옥정동 966-1번지 대길파라자 6층 3호","category":"문화.취미 - 애완동물"},{"name":"더바스","tel":"","addr":"경기도 양주시 옥정동 966-1번지 대길프라자 304호","category":"일반휴게음식 - 서양음식"},{"name":"돈떡카페","tel":"070-8845-8255","addr":"경기도 양주시 옥정동 966-1번지 대길프라자 202호","category":"일반휴게음식 - 스넥"},{"name":"램스맨","tel":"","addr":"경기도 양주시 옥정동 966-1번지 1층 102호","category":"일반휴게음식 - 일반한식"},{"name":"로지필라테스","tel":"031-1111-1111","addr":"경기도 양주시 옥정동 966-1번지 대길프라자 6층 607호","category":"레저업소 - 헬스클럽"},{"name":"맵돌주꾸미","tel":"031-859-9587","addr":"경기도 양주시 옥정동 966-1번지 대길프라자 103호","category":"일반휴게음식 - 일반한식"},{"name":"명륜진사갈비","tel":"031-858-9922","addr":"경기도 양주시 옥정동 966-1번지 대길프라자 206,207호","category":"일반휴게음식 - 일반한식"},{"name":"밀키슬라임","tel":"031-858-0223","addr":"경기도 양주시 옥정동 966-1번지 대길프라자 602호","category":"문화.취미 - 문화취미기타"},{"name":"밥맛나는세상","tel":"","addr":"경기도 양주시 옥정동 966-1번지 9층","category":"일반휴게음식 - 일반한식"},{"name":"벌써일년","tel":"","addr":"경기도 양주시 옥정동 966-1번지 대길프라자 2층 203호","category":"보건위생 - 미용원"},{"name":"베라스킨케어","tel":"031-847-2180","addr":"경기도 양주시 옥정동 966-1번지 303호","category":"보건위생 - 피부미용실"},{"name":"부림케어","tel":"","addr":"경기도 양주시 옥정동 966-1번지 4층 404호","category":"보건위생 - 화장품"},{"name":"오늘","tel":"","addr":"경기도 양주시 옥정동 966-1번지 대길프라자 105호","category":"의류 - 정장"},{"name":"옥정스파","tel":"031-868-8289","addr":"경기도 양주시 옥정동 966-1번지","category":"보건위생 - 피부미용실"},{"name":"옥정스파24시사우나","tel":"031-868-6653","addr":"경기도 양주시 옥정동 966-1번지 8층","category":"보건위생 - 사우나"},{"name":"옥정스파사우나 스넥","tel":"","addr":"경기도 양주시 옥정동 966-1번지 9층 902호","category":"일반휴게음식 - 스넥"},{"name":"윤헤어","tel":"031-821-3881","addr":"경기도 양주시 옥정동 966-1번지 2층 204호","category":"보건위생 - 미용원"},{"name":"지유가오카 브레드","tel":"031-857-0933","addr":"경기도 양주시 옥정동 966-1번지 대길프라자 1층 106호","category":"음료식품 - 제과점"},{"name":"쯔란양꼬치","tel":"031-866-5866","addr":"경기도 양주시 옥정동 966-1번지 1층 104호","category":"일반휴게음식 - 중국식"},{"name":"킹당구클럽","tel":"031-857-3949","addr":"경기도 양주시 옥정동 966-1번지 대길프라자 605호,606호","category":"레저업소 - 당 구 장"},{"name":"프라이드 앤 조이","tel":"","addr":"경기도 양주시 옥정동 966-1번지 대길프라자 601호","category":"학원 - 예·체능계학원"}]},{"lat":"37.821667611","long":"127.09209662","items":[{"name":"GS25옥정타워제일점","tel":"","addr":"경기도 양주시 옥정동 963-3번지","category":"유통업 영리 - 편 의 점"},{"name":"감탄떡볶이 양주옥정점","tel":"031-868-9200","addr":"경기도 양주시 옥정동 963-3번지 제일타워 103호","category":"일반휴게음식 - 스넥"},{"name":"공터영어뉘앙스영어학원","tel":"031-868-0705","addr":"경기도 양주시 옥정동 963-3번지 제일타워 702호","category":"학원 - 보습학원"},{"name":"꼬리치는바다","tel":"031-866-1542","addr":"경기도 양주시 옥정동 963-3번지 제일타워 1층 109호","category":"일반휴게음식 - 일식·회집"},{"name":"도담도담","tel":"","addr":"경기도 양주시 옥정동 963-3번지 5층 506호","category":"학원 - 기타 교육기관"},{"name":"도야족발","tel":"","addr":"경기도 양주시 옥정동 963-3번지 제일타워 114호","category":"일반휴게음식 - 일반한식"},{"name":"돌체음악학원","tel":"","addr":"경기도 양주시 옥정동 963-3번지 707호","category":"학원 - 예·체능계학원"},{"name":"라움미술학원","tel":"031-111-1111","addr":"경기도 양주시 옥정동 963-3번지 제일타워 804호","category":"학원 - 예·체능계학원"},{"name":"몰디브짐","tel":"031-857-9679","addr":"경기도 양주시 옥정동 963-3번지 제일타워 507호","category":"레저업소 - 헬스클럽"},{"name":"별밤지기노래연습장","tel":"","addr":"경기도 양주시 옥정동 963-3번지 제일타워 306호","category":"레저업소 - 노 래 방"},{"name":"불닭발땡초 동대문엽기떡볶이 양주옥정점","tel":"","addr":"경기도 양주시 옥정동 963-3번지 112호","category":"일반휴게음식 - 일반한식"},{"name":"블럭팡 옥정점","tel":"031-863-8832","addr":"경기도 양주시 옥정동 963-3번지 제일타워 902층","category":"서적문구 - 완구점"},{"name":"비비큐2호점","tel":"031-859-9282","addr":"경기도 양주시 옥정동 963-3번지 제일타워 1층 115호","category":"일반휴게음식 - 스넥"},{"name":"소담촌 옥정점","tel":"031-863-1002","addr":"경기도 양주시 옥정동 963-3번지 602-605호","category":"일반휴게음식 - 일반한식"},{"name":"수정정육식당","tel":"031-858-3455","addr":"경기도 양주시 옥정동 963-3번지 제일타워 2층 208호","category":"일반휴게음식 - 일반한식"},{"name":"신의주찹쌀순대국옥정점","tel":"031-862-3553","addr":"경기도 양주시 옥정동 963-3번지 110호","category":"일반휴게음식 - 일반한식"},{"name":"아인클랑음악학원","tel":"031-868-3377","addr":"경기도 양주시 옥정동 963-3번지 제일타워 808호","category":"학원 - 예·체능계학원"},{"name":"양주 EIE 고려대학교국제어학원","tel":"031-864-0582","addr":"경기도 양주시 옥정동 963-3번지 제일타워 802호","category":"학원 - 외국어학원"},{"name":"에일린음악학원","tel":"031-844-5558","addr":"경기도 양주시 옥정동 963-3번지 제일타워 9층","category":"학원 - 예·체능계학원"},{"name":"엠오에이 (MOA)수학전문학원","tel":"031-866-9555","addr":"경기도 양주시 옥정동 963-3번지 제일타워 801호","category":"학원 - 보습학원"},{"name":"옥정대성N학원","tel":"031-862-0090","addr":"경기도 양주시 옥정동 963-3번지 제일타워 704,705호","category":"학원 - 보습학원"},{"name":"욜로(YOLO)비어","tel":"031-000-0000","addr":"경기도 양주시 옥정동 963-3번지 제일타워 303동 305호","category":"일반휴게음식 - 주점"},{"name":"용인대하나유도클럽","tel":"031-867-8889","addr":"경기도 양주시 옥정동 963-3번지 제일타워 706호","category":"학원 - 예·체능계학원"},{"name":"윤댄스학원","tel":"031-868-6888","addr":"경기도 양주시 옥정동 963-3번지 제일타워 305호","category":"학원 - 예·체능계학원"},{"name":"이강학원","tel":"031-827-0115","addr":"경기도 양주시 옥정동 963-3번지 제일타워 10층 1001,1002호","category":"학원 - 보습학원"},{"name":"이삭토스트양주옥정점","tel":"031-857-7137","addr":"경기도 양주시 옥정동 963-3번지 제일타워 105호","category":"일반휴게음식 - 일반한식"},{"name":"이엔필라테스교육협회","tel":"031-866-0866","addr":"경기도 양주시 옥정동 963-3번지 908호","category":"레저업소 - 헬스클럽"},{"name":"인생극장","tel":"031-866-1817","addr":"경기도 양주시 옥정동 963-3번지 제일타워 6호","category":"일반휴게음식 - 일반한식"},{"name":"정원이있는독서실","tel":"031-866-9623","addr":"경기도 양주시 옥정동 963-3번지 제일타워 10층 1005호~1007호","category":"학원 - 독서실"},{"name":"정원이있는카페","tel":"031-866-9623","addr":"경기도 양주시 옥정동 963-3번지 제일타워 10층 1005호, 1006호, 1007호","category":"일반휴게음식 - 서양음식"},{"name":"중앙무용학원","tel":"031-000-0000","addr":"경기도 양주시 옥정동 963-3번지 907호","category":"학원 - 예·체능계학원"},{"name":"진아트뮤직","tel":"031-1111-1111","addr":"경기도 양주시 옥정동 963-3번지 제일타워 405호","category":"보건위생 - 기타대인서비스"},{"name":"청담","tel":"","addr":"경기도 양주시 옥정동 963-3번지 제일타워 11동 1105호","category":"보건위생 - 화장품"},{"name":"카페5157","tel":"031-868-5157","addr":"경기도 양주시 옥정동 963-3번지 2층 201호","category":"일반휴게음식 - 서양음식"},{"name":"탑 당구클럽","tel":"","addr":"경기도 양주시 옥정동 963-3번지 6층 607,608호","category":"레저업소 - 당 구 장"},{"name":"팬더샘영어수학논술전문학원","tel":"031-852-1288","addr":"경기도 양주시 옥정동 963-3번지 제일타워 903,904호","category":"학원 - 보습학원"},{"name":"포텐PC방","tel":"070-6441-0074","addr":"경기도 양주시 옥정동 963-3번지 제일타워 1101동 11층 1104호","category":"레저업소 - 기타레져업소"},{"name":"하나린 태권도장","tel":"031-858-2229","addr":"경기도 양주시 옥정동 963-3번지 제일타워 806,807호","category":"학원 - 예·체능계학원"},{"name":"헤어본","tel":"031-866-4032","addr":"경기도 양주시 옥정동 963-3번지 제일타워 301호","category":"보건위생 - 미용원"}]},{"lat":"37.824696793","long":"127.08939702","items":[{"name":"GS25옥정푸르지오점","tel":"","addr":"경기도 양주시 옥정동 955번지 푸르지오@ 상가 2동 101호","category":"유통업 영리 - 편 의 점"},{"name":"개인과외교습자","tel":"","addr":"경기도 양주시 옥정동 955번지 옥정센트럴파크푸르지오 914동 102호","category":"학원 - 기타 교육기관"},{"name":"대우홈마트","tel":"","addr":"경기도 양주시 옥정동 955번지 1동 상가 106호 옥정택지지구","category":"유통업 영리 - 슈퍼마켓"},{"name":"라온공부방","tel":"","addr":"경기도 양주시 옥정동 955번지 옥정센트럴파크푸르지오 907동 901호","category":"학원 - 기타 교육기관"},{"name":"박규빈 공부방","tel":"","addr":"경기도 양주시 옥정동 955번지 옥정센트럴파크푸르지오 902동 702호","category":"학원 - 기타 교육기관"},{"name":"시몽헤어","tel":"070-7543-8880","addr":"경기도 양주시 옥정동 955번지 옥정센트럴파크푸르지오 상가 2층 102호","category":"보건위생 - 미용원"},{"name":"크린에이드 옥정점","tel":"031-840-2402","addr":"경기도 양주시 옥정동 955번지 옥정센트럴파크푸르지오 상가 2동 103호","category":"수리서비스 - 세탁소"}]},{"lat":"37.81636741","long":"127.09553138","items":[{"name":"S#헤어(에스샵헤어)","tel":"","addr":"경기도 양주시 옥정동 1072-7번지 1층","category":"보건위생 - 미용원"},{"name":"쏭박사부대찌개 양주옥정점","tel":"031-866-7075","addr":"경기도 양주시 옥정동 1072-7번지","category":"일반휴게음식 - 일반한식"}]},{"lat":"37.815060207","long":"127.09658592","items":[{"name":"To m hair(투엠헤어)","tel":"031-846-1359","addr":"경기도 양주시 옥정동 1069-5번지 103호","category":"보건위생 - 미용원"},{"name":"너도밤나무","tel":"031-111-1111","addr":"경기도 양주시 옥정동 1069-5번지 1층 102호","category":"일반휴게음식 - 서양음식"},{"name":"잇츠네일","tel":"","addr":"경기도 양주시 옥정동 1069-5번지 1층 103호","category":"보건위생 - 피부미용실"}]},{"lat":"37.820117037","long":"127.09334407","items":[{"name":"VIP뷰티샵","tel":"031-861-5854","addr":"경기도 양주시 옥정동 966-2번지 폴리프라자1 606호","category":"보건위생 - 화장품"},{"name":"건 팩토리 모형(Gun Factory Model)","tel":"","addr":"경기도 양주시 옥정동 966-2번지 폴리프라자1 7층 709호","category":"서적문구 - 완구점"},{"name":"굿퍼블리케이션","tel":"","addr":"경기도 양주시 옥정동 966-2번지 폴리프라자1 1동 5층 1호","category":"서적문구 - 출판 및 인쇄물"},{"name":"꼬까동17번지 (ggoggadong17)","tel":"","addr":"경기도 양주시 옥정동 966-2번지 6층 609호","category":"서적문구 - 기타서적문구"},{"name":"노래야노래야코인노래연습장 옥정점","tel":"","addr":"경기도 양주시 옥정동 966-2번지 407호","category":"레저업소 - 노 래 방"},{"name":"라비앙로즈","tel":"031-000-0000","addr":"경기도 양주시 옥정동 966-2번지 6층 609호","category":"문화.취미 - 문화취미기타"},{"name":"맥주박스","tel":"","addr":"경기도 양주시 옥정동 966-2번지 폴리프라자 2층 204호","category":"일반휴게음식 - 일반한식"},{"name":"메가 MGC커피 옥정신도시점","tel":"031-858-7179","addr":"경기도 양주시 옥정동 966-2번지 폴리프라자1 103호","category":"일반휴게음식 - 서양음식"},{"name":"아가페칼국수","tel":"031-866-6668","addr":"경기도 양주시 옥정동 966-2번지 폴리프라자1 2층 203호","category":"일반휴게음식 - 일반한식"},{"name":"어센드헤어","tel":"031-857-3636","addr":"경기도 양주시 옥정동 966-2번지 폴리프라자1 2층 205,206호","category":"보건위생 - 미용원"},{"name":"옥정루","tel":"031-866-4082","addr":"경기도 양주시 옥정동 966-2번지 2층 210호","category":"일반휴게음식 - 중국식"},{"name":"육회본가옥정점","tel":"031-000-0000","addr":"경기도 양주시 옥정동 966-2번지 1층 109호","category":"일반휴게음식 - 일반한식"},{"name":"인생역전","tel":"031-864-0012","addr":"경기도 양주시 옥정동 966-2번지 1층","category":"일반휴게음식 - 일반한식"},{"name":"쭈노치킨(옥정동)","tel":"031-894-8818","addr":"경기도 양주시 옥정동 966-2번지 7층 705호","category":"일반휴게음식 - 스넥"}]},{"lat":"37.815060621","long":"127.09606351","items":[{"name":"at.nounou","tel":"","addr":"경기도 양주시 옥정동 1069-2번지","category":"의류 - 정장"},{"name":"리즈하우스","tel":"031-857-0444","addr":"경기도 양주시 옥정동 1069-2번지 1층 4호","category":"음료식품 - 기타음료식품"},{"name":"자담치킨 양주옥정점","tel":"031-859-8292","addr":"경기도 양주시 옥정동 1069-2번지 1층","category":"일반휴게음식 - 스넥"}]},{"lat":"37.816086007","long":"127.09817717","items":[{"name":"bhc양주옥정점","tel":"031-857-7717","addr":"경기도 양주시 옥정동 1079-5번지 101호","category":"일반휴게음식 - 스넥"}]},{"lat":"37.821254716","long":"127.09004039","items":[{"name":"e해법수학. 삼성영어","tel":"","addr":"경기도 양주시 옥정동 958번지 e편한세상양주신도시 1102동 602호","category":"학원 - 기타 교육기관"},{"name":"빗그리고가위","tel":"031-868-8414","addr":"경기도 양주시 옥정동 958번지 이편한세상양주 상가동 202호","category":"보건위생 - 미용원"},{"name":"엔블리","tel":"031-1111-1111","addr":"경기도 양주시 옥정동 958번지 이편한세상양주 상가동 101호","category":"보건위생 - 피부미용실"},{"name":"올라플로르","tel":"","addr":"경기도 양주시 옥정동 958번지 이편한세상양주 1104동 802호","category":"문화.취미 - 화원"},{"name":"이마트24 양주e편한세상점","tel":"","addr":"경기도 양주시 옥정동 958번지 이편한세상양주 상가동 105호","category":"유통업 영리 - 편 의 점"},{"name":"이마트24 양주e편한세상점","tel":"","addr":"경기도 양주시 옥정동 958번지 이편한세상양주 상가동 105호","category":"유통업 영리 - 편 의 점"},{"name":"참맛치킨 꿀맛닭강정","tel":"031-867-1359","addr":"경기도 양주시 옥정동 958번지 이편한세상양주 1층 103호","category":"일반휴게음식 - 일반한식"},{"name":"한솔플러스수학 옥쌤교실","tel":"031-867-0853","addr":"경기도 양주시 옥정동 958번지 이편한세상양주 1102동 2302호","category":"학원 - 기타 교육기관"}]},{"lat":"37.837111033","long":"127.09039984","items":[{"name":"가나안중고피아노사","tel":"031-866-5252","addr":"경기도 양주시 옥정동 975-2번지","category":"레져용품 - 피아노대리점"},{"name":"회천4동주민자치위원회","tel":"031-8082-4137","addr":"경기도 양주시 옥정동 975-2번지 3층","category":"문화.취미 - 문화취미기타"}]},{"lat":"37.81847823","long":"127.09214957","items":[{"name":"강남베스트내과 양주점","tel":"031-862-5700","addr":"경기도 양주시 옥정동 963-14번지 센타프라자 5층 502ㅡ2호 503호","category":"의원 - 의원"},{"name":"고봉민김밥 양주옥정점","tel":"031-868-3657","addr":"경기도 양주시 옥정동 963-14번지 103호","category":"일반휴게음식 - 일반한식"},{"name":"놀숲 양주옥정점","tel":"031-858-5364","addr":"경기도 양주시 옥정동 963-14번지 센타프라자 3층 305호","category":"서적문구 - 일반서적"},{"name":"뉴스터디학원","tel":"","addr":"경기도 양주시 옥정동 963-14번지 804호","category":"학원 - 보습학원"},{"name":"더블유모바일","tel":"070-7543-5399","addr":"경기도 양주시 옥정동 963-14번지 센터프라자 1층 2호","category":"사무통신 - 통신기기"},{"name":"돼지만 왕소금구이","tel":"031-859-3392","addr":"경기도 양주시 옥정동 963-14번지 센터프라자 202호","category":"일반휴게음식 - 일반한식"},{"name":"드림365소아청소년과의원","tel":"031-863-9090","addr":"경기도 양주시 옥정동 963-14번지 6층 606호","category":"의원 - 의원"},{"name":"디플레이스 양주옥정점 독서실","tel":"","addr":"경기도 양주시 옥정동 963-14번지 704 ,705호","category":"학원 - 독서실"},{"name":"라이또PC 옥정점","tel":"031-855-3466","addr":"경기도 양주시 옥정동 963-14번지 4층 401호","category":"레저업소 - 기타레져업소"},{"name":"렌즈미 양주옥정점","tel":"031-867-3335","addr":"경기도 양주시 옥정동 963-14번지 센타프라자 113호,114호","category":"보건위생 - 안경"},{"name":"배스킨라빈스 양주옥정점","tel":"031-858-3103","addr":"경기도 양주시 옥정동 963-14번지 센타프라자 108호","category":"음료식품 - 제과점"},{"name":"씨유옥정센터프라자점","tel":"031-863-8228","addr":"경기도 양주시 옥정동 963-14번지 센타프라자 112호","category":"유통업 영리 - 편 의 점"},{"name":"씨유옥정센터프라자점","tel":"031-863-8228","addr":"경기도 양주시 옥정동 963-14번지 센타프라자 112호","category":"유통업 영리 - 편 의 점"},{"name":"연세센터원치과","tel":"031-861-2119","addr":"경기도 양주시 옥정동 963-14번지 쎈타프라자 501호,502호 일부","category":"의원 - 치과의원"},{"name":"옛날통닭(옥정점)","tel":"","addr":"경기도 양주시 옥정동 963-14번지 104호","category":"일반휴게음식 - 스넥"},{"name":"오레스트","tel":"031-858-3334","addr":"경기도 양주시 옥정동 963-14번지 센터프라자 3층 301호","category":"일반휴게음식 - 서양음식"},{"name":"오체안피부과의원","tel":"031-857-7558","addr":"경기도 양주시 옥정동 963-14번지 504호,505호","category":"의원 - 의원"},{"name":"옥정제일약국","tel":"031-861-8868","addr":"경기도 양주시 옥정동 963-14번지 센타프라자 1층 106호, 107호","category":"약국 - 약국"},{"name":"토론토어학원","tel":"031-859-0050","addr":"경기도 양주시 옥정동 963-14번지 804,805호","category":"학원 - 외국어학원"},{"name":"핏걸 옥정점","tel":"","addr":"경기도 양주시 옥정동 963-14번지 4층 404호","category":"레저업소 - 헬스클럽"}]},{"lat":"37.819120579","long":"127.10014588","items":[{"name":"거북이함바","tel":"","addr":"경기도 양주시 옥정동 970번지 1층","category":"일반휴게음식 - 일반한식"}]},{"lat":"37.808782599","long":"127.08156572","items":[{"name":"건국종합철물","tel":"031-856-2476","addr":"경기도 양주시 옥정동 473-37번지","category":"건축자재 - 목재·석재·철물"}]},{"lat":"37.814508227","long":"127.09956065","items":[{"name":"고기로말하다","tel":"031-857-9289","addr":"경기도 양주시 옥정동 1087-1번지","category":"음료식품 - 정육점"},{"name":"꽈배기친구들 옥정점","tel":"031-858-3031","addr":"경기도 양주시 옥정동 1087-1번지 105호","category":"일반휴게음식 - 서양음식"},{"name":"리틀뮤지션음악학원","tel":"031-857-5758","addr":"경기도 양주시 옥정동 1087-1번지 힐링프라자2 403호","category":"학원 - 예·체능계학원"},{"name":"바다를담다 양주점","tel":"031-867-9233","addr":"경기도 양주시 옥정동 1087-1번지 1층 107호","category":"음료식품 - 기타음료식품"},{"name":"웃는나무미술학원","tel":"031-857-4819","addr":"경기도 양주시 옥정동 1087-1번지 404호","category":"학원 - 예·체능계학원"},{"name":"이디야 양주옥정제일점","tel":"031-863-1116","addr":"경기도 양주시 옥정동 1087-1번지 102,201호","category":"일반휴게음식 - 서양음식"},{"name":"종로학원하늘교육양주신도시학원","tel":"031-868-6889","addr":"경기도 양주시 옥정동 1087-1번지 501호","category":"학원 - 보습학원"},{"name":"한국체대MTA태권도","tel":"031-857-7111","addr":"경기도 양주시 옥정동 1087-1번지 401,402호","category":"학원 - 예·체능계학원"}]},{"lat":"37.819036348","long":"127.09276353","items":[{"name":"고기원칙(옥정신도시점)","tel":"031-859-9233","addr":"경기도 양주시 옥정동 966-7번지 104호, 105호","category":"일반휴게음식 - 일반한식"},{"name":"브로우하임","tel":"02-0000-0000","addr":"경기도 양주시 옥정동 966-7번지 폴리프라자 4층 410호","category":"보건위생 - 미용재료"},{"name":"빗다(Bitta)","tel":"","addr":"경기도 양주시 옥정동 966-7번지 폴리프라자5차 2층 205호","category":"보건위생 - 미용원"},{"name":"세븐일레븐양주옥정폴리점","tel":"031-1577-0711","addr":"경기도 양주시 옥정동 966-7번지 111호","category":"유통업 영리 - 편 의 점"},{"name":"숙달돼지 옥정점","tel":"031-859-3391","addr":"경기도 양주시 옥정동 966-7번지 2층 204호","category":"일반휴게음식 - 일반한식"},{"name":"이엘로(2ELO)","tel":"070-7543-1222","addr":"경기도 양주시 옥정동 966-7번지 1층 109호","category":"일반휴게음식 - 서양음식"},{"name":"짚신매운갈비찜 옥정점","tel":"070-8888-2666","addr":"경기도 양주시 옥정동 966-7번지 106호","category":"일반휴게음식 - 일반한식"},{"name":"춘천골 닭갈비","tel":"","addr":"경기도 양주시 옥정동 966-7번지 101,102호","category":"일반휴게음식 - 일반한식"},{"name":"팔삼닭발","tel":"031-865-1983","addr":"경기도 양주시 옥정동 966-7번지 710호","category":"일반휴게음식 - 일반한식"},{"name":"힐링공방","tel":"031-857-6014","addr":"경기도 양주시 옥정동 966-7번지 111호","category":"전기제품 - 기타전기제품"}]},{"lat":"37.818892707","long":"127.09209328","items":[{"name":"고운맘소아청소년과의원","tel":"031-894-7582","addr":"경기도 양주시 옥정동 963-13번지 파스텔시티 401호,402호일부","category":"의원 - 의원"},{"name":"골프존파크 파스텔골프","tel":"031-866-0005","addr":"경기도 양주시 옥정동 963-13번지 파스텔시티 10층 1004호","category":"레저업소 - 스크린골프"},{"name":"국물명가전주콩나물국밥","tel":"031-868-2727","addr":"경기도 양주시 옥정동 963-13번지 파스텔시티 104호","category":"일반휴게음식 - 일반한식"},{"name":"남산 왕돈까스","tel":"","addr":"경기도 양주시 옥정동 963-13번지 120호","category":"일반휴게음식 - 일반한식"},{"name":"다모아약국","tel":"031-886-4450","addr":"경기도 양주시 옥정동 963-13번지 111호","category":"약국 - 약국"},{"name":"더감동의원","tel":"031-866-6002","addr":"경기도 양주시 옥정동 963-13번지 5층 504호","category":"의원 - 의원"},{"name":"던킨도너츠 옥정점","tel":"031-857-0568","addr":"경기도 양주시 옥정동 963-13번지 110호","category":"음료식품 - 제과점"},{"name":"도쿄스테이크양주옥정점","tel":"031-857-3559","addr":"경기도 양주시 옥정동 963-13번지 208호","category":"일반휴게음식 - 일식·회집"},{"name":"롤러클럽 몽톨","tel":"031-866-5224","addr":"경기도 양주시 옥정동 963-13번지 8층 1,2,3,4,5,6호","category":"레저업소 - 기타레져업소"},{"name":"맘스터치 양주옥정중앙점","tel":"031-862-7750","addr":"경기도 양주시 옥정동 963-13번지 파스텔시티 119, 120호","category":"일반휴게음식 - 서양음식"},{"name":"민들레태권도","tel":"031-861-0870","addr":"경기도 양주시 옥정동 963-13번지 7층 옥정파스텔시티 1-2호","category":"학원 - 예·체능계학원"},{"name":"본죽&비빔밥 양주옥정점","tel":"031-868-6288","addr":"경기도 양주시 옥정동 963-13번지 118호","category":"일반휴게음식 - 일반한식"},{"name":"볼원락볼링센타(옥정점)","tel":"031-857-0804","addr":"경기도 양주시 옥정동 963-13번지 파스텔시티 9층 1,2,3,4,5호","category":"레저업소 - 볼 링 장"},{"name":"볼원락볼링센터(옥정점)","tel":"031-857-0804","addr":"경기도 양주시 옥정동 963-13번지 파스텔시티 1,2,3,4,5호","category":"일반휴게음식 - 일반한식"},{"name":"양주두리이비인후과의원","tel":"031-868-8766","addr":"경기도 양주시 옥정동 963-13번지 파스텔시티 604호","category":"의원 - 의원"},{"name":"양주숲정신건강의학과의원","tel":"","addr":"경기도 양주시 옥정동 963-13번지 501호","category":"의원 - 의원"},{"name":"옥정 당구클럽","tel":"031-859-9080","addr":"경기도 양주시 옥정동 963-13번지 파스텔시티 305,306호","category":"레저업소 - 당 구 장"},{"name":"옥정아트치과의원","tel":"031-868-2879","addr":"경기도 양주시 옥정동 963-13번지 5층 502,503호","category":"의원 - 치과의원"},{"name":"옥정점핑","tel":"070-4176-9931","addr":"경기도 양주시 옥정동 963-13번지 508호","category":"건강식품 - 기타건강식품"},{"name":"족보잇는 국밥 옥정신도시점","tel":"031-964-1130","addr":"경기도 양주시 옥정동 963-13번지 파스텔시티 117호","category":"일반휴게음식 - 일반한식"},{"name":"주가람 내과의원","tel":"031-867-8670","addr":"경기도 양주시 옥정동 963-13번지 파스텔시티 4층 403호","category":"의원 - 의원"},{"name":"천사곱창 옥정점","tel":"031-8582-1994","addr":"경기도 양주시 옥정동 963-13번지 121호","category":"일반휴게음식 - 일반한식"},{"name":"칸투 부대찌개","tel":"031-866-7877","addr":"경기도 양주시 옥정동 963-13번지 103호","category":"일반휴게음식 - 일반한식"},{"name":"파스텔Food","tel":"","addr":"경기도 양주시 옥정동 963-13번지 10층 1004호","category":"일반휴게음식 - 일반한식"},{"name":"파스텔요가","tel":"031-858-8818","addr":"경기도 양주시 옥정동 963-13번지 603호 602호,603호","category":"레저업소 - 헬스클럽"},{"name":"파파존스 양주옥정점","tel":"031-863-8808","addr":"경기도 양주시 옥정동 963-13번지 109호","category":"일반휴게음식 - 서양음식"},{"name":"해피로PC양주옥정점","tel":"070-2025-2231","addr":"경기도 양주시 옥정동 963-13번지 5층 505호","category":"레저업소 - 기타레져업소"},{"name":"휘트니스W옥정점","tel":"","addr":"경기도 양주시 옥정동 963-13번지 7층 703호","category":"레저업소 - 헬스클럽"},{"name":"휘트니스W옥정점","tel":"031-866-1066","addr":"경기도 양주시 옥정동 963-13번지 7층 4,5,6호","category":"레저업소 - 헬스클럽"}]},{"lat":"37.81936872","long":"127.09403596","items":[{"name":"골방상담카페 그 별","tel":"031-825-0360","addr":"경기도 양주시 옥정동 967-4번지 1동 402호","category":"일반휴게음식 - 서양음식"},{"name":"나리타(양주옥정점)","tel":"031-857-2299","addr":"경기도 양주시 옥정동 967-4번지 205호","category":"일반휴게음식 - 일식·회집"},{"name":"노랑통닭","tel":"","addr":"경기도 양주시 옥정동 967-4번지 비타민프라자 116호","category":"일반휴게음식 - 스넥"},{"name":"노랑통닭 옥정점","tel":"031-862-3161","addr":"경기도 양주시 옥정동 967-4번지 비타민프라자 116호","category":"일반휴게음식 - 일반한식"},{"name":"도쿄식당","tel":"","addr":"경기도 양주시 옥정동 967-4번지 비타민프라자 101호","category":"일반휴게음식 - 일반한식"},{"name":"마왕족발","tel":"031-857-5511","addr":"경기도 양주시 옥정동 967-4번지 117호","category":"일반휴게음식 - 일반한식"},{"name":"미스사이공 (양주옥정점)","tel":"031-845-9500","addr":"경기도 양주시 옥정동 967-4번지 비타민프라자 1동 1층 103호","category":"일반휴게음식 - 일반한식"},{"name":"미스터 차이나","tel":"","addr":"경기도 양주시 옥정동 967-4번지 비타민프라자 102호","category":"일반휴게음식 - 중국식"},{"name":"버거스테이지","tel":"031-857-5333","addr":"경기도 양주시 옥정동 967-4번지 비타민프라자 207호","category":"일반휴게음식 - 일반한식"},{"name":"스푼더마켓(양주옥정점)","tel":"031-868-2002","addr":"경기도 양주시 옥정동 967-4번지 비타민프라자 5층 501-504호","category":"일반휴게음식 - 서양음식"},{"name":"싹쓰리(옥정점)","tel":"031-857-3542","addr":"경기도 양주시 옥정동 967-4번지 118,119호","category":"일반휴게음식 - 일반한식"},{"name":"타임","tel":"031-866-3440","addr":"경기도 양주시 옥정동 967-4번지 제1동 3층 306,307호","category":"일반휴게음식 - 서양음식"},{"name":"헤아림 아동발달센터","tel":"031-866-7576","addr":"경기도 양주시 옥정동 967-4번지 비타민프라자 1동 6층 603호","category":"보건위생 - 기타대인서비스"}]},{"lat":"37.819198075","long":"127.09334295","items":[{"name":"곱분이곱창 양주점","tel":"070-7420-1663","addr":"경기도 양주시 옥정동 966-5번지 폴리타워 1층 118호","category":"일반휴게음식 - 일반한식"},{"name":"배부장찌개 옥정신도시점","tel":"031-868-8689","addr":"경기도 양주시 옥정동 966-5번지 109호","category":"일반휴게음식 - 일반한식"},{"name":"뷰티케어","tel":"031-000-0000","addr":"경기도 양주시 옥정동 966-5번지 폴리타워 4층 411호","category":"보건위생 - 화장품"},{"name":"얌샘김밥","tel":"","addr":"경기도 양주시 옥정동 966-5번지 폴리타워 111호","category":"일반휴게음식 - 일반한식"},{"name":"어멍생고기","tel":"031-865-7267","addr":"경기도 양주시 옥정동 966-5번지 폴리타워 106 ,107호호","category":"일반휴게음식 - 일반한식"},{"name":"옥정상회","tel":"031-857-3367","addr":"경기도 양주시 옥정동 966-5번지 115호","category":"일반휴게음식 - 일반한식"},{"name":"이옥자 (옥정타워)","tel":"","addr":"경기도 양주시 옥정동 966-5번지 폴라타워 2층 205호","category":"용역 서비스 - 부동산 중개·임대"}]},{"lat":"37.820116502","long":"127.09403688","items":[{"name":"곱창이야기 (양주옥정점)","tel":"031-858-5623","addr":"경기도 양주시 옥정동 967-1번지 폴리프라자 103호","category":"일반휴게음식 - 일반한식"},{"name":"돈통마늘보쌈옥정점","tel":"031-866-5382","addr":"경기도 양주시 옥정동 967-1번지 1층","category":"일반휴게음식 - 일반한식"},{"name":"라썸헤어 뷰티컴퍼니 옥점점","tel":"031-864-5333","addr":"경기도 양주시 옥정동 967-1번지 2층 206호","category":"보건위생 - 미용원"},{"name":"명품 피부샵","tel":"031-841-9077","addr":"경기도 양주시 옥정동 967-1번지 601호","category":"보건위생 - 화장품"},{"name":"장정모 김밥","tel":"031-862-2340","addr":"경기도 양주시 옥정동 967-1번지 폴리프라자 1층 104호","category":"일반휴게음식 - 일반한식"},{"name":"중앙부동산공인중개사사무소","tel":"000-000-0000","addr":"경기도 양주시 옥정동 967-1번지 폴리프라자 109호","category":"용역 서비스 - 부동산 중개·임대"},{"name":"집밥한식뷔페","tel":"031-871-0607","addr":"경기도 양주시 옥정동 967-1번지 폴리프라자 2층 204,205호","category":"일반휴게음식 - 일반한식"},{"name":"짝태&노가리","tel":"031-111-1111","addr":"경기도 양주시 옥정동 967-1번지 102호","category":"일반휴게음식 - 일반한식"},{"name":"참다한홍삼 양주옥정신도시점","tel":"031-858-0462","addr":"경기도 양주시 옥정동 967-1번지 1층 116호","category":"건강식품 - 홍삼제품"},{"name":"하사전영어","tel":"031-857-0526","addr":"경기도 양주시 옥정동 967-1번지 5층 510호","category":"용역 서비스 - 사무서비스"}]},{"lat":"37.81611459","long":"127.09623519","items":[{"name":"굽네치킨 옥정지구점","tel":"032-857-9294","addr":"경기도 양주시 옥정동 1075-3번지 101호","category":"일반휴게음식 - 스넥"},{"name":"옥정 정육식당","tel":"031-857-7884","addr":"경기도 양주시 옥정동 1075-3번지 102호","category":"일반휴게음식 - 일반한식"},{"name":"옥정축산","tel":"031-857-7884","addr":"경기도 양주시 옥정동 1075-3번지 행복한빌 102호","category":"음료식품 - 정육점"}]},{"lat":"37.817142221","long":"127.09553235","items":[{"name":"굿샵 옥정점","tel":"031-867-9004","addr":"경기도 양주시 옥정동 1072-2번지 에드빌 1층 101호","category":"유통업 영리 - 편 의 점"},{"name":"해피돈까스","tel":"031-858-2050","addr":"경기도 양주시 옥정동 1072-2번지 에드빌 1층 일부","category":"일반휴게음식 - 일반한식"}]},{"lat":"37.819369697","long":"127.09276394","items":[{"name":"그룸헤어(Groom hair)","tel":"","addr":"경기도 양주시 옥정동 966-8번지 폴리프라자4 209호","category":"보건위생 - 미용원"},{"name":"꿀잼점핑24옥정로데오점","tel":"","addr":"경기도 양주시 옥정동 966-8번지 4층 406호","category":"건강식품 - 기타건강식품"},{"name":"다온네일","tel":"","addr":"경기도 양주시 옥정동 966-8번지 폴리프라자4 305호","category":"보건위생 - 피부미용실"},{"name":"라자냐키친","tel":"","addr":"경기도 양주시 옥정동 966-8번지 폴리프라자4 201호","category":"일반휴게음식 - 서양음식"},{"name":"봉추찜닭 양주옥정점","tel":"031-858-9381","addr":"경기도 양주시 옥정동 966-8번지 폴리프라자4 2층 203호","category":"일반휴게음식 - 일반한식"},{"name":"수유리우동집","tel":"031-857-0888","addr":"경기도 양주시 옥정동 966-8번지 폴리프라자4,1층 111호","category":"일반휴게음식 - 일반한식"},{"name":"스마일","tel":"031-857-5882","addr":"경기도 양주시 옥정동 966-8번지 5층 509호,510호","category":"보건위생 - 미용재료"},{"name":"신전 떡볶이","tel":"031-864-0292","addr":"경기도 양주시 옥정동 966-8번지 101호","category":"일반휴게음식 - 일반한식"},{"name":"안경","tel":"031-928-6466","addr":"경기도 양주시 옥정동 966-8번지 105호","category":"보건위생 - 안경"},{"name":"양도깨비 옥정점","tel":"","addr":"경기도 양주시 옥정동 966-8번지 폴리프라자4 1층 110호","category":"일반휴게음식 - 일반한식"},{"name":"위맨즈WEMANZ","tel":"","addr":"경기도 양주시 옥정동 966-8번지 302호","category":"보건위생 - 피부미용실"},{"name":"제이케이 (JK) 빌리어드","tel":"","addr":"경기도 양주시 옥정동 966-8번지 502호 ~ 505호","category":"레저업소 - 당 구 장"},{"name":"쭈꾸미 아저씨 옥정점","tel":"070-4063-8887","addr":"경기도 양주시 옥정동 966-8번지 폴리프라자4차 1층 115호","category":"일반휴게음식 - 일반한식"},{"name":"차돌풍 양주옥정점","tel":"031-868-5293","addr":"경기도 양주시 옥정동 966-8번지 113,114호","category":"일반휴게음식 - 일반한식"},{"name":"카페게이트 양주옥정점","tel":"031-111-0000","addr":"경기도 양주시 옥정동 966-8번지 폴리4프라자 102호","category":"일반휴게음식 - 서양음식"},{"name":"커피에반하다 양주옥정점","tel":"02-900-1544","addr":"경기도 양주시 옥정동 966-8번지 폴리프라자4 1층 107호","category":"일반휴게음식 - 서양음식"},{"name":"하나네일","tel":"","addr":"경기도 양주시 옥정동 966-8번지 폴리프라자4 401호","category":"보건위생 - 피부미용실"},{"name":"행복담은복짬뽕","tel":"031-858-6286","addr":"경기도 양주시 옥정동 966-8번지 2층 202호","category":"일반휴게음식 - 중국식"}]},{"lat":"37.822063568","long":"127.09269906","items":[{"name":"김덕후의곱창조(양주점)","tel":"","addr":"경기도 양주시 옥정동 963-1번지 한길프라자2 1층 116호","category":"일반휴게음식 - 일반한식"},{"name":"옥정부대찌개","tel":"031-857-7511","addr":"경기도 양주시 옥정동 963-1번지 206호","category":"일반휴게음식 - 일반한식"},{"name":"파리바게뜨 옥정역","tel":"031-864-8249","addr":"경기도 양주시 옥정동 963-1번지 한길프라자2 1층 107,108호","category":"음료식품 - 제과점"}]},{"lat":"37.814786061","long":"127.08987379","items":[{"name":"김밥천국,전주칡냉면","tel":"031-861-9400","addr":"경기도 양주시 옥정동 1049-3번지 111호","category":"일반휴게음식 - 일반한식"},{"name":"다원한식","tel":"031-868-5352","addr":"경기도 양주시 옥정동 1049-3번지 2층 204호","category":"일반휴게음식 - 일반한식"},{"name":"더아크필라테스스튜디오","tel":"070-7420-1106","addr":"경기도 양주시 옥정동 1049-3번지 4층 403호","category":"레저업소 - 헬스클럽"},{"name":"양주평화의원","tel":"031-866-2084","addr":"경기도 양주시 옥정동 1049-3번지 3층 303호","category":"의원 - 의원"},{"name":"영주회식본점","tel":"031-868-5352","addr":"경기도 양주시 옥정동 1049-3번지 해산프라자 2층 204호","category":"일반휴게음식 - 일반한식"},{"name":"이마트24 옥정혜산프라자점","tel":"031-111-1111","addr":"경기도 양주시 옥정동 1049-3번지 1층 106호","category":"유통업 영리 - 편 의 점"},{"name":"튼튼약국","tel":"031-871-2188","addr":"경기도 양주시 옥정동 1049-3번지 105호","category":"약국 - 약국"}]},{"lat":"37.820783734","long":"127.09334489","items":[{"name":"깐부치킨(옥정신도시점)","tel":"031-858-5656","addr":"경기도 양주시 옥정동 965-4번지 드림타워 1층 122,123호","category":"일반휴게음식 - 스넥"},{"name":"남도애","tel":"031-866-3847","addr":"경기도 양주시 옥정동 965-4번지 드림타워 210호","category":"일반휴게음식 - 일반한식"},{"name":"바다횟집","tel":"031-827-9288","addr":"경기도 양주시 옥정동 965-4번지 드림타워 101,102호","category":"일반휴게음식 - 일식·회집"},{"name":"이분생 양주옥정점","tel":"031-865-3120","addr":"경기도 양주시 옥정동 965-4번지 1층 115,116호","category":"일반휴게음식 - 주점"},{"name":"제시 Jessi","tel":"032-000-0000","addr":"경기도 양주시 옥정동 965-4번지 103호","category":"의류 - 정장"}]},{"lat":"37.822446036","long":"127.09895768","items":[{"name":"꿀잼점핑 옥정호수공원점","tel":"","addr":"경기도 양주시 옥정동 1041-6번지 다올레이크프라자 4층 401호","category":"건강식품 - 기타건강식품"},{"name":"비에이알 (Bar)포차","tel":"03-861-0174","addr":"경기도 양주시 옥정동 1041-6번지 106호","category":"일반휴게음식 - 주점"},{"name":"쁘띠몽","tel":"031-855-2277","addr":"경기도 양주시 옥정동 1041-6번지 304호","category":"문화.취미 - 애완동물"},{"name":"선량한꼬지앤바비큐","tel":"031-111-1111","addr":"경기도 양주시 옥정동 1041-6번지 1동 105호","category":"일반휴게음식 - 일반한식"},{"name":"아까르마","tel":"031-858-5255","addr":"경기도 양주시 옥정동 1041-6번지 다올레이크프라자 1동 404호","category":"보건위생 - 미용원"},{"name":"옥정회뜨는집","tel":"","addr":"경기도 양주시 옥정동 1041-6번지 다올레이크프라자 101호","category":"음료식품 - 기타음료식품"},{"name":"우림에프앤티","tel":"031-855-0144","addr":"경기도 양주시 옥정동 1041-6번지 다올레이크프라자 1동 301호","category":"건축자재 - 인테리어전문"},{"name":"우서방 소한마리 정육식당","tel":"031-861-9282","addr":"경기도 양주시 옥정동 1041-6번지 다올레이크프라자 204,205호 2층","category":"일반휴게음식 - 일반한식"},{"name":"차니플라워케이크","tel":"070-4046-7340","addr":"경기도 양주시 옥정동 1041-6번지 203호","category":"음료식품 - 제과점"},{"name":"처갓집양념치킨 옥정1호점","tel":"031-868-2993","addr":"경기도 양주시 옥정동 1041-6번지 107호","category":"일반휴게음식 - 스넥"}]},{"lat":"37.816564782","long":"127.09658782","items":[{"name":"낭만식탁","tel":"","addr":"경기도 양주시 옥정동 1074-5번지","category":"일반휴게음식 - 일반한식"},{"name":"삼성종합철물","tel":"031-865-0982","addr":"경기도 양주시 옥정동 1074-5번지 1층","category":"건축자재 - 목재·석재·철물"}]},{"lat":"37.816085758","long":"127.0984838","items":[{"name":"낮은옷장","tel":"02-000-0000","addr":"경기도 양주시 옥정동 1066-1번지 1층 101호","category":"의류 - 정장"},{"name":"소소한하루","tel":"","addr":"경기도 양주시 옥정동 1066-1번지 1층 103호","category":"음료식품 - 기타음료식품"}]},{"lat":"37.832527655","long":"127.08708886","items":[{"name":"네네치킨 옥정지구점","tel":"031-866-4479","addr":"경기도 양주시 옥정동 875-2번지 1층 일부","category":"일반휴게음식 - 스넥"},{"name":"업텐브로피자 양주점","tel":"031-866-2179","addr":"경기도 양주시 옥정동 875-2번지 1층 102호","category":"일반휴게음식 - 서양음식"}]},{"lat":"37.812863452","long":"127.08220601","items":[{"name":"네오","tel":"031-858-9203","addr":"경기도 양주시 옥정동 530-3","category":"신변잡화 - 기타잡화"}]},{"lat":"37.815340459","long":"127.0953711","items":[{"name":"네이처 앤 네이처(nature&nature)","tel":"031-861-1071","addr":"경기도 양주시 옥정동 1071-8번지 101호","category":"문화.취미 - 화원"}]},{"lat":"37.819975994","long":"127.07587617","items":[{"name":"농업회사법인 주식회사 청원식품","tel":"031-859-1133","addr":"경기도 양주시 옥정동 799번지","category":"음료식품 - 농·축·수산품"},{"name":"양주YMCA","tel":"031-857-8822","addr":"경기도 양주시 옥정동 799번지","category":"학원 - 기타 교육기관"}]},{"lat":"37.817892919","long":"127.07887239","items":[{"name":"농업회사법인(주)독바위농원","tel":"031-859-1133","addr":"경기도 양주시 옥정동 844-2번지","category":"농업 - 농기계"}]},{"lat":"37.82011698","long":"127.0808168","items":[{"name":"농업회사법인(주)청미원식품","tel":"031-859-1133","addr":"경기도 양주시 옥정동 573","category":"음료식품 - 농·축·수산품"}]},{"lat":"37.820919828","long":"127.09209572","items":[{"name":"다봄안과의원","tel":"031-868-7585","addr":"경기도 양주시 옥정동 963-6번지 4층 403호","category":"의원 - 의원"},{"name":"닭발먹은새우","tel":"031-863-8838","addr":"경기도 양주시 옥정동 963-6번지 신운정튼튼프라자 110호","category":"일반휴게음식 - 일반한식"},{"name":"버즈헤어","tel":"","addr":"경기도 양주시 옥정동 963-6번지 202호","category":"보건위생 - 미용원"},{"name":"베이프살롱","tel":"031-825-0054","addr":"경기도 양주시 옥정동 963-6번지 113호","category":"기타 - 기타 전문점"},{"name":"블루밍 갤러리","tel":"031-861-2833","addr":"경기도 양주시 옥정동 963-6번지 1층 106호","category":"직물 - 카페트,커튼,천막,지물"},{"name":"사조참치 옥정점","tel":"031-861-3377","addr":"경기도 양주시 옥정동 963-6번지 신운정튼튼프라자 2층 205호","category":"일반휴게음식 - 일식·회집"},{"name":"스푼스토리","tel":"031-857-1199","addr":"경기도 양주시 옥정동 963-6번지 신운정튼튼프라자 204호","category":"일반휴게음식 - 서양음식"},{"name":"안경창고싸군 옥정점","tel":"031-868-2438","addr":"경기도 양주시 옥정동 963-6번지 신운정프라자 1층 107호","category":"보건위생 - 안경"},{"name":"영흥 돌곱창","tel":"031-865-9293","addr":"경기도 양주시 옥정동 963-6번지 116호","category":"일반휴게음식 - 일반한식"},{"name":"옥정공감치과","tel":"031-859-3100","addr":"경기도 양주시 옥정동 963-6번지 302호","category":"의원 - 치과의원"},{"name":"의정부튼튼부대찌개","tel":"031-866-8700","addr":"경기도 양주시 옥정동 963-6번지 신운정튼튼프라자 114호","category":"일반휴게음식 - 일반한식"},{"name":"툇마루비빔집","tel":"031-858-2006","addr":"경기도 양주시 옥정동 963-6번지 1층 115호","category":"일반휴게음식 - 일반한식"},{"name":"트리스헤어","tel":"031-868-8282","addr":"경기도 양주시 옥정동 963-6번지 3층 303호","category":"보건위생 - 미용원"},{"name":"할리스커피 양주옥정점","tel":"","addr":"경기도 양주시 옥정동 963-6번지","category":"일반휴게음식 - 서양음식"}]},{"lat":"37.81506036","long":"127.09639285","items":[{"name":"달보드레","tel":"","addr":"경기도 양주시 옥정동 1069-4번지 103호","category":"음료식품 - 제과점"},{"name":"배달삼겹돼지되지 옥정점","tel":"070-4686-9412","addr":"경기도 양주시 옥정동 1069-4번지 상가동 102호","category":"일반휴게음식 - 일반한식"},{"name":"아름드리","tel":"070-7878-5086","addr":"경기도 양주시 옥정동 1069-4번지 104호","category":"보건위생 - 화장품"},{"name":"클린명품 운동화 빨래방","tel":"031-858-5546","addr":"경기도 양주시 옥정동 1069-4번지 상가 1층 101호","category":"수리서비스 - 세탁소"}]},{"lat":"37.815059626","long":"127.09731274","items":[{"name":"달콤헤어","tel":"031-858-0335","addr":"경기도 양주시 옥정동 1068-3번지 102호","category":"보건위생 - 미용원"},{"name":"바이올렛제이(Violet .J)","tel":"070-7718-2283","addr":"경기도 양주시 옥정동 1068-3번지 103호","category":"의류 - 정장"},{"name":"커피, 드리다","tel":"031-528-6263","addr":"경기도 양주시 옥정동 1068-3번지","category":"일반휴게음식 - 서양음식"}]},{"lat":"37.835671343","long":"127.0879217","items":[{"name":"닭집에떡볶이","tel":"02-000-0000","addr":"경기도 양주시 옥정동 145-4번지","category":"일반휴게음식 - 일반한식"},{"name":"씨유양주행복점","tel":"080-080-3663","addr":"경기도 양주시 옥정동 145-4번지 양주옥정A3 단지내상가 103,104호","category":"유통업 영리 - 편 의 점"},{"name":"어바웃네일","tel":"031-866-3781","addr":"경기도 양주시 옥정동 145-4번지 양주옥정3단지 상가동 204호","category":"보건위생 - 피부미용실"}]},{"lat":"37.816315335","long":"127.09297602","items":[{"name":"대림마트","tel":"031-856-1737","addr":"경기도 양주시 옥정동 1051번지 옥정택지지구A-18BL단지내상가 2동 101호","category":"유통업 영리 - 슈퍼마켓"},{"name":"또봉이치킨 (옥정점)","tel":"031-857-9900","addr":"경기도 양주시 옥정동 1051번지 e편한세상 양주신도시 2차 1층 106호","category":"일반휴게음식 - 스넥"},{"name":"미소헤어","tel":"031-867-8877","addr":"경기도 양주시 옥정동 1051번지 e편한세상양주신도시2차 1동 105호","category":"보건위생 - 미용원"},{"name":"세미음악학원","tel":"031-857-4649","addr":"경기도 양주시 옥정동 1051번지 e편한세상 양주신도시 2차 1동 201호","category":"학원 - 예·체능계학원"},{"name":"영렘브란트","tel":"","addr":"경기도 양주시 옥정동 1051번지 e편한세상 양주신도시 2차 1804동 1204호","category":"학원 - 기타 교육기관"},{"name":"이마트24 양주e편한세상2차점","tel":"","addr":"경기도 양주시 옥정동 1051번지 e편한세상양주신도시2차 상가 1동 101호","category":"유통업 영리 - 편 의 점"},{"name":"이마트24 양주e편한세상2차점","tel":"070-8956-2123","addr":"경기도 양주시 옥정동 1051번지 e편한세상양주신도시2차 상가 1동 101호","category":"유통업 영리 - 편 의 점"},{"name":"탑클래스교육","tel":"","addr":"경기도 양주시 옥정동 1051번지 e편한세상옥정에듀파크 1809동 204호","category":"학원 - 기타 교육기관"},{"name":"티플러스 e해법수학 이편한2차점","tel":"","addr":"경기도 양주시 옥정동 1051번지 e편한세상 양주신도시 2차 1807동 303호","category":"학원 - 기타 교육기관"}]},{"lat":"37.819592302","long":"127.09614871","items":[{"name":"대방푸드","tel":"031-863-8765","addr":"경기도 양주시 옥정동 968번지 양주옥정지구(A-12BL)","category":"일반휴게음식 - 일반한식"}]},{"lat":"37.826947876","long":"127.09111479","items":[{"name":"대방한식뷔페","tel":"031-867-9997","addr":"경기도 양주시 옥정동 950-4번지 205호, 206호","category":"일반휴게음식 - 일반한식"},{"name":"로즈비점핑다이어트","tel":"","addr":"경기도 양주시 옥정동 950-4번지 301호","category":"건강식품 - 기타건강식품"},{"name":"루트66바베큐","tel":"031-864-9229","addr":"경기도 양주시 옥정동 950-4번지 111호","category":"일반휴게음식 - 스넥"}]},{"lat":"37.824730634","long":"127.09233883","items":[{"name":"대성산업","tel":"031-865-0754","addr":"경기도 양주시 옥정동 110-7번지","category":"직물 - 기타직물"}]},{"lat":"37.81978414","long":"127.09275308","items":[{"name":"대치김쌤영어교습소","tel":"031-858-6305","addr":"경기도 양주시 옥정동 966-10번지 플리프라자3 5층 509호","category":"학원 - 외국어학원"},{"name":"데이오브유(Day of you)","tel":"031-111-1111","addr":"경기도 양주시 옥정동 966-10번지 폴리프라자3차 107호","category":"의류 - 정장"},{"name":"미니 인도-코리아","tel":"","addr":"경기도 양주시 옥정동 966-10번지 2층 208호","category":"일반휴게음식 - 서양음식"},{"name":"별곱창","tel":"031-111-1111","addr":"경기도 양주시 옥정동 966-10번지 114호","category":"일반휴게음식 - 일반한식"},{"name":"불난술집","tel":"","addr":"경기도 양주시 옥정동 966-10번지 111호","category":"일반휴게음식 - 일반한식"},{"name":"블랙앤쿡 양주점","tel":"031-866-6531","addr":"경기도 양주시 옥정동 966-10번지 110호","category":"일반휴게음식 - 서양음식"},{"name":"빨간지붕","tel":"031-573-7559","addr":"경기도 양주시 옥정동 966-10번지 폴리프라자3 105호","category":"의류 - 정장"},{"name":"생활맥주 양주옥정신도시점","tel":"031-868-8283","addr":"경기도 양주시 옥정동 966-10번지 폴리프라자3 115호","category":"일반휴게음식 - 주점"},{"name":"수뷰티","tel":"031-867-5789","addr":"경기도 양주시 옥정동 966-10번지 201호","category":"보건위생 - 화장품"},{"name":"스시오감","tel":"031-862-1415","addr":"경기도 양주시 옥정동 966-10번지 103호","category":"일반휴게음식 - 일식·회집"},{"name":"제이모바일","tel":"031-866-4011","addr":"경기도 양주시 옥정동 966-10번지 플리프라자3 1층 109호","category":"사무통신 - 통신기기"},{"name":"제이즈타투","tel":"031-000-0000","addr":"경기도 양주시 옥정동 966-10번지 3동 4층 401호","category":"신변잡화 - 기타잡화"},{"name":"큰맘할매순대국 양주옥정점","tel":"031-867-1122","addr":"경기도 양주시 옥정동 966-10번지 1층 106호","category":"일반휴게음식 - 일반한식"},{"name":"탕화쿵푸마라탕","tel":"031-859-5989","addr":"경기도 양주시 옥정동 966-10번지 210호","category":"일반휴게음식 - 중국식"},{"name":"헤어하우스(HAIR HAUS.N)","tel":"031-866-2731","addr":"경기도 양주시 옥정동 966-10번지 폴리프라자3 2층 204호","category":"보건위생 - 미용원"},{"name":"힐링뷰티샵","tel":"031-868-5953","addr":"경기도 양주시 옥정동 966-10번지 5층 507호","category":"보건위생 - 화장품"}]},{"lat":"37.819201204","long":"127.07584133","items":[{"name":"더 1st 버스데이","tel":"031-859-8895","addr":"경기도 양주시 옥정동 796-18번지 1층","category":"의류 - 맞춤복점"},{"name":"스타캠프","tel":"","addr":"경기도 양주시 옥정동 796-18번지","category":"레져용품 - 스포츠·레져용품"}]},{"lat":"37.819783688","long":"127.09334367","items":[{"name":"더드림 (THE드림)","tel":"031-7139-9137","addr":"경기도 양주시 옥정동 966-3번지 옥폴리프라자2 3층 306호","category":"일반휴게음식 - 일반한식"},{"name":"돈창","tel":"031-857-5556","addr":"경기도 양주시 옥정동 966-3번지 115호","category":"일반휴게음식 - 일반한식"},{"name":"뚱보집(옥정점)","tel":"031-000-1234","addr":"경기도 양주시 옥정동 966-3번지 폴리프라자2 104호","category":"일반휴게음식 - 일반한식"},{"name":"소도둑 커피도둑","tel":"031-863-8989","addr":"경기도 양주시 옥정동 966-3번지 폴리프라자2 114,208,209호","category":"일반휴게음식 - 일반한식"},{"name":"자매카롱","tel":"","addr":"경기도 양주시 옥정동 966-3번지 폴리프라자2 102호","category":"음료식품 - 기타음료식품"},{"name":"족발야시장 옥정점","tel":"031-866-4969","addr":"경기도 양주시 옥정동 966-3번지 폴리프라자 112호,113호","category":"일반휴게음식 - 일반한식"},{"name":"초콜릿","tel":"070-8612-9729","addr":"경기도 양주시 옥정동 966-3번지 110호","category":"의류 - 정장"},{"name":"하얼빈 소 양꼬치   마라탕","tel":"031-861-8582","addr":"경기도 양주시 옥정동 966-3번지 폴리프라자2 108,109호","category":"일반휴게음식 - 일반한식"}]},{"lat":"37.81847683","long":"127.09397808","items":[{"name":"더라이프치과의원","tel":"031-866-2275","addr":"경기도 양주시 옥정동 963-18번지 한덕타워 302호","category":"의원 - 치과의원"},{"name":"로뎀성모안과의원","tel":"031-858-8000","addr":"경기도 양주시 옥정동 963-18번지 4층 402호","category":"의원 - 의원"},{"name":"바른본정형외과","tel":"031-866-5544","addr":"경기도 양주시 옥정동 963-18번지 한덕타워 5층 502호","category":"의원 - 의원"},{"name":"보니퍼피(BONNY PUPPY)","tel":"","addr":"경기도 양주시 옥정동 963-18번지 한덕타워 206호","category":"일반휴게음식 - 서양음식"},{"name":"서울바른의원","tel":"","addr":"경기도 양주시 옥정동 963-18번지 5층 501호","category":"의원 - 의원"},{"name":"서울바른의원","tel":"","addr":"경기도 양주시 옥정동 963-18번지 5층 501호","category":"의원 - 의원"},{"name":"스시노칸도 양주점","tel":"031-857-5979","addr":"경기도 양주시 옥정동 963-18번지 303호","category":"일반휴게음식 - 일식·회집"},{"name":"인생바디","tel":"","addr":"경기도 양주시 옥정동 963-18번지 401호","category":"레저업소 - 헬스클럽"},{"name":"장독대 옥정지구점","tel":"","addr":"경기도 양주시 옥정동 963-18번지 한덕타워 110호","category":"음료식품 - 기타음료식품"},{"name":"주식회사 롤러몬스터","tel":"031-867-2084","addr":"경기도 양주시 옥정동 963-18번지 한덕타워 9층","category":"레저업소 - 기타레져업소"},{"name":"참약국","tel":"031-857-8421","addr":"경기도 양주시 옥정동 963-18번지 1층 115호","category":"약국 - 약국"},{"name":"파리바게뜨(양주옥정대림)","tel":"031-867-8242","addr":"경기도 양주시 옥정동 963-18번지 108호 107호,108호","category":"음료식품 - 제과점"}]},{"lat":"37.816813619","long":"127.08928561","items":[{"name":"더빅마트옥정체인점4호점","tel":"031-867-3233","addr":"경기도 양주시 옥정동 1047번지 옥정천년나무16단지 상가동 1층 101,102호","category":"유통업 영리 - 슈퍼마켓"},{"name":"명가통닭 옥정점","tel":"031-863-5333","addr":"경기도 양주시 옥정동 1047번지 옥정천년나무16단지 108호","category":"일반휴게음식 - 스넥"},{"name":"씨유옥정천년나무점","tel":"080-080-3663","addr":"경기도 양주시 옥정동 1047번지 옥정천년나무16단지 상가동 103호, 104호","category":"유통업 영리 - 편 의 점"}]},{"lat":"37.808196727","long":"127.08195119","items":[{"name":"더좋은카","tel":"031-856-6683","addr":"경기도 양주시 옥정동 472-1번지","category":"자동차정비 유지 - 자동차시트·타이어"},{"name":"양주블링블링셀프세차장","tel":"031-823-1411","addr":"경기도 양주시 옥정동 472-1번지","category":"자동차정비 유지 - 세차장"}]},{"lat":"37.822814259","long":"127.07540193","items":[{"name":"덕송아크릴","tel":"031-858-0416","addr":"경기도 양주시 옥정동 765-3","category":"직물 - 기타직물"}]},{"lat":"37.831896335","long":"127.08800824","items":[{"name":"도로시헤어","tel":"031-866-3989","addr":"경기도 양주시 옥정동 176-5번지 세창리베하우스 상가동 104호","category":"보건위생 - 미용원"},{"name":"본스치킨(양주옥정점)","tel":"031-868-2125","addr":"경기도 양주시 옥정동 176-5번지 세창리베하우스 상가동 102호","category":"일반휴게음식 - 일반한식"},{"name":"성진목재","tel":"031-877-3048","addr":"경기도 양주시 옥정동 176-5번지 세창 상가 107호","category":"건축자재 - 목재·석재·철물"},{"name":"세창세탁소","tel":"031-866-6679","addr":"경기도 양주시 옥정동 176-5번지 세창리베하우스 상가동 107호","category":"수리서비스 - 세탁소"}]},{"lat":"37.820111584","long":"127.07514942","items":[{"name":"독바위모터스","tel":"032-858-1512","addr":"경기도 양주시 옥정동 798-2번지","category":"자동차정비 유지 - 자동차정비"}]},{"lat":"37.820005078","long":"127.08634775","items":[{"name":"동양건업","tel":"0-0-0000","addr":"경기도 양주시 옥정동 288-8외1","category":"건축자재 - 보일러·펌프·샷시"}]},{"lat":"37.815087784","long":"127.09589319","items":[{"name":"두번째 옷장","tel":"070-8845-6197","addr":"경기도 양주시 옥정동 1069-1번지 101호","category":"의류 - 아동의류"},{"name":"부엔까미노 플라워","tel":"","addr":"경기도 양주시 옥정동 1069-1번지 아트빌 1층 104호","category":"문화.취미 - 화원"},{"name":"옥정달빛","tel":"02-1111-1111","addr":"경기도 양주시 옥정동 1069-1번지 1층","category":"일반휴게음식 - 서양음식"},{"name":"투머치(Too much)","tel":"032-1111-1111","addr":"경기도 양주시 옥정동 1069-1번지 상가 1층 103호","category":"의류 - 정장"}]},{"lat":"37.817564956","long":"127.09643008","items":[{"name":"또래오래 옥정지구점","tel":"031-894-8816","addr":"경기도 양주시 옥정동 1059-1번지 1층 일부","category":"일반휴게음식 - 스넥"},{"name":"송정 바이크","tel":"","addr":"경기도 양주시 옥정동 1059-1번지 103호","category":"레져용품 - 스포츠·레져용품"},{"name":"카페이나","tel":"","addr":"경기도 양주시 옥정동 1059-1번지 1층 일부","category":"일반휴게음식 - 서양음식"},{"name":"피자마루(옥정신도시점)","tel":"031-866-9200","addr":"경기도 양주시 옥정동 1059-1번지 1층","category":"일반휴게음식 - 서양음식"}]},{"lat":"37.815059917","long":"127.09694933","items":[{"name":"라엘 플라워 앤 가든","tel":"031-866-0515","addr":"경기도 양주시 옥정동 1068-1번지 101호","category":"문화.취미 - 화원"},{"name":"블라썸(Blossom)","tel":"","addr":"경기도 양주시 옥정동 1068-1번지 104호","category":"의류 - 정장"},{"name":"샵히얼(#HERE)","tel":"070-7718-2283","addr":"경기도 양주시 옥정동 1068-1번지 1층 일부","category":"보건위생 - 피부미용실"}]},{"lat":"37.815953128","long":"127.09533779","items":[{"name":"라이프 (Life)미용실","tel":"031-857-7199","addr":"경기도 양주시 옥정동 1071-12번지 104호","category":"보건위생 - 미용원"},{"name":"보타닉가든(Botanic Garden)","tel":"","addr":"경기도 양주시 옥정동 1071-12번지 1층","category":"문화.취미 - 화원"}]},{"lat":"37.816176211","long":"127.098041","items":[{"name":"래쉬홀릭","tel":"","addr":"경기도 양주시 옥정동 1079-4번지 조이빌딩 상가 102호","category":"보건위생 - 피부미용실"},{"name":"우리수산","tel":"031-840-3737","addr":"경기도 양주시 옥정동 1079-4번지 1층 일부","category":"일반휴게음식 - 일식·회집"},{"name":"향기로운하루","tel":"031-866-0227","addr":"경기도 양주시 옥정동 1079-4번지 1동 103호","category":"신변잡화 - 기타잡화"}]},{"lat":"37.807895672","long":"127.08734477","items":[{"name":"랩핑거","tel":"070-7792-2600","addr":"경기도 양주시 옥정동 461번지","category":"자동차정비 유지 - 자동차부품"}]},{"lat":"37.815925679","long":"127.09587153","items":[{"name":"러비:디(luvy:D)","tel":"","addr":"경기도 양주시 옥정동 1075-10번지 상가동 104호","category":"의류 - 아동의류"},{"name":"브레드컬쳐","tel":"","addr":"경기도 양주시 옥정동 1075-10번지","category":"음료식품 - 제과점"}]},{"lat":"37.815059781","long":"127.09711968","items":[{"name":"로자델리아","tel":"","addr":"경기도 양주시 옥정동 1068-2번지 102호","category":"의류 - 정장"}]},{"lat":"37.808093741","long":"127.08753804","items":[{"name":"리무진캠핑카","tel":"031-840-4541","addr":"경기도 양주시 옥정동 454-1번지","category":"레져용품 - 스포츠·레져용품"},{"name":"예스인테리어","tel":"031-865-1744","addr":"경기도 양주시 옥정동 454-1번지","category":"직물 - 카페트,커튼,천막,지물"}]},{"lat":"37.817592693","long":"127.09553291","items":[{"name":"리체","tel":"031-872-9288","addr":"경기도 양주시 옥정동 1058-2번지 1층","category":"기타 - 기타 전문점"},{"name":"양주과일왕","tel":"031-226-4025","addr":"경기도 양주시 옥정동 1058-2번지 1층","category":"음료식품 - 농·축·수산품"}]},{"lat":"37.815064535","long":"127.09097572","items":[{"name":"마마부대","tel":"031-868-2503","addr":"경기도 양주시 옥정동 산151번지 가하프라자 108,204호","category":"일반휴게음식 - 일반한식"},{"name":"방가방가자율식당","tel":"031-867-8355","addr":"경기도 양주시 옥정동 산151번지 1층 109호,110호","category":"일반휴게음식 - 일반한식"},{"name":"옥정 가마솥족발 보쌈","tel":"031-857-8588","addr":"경기도 양주시 옥정동 산151번지 102호","category":"일반휴게음식 - 일반한식"}]},{"lat":"37.815061033","long":"127.0955411","items":[{"name":"마카로너제이","tel":"","addr":"경기도 양주시 옥정동 1070-3번지 1층","category":"음료식품 - 기타음료식품"},{"name":"이아이오(eieio)","tel":"031-123-1367","addr":"경기도 양주시 옥정동 1070-3번지 1층 101호","category":"의류 - 아동의류"}]},{"lat":"37.807896896","long":"127.08561872","items":[{"name":"명문컨테이너","tel":"070-4922-1261","addr":"경기도 양주시 옥정동 463번지","category":"건축자재 - 기타건축자재"}]},{"lat":"37.809062248","long":"127.0810323","items":[{"name":"모궁숯불갈비","tel":"031-866-4476","addr":"경기도 양주시 옥정동 473-5번지","category":"일반휴게음식 - 일반한식"}]},{"lat":"37.817148696","long":"127.09870096","items":[{"name":"무쇠삼겹","tel":"031-857-1010","addr":"경기도 양주시 옥정동 1063-2번지","category":"일반휴게음식 - 일반한식"}]},{"lat":"37.817114817","long":"127.09600931","items":[{"name":"물 회오리","tel":"031-876-0779","addr":"경기도 양주시 옥정동 1073-2번지","category":"일반휴게음식 - 일반한식"}]},{"lat":"37.821310275","long":"127.08798472","items":[{"name":"미노스","tel":"031-825-4012","addr":"경기도 양주시 옥정동 286-1","category":"가구 - 일반가구"}]},{"lat":"37.830175015","long":"127.10030806","items":[{"name":"미니스톱율정8단지점","tel":"031-1577-9621","addr":"경기도 양주시 옥정동 1032번지 옥정천년나무8단지 상가동 103,104호","category":"유통업 영리 - 편 의 점"},{"name":"미담헤어","tel":"","addr":"경기도 양주시 옥정동 1032번지 옥정천년나무8단지 상가동 102호","category":"보건위생 - 미용원"},{"name":"응응스크르(옥정점)","tel":"","addr":"경기도 양주시 옥정동 1032번지 주공8단지 상가 105호","category":"음료식품 - 기타음료식품"}]},{"lat":"37.831418996","long":"127.09948047","items":[{"name":"박군치킨 옥정동점","tel":"031-867-1002","addr":"경기도 양주시 옥정동 1031-1번지 111호","category":"일반휴게음식 - 스넥"},{"name":"베이퍼크루","tel":"070-7420-9153","addr":"경기도 양주시 옥정동 1031-1번지 골드타워 102호","category":"기타 - 기타 전문점"},{"name":"블루보드","tel":"031-857-6629","addr":"경기도 양주시 옥정동 1031-1번지 1동 5층 1호","category":"사무통신 - 기타 사무용품"},{"name":"소담푸드","tel":"031-868-5901","addr":"경기도 양주시 옥정동 1031-1번지 골드타워 1동 204호","category":"일반휴게음식 - 일반한식"},{"name":"오레시피양주옥정율정점","tel":"031-857-0668","addr":"경기도 양주시 옥정동 1031-1번지 112호","category":"음료식품 - 기타음료식품"},{"name":"이디야커피 옥정율정점","tel":"031-865-5196","addr":"경기도 양주시 옥정동 1031-1번지 107,108호","category":"일반휴게음식 - 서양음식"}]},{"lat":"37.815281278","long":"127.09028322","items":[{"name":"반창꼬동물병원","tel":"031-858-2918","addr":"경기도 양주시 옥정동 1049-1번지","category":"기타의료기관 - 동물병원"},{"name":"반창꼬애견미용","tel":"070-4640-4184","addr":"경기도 양주시 옥정동 1049-1번지 힐링프라자 302호","category":"문화.취미 - 애완동물"},{"name":"세븐코리아전자담배옥정점","tel":"","addr":"경기도 양주시 옥정동 1049-1번지 힐링프라자 1층 109호","category":"기타 - 기타 전문점"},{"name":"에클레시아","tel":"031-868-0179","addr":"경기도 양주시 옥정동 1049-1번지 4층 401 ,402,403","category":"일반휴게음식 - 스넥"},{"name":"응급실국물떡볶이 양주옥정점","tel":"","addr":"경기도 양주시 옥정동 1049-1번지 104호","category":"일반휴게음식 - 스넥"},{"name":"크린토피아 코인워시 양주옥정신도시점","tel":"031-862-3001","addr":"경기도 양주시 옥정동 1049-1번지 110호","category":"수리서비스 - 세탁소"}]},{"lat":"37.817004545","long":"127.09870077","items":[{"name":"방일해장국","tel":"031-859-5552","addr":"경기도 양주시 옥정동 1063-3번지 세빛빌딩 1층","category":"일반휴게음식 - 일반한식"}]},{"lat":"37.810252717","long":"127.09200339","items":[{"name":"배즐푸드","tel":"031-866-2134","addr":"경기도 양주시 옥정동 422-25번지","category":"일반휴게음식 - 일반한식"}]},{"lat":"37.813422296","long":"127.08182048","items":[{"name":"백두산 스크린골프","tel":"031-866-0710","addr":"경기도 양주시 옥정동 538-4번지","category":"레저업소 - 스크린골프"}]},{"lat":"37.815808825","long":"127.09553068","items":[{"name":"보곤다","tel":"","addr":"경기도 양주시 옥정동 1071-4번지 두리빌 상가 102호","category":"일반휴게음식 - 서양음식"},{"name":"청춘냄비","tel":"031-405-4404","addr":"경기도 양주시 옥정동 1071-4번지 1동 1층 3호","category":"일반휴게음식 - 일반한식"},{"name":"호식이두마리치킨","tel":"031-861-9991","addr":"경기도 양주시 옥정동 1071-4번지 101호","category":"일반휴게음식 - 스넥"}]},{"lat":"37.815029157","long":"127.09008986","items":[{"name":"본도시락옥정점","tel":"031-861-4282","addr":"경기도 양주시 옥정동 1049-2번지 중앙프라자 101호","category":"일반휴게음식 - 일반한식"},{"name":"부뚜막","tel":"","addr":"경기도 양주시 옥정동 1049-2번지 중앙프라자 1동 110층","category":"음료식품 - 기타음료식품"},{"name":"옥정S(에스)라인다이어트","tel":"031-844-7334","addr":"경기도 양주시 옥정동 1049-2번지 401호","category":"건강식품 - 기타건강식품"},{"name":"이루아","tel":"031-858-3624","addr":"경기도 양주시 옥정동 1049-2번지 중앙프라자 2층 202-2호","category":"보건위생 - 미용원"},{"name":"황금밥상","tel":"031-868-2352","addr":"경기도 양주시 옥정동 1049-2번지 2층 203,204호","category":"일반휴게음식 - 일반한식"}]},{"lat":"37.817114951","long":"127.09583895","items":[{"name":"뷰티펫#","tel":"","addr":"경기도 양주시 옥정동 1073-1번지 주신빌 1층 102호","category":"문화.취미 - 애완동물"},{"name":"손길미장원","tel":"070-4574-9636","addr":"경기도 양주시 옥정동 1073-1번지 103호","category":"보건위생 - 미용원"},{"name":"오우르커피","tel":"031-863-8821","addr":"경기도 양주시 옥정동 1073-1번지 1층","category":"일반휴게음식 - 서양음식"},{"name":"옥정항","tel":"031-858-0158","addr":"경기도 양주시 옥정동 1073-1번지 104호","category":"일반휴게음식 - 일반한식"}]},{"lat":"37.820613508","long":"127.09209535","items":[{"name":"블루클럽 옥정점","tel":"","addr":"경기도 양주시 옥정동 963-7번지 POP타워 110호","category":"보건위생 - 미용원"},{"name":"비허밍스터디카페 양주옥정점","tel":"031-868-0203","addr":"경기도 양주시 옥정동 963-7번지 POP타워 4층층 401-1,401-2호","category":"용역 서비스 - 사무서비스"},{"name":"연세쉼표치과","tel":"031-857-9069","addr":"경기도 양주시 옥정동 963-7번지 5층 501-1호","category":"의원 - 치과의원"},{"name":"황금미술학원","tel":"","addr":"경기도 양주시 옥정동 963-7번지 POP타워 601-2호","category":"학원 - 예·체능계학원"}]},{"lat":"37.821531969","long":"127.0927552","items":[{"name":"비어라이제","tel":"","addr":"경기도 양주시 옥정동 965-1번지 국제프라자 2층 205호","category":"일반휴게음식 - 서양음식"},{"name":"진스PT용품점","tel":"","addr":"경기도 양주시 옥정동 965-1번지 504호","category":"레져용품 - 스포츠·레져용품"},{"name":"청년피자 양주점","tel":"070-4922-1261","addr":"경기도 양주시 옥정동 965-1번지 101호","category":"일반휴게음식 - 서양음식"},{"name":"홍루이젠 양주옥정점","tel":"031-858-7379","addr":"경기도 양주시 옥정동 965-1번지 국제프라자 102호 일부","category":"일반휴게음식 - 서양음식"}]},{"lat":"37.808364025","long":"127.08753835","items":[{"name":"비엘컴퍼니","tel":"031-840-4541","addr":"경기도 양주시 옥정동 455번지","category":"농업 - 비료,사료,종자"}]},{"lat":"37.818974409","long":"127.078317","items":[{"name":"상희원","tel":"031-858-0631","addr":"경기도 양주시 옥정동 791-3번지","category":"문화.취미 - 화원"}]},{"lat":"37.816419512","long":"127.09798453","items":[{"name":"샤플리헤어","tel":"031-859-2228","addr":"경기도 양주시 옥정동 1065-4번지 102호","category":"보건위생 - 미용원"},{"name":"크린토피아","tel":"031-858-3122","addr":"경기도 양주시 옥정동 1065-4번지 1층","category":"수리서비스 - 세탁소"},{"name":"플라워나나&카페","tel":"031-858-3512","addr":"경기도 양주시 옥정동 1065-4번지 103호","category":"일반휴게음식 - 서양음식"}]},{"lat":"37.832221691","long":"127.0865887","items":[{"name":"세창마트","tel":"","addr":"경기도 양주시 옥정동 873-6번지","category":"유통업 영리 - 슈퍼마켓"}]},{"lat":"37.815925392","long":"127.09623495","items":[{"name":"스시카무이","tel":"031-1111-1111","addr":"경기도 양주시 옥정동 1075-8번지 1층","category":"일반휴게음식 - 일식·회집"},{"name":"한상    (한상다족)","tel":"031-865-6789","addr":"경기도 양주시 옥정동 1075-8번지 1동 1층 일부","category":"일반휴게음식 - 일반한식"}]},{"lat":"37.816673856","long":"127.09537276","items":[{"name":"썸(ssome)","tel":"070-5105-3545","addr":"경기도 양주시 옥정동 1072-10번지 1층","category":"일반휴게음식 - 서양음식"},{"name":"위드아이비(WITHIVY)","tel":"","addr":"경기도 양주시 옥정동 1072-10번지 102호","category":"의류 - 맞춤복점"}]},{"lat":"37.816975969","long":"127.10058599","items":[{"name":"씨유옥정금호제일점","tel":"080-080-3663","addr":"경기도 양주시 옥정동 1084번지 양주옥정 A-21(1)블록 상가 104호","category":"유통업 영리 - 편 의 점"},{"name":"제이드웰 해법영어","tel":"","addr":"경기도 양주시 옥정동 1084번지 금호제이드웰 2104동 2802호","category":"학원 - 기타 교육기관"},{"name":"해법수학","tel":"","addr":"경기도 양주시 옥정동 1084번지 금호건설제이드웰엔에이치에프 2103동 1804호","category":"학원 - 기타 교육기관"}]},{"lat":"37.831618839","long":"127.08548617","items":[{"name":"씨유옥정세창제일점","tel":"080-080-3663","addr":"경기도 양주시 옥정동 872-2번지 1층 왼쪽상가","category":"유통업 영리 - 편 의 점"}]},{"lat":"37.815119761","long":"127.10090153","items":[{"name":"씨유옥정제이드웰점","tel":"080-080-3663","addr":"경기도 양주시 옥정동 1085번지 지에스건설제이드웰엔에이치에프 상가동 102호, 103호","category":"유통업 영리 - 편 의 점"},{"name":"아소비 양주옥정 제이드웰점","tel":"","addr":"경기도 양주시 옥정동 1085번지 지에스건설제이드웰엔에이치에프 2111동 802호","category":"학원 - 기타 교육기관"},{"name":"에이앤디 매쓰(A&D MATH)","tel":"","addr":"경기도 양주시 옥정동 1085번지 지에스건설제이드웰엔에이치에프 2107동 1206호","category":"학원 - 기타 교육기관"}]},{"lat":"37.815645549","long":"127.09692736","items":[{"name":"아구전문점다찜(옥정점)","tel":"031-848-0552","addr":"경기도 양주시 옥정동 1078-10번지","category":"일반휴게음식 - 일반한식"}]},{"lat":"37.8160863","long":"127.09781375","items":[{"name":"아루(AROO)베이커리","tel":"031-866-7885","addr":"경기도 양주시 옥정동 1079-3번지 1층","category":"음료식품 - 제과점"}]},{"lat":"37.821389707","long":"127.10164807","items":[{"name":"아이스크림할인정율점13단지점","tel":"031-973-0356","addr":"경기도 양주시 옥정동 1046번지 율정마을13단지 상가동 1층 101호","category":"음료식품 - 기타음료식품"},{"name":"에듀바비 경기양주지사","tel":"02-1522-0701","addr":"경기도 양주시 옥정동 1046번지 율정마을13단지 1308동 903호","category":"용역 서비스 - 사무서비스"}]},{"lat":"37.82947685","long":"127.09461634","items":[{"name":"오선푸드","tel":"031-373-5421","addr":"경기도 양주시 옥정동 1026-1번지 옥정지구A-6(2)블럭 9동","category":"일반휴게음식 - 일반한식"}]},{"lat":"37.816114725","long":"127.09606483","items":[{"name":"옴박지등갈비찜","tel":"031-111-1111","addr":"경기도 양주시 옥정동 1075-2번지","category":"일반휴게음식 - 일반한식"}]},{"lat":"37.815364875","long":"127.09864187","items":[{"name":"요리와청춘","tel":"031-865-0509","addr":"경기도 양주시 옥정동 1067-5번지 1층","category":"일반휴게음식 - 일반한식"}]},{"lat":"37.809924586","long":"127.08481472","items":[{"name":"이마트24 양주옥정점","tel":"","addr":"경기도 양주시 옥정동 1102-2번지","category":"유통업 영리 - 편 의 점"},{"name":"이마트24 양주옥정점","tel":"","addr":"경기도 양주시 옥정동 1102-2번지","category":"유통업 영리 - 편 의 점"},{"name":"이성푸드","tel":"","addr":"경기도 양주시 옥정동 1102-2번지","category":"일반휴게음식 - 일반한식"}]},{"lat":"37.833310574","long":"127.08833929","items":[{"name":"이마트24 옥정모닝프라자점","tel":"","addr":"경기도 양주시 옥정동 168-20번지 101호","category":"유통업 영리 - 편 의 점"}]},{"lat":"37.8150613","long":"127.0952004","items":[{"name":"이마트24 옥정빌리지점","tel":"","addr":"경기도 양주시 옥정동 1070-1번지","category":"유통업 영리 - 편 의 점"},{"name":"이마트24 옥정빌리지점","tel":"031-1111-1111","addr":"경기도 양주시 옥정동 1070-1번지 1층","category":"유통업 영리 - 편 의 점"}]},{"lat":"37.816085472","long":"127.09883587","items":[{"name":"이마트24 옥정제이드웰점","tel":"","addr":"경기도 양주시 옥정동 1066-3번지 1층","category":"유통업 영리 - 편 의 점"}]},{"lat":"37.81611431","long":"127.09658725","items":[{"name":"이슬토크(TALK)","tel":"","addr":"경기도 양주시 옥정동 1075-5번지 103호","category":"일반휴게음식 - 일반한식"}]},{"lat":"37.822337112","long":"127.08831528","items":[{"name":"이엔 필라테스,요가 (EN Pilates,Yoga)","tel":"031-866-0066","addr":"경기도 양주시 옥정동 산100-7번지 세일타워 9층 906호","category":"레저업소 - 헬스클럽"}]},{"lat":"37.830006478","long":"127.09705917","items":[{"name":"이유(2U)헤어","tel":"031-865-8298","addr":"경기도 양주시 옥정동 1027번지 율정마을7단지 105호","category":"보건위생 - 미용원"}]},{"lat":"37.808448185","long":"127.0831438","items":[{"name":"자연농원","tel":"031-838-5949","addr":"경기도 양주시 옥정동 471-1","category":"문화.취미 - 화원"}]},{"lat":"37.819280875","long":"127.07809016","items":[{"name":"쨈스(JJEM's)","tel":"031-868-1200","addr":"경기도 양주시 옥정동 791-4","category":"신변잡화 - 기타잡화"}]},{"lat":"37.816418978","long":"127.09864323","items":[{"name":"치킨플러스옥정점","tel":"031-000-0000","addr":"경기도 양주시 옥정동 1057-9번지 108호","category":"일반휴게음식 - 일반한식"}]},{"lat":"37.835751294","long":"127.08947809","items":[{"name":"크린에이드양주옥정행복주택점","tel":"031-866-8656","addr":"경기도 양주시 옥정동 145-1번지 양주옥정 A3 201호","category":"수리서비스 - 세탁소"}]},{"lat":"37.815059197","long":"127.09784651","items":[{"name":"통큰두마리찜닭","tel":"031-857-8292","addr":"경기도 양주시 옥정동 1068-6번지 1층","category":"일반휴게음식 - 일반한식"}]},{"lat":"37.813698258","long":"127.09848073","items":[{"name":"퍼스트푸드","tel":"02-1111-1111","addr":"경기도 양주시 옥정동 865-433번지 옥정택지개발지구A-20(2)블록","category":"일반휴게음식 - 일반한식"}]},{"lat":"37.817203625","long":"127.09762211","items":[{"name":"퍼팩트스팀세차","tel":"","addr":"경기도 양주시 옥정동 1061-4번지 1층","category":"자동차정비 유지 - 세차장"}]},{"lat":"37.815807163","long":"127.09762033","items":[{"name":"플렌티모어(plenty more)","tel":"031-859-4433","addr":"경기도 양주시 옥정동 1080-2번지","category":"의류 - 정장"}]},{"lat":"37.813502976","long":"127.08242246","items":[{"name":"햇빛푸드","tel":"031-1111-1111","addr":"경기도 양주시 옥정동 530-6번지 1층","category":"일반휴게음식 - 일반한식"}]}]