[{"lat":"38.001175186","long":"126.99273757","items":[{"name":"고구려목장","tel":"031-958-9515","addr":"경기도 파주시 적성면 어유지리 136번지","category":"음료식품 - 농·축·수산품"}]},{"lat":"38.000922873","long":"126.99210002","items":[{"name":"고구려밀크스쿨","tel":"031-958-9515","addr":"경기도 파주시 적성면 어유지리 136-2번지","category":"레저업소 - 기타레져업소"}]},{"lat":"37.998011471","long":"126.98154671","items":[{"name":"국제","tel":"031-000-0000","addr":"경기도 파주시 적성면 어유지리 377번지","category":"용역 서비스 - 기타용역서비스"}]},{"lat":"37.996733039","long":"126.98704586","items":[{"name":"남포촌","tel":"031-959-9451","addr":"경기도 파주시 적성면 어유지리 258-5번지","category":"일반휴게음식 - 일반한식"}]},{"lat":"37.998398974","long":"126.98214999","items":[{"name":"더지스치즈카페","tel":"031-958-5034","addr":"경기도 파주시 적성면 어유지리 380-1번지","category":"일반휴게음식 - 서양음식"}]},{"lat":"37.993454297","long":"126.99235157","items":[{"name":"도봉건설중기","tel":"031-958-8725","addr":"경기도 파주시 적성면 어유지리 75-18","category":"기타 - 기계공구"}]},{"lat":"37.994093843","long":"126.99123582","items":[{"name":"동네치킨","tel":"031-958-6595","addr":"경기도 파주시 적성면 어유지리 75-7번지","category":"일반휴게음식 - 일반한식"},{"name":"해남밥집","tel":"031-959-3232","addr":"경기도 파주시 적성면 어유지리 75-7번지","category":"일반휴게음식 - 일반한식"}]},{"lat":"38.000064855","long":"126.97795979","items":[{"name":"리오차드38(LEE ORCHARD38)","tel":"031-958-1615","addr":"경기도 파주시 적성면 어유지리 552번지","category":"일반휴게음식 - 서양음식"}]},{"lat":"37.992895462","long":"126.98971055","items":[{"name":"미향","tel":"031-959-3335","addr":"경기도 파주시 적성면 어유지리 75-39번지","category":"일반휴게음식 - 중국식"}]},{"lat":"37.992930677","long":"126.98373392","items":[{"name":"방주농기계","tel":"031-958-1290","addr":"경기도 파주시 적성면 어유지리 315-4번지","category":"수리서비스 - 기타수리서비스"}]},{"lat":"37.993922701","long":"126.99156599","items":[{"name":"어유노래연습장","tel":"031-959-8666","addr":"경기도 파주시 적성면 어유지리 75-22","category":"레저업소 - 노 래 방"}]},{"lat":"37.993346146","long":"126.9919076","items":[{"name":"어유지리매운탕","tel":"031-959-2200","addr":"경기도 파주시 적성면 어유지리 75-17번지","category":"일반휴게음식 - 일반한식"}]},{"lat":"37.993373226","long":"126.99248819","items":[{"name":"연안식당부페","tel":"031-958-3908","addr":"경기도 파주시 적성면 어유지리 72-6번지","category":"일반휴게음식 - 일반한식"},{"name":"향촌칼국수","tel":"031-958-0722","addr":"경기도 파주시 적성면 어유지리 72-6번지","category":"일반휴게음식 - 일반한식"}]},{"lat":"37.994174898","long":"126.99096259","items":[{"name":"영암골","tel":"031-959-1211","addr":"경기도 파주시 적성면 어유지리 77-4번지","category":"일반휴게음식 - 일반한식"}]},{"lat":"37.994319093","long":"126.99145209","items":[{"name":"용문각","tel":"031-959-9584","addr":"경기도 파주시 적성면 어유지리 81-3","category":"일반휴게음식 - 중국식"},{"name":"카페","tel":"031-959-6115","addr":"경기도 파주시 적성면 어유지리 81-3번지","category":"일반휴게음식 - 일반한식"}]},{"lat":"38.001623444","long":"126.97798203","items":[{"name":"의정부부대찌개","tel":"031-952-5190","addr":"경기도 파주시 적성면 어유지리 533-2번지","category":"일반휴게음식 - 일반한식"}]},{"lat":"37.99509381","long":"126.99073475","items":[{"name":"이헌각동물병원","tel":"031-959-3641","addr":"경기도 파주시 적성면 어유지리 81번지","category":"기타의료기관 - 동물병원"}]},{"lat":"37.996759776","long":"126.98501939","items":[{"name":"인화상회","tel":"031-958-4735","addr":"경기도 파주시 적성면 어유지리 276-3번지","category":"음료식품 - 기타음료식품"}]},{"lat":"37.993535341","long":"126.99193034","items":[{"name":"일품사철탕","tel":"031-958-4948","addr":"경기도 파주시 적성면 어유지리 75-28번지","category":"일반휴게음식 - 일반한식"}]},{"lat":"37.99231906","long":"126.99148655","items":[{"name":"태화철물건재","tel":"031-959-9555","addr":"경기도 파주시 적성면 어유지리 60-8","category":"건축자재 - 목재·석재·철물"}]}]