[{"lat":"37.491712982","long":"127.3915217","items":[{"name":"강변테라스","tel":"","addr":"경기도 양평군 강하면 운심리 290번지 2층","category":"일반휴게음식 - 서양음식"},{"name":"양평사찰음식교육문화원","tel":"","addr":"경기도 양평군 강하면 운심리 290번지","category":"학원 - 기타 교육기관"}]},{"lat":"37.49599204","long":"127.41042844","items":[{"name":"강하꼬마숲어린이집[아이행복]","tel":"031-775-2235","addr":"경기도 양평군 강하면 운심리 49번지","category":"학원 - 유아원"},{"name":"강하해법영수전문학원","tel":"031-772-4790","addr":"경기도 양평군 강하면 운심리 49번지","category":"학원 - 보습학원"},{"name":"꿈꾸는 피아노 교습소","tel":"031-000-0000","addr":"경기도 양평군 강하면 운심리 49번지 2층","category":"학원 - 예·체능계학원"},{"name":"한체대 강하태권도장","tel":"031-775-1955","addr":"경기도 양평군 강하면 운심리 49번지 1층","category":"학원 - 예·체능계학원"}]},{"lat":"37.495910923","long":"127.41304017","items":[{"name":"강하도료","tel":"031-772-3092","addr":"경기도 양평군 강하면 운심리 26-4번지","category":"건축자재 - 페인트"},{"name":"엘림헤어샵","tel":"031-773-9911","addr":"경기도 양평군 강하면 운심리 26-4번지","category":"보건위생 - 미용원"}]},{"lat":"37.496076325","long":"127.41470337","items":[{"name":"강하면주민자치위원회","tel":"031-771-5469","addr":"경기도 양평군 강하면 운심리 6-4번지","category":"문화.취미 - 문화취미기타"}]},{"lat":"37.493304288","long":"127.40067789","items":[{"name":"강하약국","tel":"031-774-2210","addr":"경기도 양평군 강하면 운심리 243-1번지 1층 103호","category":"약국 - 약국"}]},{"lat":"37.495856276","long":"127.41320949","items":[{"name":"강하엄마손김밥","tel":"031-777-4356","addr":"경기도 양평군 강하면 운심리 26-1번지 1층","category":"일반휴게음식 - 일반한식"}]},{"lat":"37.496131781","long":"127.41170702","items":[{"name":"강하정육점슈퍼","tel":"031-772-3996","addr":"경기도 양평군 강하면 운심리 50-1번지","category":"유통업 영리 - 슈퍼마켓"},{"name":"오구피자","tel":"031-772-4009","addr":"경기도 양평군 강하면 운심리 50-1번지 외1필지 2층","category":"일반휴게음식 - 일반한식"}]},{"lat":"37.49551881","long":"127.40918198","items":[{"name":"강하철물건재","tel":"031-772-4356","addr":"경기도 양평군 강하면 운심리 38-17","category":"기타 - 기계공구"}]},{"lat":"37.49622005","long":"127.4096268","items":[{"name":"강하초등학교","tel":"031-774-7174","addr":"경기도 양평군 강하면 운심리 43-2번지 강하초등학교","category":"학원 - 초중고교육기관"},{"name":"강하초등학교병설유치원[아이행복]","tel":"031-774-7174","addr":"경기도 양평군 강하면 운심리 43-2번지 강하초등학교","category":"학원 - 유치원"}]},{"lat":"37.497748075","long":"127.41068676","items":[{"name":"걸리버여행기","tel":"031-775-7187","addr":"경기도 양평군 강하면 운심리 63-2번지","category":"일반휴게음식 - 서양음식"}]},{"lat":"37.49082746","long":"127.38679064","items":[{"name":"나비스타일(NABI STYLE)","tel":"031-000-0000","addr":"경기도 양평군 강하면 운심리 486-1번지","category":"신변잡화 - 액세서리"}]},{"lat":"37.495802056","long":"127.41065357","items":[{"name":"남양전기","tel":"031-773-9004","addr":"경기도 양평군 강하면 운심리 34-3번지","category":"전기제품 - 기타전기제품"},{"name":"포우미용실","tel":"031-772-4216","addr":"경기도 양평군 강하면 운심리 34-3번지","category":"보건위생 - 미용원"}]},{"lat":"37.490135982","long":"127.39973389","items":[{"name":"단아공방","tel":"","addr":"경기도 양평군 강하면 운심리 182-1번지","category":"신변잡화 - 기타잡화"}]},{"lat":"37.497438306","long":"127.41168021","items":[{"name":"대우이앤씨","tel":"031-772-0066","addr":"경기도 양평군 강하면 운심리 59-12번지","category":"건축자재 - 기타건축자재"}]},{"lat":"37.496880956","long":"127.41131531","items":[{"name":"두리헌","tel":"031-772-0160","addr":"경기도 양평군 강하면 운심리 46-1번지","category":"주방용구 - 주방용식기"}]},{"lat":"37.494496017","long":"127.40262917","items":[{"name":"라온 진 샵(RAON Jin Shop)","tel":"031-772-3222","addr":"경기도 양평군 강하면 운심리 86-3번지","category":"가구 - 일반가구"},{"name":"씨유양평강하점","tel":"031-755-7534","addr":"경기도 양평군 강하면 운심리 86-3번지","category":"유통업 영리 - 편 의 점"}]},{"lat":"37.496078779","long":"127.41140141","items":[{"name":"비바랜드","tel":"031-771-7390","addr":"경기도 양평군 강하면 운심리 50-2번지","category":"일반휴게음식 - 주점"}]},{"lat":"37.495772449","long":"127.41139974","items":[{"name":"사랑방","tel":"","addr":"경기도 양평군 강하면 운심리 33-2번지","category":"문화.취미 - 민예·공예품"}]},{"lat":"37.492359276","long":"127.3895123","items":[{"name":"샹제즈글레(헤리베르점)","tel":"070-4345-7318","addr":"경기도 양평군 강하면 운심리 516-20번지","category":"음료식품 - 제과점"},{"name":"헤리베르","tel":"031-774-2021","addr":"경기도 양평군 강하면 운심리 516-20번지","category":"음료식품 - 미곡상"},{"name":"헤리베르","tel":"031-774-2021","addr":"경기도 양평군 강하면 운심리 516-20번지","category":"일반휴게음식 - 일반한식"},{"name":"헤리베르3","tel":"031-000-0000","addr":"경기도 양평군 강하면 운심리 516-20번지","category":"신변잡화 - 액세서리"},{"name":"헤리베르양평","tel":"","addr":"경기도 양평군 강하면 운심리 516-20번지","category":"의류 - 정장"}]},{"lat":"37.495491068","long":"127.40676191","items":[{"name":"세븐일레븐양평운심점","tel":"031-1577-0711","addr":"경기도 양평군 강하면 운심리 74번지","category":"유통업 영리 - 편 의 점"},{"name":"청유식품","tel":"","addr":"경기도 양평군 강하면 운심리 74번지","category":"건강식품 - 인삼제품"}]},{"lat":"37.490799831","long":"127.39790562","items":[{"name":"신덕주유소","tel":"031-772-4321","addr":"경기도 양평군 강하면 운심리 173번지 (178)","category":"연료판매점 - SK주유소"}]},{"lat":"37.492137815","long":"127.39110552","items":[{"name":"아도니스모텔","tel":"031-775-3101","addr":"경기도 양평군 강하면 운심리 288-2번지","category":"숙박업 - 여관/기타숙박업"}]},{"lat":"37.49696844","long":"127.40946123","items":[{"name":"앙평해장국","tel":"031-771-5405","addr":"경기도 양평군 강하면 운심리 43-58번지","category":"일반휴게음식 - 일반한식"},{"name":"영오만두칼국수","tel":"031-774-0503","addr":"경기도 양평군 강하면 운심리 43-58","category":"일반휴게음식 - 일반한식"}]},{"lat":"37.495359005","long":"127.40849133","items":[{"name":"양평농협강하지점","tel":"031-772-2830","addr":"경기도 양평군 강하면 운심리 41-1번지","category":"유통업 비영리 - 농,축협 직영매장"}]},{"lat":"37.495552085","long":"127.40998503","items":[{"name":"억순네식당","tel":"031-772-2152","addr":"경기도 양평군 강하면 운심리 38-14","category":"일반휴게음식 - 일반한식"}]},{"lat":"37.491664765","long":"127.39791017","items":[{"name":"엉클조느티나무목공방","tel":"031-775-1683","addr":"경기도 양평군 강하면 운심리 196 3/2","category":"가구 - 기타가구"},{"name":"황금부동산공인중개사사무소","tel":"031-773-3494","addr":"경기도 양평군 강하면 운심리 196","category":"용역 서비스 - 부동산 중개·임대"}]},{"lat":"37.496632003","long":"127.41035276","items":[{"name":"에바다ENG","tel":"031-772-4102","addr":"경기도 양평군 강하면 운심리 43-13번지","category":"건축자재 - 보일러·펌프·샷시"}]},{"lat":"37.495630538","long":"127.40813094","items":[{"name":"에버그린에버블루협동조합","tel":"031-72-0189","addr":"경기도 양평군 강하면 운심리 42-6번지","category":"음료식품 - 농·축·수산품"}]},{"lat":"37.497907124","long":"127.4115923","items":[{"name":"예소리","tel":"031-771-3395","addr":"경기도 양평군 강하면 운심리 62-2번지","category":"레져용품 - 음반/영상물"}]},{"lat":"37.496467239","long":"127.40848601","items":[{"name":"올드보이","tel":"031-771-4576","addr":"경기도 양평군 강하면 운심리 43-22번지 나동 1층","category":"일반휴게음식 - 일반한식"},{"name":"태양관","tel":"031-774-8019","addr":"경기도 양평군 강하면 운심리 43-22번지 나동","category":"일반휴게음식 - 중국식"}]},{"lat":"37.494129637","long":"127.4017339","items":[{"name":"우드인","tel":"031-771-5855","addr":"경기도 양평군 강하면 운심리 255번지","category":"건축자재 - 기타건축자재"}]},{"lat":"37.493301482","long":"127.38515237","items":[{"name":"전망대농원","tel":"02-1234-1234","addr":"경기도 양평군 강하면 운심리 534번지","category":"레저업소 - 기타레져업소"}]},{"lat":"37.49288718","long":"127.38510503","items":[{"name":"전망대농원","tel":"02-1234-1234","addr":"경기도 양평군 강하면 운심리 534-2번지","category":"음료식품 - 농·축·수산품"}]},{"lat":"37.492108657","long":"127.39988002","items":[{"name":"전주관","tel":"031-772-9006","addr":"경기도 양평군 강하면 운심리 237-2번지","category":"일반휴게음식 - 일반한식"}]},{"lat":"37.494213929","long":"127.40609918","items":[{"name":"티라5월의밥상","tel":"031-773-7009","addr":"경기도 양평군 강하면 운심리 101번지","category":"일반휴게음식 - 일반한식"}]},{"lat":"37.495719239","long":"127.40853851","items":[{"name":"하나마트","tel":"031-774-1995","addr":"경기도 양평군 강하면 운심리 42-1번지","category":"유통업 영리 - 슈퍼마켓"}]},{"lat":"37.49338464","long":"127.39821323","items":[{"name":"하늘꽃이야기 에듀팜","tel":"031-774-1386","addr":"경기도 양평군 강하면 운심리 213-1번지","category":"학원 - 기타 교육기관"}]},{"lat":"37.496274292","long":"127.41218274","items":[{"name":"해와달","tel":"031-774-9579","addr":"경기도 양평군 강하면 운심리 53-5번지","category":"일반휴게음식 - 일반한식"}]},{"lat":"37.490575186","long":"127.39229601","items":[{"name":"홍가네슈퍼","tel":"031-772-0605","addr":"경기도 양평군 강하면 운심리 303-1번지","category":"유통업 영리 - 슈퍼마켓"}]},{"lat":"37.490914081","long":"127.39876558","items":[{"name":"힐푸드","tel":"031-773-3060","addr":"경기도 양평군 강하면 운심리 180번지","category":"일반휴게음식 - 일반한식"}]}]