[{"lat":"37.538753403","long":"126.76329441","items":[{"name":"BK상사","tel":"032-672-6279","addr":"경기도 부천시 대장동 685-5번지","category":"문화.취미 - 화원"}]},{"lat":"37.542029392","long":"126.78468082","items":[{"name":"ES렌탈","tel":"032-652-3945","addr":"경기도 부천시 대장동 211-4번지","category":"레져용품 - 스포츠·레져용품"}]},{"lat":"37.539418794","long":"126.76263602","items":[{"name":"OK마트","tel":"032-671-1230","addr":"경기도 부천시 대장동 686-15번지","category":"유통업 영리 - 슈퍼마켓"}]},{"lat":"37.551978071","long":"126.76688472","items":[{"name":"SEE플라워","tel":"032-684-7692","addr":"경기도 부천시 대장동 546-4번지 3호","category":"문화.취미 - 화원"}]},{"lat":"37.541898026","long":"126.76338618","items":[{"name":"가든플라워","tel":"032-672-1773","addr":"경기도 부천시 대장동 676-5번지","category":"문화.취미 - 화원"},{"name":"예목원","tel":"032-676-3319","addr":"경기도 부천시 대장동 676-5번지","category":"문화.취미 - 화원"}]},{"lat":"37.542529262","long":"126.76365573","items":[{"name":"굳-플라워","tel":"032-675-8814","addr":"경기도 부천시 대장동 676번지","category":"문화.취미 - 화원"},{"name":"꿈에그린꽃직매장","tel":"032-678-1515","addr":"경기도 부천시 대장동 676번지","category":"문화.취미 - 화원"},{"name":"마이플라워","tel":"032-677-5425","addr":"경기도 부천시 대장동 676번지","category":"문화.취미 - 화원"},{"name":"초록꽃식물원","tel":"032-678-1515","addr":"경기도 부천시 대장동 676번지","category":"문화.취미 - 화원"},{"name":"풍경화꽃식물원","tel":"032-676-7885","addr":"경기도 부천시 대장동 676번지","category":"문화.취미 - 화원"},{"name":"현플라워","tel":"032-673-8254","addr":"경기도 부천시 대장동 676번지","category":"문화.취미 - 화원"},{"name":"효민플라워","tel":"032-326-4637","addr":"경기도 부천시 대장동 676번지","category":"문화.취미 - 화원"}]},{"lat":"37.542057153","long":"126.78507677","items":[{"name":"그린지구","tel":"032-673-5280","addr":"경기도 부천시 대장동 207-4번지","category":"서적문구 - 출판 및 인쇄물"}]},{"lat":"37.549029743","long":"126.76583029","items":[{"name":"내손으로만드는정원","tel":"032-683-1102","addr":"경기도 부천시 대장동 661-2","category":"건축자재 - 인테리어전문"}]},{"lat":"37.546892946","long":"126.76510153","items":[{"name":"녹색나라","tel":"032-672-3000","addr":"경기도 부천시 대장동 661-11","category":"문화.취미 - 화원"}]},{"lat":"37.5408376","long":"126.78823719","items":[{"name":"농업회사법인 나눔농장 유한회사","tel":"070-7538-9555","addr":"경기도 부천시 대장동 304-1","category":"음료식품 - 농·축·수산품"}]},{"lat":"37.541840761","long":"126.78993157","items":[{"name":"농업회사법인(주)플랜넷","tel":"032-674-0153","addr":"경기도 부천시 대장동 199-2번지","category":"농업 - 비료,사료,종자"}]},{"lat":"37.552230503","long":"126.76696314","items":[{"name":"다육식물원","tel":"032-671-3835","addr":"경기도 부천시 대장동 546-3","category":"문화.취미 - 화원"}]},{"lat":"37.539700188","long":"126.76366477","items":[{"name":"다육이레","tel":"032-322-3912","addr":"경기도 부천시 대장동 685-1","category":"문화.취미 - 화원"}]},{"lat":"37.540785139","long":"126.79415505","items":[{"name":"대장꽃집","tel":"","addr":"경기도 부천시 대장동 290-7번지","category":"문화.취미 - 화원"}]},{"lat":"37.54284309","long":"126.78135177","items":[{"name":"대장마을 협동조합","tel":"031-000-0000","addr":"경기도 부천시 대장동 106번지 101호","category":"음료식품 - 농·축·수산품"}]},{"lat":"37.537337854","long":"126.7628011","items":[{"name":"대지화원","tel":"031-434-8261","addr":"경기도 부천시 대장동 685-11","category":"문화.취미 - 화원"}]},{"lat":"37.545008555","long":"126.76443989","items":[{"name":"두메산골","tel":"032-677-6912","addr":"경기도 부천시 대장동 667-6번지","category":"문화.취미 - 화원"}]},{"lat":"37.541338713","long":"126.79132475","items":[{"name":"미니농원","tel":"032-677-4825","addr":"경기도 부천시 대장동 278-5","category":"문화.취미 - 화원"}]},{"lat":"37.541949702","long":"126.78543917","items":[{"name":"미도건설","tel":"070-4963-2157","addr":"경기도 부천시 대장동 207-6번지","category":"용역 서비스 - 기타용역서비스"}]},{"lat":"37.550536167","long":"126.76671952","items":[{"name":"부천공업사","tel":"032-676-9972","addr":"경기도 부천시 대장동 551번지","category":"수리서비스 - 기타수리서비스"},{"name":"태광테크","tel":"032-676-1194","addr":"경기도 부천시 대장동 551번지","category":"자동차정비 유지 - 자동차시트·타이어"}]},{"lat":"37.55267293","long":"126.76743705","items":[{"name":"삼성건업","tel":"031-681-2082","addr":"경기도 부천시 대장동 552-7번지 4/3","category":"건축자재 - 인테리어전문"}]},{"lat":"37.538534521","long":"126.76199393","items":[{"name":"새부천번호판발급대행소","tel":"032-611-9202","addr":"경기도 부천시 대장동 686-18","category":"자동차정비 유지 - 가타자동차서비스"}]},{"lat":"37.551752645","long":"126.7667949","items":[{"name":"성은화원","tel":"032-683-7946","addr":"경기도 부천시 대장동 546-5번지","category":"문화.취미 - 화원"}]},{"lat":"37.541613511","long":"126.78882334","items":[{"name":"세느강변가든","tel":"032-672-3905","addr":"경기도 부천시 대장동 274-1번지","category":"일반휴게음식 - 일반한식"}]},{"lat":"37.544224635","long":"126.76440845","items":[{"name":"신선표고버섯","tel":"032-576-1963","addr":"경기도 부천시 대장동 667-9번지 667/8","category":"음료식품 - 농·축·수산품"}]},{"lat":"37.541420163","long":"126.76321798","items":[{"name":"아네모네","tel":"032-677-1567","addr":"경기도 부천시 대장동 676-7번지","category":"문화.취미 - 화원"}]},{"lat":"37.541672598","long":"126.76329638","items":[{"name":"아람아트","tel":"032-679-0442","addr":"경기도 부천시 대장동 676-6번지","category":"문화.취미 - 화원"},{"name":"참살이화원","tel":"032-671-1610","addr":"경기도 부천시 대장동 676-6번지","category":"문화.취미 - 화원"}]},{"lat":"37.541203744","long":"126.76312816","items":[{"name":"애플플라워","tel":"032-674-0977","addr":"경기도 부천시 대장동 676-8번지","category":"문화.취미 - 화원"},{"name":"유성난전문점","tel":"032-677-1388","addr":"경기도 부천시 대장동 676-8번지","category":"문화.취미 - 화원"}]},{"lat":"37.542059234","long":"126.78620828","items":[{"name":"은성","tel":"032-681-5330","addr":"경기도 부천시 대장동 204번지","category":"전기제품 - 냉열기기"}]},{"lat":"37.53900586","long":"126.76338412","items":[{"name":"인천꽃도매","tel":"032-328-7233","addr":"경기도 부천시 대장동 685-4, 685-5","category":"문화.취미 - 화원"}]},{"lat":"37.542506168","long":"126.77946313","items":[{"name":"자생식물원","tel":"032-677-0151","addr":"경기도 부천시 대장동 91번지","category":"문화.취미 - 화원"}]},{"lat":"37.537815718","long":"126.76296929","items":[{"name":"재나꽃집","tel":"032-673-4309","addr":"경기도 부천시 대장동 685-9번지","category":"문화.취미 - 화원"},{"name":"한국화원","tel":"032-671-6923","addr":"경기도 부천시 대장동 685-9.10.11","category":"문화.취미 - 화원"},{"name":"한국화원","tel":"031-671-6923","addr":"경기도 부천시 대장동 685-9번지","category":"문화.취미 - 화원"},{"name":"한국화원","tel":"070-2699-0807","addr":"경기도 부천시 대장동 685-9번지","category":"문화.취미 - 화원"}]},{"lat":"37.54050937","long":"126.76282488","items":[{"name":"조형기푸드","tel":"070-8292-2328","addr":"경기도 부천시 대장동 676-16번지","category":"음료식품 - 농·축·수산품"}]},{"lat":"37.54072549","long":"126.76276761","items":[{"name":"조형기푸드버드나무뷔페","tel":"032-673-3477","addr":"경기도 부천시 대장동 676-15번지 1층","category":"일반휴게음식 - 일반한식"}]},{"lat":"37.542117506","long":"126.7885164","items":[{"name":"종점슈퍼","tel":"032-671-7970","addr":"경기도 부천시 대장동 202-1번지","category":"유통업 영리 - 슈퍼마켓"}]},{"lat":"37.537590289","long":"126.76287949","items":[{"name":"중앙조경화원","tel":"032-678-7878","addr":"경기도 부천시 대장동 685-10","category":"문화.취미 - 화원"}]},{"lat":"37.542895773","long":"126.78545905","items":[{"name":"파워세이브","tel":"032-233-5857","addr":"경기도 부천시 대장동 174번지","category":"신변잡화 - 기타잡화"}]},{"lat":"37.536201468","long":"126.76223903","items":[{"name":"풀잎","tel":"032-327-5555","addr":"경기도 부천시 대장동 699-1","category":"문화.취미 - 화원"}]},{"lat":"37.538696073","long":"126.76168792","items":[{"name":"플라워다이어리","tel":"032-672-7785","addr":"경기도 부천시 대장동 687","category":"문화.취미 - 화원"}]},{"lat":"37.538588925","long":"126.76216347","items":[{"name":"필화원","tel":"032-675-3366","addr":"경기도 부천시 대장동 686-17","category":"문화.취미 - 화원"}]},{"lat":"37.538059143","long":"126.76304771","items":[{"name":"하나로화분","tel":"032-677-5774","addr":"경기도 부천시 대장동 685-8 하우스","category":"문화.취미 - 화원"}]},{"lat":"37.543557133","long":"126.76402585","items":[{"name":"하늘정원","tel":"032-684-8386","addr":"경기도 부천시 대장동 671-2번지","category":"문화.취미 - 화원"}]},{"lat":"37.536869115","long":"126.76268946","items":[{"name":"휠에볼루션","tel":"032-677-6012","addr":"경기도 부천시 대장동 685-12번지","category":"자동차정비 유지 - 자동차부품"}]},{"lat":"37.544756098","long":"126.76435017","items":[{"name":"희원","tel":"032-674-8934","addr":"경기도 부천시 대장동 667-7번지","category":"문화.취미 - 화원"}]}]