[{"lat":"37.20700354","long":"127.54495973","items":[{"name":"(더) The 예뻐졌다","tel":"070-7531-4199","addr":"경기도 여주시 가남읍 태평리 768-8번지 101호","category":"보건위생 - 피부미용실"}]},{"lat":"37.203258222","long":"127.54431341","items":[{"name":"21C대리운전","tel":"031-881-3395","addr":"경기도 여주시 가남읍 태평리 162-8번지","category":"보건위생 - 기타대인서비스"},{"name":"BYC가남","tel":"031-884-2907","addr":"경기도 여주시 가남읍 태평리 163-9번지","category":"의류 - 내의판매"},{"name":"태평냉동","tel":"031-882-6710","addr":"경기도 여주시 가남읍 태평리 163-9번지","category":"수리서비스 - 기타수리서비스"}]},{"lat":"37.20333586","long":"127.54506867","items":[{"name":"BEAT BIKE","tel":"070-8161-1052","addr":"경기도 여주시 가남읍 태평리 162-4번지","category":"레져용품 - 스포츠·레져용품"},{"name":"고기장터정육점","tel":"031-884-1109","addr":"경기도 여주시 가남읍 태평리 162-4번지","category":"음료식품 - 정육점"},{"name":"대형노래연습장","tel":"031-881-3590","addr":"경기도 여주시 가남읍 태평리 162-4번지 여주축협(가남지점) 지하 1101호","category":"레저업소 - 노 래 방"},{"name":"한울당구장","tel":"031-884-3979","addr":"경기도 여주시 가남읍 태평리 162-4번지 여주축협(가남지점) 3층 1301호","category":"레저업소 - 당 구 장"}]},{"lat":"37.200645377","long":"127.54428349","items":[{"name":"CAFF STAY 카페 스테이","tel":"031-881-1023","addr":"경기도 여주시 가남읍 태평리 112번지 1층","category":"일반휴게음식 - 서양음식"},{"name":"금동카프라자","tel":"031-881-2249","addr":"경기도 여주시 가남읍 태평리 112번지","category":"자동차정비 유지 - 자동차정비"},{"name":"동명광역대리","tel":"031-882-1245","addr":"경기도 여주시 가남읍 태평리 112번지","category":"보건위생 - 기타대인서비스"},{"name":"러브펫 멀티샵 가남점","tel":"031-886-8674","addr":"경기도 여주시 가남읍 태평리 112번지 러브펫 멀티펫샵 가남점","category":"문화.취미 - 애완동물"}]},{"lat":"37.202419451","long":"127.54645887","items":[{"name":"FOX (폭스)","tel":"031-884-2959","addr":"경기도 여주시 가남읍 태평리 141-29번지","category":"일반휴게음식 - 주점"}]},{"lat":"37.209975151","long":"127.54139864","items":[{"name":"GS25여주가남점","tel":"","addr":"경기도 여주시 가남읍 태평리 285번지 1층","category":"유통업 영리 - 편 의 점"},{"name":"디에스테크","tel":"031-882-7094","addr":"경기도 여주시 가남읍 태평리 285번지","category":"기타 - 기계공구"}]},{"lat":"37.20378571","long":"127.54717832","items":[{"name":"GS25여주태평점","tel":"080-555-2525","addr":"경기도 여주시 가남읍 태평리 101-4번지 (태평리101-4,연세학원)","category":"유통업 영리 - 편 의 점"},{"name":"스마일건강원","tel":"031-884-4643","addr":"경기도 여주시 가남읍 태평리 101-4번지","category":"건강식품 - 기타건강식품"}]},{"lat":"37.206758621","long":"127.54334712","items":[{"name":"GS25태평빌리지점","tel":"","addr":"경기도 여주시 가남읍 태평리 773-1번지 1동 1층","category":"유통업 영리 - 편 의 점"}]},{"lat":"37.203282728","long":"127.54486554","items":[{"name":"J당구클럽","tel":"031-882-4156","addr":"경기도 여주시 가남읍 태평리 162-8번지 2층","category":"레저업소 - 당 구 장"},{"name":"늘푸른건강원","tel":"031-884-8429","addr":"경기도 여주시 가남읍 태평리 162-8번지","category":"건강식품 - 기타건강식품"}]},{"lat":"37.211833806","long":"127.54282004","items":[{"name":"L.cafe 엘카페","tel":"","addr":"경기도 여주시 가남읍 태평리 233-7번지","category":"일반휴게음식 - 서양음식"}]},{"lat":"37.202949438","long":"127.54681186","items":[{"name":"Lively(라이블리)","tel":"031-882-3656","addr":"경기도 여주시 가남읍 태평리 178-17번지","category":"의류 - 정장"},{"name":"몰리헤어샵","tel":"031-883-4939","addr":"경기도 여주시 가남읍 태평리 178-17번지","category":"보건위생 - 미용원"},{"name":"보스톤치과의원","tel":"031-883-3322","addr":"경기도 여주시 가남읍 태평리 178-17번지","category":"의원 - 치과의원"},{"name":"전설의 치킨","tel":"031-881-0133","addr":"경기도 여주시 가남읍 태평리 178-17번지 1층","category":"일반휴게음식 - 스넥"},{"name":"코리아피자(KoREA Pizza)","tel":"031-884-8295","addr":"경기도 여주시 가남읍 태평리 178-17번지","category":"일반휴게음식 - 서양음식"}]},{"lat":"37.205864731","long":"127.54375754","items":[{"name":"MANU.D","tel":"031-641-2211","addr":"경기도 여주시 가남읍 태평리 777-3번지","category":"일반휴게음식 - 서양음식"}]},{"lat":"37.203533069","long":"127.54725535","items":[{"name":"Music & Play 음악학원","tel":"031-8051-7555","addr":"경기도 여주시 가남읍 태평리 103-1번지","category":"학원 - 예·체능계학원"},{"name":"금강떡방앗간","tel":"031-883-6575","addr":"경기도 여주시 가남읍 태평리 103-1번지","category":"음료식품 - 제과점"},{"name":"산 꼼장어","tel":"031-882-8384","addr":"경기도 여주시 가남읍 태평리 103-1번지","category":"일반휴게음식 - 일반한식"}]},{"lat":"37.204950759","long":"127.54461838","items":[{"name":"Savory Coffee (세이보리 커피)","tel":"031-884-6240","addr":"경기도 여주시 가남읍 태평리 193-5번지","category":"일반휴게음식 - 서양음식"}]},{"lat":"37.202615913","long":"127.54684326","items":[{"name":"Y nail 와이네일","tel":"","addr":"경기도 여주시 가남읍 태평리 110-7번지 1층","category":"보건위생 - 피부미용실"},{"name":"가나안안경","tel":"031-884-5817","addr":"경기도 여주시 가남읍 태평리 110-7번지","category":"보건위생 - 안경"},{"name":"구자용치과의원","tel":"031-883-7528","addr":"경기도 여주시 가남읍 태평리 110-7번지","category":"의원 - 치과의원"},{"name":"롯데리아여주가남점","tel":"031-883-3346","addr":"경기도 여주시 가남읍 태평리 110-7번지","category":"일반휴게음식 - 서양음식"},{"name":"문희혼수백화점","tel":"031-884-4123","addr":"경기도 여주시 가남읍 태평리 110-7번지","category":"직물 - 침구·수예점"},{"name":"샤넬&커트클럽","tel":"031-882-0766","addr":"경기도 여주시 가남읍 태평리 110-7번지","category":"보건위생 - 미용원"},{"name":"우리동네빨래라면","tel":"031-881-1432","addr":"경기도 여주시 가남읍 태평리 110-7번지","category":"일반휴게음식 - 스넥"},{"name":"장충동흥부왕족발.보쌈","tel":"031-883-3303","addr":"경기도 여주시 가남읍 태평리 110-7번지","category":"일반휴게음식 - 일반한식"},{"name":"플러스당구장","tel":"031-881-3733","addr":"경기도 여주시 가남읍 태평리 110-7번지 3층","category":"레저업소 - 당 구 장"},{"name":"화랑체육관","tel":"031-883-3066","addr":"경기도 여주시 가남읍 태평리 110-7번지 3층","category":"학원 - 예·체능계학원"}]},{"lat":"37.204032102","long":"127.54453296","items":[{"name":"가가공구임대","tel":"031-884-4442","addr":"경기도 여주시 가남읍 태평리 174-4번지","category":"기타 - 기계공구"},{"name":"네이처컬렉션 여주가남점","tel":"031-882-0660","addr":"경기도 여주시 가남읍 태평리 174-4번지","category":"보건위생 - 화장품"},{"name":"인스타일","tel":"070-3100-6342","addr":"경기도 여주시 가남읍 태평리 174-4번지","category":"의류 - 정장"},{"name":"즉석김밥","tel":"031-884-3893","addr":"경기도 여주시 가남읍 태평리 174-4번지 즉석김밥","category":"일반휴게음식 - 스넥"},{"name":"카페띠아모","tel":"031-882-0661","addr":"경기도 여주시 가남읍 태평리 174-4번지 가동 1층","category":"일반휴게음식 - 서양음식"},{"name":"프라자약국","tel":"031-881-3573","addr":"경기도 여주시 가남읍 태평리 174-4번지","category":"약국 - 약국"}]},{"lat":"37.203809374","long":"127.54397942","items":[{"name":"가남공구볼트상사","tel":"031-883-1533","addr":"경기도 여주시 가남읍 태평리 164-3번지","category":"기타 - 기계공구"},{"name":"미래헤어뷰티","tel":"031-881-3187","addr":"경기도 여주시 가남읍 태평리 164-3번지","category":"보건위생 - 미용원"},{"name":"팡팡노래연습장","tel":"031-881-5775","addr":"경기도 여주시 가남읍 태평리 164-3번지","category":"레저업소 - 노 래 방"},{"name":"홀인원호프","tel":"031-881-4691","addr":"경기도 여주시 가남읍 태평리 164-3번지","category":"일반휴게음식 - 주점"}]},{"lat":"37.203697281","long":"127.54287472","items":[{"name":"가남로타리클럽","tel":"031-884-9898","addr":"경기도 여주시 가남읍 태평리 166번지","category":"기타 - 비영리/비대상"},{"name":"곰제부도해물칼국수","tel":"031-884-3389","addr":"경기도 여주시 가남읍 태평리 166번지","category":"일반휴게음식 - 일반한식"},{"name":"중부가축약품","tel":"031-884-1872","addr":"경기도 여주시 가남읍 태평리 166번지","category":"기타의료기관 - 동물병원"}]},{"lat":"37.20144942","long":"127.54578734","items":[{"name":"가남바다횟집","tel":"031-883-1230","addr":"경기도 여주시 가남읍 태평리 111-5번지","category":"일반휴게음식 - 일식·회집"},{"name":"가남유성철물건재","tel":"031-882-3077","addr":"경기도 여주시 가남읍 태평리 111-5번지","category":"건축자재 - 목재·석재·철물"},{"name":"곰다방","tel":"031-881-6681","addr":"경기도 여주시 가남읍 태평리 111-5번지","category":"일반휴게음식 - 서양음식"},{"name":"유성 노래연습장","tel":"031-883-7970","addr":"경기도 여주시 가남읍 태평리 111-5번지 지층","category":"레저업소 - 노 래 방"}]},{"lat":"37.207197333","long":"127.54395855","items":[{"name":"가남뷔페","tel":"","addr":"경기도 여주시 가남읍 태평리 203-75번지 1층","category":"일반휴게음식 - 일반한식"},{"name":"샵 79 비어(# 79 Beer)","tel":"031-881-2728","addr":"경기도 여주시 가남읍 태평리 203-75번지 지층","category":"일반휴게음식 - 주점"},{"name":"헤어와이","tel":"031-886-0301","addr":"경기도 여주시 가남읍 태평리 203-75번지 지층 101호","category":"보건위생 - 미용원"}]},{"lat":"37.204062586","long":"127.54770973","items":[{"name":"가남소리엘음악학원","tel":"031-884-7716","addr":"경기도 여주시 가남읍 태평리 102-1번지 2층","category":"학원 - 예·체능계학원"},{"name":"두루두루","tel":"","addr":"경기도 여주시 가남읍 태평리 102-1번지 1층","category":"문화.취미 - 문화취미기타"},{"name":"미술이야기","tel":"031-8051-6455","addr":"경기도 여주시 가남읍 태평리 102-1번지 1층","category":"학원 - 예·체능계학원"},{"name":"세븐일레븐여주가남초교점","tel":"","addr":"경기도 여주시 가남읍 태평리 102-1번지","category":"유통업 영리 - 편 의 점"}]},{"lat":"37.206948858","long":"127.54312318","items":[{"name":"가남수산","tel":"031-1111-1111","addr":"경기도 여주시 가남읍 태평리 204번지","category":"일반휴게음식 - 일반한식"}]},{"lat":"37.20381481","long":"127.54672795","items":[{"name":"가남스포츠","tel":"031-881-6846","addr":"경기도 여주시 가남읍 태평리 101번지","category":"레져용품 - 스포츠·레져용품"}]},{"lat":"37.203337384","long":"127.546702","items":[{"name":"가남열쇠","tel":"031-884-4852","addr":"경기도 여주시 가남읍 태평리 178-6번지","category":"기타 - 기계공구"},{"name":"헤어스토리","tel":"031-884-9165","addr":"경기도 여주시 가남읍 태평리 178-6번지","category":"보건위생 - 미용원"}]},{"lat":"37.212308457","long":"127.54345429","items":[{"name":"가남영양탕","tel":"031-881-0321","addr":"경기도 여주시 가남읍 태평리 259-8번지","category":"일반휴게음식 - 일반한식"},{"name":"미조방","tel":"031-000-0000","addr":"경기도 여주시 가남읍 태평리 259-8번지","category":"직물 - 침구·수예점"},{"name":"청정잔치국수","tel":"031-882-0433","addr":"경기도 여주시 가남읍 태평리 259-8번지","category":"일반휴게음식 - 일반한식"}]},{"lat":"37.2030895472","long":"127.5457314994","items":[{"name":"가남우체국","tel":"031-882-0100","addr":"경기도 여주시 가남읍 태평리 141-15번지","category":"용역 서비스 - 공공요금대행서비스/소"}]},{"lat":"37.202005767","long":"127.54628694","items":[{"name":"가남유리","tel":"031-882-3748","addr":"경기도 여주시 가남읍 태평리 141-30번지","category":"건축자재 - 유리"},{"name":"밀림건강원","tel":"031-884-5705","addr":"경기도 여주시 가남읍 태평리 141-30번지","category":"건강식품 - 기타건강식품"},{"name":"수정다방","tel":"031-885-2628","addr":"경기도 여주시 가남읍 태평리 141-30번지","category":"일반휴게음식 - 서양음식"},{"name":"우리식당","tel":"031-882-1851","addr":"경기도 여주시 가남읍 태평리 141-30번지","category":"일반휴게음식 - 일반한식"},{"name":"황금돼지","tel":"031-881-0999","addr":"경기도 여주시 가남읍 태평리 141-30번지","category":"일반휴게음식 - 일반한식"},{"name":"희망대리운전","tel":"031-882-4119","addr":"경기도 여주시 가남읍 태평리 141-30번지","category":"보건위생 - 기타대인서비스"}]},{"lat":"37.201587098","long":"127.54523639","items":[{"name":"가남읍 행정복지센터","tel":"031-887-3342","addr":"경기도 여주시 가남읍 태평리 138-8번지 1층","category":"용역 서비스 - 사무서비스"}]},{"lat":"37.205613325","long":"127.54356424","items":[{"name":"가남전기백화점","tel":"031-883-1107","addr":"경기도 여주시 가남읍 태평리 775-4번지 가남전기백화점","category":"전기제품 - 기타전기제품"},{"name":"블루커피","tel":"02-1577-0000","addr":"경기도 여주시 가남읍 태평리 775-4번지 1층","category":"일반휴게음식 - 서양음식"}]},{"lat":"37.203084174","long":"127.54690294","items":[{"name":"가남제천연탄","tel":"031-882-2104","addr":"경기도 여주시 가남읍 태평리 104-1번지","category":"연료판매점 - 기타연료"},{"name":"우분투유통(임실치즈(숲골유가공)여주,이천","tel":"031-881-4549","addr":"경기도 여주시 가남읍 태평리 104-1번지","category":"음료식품 - 기타음료식품"}]},{"lat":"37.200834947","long":"127.54420599","items":[{"name":"가남조각실","tel":"031-881-2378","addr":"경기도 여주시 가남읍 태평리 113-8번지","category":"문화.취미 - 민예·공예품"}]},{"lat":"37.202398046","long":"127.54325971","items":[{"name":"가남종합가스","tel":"031-882-2881","addr":"경기도 여주시 가남읍 태평리 150-2번지","category":"연료판매점 - LPG 취급점"}]},{"lat":"37.200482271","long":"127.54448507","items":[{"name":"가남종합설비","tel":"031-884-9500","addr":"경기도 여주시 가남읍 태평리 112-17번지","category":"건축자재 - 보일러·펌프·샷시"}]},{"lat":"37.205061042","long":"127.54414606","items":[{"name":"가남천막","tel":"031-882-3200","addr":"경기도 여주시 가남읍 태평리 193-13번지","category":"직물 - 카페트,커튼,천막,지물"},{"name":"광고채널","tel":"031-884-9944","addr":"경기도 여주시 가남읍 태평리 193-6번지","category":"용역 서비스 - 종합용역"}]},{"lat":"37.205197014","long":"127.54789812","items":[{"name":"가남초등학교","tel":"","addr":"경기도 여주시 가남읍 태평리 74-1번지 가남초등학교","category":"학원 - 초중고교육기관"}]},{"lat":"37.2051970142","long":"127.5478981176","items":[{"name":"가남초등학교병설유치원[아이행복]","tel":"031--883-5455","addr":"경기도 여주시 가남읍 태평리 74-1번지","category":"학원 - 유치원"}]},{"lat":"37.230833308","long":"127.5723433","items":[{"name":"가남컴퓨터","tel":"031-883-5668","addr":"경기도 여주시 가남읍 태평리 178-24번지","category":"수리서비스 - 사무·통신기기수리"}]},{"lat":"37.203004015","long":"127.54669961","items":[{"name":"가남통신","tel":"031-883-8758","addr":"경기도 여주시 가남읍 태평리 178-15번지","category":"사무통신 - 통신기기"},{"name":"꽃미용실","tel":"031-883-1023","addr":"경기도 여주시 가남읍 태평리 178-15번지","category":"보건위생 - 미용원"}]},{"lat":"37.204199704","long":"127.54728267","items":[{"name":"가남해법에듀학원","tel":"031-885-8461","addr":"경기도 여주시 가남읍 태평리 100번지 2동","category":"학원 - 보습학원"},{"name":"삼성영어수학학원","tel":"031-883-7761","addr":"경기도 여주시 가남읍 태평리 100번지","category":"학원 - 보습학원"},{"name":"수학의 달인(가남점)","tel":"070-4179-9110","addr":"경기도 여주시 가남읍 태평리 100번지","category":"학원 - 보습학원"},{"name":"예인보습셀파우등생교실학원","tel":"031-881-2881","addr":"경기도 여주시 가남읍 태평리 100번지 4층 401호","category":"학원 - 보습학원"},{"name":"예인보습학원","tel":"031-884-3420","addr":"경기도 여주시 가남읍 태평리 100번지","category":"학원 - 기타 교육기관"},{"name":"지성수학","tel":"031-8051-0779","addr":"경기도 여주시 가남읍 태평리 100번지 102호","category":"학원 - 보습학원"},{"name":"호산나음악학원","tel":"031-883-6545","addr":"경기도 여주시 가남읍 태평리 100번지","category":"학원 - 예·체능계학원"}]},{"lat":"37.204727775","long":"127.54412115","items":[{"name":"가남현대의원","tel":"031-884-8275","addr":"경기도 여주시 가남읍 태평리 172번지","category":"의원 - 의원"},{"name":"근영통신","tel":"031-8051-3111","addr":"경기도 여주시 가남읍 태평리 172번지 외1필지","category":"사무통신 - 통신기기"},{"name":"찹쌀꽈베기 도너츠","tel":"","addr":"경기도 여주시 가남읍 태평리 172번지 1층","category":"일반휴게음식 - 스넥"},{"name":"태평리정유소(김영진)/발권","tel":"02-6220-3017","addr":"경기도 여주시 가남읍 태평리 172번지","category":"여행 - 고속버스"},{"name":"태평리정유소(김영진)/부도","tel":"02-6220-3017","addr":"경기도 여주시 가남읍 태평리 172번지","category":"여행 - 고속버스"},{"name":"태평리정유소(김영진)/취소","tel":"02-6220-3017","addr":"경기도 여주시 가남읍 태평리 172번지","category":"여행 - 고속버스"},{"name":"터미널 솥뚜껑삼겹살","tel":"031-883-3380","addr":"경기도 여주시 가남읍 태평리 172번지","category":"일반휴게음식 - 일반한식"},{"name":"터미널건강원","tel":"031-884-0340","addr":"경기도 여주시 가남읍 태평리 172번지","category":"건강식품 - 기타건강식품"},{"name":"터미널약국","tel":"031-881-0631","addr":"경기도 여주시 가남읍 태평리 172번지","category":"약국 - 약국"},{"name":"한일모타","tel":"031-882-4088","addr":"경기도 여주시 가남읍 태평리 172번지","category":"수리서비스 - 기타수리서비스"},{"name":"해바라기셀프스튜디오","tel":"031-884-8575","addr":"경기도 여주시 가남읍 태평리 103-1번지","category":"광학제품 - 사진관"},{"name":"현대분식(죽여주는열꼬치)","tel":"031-882-4024","addr":"경기도 여주시 가남읍 태평리 172번지","category":"일반휴게음식 - 스넥"}]},{"lat":"37.212447966","long":"127.54840089","items":[{"name":"가남현대자동차 주식회사","tel":"031-884-4202","addr":"경기도 여주시 가남읍 태평리 33-9번지","category":"자동차정비 유지 - 자동차정비"}]},{"lat":"37.202787282","long":"127.54483947","items":[{"name":"가마솥 또깡 맛족발","tel":"031-883-5352","addr":"경기도 여주시 가남읍 태평리 161-12번지","category":"일반휴게음식 - 일반한식"},{"name":"퇴근길","tel":"031-885-8370","addr":"경기도 여주시 가남읍 태평리 161-12번지","category":"일반휴게음식 - 주점"},{"name":"혜경이네","tel":"031-884-3407","addr":"경기도 여주시 가남읍 태평리 161-12번지","category":"일반휴게음식 - 일반한식"}]},{"lat":"37.203507694","long":"127.54689471","items":[{"name":"가인","tel":"031-884-0375","addr":"경기도 여주시 가남읍 태평리 178-2번지","category":"일반휴게음식 - 주점"},{"name":"미쳐버린파닭(태평점)","tel":"031-881-0422","addr":"경기도 여주시 가남읍 태평리 178-2번지 1층","category":"일반휴게음식 - 스넥"},{"name":"왕대박막창구이","tel":"031-882-9296","addr":"경기도 여주시 가남읍 태평리 178-2번지","category":"일반휴게음식 - 일반한식"}]},{"lat":"37.208893134","long":"127.54157119","items":[{"name":"강남토지개발컨설팅","tel":"031-886-3360","addr":"경기도 여주시 가남읍 태평리 285-6번지","category":"회원제형태 - 기타4"}]},{"lat":"37.203869593","long":"127.54657065","items":[{"name":"강원칡냉면(가남점)","tel":"031-882-0211","addr":"경기도 여주시 가남읍 태평리 177-2번지","category":"일반휴게음식 - 일반한식"},{"name":"신의한수학원","tel":"031-883-2536","addr":"경기도 여주시 가남읍 태평리 177-2번지","category":"학원 - 보습학원"},{"name":"은성식당(가남)","tel":"031-882-7677","addr":"경기도 여주시 가남읍 태평리 177-2번지","category":"일반휴게음식 - 일반한식"},{"name":"태평상회","tel":"031-885-9888","addr":"경기도 여주시 가남읍 태평리 177-2번지","category":"일반휴게음식 - 일반한식"}]},{"lat":"37.202644959","long":"127.54640416","items":[{"name":"개미문구","tel":"031-884-3259","addr":"경기도 여주시 가남읍 태평리 141-7번지","category":"서적문구 - 문구용품"},{"name":"광주콩나물국밥","tel":"031-886-4894","addr":"경기도 여주시 가남읍 태평리 141-7번지 1층","category":"일반휴게음식 - 일반한식"},{"name":"순이네 염소전문 2호점","tel":"031-883-8702","addr":"경기도 여주시 가남읍 태평리 141-7번지","category":"일반휴게음식 - 일반한식"}]},{"lat":"37.202195752","long":"127.54611934","items":[{"name":"개미집","tel":"031-884-7955","addr":"경기도 여주시 가남읍 태평리 141-32번지","category":"일반휴게음식 - 일반한식"},{"name":"기분좋은날","tel":"","addr":"경기도 여주시 가남읍 태평리 141-32번지","category":"일반휴게음식 - 주점"},{"name":"장미다방","tel":"031-884-0961","addr":"경기도 여주시 가남읍 태평리 141-32번지","category":"일반휴게음식 - 서양음식"}]},{"lat":"37.211059564","long":"127.54267934","items":[{"name":"경기정보통신","tel":"031-882-6630","addr":"경기도 여주시 가남읍 태평리 229-10번지","category":"용역 서비스 - 기타용역서비스"}]},{"lat":"37.200391553","long":"127.54461959","items":[{"name":"경남종합상사","tel":"031-884-4234","addr":"경기도 여주시 가남읍 태평리 112-15번지","category":"농업 - 비료,사료,종자"}]},{"lat":"37.2023364487","long":"127.5468750449","items":[{"name":"경스튜디오","tel":"031-882-3831","addr":"경기도 여주시 가남읍 태평리 110-10번지","category":"광학제품 - 사진관"}]},{"lat":"37.202926077","long":"127.54601193","items":[{"name":"경희사랑채한의원","tel":"031-884-7585","addr":"경기도 여주시 가남읍 태평리 141-13번지","category":"의원 - 한의원"},{"name":"성모치과의원","tel":"031-881-2080","addr":"경기도 여주시 가남읍 태평리 141-13번지 2층","category":"의원 - 치과의원"},{"name":"씨유여주가남점","tel":"031-881-3197","addr":"경기도 여주시 가남읍 태평리 141-13번지","category":"유통업 영리 - 편 의 점"},{"name":"왕약국","tel":"031-884-2558","addr":"경기도 여주시 가남읍 태평리 141-13번지","category":"약국 - 약국"}]},{"lat":"37.203448306","long":"127.54412328","items":[{"name":"계수작","tel":"031-1111-1111","addr":"경기도 여주시 가남읍 태평리 163-3번지","category":"일반휴게음식 - 일식·회집"},{"name":"다이소 여주가남점","tel":"031-886-5066","addr":"경기도 여주시 가남읍 태평리 163-3번지 나동 1층","category":"신변잡화 - 기타잡화"},{"name":"자연석돌구이(태평리)","tel":"031-884-1626","addr":"경기도 여주시 가남읍 태평리 164-3","category":"일반휴게음식 - 일반한식"},{"name":"현주당구장","tel":"031-884-3151","addr":"경기도 여주시 가남읍 태평리 163-3번지","category":"레저업소 - 당 구 장"}]},{"lat":"37.202891947","long":"127.54559491","items":[{"name":"고래다방","tel":"031-882-1253","addr":"경기도 여주시 가남읍 태평리 141-59번지","category":"일반휴게음식 - 서양음식"},{"name":"메리야스","tel":"031-882-3861","addr":"경기도 여주시 가남읍 태평리 141-59번지","category":"의류 - 내의판매"},{"name":"스마일찹쌀꽈배기","tel":"031-884-8102","addr":"경기도 여주시 가남읍 태평리 141-59번지 1층","category":"일반휴게음식 - 일반한식"},{"name":"아싸라비아 차차차","tel":"","addr":"경기도 여주시 가남읍 태평리 141-59번지","category":"일반휴게음식 - 주점"},{"name":"조이헤어클럽","tel":"031-881-1873","addr":"경기도 여주시 가남읍 태평리 141-59번지","category":"보건위생 - 미용원"},{"name":"처가집통닭","tel":"031-884-7718","addr":"경기도 여주시 가남읍 태평리 141-59번지","category":"일반휴게음식 - 스넥"}]},{"lat":"37.203535626","long":"127.54473217","items":[{"name":"고은건축인테리어","tel":"031-883-8117","addr":"경기도 여주시 가남읍 태평리 163-4번지","category":"직물 - 카페트,커튼,천막,지물"},{"name":"중앙편의점","tel":"031-882-4053","addr":"경기도 여주시 가남읍 태평리 163-4번지","category":"음료식품 - 기타음료식품"},{"name":"태평목욕탕","tel":"031-883-8875","addr":"경기도 여주시 가남읍 태평리 163-4번지","category":"보건위생 - 사우나"},{"name":"태평여관","tel":"031-882-3595","addr":"경기도 여주시 가남읍 태평리 163-4번지","category":"숙박업 - 여관/기타숙박업"},{"name":"태평온 돼지국밥","tel":"031-884-4937","addr":"경기도 여주시 가남읍 태평리 163-4번지","category":"일반휴게음식 - 일반한식"}]},{"lat":"37.204586136","long":"127.54356818","items":[{"name":"공간","tel":"031-882-7811","addr":"경기도 여주시 가남읍 태평리 171-6번지","category":"가구 - 기타가구"},{"name":"김정민내과의원","tel":"031-883-0300","addr":"경기도 여주시 가남읍 태평리 171-6번지","category":"의원 - 의원"},{"name":"닥터골프센터","tel":"031-884-6576","addr":"경기도 여주시 가남읍 태평리 171-6번지 닥터골프센터","category":"레저업소 - 스크린골프"},{"name":"닥터휘트니스센터","tel":"031-884-`657","addr":"경기도 여주시 가남읍 태평리 171-6번지","category":"레저업소 - 헬스클럽"},{"name":"모아약국","tel":"031-881-4455","addr":"경기도 여주시 가남읍 태평리 171-6번지 1층 4호","category":"약국 - 약국"},{"name":"한빛정형외과의원","tel":"031-884-8027","addr":"경기도 여주시 가남읍 태평리 171-6번지","category":"의원 - 의원"}]},{"lat":"37.201980493","long":"127.54590378","items":[{"name":"과일슈퍼천국","tel":"031-885-6821","addr":"경기도 여주시 가남읍 태평리 138-1번지","category":"유통업 영리 - 슈퍼마켓"},{"name":"동락원","tel":"031-882-0929","addr":"경기도 여주시 가남읍 태평리 138-1번지","category":"일반휴게음식 - 중국식"},{"name":"알부자계란직판장","tel":"031-884-3893","addr":"경기도 여주시 가남읍 태평리 138-1번지","category":"음료식품 - 농·축·수산품"},{"name":"을지로골뱅이","tel":"031-8051-3561","addr":"경기도 여주시 가남읍 태평리 138-1번지","category":"일반휴게음식 - 주점"}]},{"lat":"37.202810238","long":"127.5457295","items":[{"name":"광장한복점","tel":"031-882-2828","addr":"경기도 여주시 가남읍 태평리 141-23번지","category":"직물 - 옷감·직물"}]},{"lat":"37.212056435","long":"127.54339617","items":[{"name":"구름산추어탕","tel":"031-881-5200","addr":"경기도 여주시 가남읍 태평리 233-8번지 1층","category":"일반휴게음식 - 일반한식"}]},{"lat":"37.211531264","long":"127.54198424","items":[{"name":"그린파크","tel":"031-882-4205","addr":"경기도 여주시 가남읍 태평리 232-2번지","category":"숙박업 - 여관/기타숙박업"},{"name":"밀양돼지국밥","tel":"031-883-2175","addr":"경기도 여주시 가남읍 태평리 232-2번지","category":"일반휴게음식 - 일반한식"}]},{"lat":"37.202168309","long":"127.54620926","items":[{"name":"금모래","tel":"031-883-9102","addr":"경기도 여주시 가남읍 태평리 141-31번지 금모래","category":"일반휴게음식 - 주점"},{"name":"양평칼국수","tel":"031-882-1125","addr":"경기도 여주시 가남읍 태평리 141-31번지","category":"일반휴게음식 - 일반한식"},{"name":"유림노래연습장","tel":"031-882-3680","addr":"경기도 여주시 가남읍 태평리 141-31번지","category":"레저업소 - 노 래 방"}]},{"lat":"37.19972757","long":"127.54203545","items":[{"name":"기둥","tel":"031-884-0472","addr":"경기도 여주시 가남읍 태평리 129-13번지","category":"건축자재 - 인테리어전문"},{"name":"참자동차공업사","tel":"031-883-3789","addr":"경기도 여주시 가남읍 태평리 129-13번지","category":"자동차정비 유지 - 자동차정비"}]},{"lat":"37.200728217","long":"127.54390111","items":[{"name":"기찬건강부페","tel":"031-882-9277","addr":"경기도 여주시 가남읍 태평리 113-3번지","category":"일반휴게음식 - 일반한식"},{"name":"세븐일레븐여주태평사거리점","tel":"031-1577-0711","addr":"경기도 여주시 가남읍 태평리 113-3번지 1층","category":"유통업 영리 - 편 의 점"},{"name":"오일로","tel":"031-883-4115","addr":"경기도 여주시 가남읍 태평리 113-3번지","category":"자동차정비 유지 - 윤활유 전문 판매"}]},{"lat":"37.212642237","long":"127.54336655","items":[{"name":"기홍유통","tel":"031-881-6849","addr":"경기도 여주시 가남읍 태평리 259-5번지 가동","category":"음료식품 - 정육점"},{"name":"또래오래가남점","tel":"031-881-0676","addr":"경기도 여주시 가남읍 태평리 259-5번지 나동 201호","category":"일반휴게음식 - 스넥"},{"name":"씨유여주태평리점","tel":"031-882-7666","addr":"경기도 여주시 가남읍 태평리 259-5번지","category":"유통업 영리 - 편 의 점"},{"name":"하우스닥터","tel":"031-882-5790","addr":"경기도 여주시 가남읍 태평리 259-5번지","category":"건축자재 - 인테리어전문"}]},{"lat":"37.202506397","long":"127.5471466","items":[{"name":"김밥나라","tel":"031-643-0643","addr":"경기도 여주시 가남읍 태평리 110-5번지 1층","category":"일반휴게음식 - 일반한식"},{"name":"지호디자인","tel":"031-884-8198","addr":"경기도 여주시 가남읍 태평리 110-5번지","category":"서적문구 - 출판 및 인쇄물"}]},{"lat":"37.209277949","long":"127.54214845","items":[{"name":"김진사 숯불갈비","tel":"031-881-2800","addr":"경기도 여주시 가남읍 태평리 228번지","category":"일반휴게음식 - 일반한식"}]},{"lat":"37.204785352","long":"127.54728688","items":[{"name":"꾸러기문구","tel":"031-884-2063","addr":"경기도 여주시 가남읍 태평리 98-6번지","category":"서적문구 - 문구용품"}]},{"lat":"37.202643822","long":"127.54665197","items":[{"name":"놀부야식","tel":"031-882-7247","addr":"경기도 여주시 가남읍 태평리 141-3번지","category":"일반휴게음식 - 일반한식"},{"name":"미래컴퓨터","tel":"031-881-4120","addr":"경기도 여주시 가남읍 태평리 141-3번지","category":"수리서비스 - 사무·통신기기수리"},{"name":"수진식당","tel":"031-884-0501","addr":"경기도 여주시 가남읍 태평리 141-3번지","category":"일반휴게음식 - 일반한식"}]},{"lat":"37.200703467","long":"127.54142288","items":[{"name":"농업회사(주)여주태평미곡처리장","tel":"031-882-3157","addr":"경기도 여주시 가남읍 태평리 471번지 1층","category":"음료식품 - 미곡상"}]},{"lat":"37.203056802","long":"127.54303912","items":[{"name":"뉴-명인상사","tel":"031-882-2463","addr":"경기도 여주시 가남읍 태평리 157-11번지 1층","category":"자동차정비 유지 - 자동차부품"}]},{"lat":"37.200562747","long":"127.5366798","items":[{"name":"늘푸른 환경","tel":"","addr":"경기도 여주시 가남읍 태평리 431번지","category":"용역 서비스 - 종합용역"}]},{"lat":"37.209644168","long":"127.55070133","items":[{"name":"늘푸른화원","tel":"031-882-3833","addr":"경기도 여주시 가남읍 태평리 775-5번지","category":"문화.취미 - 화원"}]},{"lat":"37.203669126","long":"127.54509358","items":[{"name":"다빈헤어","tel":"031-882-2688","addr":"경기도 여주시 가남읍 태평리 174-11번지","category":"보건위생 - 미용원"},{"name":"마운틴","tel":"031-882-0322","addr":"경기도 여주시 가남읍 태평리 174-11번지","category":"일반휴게음식 - 주점"},{"name":"본죽(여주가남점)","tel":"031-884-7048","addr":"경기도 여주시 가남읍 태평리 174-11번지","category":"일반휴게음식 - 일반한식"},{"name":"학생문구사","tel":"031-882-3678","addr":"경기도 여주시 가남읍 태평리 174-11번지","category":"서적문구 - 문구용품"}]},{"lat":"37.202921735","long":"127.54695809","items":[{"name":"다와","tel":"031-886-2458","addr":"경기도 여주시 가남읍 태평리 105-5번지","category":"일반휴게음식 - 주점"}]},{"lat":"37.20864111","long":"127.54151308","items":[{"name":"다원인테리어","tel":"031-883-4003","addr":"경기도 여주시 가남읍 태평리 212번지","category":"건축자재 - 인테리어전문"}]},{"lat":"37.203113013","long":"127.5465089","items":[{"name":"달맞이 소주방","tel":"031-883-7065","addr":"경기도 여주시 가남읍 태평리 178-18번지","category":"일반휴게음식 - 주점"},{"name":"선희미용실","tel":"031-882-2883","addr":"경기도 여주시 가남읍 태평리 178-18번지","category":"보건위생 - 미용원"},{"name":"성보당","tel":"031-881-0861","addr":"경기도 여주시 가남읍 태평리 178-18번지","category":"신변잡화 - 시계"}]},{"lat":"37.202341461","long":"127.54578246","items":[{"name":"달봉비어","tel":"031-883-7600","addr":"경기도 여주시 가남읍 태평리 141-36번지 1층","category":"일반휴게음식 - 주점"},{"name":"더타이","tel":"031-882-0383","addr":"경기도 여주시 가남읍 태평리 141-36번지","category":"신변잡화 - 기타잡화"},{"name":"불스떡볶이","tel":"031-885-5333","addr":"경기도 여주시 가남읍 태평리 141-36번지 1층 103호","category":"일반휴게음식 - 스넥"},{"name":"아지트PC방","tel":"070-6291-3600","addr":"경기도 여주시 가남읍 태평리 141-36번지 2층","category":"레저업소 - 기타레져업소"},{"name":"위드미여주태평점","tel":"02-6916-1500","addr":"경기도 여주시 가남읍 태평리 141-36번지","category":"유통업 영리 - 편 의 점"}]},{"lat":"37.204396926","long":"127.54356683","items":[{"name":"대감화로숯불구이","tel":"031-884-9150","addr":"경기도 여주시 가남읍 태평리 171-8번지","category":"일반휴게음식 - 일반한식"}]},{"lat":"37.208091348","long":"127.54154296","items":[{"name":"대성공업사","tel":"031-884-0903","addr":"경기도 여주시 가남읍 태평리 211번지","category":"자동차정비 유지 - 자동차부품"},{"name":"미래공업사","tel":"070-8860-2455","addr":"경기도 여주시 가남읍 태평리 211번지","category":"자동차정비 유지 - 자동차시트·타이어"},{"name":"현대밧데리","tel":"031-886-0600","addr":"경기도 여주시 가남읍 태평리 211번지","category":"자동차정비 유지 - 자동차정비"}]},{"lat":"37.209172751","long":"127.54150559","items":[{"name":"대신광고기획","tel":"031-881-5280","addr":"경기도 여주시 가남읍 태평리 285-5번지","category":"용역 서비스 - 종합용역"},{"name":"태평해장국","tel":"031-883-9870","addr":"경기도 여주시 가남읍 태평리 285-5번지 1층","category":"일반휴게음식 - 일반한식"}]},{"lat":"37.203339672","long":"127.54423514","items":[{"name":"대원인테리어","tel":"031-883-1962","addr":"경기도 여주시 가남읍 태평리 163-10번지 1호","category":"직물 - 카페트,커튼,천막,지물"},{"name":"술이수리마술이","tel":"031-881-2370","addr":"경기도 여주시 가남읍 태평리 163-10번지","category":"일반휴게음식 - 서양음식"}]},{"lat":"37.202145253","long":"127.54534176","items":[{"name":"대인자동차공업사","tel":"031-881-6024","addr":"경기도 여주시 가남읍 태평리 147-8번지","category":"자동차정비 유지 - 자동차정비"}]},{"lat":"37.202898014","long":"127.54623702","items":[{"name":"대추나무한의원","tel":"031-886-5075","addr":"경기도 여주시 가남읍 태평리 141-63번지 3층","category":"의원 - 한의원"},{"name":"신세계약국","tel":"031-881-5335","addr":"경기도 여주시 가남읍 태평리 141-63번지","category":"약국 - 약국"},{"name":"커피에반하다","tel":"","addr":"경기도 여주시 가남읍 태평리 141-63번지 1층","category":"일반휴게음식 - 서양음식"},{"name":"피자스쿨여주가남점","tel":"031-882-5222","addr":"경기도 여주시 가남읍 태평리 141-63번지","category":"일반휴게음식 - 서양음식"},{"name":"현대스크린골프연습장","tel":"031-882-7703","addr":"경기도 여주시 가남읍 태평리 141-63번지","category":"레저업소 - 스크린골프"}]},{"lat":"37.203786487","long":"127.54700936","items":[{"name":"더블유피앤씨 WP&C","tel":"031-881-1346","addr":"경기도 여주시 가남읍 태평리 101-2번지","category":"일반휴게음식 - 서양음식"}]},{"lat":"37.218479418","long":"127.5357357","items":[{"name":"데카마트","tel":"031-881-2283","addr":"경기도 여주시 가남읍 태평리 174-14번지","category":"유통업 영리 - 슈퍼마켓"}]},{"lat":"37.204339214","long":"127.54436619","items":[{"name":"데카마트 수산코너","tel":"031-881-3731","addr":"경기도 여주시 가남읍 태평리 174-14번지 데카마트 내","category":"음료식품 - 농·축·수산품"},{"name":"데카반찬","tel":"031-882-6797","addr":"경기도 여주시 가남읍 태평리 174-14번지","category":"음료식품 - 기타음료식품"},{"name":"박가네 바베큐","tel":"031-882-6134","addr":"경기도 여주시 가남읍 태평리 174-14번지","category":"일반휴게음식 - 일반한식"}]},{"lat":"37.203393718","long":"127.54620678","items":[{"name":"돌과 나무","tel":"070-8806-7568","addr":"경기도 여주시 가남읍 태평리 178-11번지","category":"학원 - 예·체능계학원"},{"name":"봉봉마켓","tel":"","addr":"경기도 여주시 가남읍 태평리 178-11번지","category":"의류 - 정장"},{"name":"종합전기전자","tel":"031-883-5586","addr":"경기도 여주시 가남읍 태평리 178-11번지","category":"전기제품 - 가전제품"}]},{"lat":"37.203640515","long":"127.54740256","items":[{"name":"동문불막창구이","tel":"031-882-1305","addr":"경기도 여주시 가남읍 태평리 103번지","category":"일반휴게음식 - 일반한식"}]},{"lat":"37.203868737","long":"127.54479088","items":[{"name":"드림통신","tel":"031-883-8840","addr":"경기도 여주시 가남읍 태평리 174-3번지","category":"사무통신 - 통신기기"},{"name":"신통치킨","tel":"031-881-3638","addr":"경기도 여주시 가남읍 태평리 174-3번지","category":"일반휴게음식 - 스넥"}]},{"lat":"37.202702338","long":"127.54764363","items":[{"name":"들밥집","tel":"031-884-1399","addr":"경기도 여주시 가남읍 태평리 107-20번지","category":"일반휴게음식 - 일반한식"},{"name":"복대리운전","tel":"031-884-5567","addr":"경기도 여주시 가남읍 태평리 107-20번지","category":"보건위생 - 기타대인서비스"}]},{"lat":"37.203257173","long":"127.54650993","items":[{"name":"떠들썩","tel":"031-881-6262","addr":"경기도 여주시 가남읍 태평리 178-12번지","category":"일반휴게음식 - 일반한식"}]},{"lat":"37.213146072","long":"127.5513688","items":[{"name":"뚝방손두부","tel":"031-882-7498","addr":"경기도 여주시 가남읍 태평리 3번지","category":"일반휴게음식 - 일반한식"}]},{"lat":"37.203445349","long":"127.54673657","items":[{"name":"뚱보언니왕족발","tel":"031-886-0004","addr":"경기도 여주시 가남읍 태평리 178-5번지","category":"일반휴게음식 - 일반한식"}]},{"lat":"37.197591327","long":"127.54022938","items":[{"name":"레인보우 rainbow 1st","tel":"031-884-2856","addr":"경기도 여주시 가남읍 태평리 486-8번지","category":"서적문구 - 일반서적"}]},{"lat":"37.203202751","long":"127.54658839","items":[{"name":"마약김밥","tel":"","addr":"경기도 여주시 가남읍 태평리 178-13번지","category":"일반휴게음식 - 일반한식"}]},{"lat":"37.20283899","long":"127.54731795","items":[{"name":"만금식당","tel":"031-884-3450","addr":"경기도 여주시 가남읍 태평리 107-6번지","category":"일반휴게음식 - 일반한식"}]},{"lat":"37.202592708","long":"127.54600954","items":[{"name":"만우부산물식당","tel":"031-881-3872","addr":"경기도 여주시 가남읍 태평리 141-26번지","category":"일반휴게음식 - 일반한식"},{"name":"만우정육점","tel":"031-882-1306","addr":"경기도 여주시 가남읍 태평리 141-26번지","category":"음료식품 - 정육점"},{"name":"신발백화점","tel":"031-882-2999","addr":"경기도 여주시 가남읍 태평리 141-26번지","category":"신변잡화 - 신발"},{"name":"어울림","tel":"","addr":"경기도 여주시 가남읍 태평리 141-26번지 1층","category":"의류 - 정장"}]},{"lat":"37.203167693","long":"127.54637412","items":[{"name":"명금당","tel":"031-882-2909","addr":"경기도 여주시 가남읍 태평리 178-20번지","category":"신변잡화 - 귀금속"},{"name":"요거프레소","tel":"031-886-0778","addr":"경기도 여주시 가남읍 태평리 178-20번지","category":"일반휴게음식 - 서양음식"}]},{"lat":"37.211972034","long":"127.54214509","items":[{"name":"명품막국수","tel":"031-881-3006","addr":"경기도 여주시 가남읍 태평리 234번지 1층","category":"일반휴게음식 - 일반한식"},{"name":"태평손세차","tel":"031-884-3251","addr":"경기도 여주시 가남읍 태평리 234번지","category":"자동차정비 유지 - 세차장"}]},{"lat":"37.203145743","long":"127.54723004","items":[{"name":"못된고양이(가남점)","tel":"02-317-8000","addr":"경기도 여주시 가남읍 태평리 106-4번지","category":"신변잡화 - 액세서리"}]},{"lat":"37.202481539","long":"127.54667333","items":[{"name":"몽마르조","tel":"031-883-7505","addr":"경기도 여주시 가남읍 태평리 110-8번지","category":"일반휴게음식 - 주점"},{"name":"어게인","tel":"031-883-7568","addr":"경기도 여주시 가남읍 태평리 110-8번지","category":"일반휴게음식 - 일반한식"}]},{"lat":"37.203313403","long":"127.54603724","items":[{"name":"뮤엠영어 가남어학원","tel":"031-884-7563","addr":"경기도 여주시 가남읍 태평리 178-35번지","category":"학원 - 외국어학원"},{"name":"아시아마트","tel":"031-672-6849","addr":"경기도 여주시 가남읍 태평리 178-35번지","category":"유통업 영리 - 슈퍼마켓"},{"name":"유성건강원","tel":"031-883-4425","addr":"경기도 여주시 가남읍 태평리 178-35번지","category":"건강식품 - 기타건강식품"},{"name":"케라헤어비스","tel":"031-884-7975","addr":"경기도 여주시 가남읍 태평리 178-35번지","category":"보건위생 - 미용원"}]},{"lat":"37.203198441","long":"127.54556332","items":[{"name":"미인","tel":"070-8959-7661","addr":"경기도 여주시 가남읍 태평리 141-16번지","category":"보건위생 - 화장품"},{"name":"세븐일레븐여주가남점","tel":"","addr":"경기도 여주시 가남읍 태평리 141-16번지","category":"유통업 영리 - 편 의 점"},{"name":"하양까망","tel":"031-884-2303","addr":"경기도 여주시 가남읍 태평리 141-16번지","category":"의류 - 정장"}]},{"lat":"37.202728374","long":"127.54589788","items":[{"name":"민전식당","tel":"031-881-0803","addr":"경기도 여주시 가남읍 태평리 141-24번지","category":"일반휴게음식 - 일반한식"},{"name":"우딘월드푸드","tel":"031-881-1734","addr":"경기도 여주시 가남읍 태평리 141-24번지 1층","category":"음료식품 - 기타음료식품"},{"name":"음향전자","tel":"031-884-3650","addr":"경기도 여주시 가남읍 태평리 112-20번지","category":"수리서비스 - 가정용품수리"},{"name":"페리카나치킨(가남점)","tel":"031-883-5746","addr":"경기도 여주시 가남읍 태평리 141-24번지","category":"일반휴게음식 - 스넥"}]},{"lat":"37.202756761","long":"127.54756518","items":[{"name":"바지락통채칼국수","tel":"031-881-3382","addr":"경기도 여주시 가남읍 태평리 107-21번지","category":"일반휴게음식 - 일반한식"}]},{"lat":"37.202504518","long":"127.54559214","items":[{"name":"박가네닭갈비","tel":"031-881-1148","addr":"경기도 여주시 가남읍 태평리 141-38번지","category":"일반휴게음식 - 일반한식"}]},{"lat":"37.202812995","long":"127.54709248","items":[{"name":"반찬나라","tel":"031-883-2905","addr":"경기도 여주시 가남읍 태평리 107-12번지","category":"음료식품 - 기타음료식품"}]},{"lat":"37.211251698","long":"127.54203858","items":[{"name":"백년불고기","tel":"031-884-9367","addr":"경기도 여주시 가남읍 태평리 232-3번지 1층","category":"일반휴게음식 - 일반한식"}]},{"lat":"37.202672401","long":"127.54237179","items":[{"name":"범영어린이집","tel":"031-884-7795","addr":"경기도 여주시 가남읍 태평리 153번지","category":"학원 - 유치원"},{"name":"범영어린이집[아이행복]","tel":"031-884-7795","addr":"경기도 여주시 가남읍 태평리 153번지","category":"학원 - 유아원"}]},{"lat":"37.205306318","long":"127.54370849","items":[{"name":"법무사 김용기 사무소","tel":"031-883-2085","addr":"경기도 여주시 가남읍 태평리 784번지","category":"용역 서비스 - 법률회계서비스(개인)"}]},{"lat":"37.203253378","long":"127.54537222","items":[{"name":"별밤지기","tel":"031-885-8088","addr":"경기도 여주시 가남읍 태평리 141-17번지","category":"레저업소 - 노 래 방"},{"name":"차이나(가남)","tel":"031-882-1472","addr":"경기도 여주시 가남읍 태평리 141-17번지 외1필지","category":"일반휴게음식 - 중국식"}]},{"lat":"37.1993916359","long":"127.5425962475","items":[{"name":"별장부동산개발","tel":"031-883-6144","addr":"경기도 여주시 가남읍 태평리 129-18번지","category":"자동차정비 유지 - 자동차부품"}]},{"lat":"37.200586113","long":"127.54344954","items":[{"name":"보배","tel":"031-881-0252","addr":"경기도 여주시 가남읍 태평리 113-8번지","category":"일반휴게음식 - 일반한식"},{"name":"창조부동산 컨설팅","tel":"031-884-0732","addr":"경기도 여주시 가남읍 태평리 113-8번지","category":"용역 서비스 - 사무서비스"}]},{"lat":"37.2027542675","long":"127.5461458725","items":[{"name":"보석당","tel":"031-882-4110","addr":"경기도 여주시 가남읍 태평리 141-11번지","category":"신변잡화 - 귀금속"}]},{"lat":"37.203364425","long":"127.5427597","items":[{"name":"본소참숯갈비살","tel":"031-885-1297","addr":"경기도 여주시 가남읍 태평리 157-1번지","category":"일반휴게음식 - 일반한식"},{"name":"태평리 모터","tel":"031-885-8218","addr":"경기도 여주시 가남읍 태평리 157-1번지","category":"기타 - 기계공구"}]},{"lat":"37.203509608","long":"127.54647795","items":[{"name":"불다방","tel":"031-882-0811","addr":"경기도 여주시 가남읍 태평리 178-8번지","category":"일반휴게음식 - 서양음식"}]},{"lat":"37.20236503","long":"127.54653733","items":[{"name":"불타는 닭발","tel":"031-883-9435","addr":"경기도 여주시 가남읍 태평리 562번지","category":"일반휴게음식 - 스넥"}]},{"lat":"37.203644344","long":"127.54656903","items":[{"name":"빨간닭 닭갈비","tel":"031-882-8856","addr":"경기도 여주시 가남읍 태평리 178-4번지","category":"일반휴게음식 - 일반한식"},{"name":"한근먹고가자","tel":"031-881-3639","addr":"경기도 여주시 가남읍 태평리 178-4번지","category":"일반휴게음식 - 일반한식"}]},{"lat":"37.203586902","long":"127.54534081","items":[{"name":"사나포차","tel":"","addr":"경기도 여주시 가남읍 태평리 174-12번지 2층","category":"일반휴게음식 - 주점"}]},{"lat":"37.203120886","long":"127.54675677","items":[{"name":"삼천리통닭","tel":"031-883-3878","addr":"경기도 여주시 가남읍 태평리 178-15번지","category":"일반휴게음식 - 일반한식"},{"name":"이디야커피 여주가남점","tel":"031-882-5233","addr":"경기도 여주시 가남읍 태평리 178-15번지 1층","category":"일반휴게음식 - 서양음식"}]},{"lat":"37.21144766","long":"127.54253565","items":[{"name":"생활가전1번지","tel":"031-886-1236","addr":"경기도 여주시 가남읍 태평리 233번지","category":"전기제품 - 가전제품"},{"name":"아줌마밥상","tel":"031-885-8014","addr":"경기도 여주시 가남읍 태평리 233번지","category":"일반휴게음식 - 일반한식"},{"name":"터미널세탁소(그린마트)","tel":"031-884-2090","addr":"경기도 여주시 가남읍 태평리 233번지","category":"수리서비스 - 세탁소"}]},{"lat":"37.206008119","long":"127.54392753","items":[{"name":"서울앤골프(Seoul &Golf)","tel":"031-881-0585","addr":"경기도 여주시 가남읍 태평리 781번지","category":"보건위생 - 기타대인서비스"}]},{"lat":"37.203395009","long":"127.54592518","items":[{"name":"서편제","tel":"031-882-2838","addr":"경기도 여주시 가남읍 태평리 178-24번지","category":"일반휴게음식 - 일반한식"},{"name":"은세한의원","tel":"031-881-1967","addr":"경기도 여주시 가남읍 태평리 178-24번지","category":"의원 - 한의원"}]},{"lat":"37.203007838","long":"127.54586608","items":[{"name":"서희네옷가게","tel":"031-884-1217","addr":"경기도 여주시 가남읍 태평리 141-14번지","category":"의류 - 정장"},{"name":"여주이천아이폰수리 태평통신","tel":"031-882-7710","addr":"경기도 여주시 가남읍 태평리 141-14번지","category":"사무통신 - 통신기기"}]},{"lat":"37.202758314","long":"127.54722726","items":[{"name":"선우양꼬치","tel":"031-884-2199","addr":"경기도 여주시 가남읍 태평리 107-9번지","category":"일반휴게음식 - 일반한식"},{"name":"스킨헤어","tel":"031-882-3631","addr":"경기도 여주시 가남읍 태평리 107-9번지","category":"보건위생 - 미용원"},{"name":"전이랑 술이랑","tel":"","addr":"경기도 여주시 가남읍 태평리 107-9번지 2층","category":"일반휴게음식 - 일반한식"}]},{"lat":"37.212117322","long":"127.54189828","items":[{"name":"성신주유소","tel":"031-883-7799","addr":"경기도 여주시 가남읍 태평리 268-35번지","category":"연료판매점 - SK주유소"}]},{"lat":"37.212558964","long":"127.54186763","items":[{"name":"성신충전소","tel":"031-884-2024","addr":"경기도 여주시 가남읍 태평리 268-12번지","category":"연료판매점 - SK가스충전소"}]},{"lat":"37.2034253112","long":"127.5471757300","items":[{"name":"센스머리방","tel":"031-881-0375","addr":"경기도 여주시 가남읍 태평리 103-2번지","category":"보건위생 - 미용원"}]},{"lat":"37.213834225","long":"127.54278923","items":[{"name":"소나무집","tel":"031-882-0304","addr":"경기도 여주시 가남읍 태평리 259번지","category":"일반휴게음식 - 일반한식"}]},{"lat":"37.203281669","long":"127.54706206","items":[{"name":"소돈장군","tel":"031-882-3446","addr":"경기도 여주시 가남읍 태평리 103-3번지","category":"일반휴게음식 - 일반한식"},{"name":"오늘도육쾌","tel":"031-881-5844","addr":"경기도 여주시 가남읍 태평리 103-3번지","category":"일반휴게음식 - 일반한식"},{"name":"추억의포장마차","tel":"031-882-4141","addr":"경기도 여주시 가남읍 태평리 103-3번지","category":"일반휴게음식 - 주점"}]},{"lat":"37.202501471","long":"127.5462567","items":[{"name":"소연이네","tel":"031-882-5856","addr":"경기도 여주시 가남읍 태평리 141-27번지 1층","category":"음료식품 - 제과점"}]},{"lat":"37.199201765","long":"127.54075892","items":[{"name":"속초식당","tel":"031-884-9356","addr":"경기도 여주시 가남읍 태평리 476번지","category":"일반휴게음식 - 일반한식"},{"name":"옥쌤 네일아트","tel":"","addr":"경기도 여주시 가남읍 태평리 476번지 1층 2호","category":"보건위생 - 피부미용실"},{"name":"친정집","tel":"031-883-8035","addr":"경기도 여주시 가남읍 태평리 476번지","category":"일반휴게음식 - 일반한식"}]},{"lat":"37.203834329","long":"127.54640143","items":[{"name":"손맛식당","tel":"031-883-3327","addr":"경기도 여주시 가남읍 태평리 177-1번지","category":"일반휴게음식 - 일반한식"}]},{"lat":"37.20119776","long":"127.54565037","items":[{"name":"송카공업사","tel":"031-884-4993","addr":"경기도 여주시 가남읍 태평리 112-6번지","category":"자동차정비 유지 - 자동차정비"}]},{"lat":"37.203841322","long":"127.54684079","items":[{"name":"수연헤어클럽","tel":"031-882-6955","addr":"경기도 여주시 가남읍 태평리 101-1번지","category":"보건위생 - 미용원"}]},{"lat":"37.203838269","long":"127.54750536","items":[{"name":"숲속화가미술교습소","tel":"031-883-3757","addr":"경기도 여주시 가남읍 태평리 102-4번지","category":"학원 - 예·체능계학원"}]},{"lat":"37.202730611","long":"127.5473735","items":[{"name":"시대지물포","tel":"031-882-0468","addr":"경기도 여주시 가남읍 태평리 107-7번지","category":"직물 - 카페트,커튼,천막,지물"}]},{"lat":"37.202336449","long":"127.54687504","items":[{"name":"시어매감자탕","tel":"031-882-3566","addr":"경기도 여주시 가남읍 태평리 110-10번지","category":"일반휴게음식 - 일반한식"},{"name":"오래파전","tel":"031-882-9488","addr":"경기도 여주시 가남읍 태평리 110-10번지","category":"일반휴게음식 - 일반한식"},{"name":"주주포차","tel":"031-882-4405","addr":"경기도 여주시 가남읍 태평리 110-10번지","category":"일반휴게음식 - 주점"},{"name":"포차대첩","tel":"031-882-2015","addr":"경기도 여주시 가남읍 태평리 110-10번지","category":"일반휴게음식 - 주점"}]},{"lat":"37.213694192","long":"127.54779024","items":[{"name":"신성농약","tel":"031-882-3455","addr":"경기도 여주시 가남읍 태평리 141-37번지","category":"농업 - 비료,사료,종자"}]},{"lat":"37.214256461","long":"127.54306262","items":[{"name":"신안상사","tel":"031-882-8242","addr":"경기도 여주시 가남읍 태평리 258번지","category":"건축자재 - 기타건축자재"}]},{"lat":"37.202754267","long":"127.54614587","items":[{"name":"싱크코리아","tel":"031-881-2136","addr":"경기도 여주시 가남읍 태평리 141-11번지 지하층","category":"회원제형태 - 기타3"},{"name":"제니퍼","tel":"031-882-4111","addr":"경기도 여주시 가남읍 태평리 141-11번지 2층","category":"일반휴게음식 - 주점"},{"name":"코코분식","tel":"031-885-9080","addr":"경기도 여주시 가남읍 태평리 141-11번지","category":"일반휴게음식 - 스넥"},{"name":"화신상회","tel":"031-884-5606","addr":"경기도 여주시 가남읍 태평리 141-11번지","category":"의류 - 캐주얼의류"}]},{"lat":"37.20295044","long":"127.54462661","items":[{"name":"쌍둥이할매족발탕","tel":"031-884-7001","addr":"경기도 여주시 가남읍 태평리 161-13번지","category":"일반휴게음식 - 일반한식"}]},{"lat":"37.206619646","long":"127.54220839","items":[{"name":"썬렉스","tel":"031-881-4448","addr":"경기도 여주시 가남읍 태평리 205-4번지","category":"자동차정비 유지 - 카인테리어"}]},{"lat":"37.205477919","long":"127.5436196","items":[{"name":"씨유여주가남늘푸른점","tel":"031-883-3386","addr":"경기도 여주시 가남읍 태평리 775-5번지","category":"유통업 영리 - 편 의 점"}]},{"lat":"37.202671266","long":"127.54656205","items":[{"name":"아딸(가남점)","tel":"031-883-5050","addr":"경기도 여주시 가남읍 태평리 141-4번지","category":"일반휴게음식 - 스넥"}]},{"lat":"37.203446021","long":"127.54659014","items":[{"name":"아시아 마트, 행복을 주는 가게","tel":"031-000-0000","addr":"경기도 여주시 가남읍 태평리 178-7번지 1층 2호","category":"유통업 영리 - 슈퍼마켓"}]},{"lat":"37.202259183","long":"127.54604095","items":[{"name":"아이(I)컴퓨터","tel":"031-881-4811","addr":"경기도 여주시 가남읍 태평리 141-33번지","category":"사무통신 - 컴퓨터"},{"name":"원조잔치음식 백화점","tel":"031-884-1292","addr":"경기도 여주시 가남읍 태평리 141-33번지","category":"일반휴게음식 - 일반한식"}]},{"lat":"37.210113036","long":"127.54867698","items":[{"name":"알파와오메가","tel":"031-883-2096","addr":"경기도 여주시 가남읍 태평리 164-3번지","category":"유통업 영리 - 슈퍼마켓"}]},{"lat":"37.202613514","long":"127.54540143","items":[{"name":"양지쉼터","tel":"031-881-0328","addr":"경기도 여주시 가남읍 태평리 141-40번지","category":"일반휴게음식 - 서양음식"},{"name":"운동화 빨래방","tel":"031-884-8617","addr":"경기도 여주시 가남읍 태평리 141-40번지","category":"수리서비스 - 세탁소"},{"name":"크린게이가남점","tel":"031-884-8617","addr":"경기도 여주시 가남읍 태평리 141-40번지","category":"수리서비스 - 세탁소"},{"name":"태평회수산","tel":"031-881-0508","addr":"경기도 여주시 가남읍 태평리 141-40번지","category":"일반휴게음식 - 일반한식"}]},{"lat":"37.202256031","long":"127.54672803","items":[{"name":"양촌식당","tel":"031-882-2422","addr":"경기도 여주시 가남읍 태평리 561-9번지","category":"일반휴게음식 - 일반한식"}]},{"lat":"37.206254576","long":"127.54323088","items":[{"name":"어바웃타임카페","tel":"031-1111-1111","addr":"경기도 여주시 가남읍 태평리 773-2번지 1층 101호","category":"일반휴게음식 - 서양음식"}]},{"lat":"37.202426083","long":"127.54697707","items":[{"name":"어울림부대찌개","tel":"031-882-8399","addr":"경기도 여주시 가남읍 태평리 110-9번지","category":"일반휴게음식 - 일반한식"},{"name":"태평촌감자탕","tel":"031-884-5982","addr":"경기도 여주시 가남읍 태평리 110-9번지","category":"일반휴게음식 - 일반한식"}]},{"lat":"37.207615985","long":"127.54698053","items":[{"name":"엠디 오토 방문세차 경기 여주1호점","tel":"02-1111-1111","addr":"경기도 여주시 가남읍 태평리 771-10번지 302호","category":"자동차정비 유지 - 세차장"}]},{"lat":"37.213307561","long":"127.54170397","items":[{"name":"여주미꾸라지매운탕","tel":"031-881-3708","addr":"경기도 여주시 가남읍 태평리 268-23번지","category":"일반휴게음식 - 일반한식"}]},{"lat":"37.203695795","long":"127.54517263","items":[{"name":"여주선플란트치과","tel":"031-882-2807","addr":"경기도 여주시 가남읍 태평리 174-11번지","category":"의원 - 치과의원"}]},{"lat":"37.2028980139","long":"127.5462370162","items":[{"name":"연세의원","tel":"031-882-6173","addr":"경기도 여주시 가남읍 태평리 141-63번지","category":"의원 - 의원"}]},{"lat":"37.203143413","long":"127.54773692","items":[{"name":"연세학원","tel":"031-882-0760","addr":"경기도 여주시 가남읍 태평리 106-7번지","category":"학원 - 보습학원"}]},{"lat":"37.206950329","long":"127.54869926","items":[{"name":"열린안경","tel":"031-882-6419","addr":"경기도 여주시 가남읍 태평리 174-11번지","category":"보건위생 - 안경"}]},{"lat":"37.206064852","long":"127.54334217","items":[{"name":"영남루","tel":"031-882-4200","addr":"경기도 여주시 가남읍 태평리 775번지","category":"일반휴게음식 - 중국식"}]},{"lat":"37.203591214","long":"127.54636589","items":[{"name":"영숙미용실","tel":"031-884-6240","addr":"경기도 여주시 가남읍 태평리 178-9번지","category":"보건위생 - 미용원"},{"name":"태평떡방앗간","tel":"031-882-2804","addr":"경기도 여주시 가남읍 태평리 178-9번지","category":"음료식품 - 제과점"}]},{"lat":"37.20316771","long":"127.54440288","items":[{"name":"오렌지자동차정비센터","tel":"031-883-4043","addr":"경기도 여주시 가남읍 태평리 163-7번지","category":"자동차정비 유지 - 자동차정비"}]},{"lat":"37.21119574","long":"127.542455","items":[{"name":"오토카용품","tel":"031-882-9608","addr":"경기도 여주시 가남읍 태평리 233-5번지","category":"자동차정비 유지 - 자동차부품"}]},{"lat":"37.198085048","long":"127.53665109","items":[{"name":"와일드캉갈","tel":"","addr":"경기도 여주시 가남읍 태평리 496-2번지","category":"문화.취미 - 애완동물"}]},{"lat":"37.20242317","long":"127.54564788","items":[{"name":"왕떡방앗간","tel":"031-882-2779","addr":"경기도 여주시 가남읍 태평리 141-37번지","category":"음료식품 - 제과점"}]},{"lat":"37.204365504","long":"127.54845536","items":[{"name":"용인대청송태권도장","tel":"031-882-7278","addr":"경기도 여주시 가남읍 태평리 95-2번지","category":"학원 - 예·체능계학원"}]},{"lat":"37.203258723","long":"127.54617202","items":[{"name":"우리약국","tel":"031-8051-3438","addr":"경기도 여주시 가남읍 태평리 178-36번지","category":"약국 - 약국"},{"name":"하나연합의원","tel":"031-882-2277","addr":"경기도 여주시 가남읍 태평리 178-36번지","category":"의원 - 의원"}]},{"lat":"37.20286899","long":"127.54470488","items":[{"name":"위드치킨","tel":"031-882-6233","addr":"경기도 여주시 가남읍 태평리 161-6번지","category":"일반휴게음식 - 칵테일바"},{"name":"항아리","tel":"031-885-4111","addr":"경기도 여주시 가남읍 태평리 161-6번지","category":"일반휴게음식 - 일반한식"}]},{"lat":"37.2014494205","long":"127.5457873381","items":[{"name":"유성철물","tel":"031-882-3077","addr":"경기도 여주시 가남읍 태평리 111-5번지","category":"건축자재 - 기타건축자재"}]},{"lat":"37.2147837299","long":"127.5440127174","items":[{"name":"유진사","tel":"031-884-9902","addr":"경기도 여주시 가남읍 태평리 256-2번지","category":"건축자재 - 기타건축자재"}]},{"lat":"37.204225957","long":"127.54745182","items":[{"name":"이랑","tel":"031-882-9048","addr":"경기도 여주시 가남읍 태평리 100-2번지 1층","category":"보건위생 - 피부미용실"}]},{"lat":"37.202806519","long":"127.54654049","items":[{"name":"이뻐지자뷰티","tel":"031-885-0501","addr":"경기도 여주시 가남읍 태평리 141-5번지 2층","category":"보건위생 - 화장품"},{"name":"태양마트","tel":"031-882-4068","addr":"경기도 여주시 가남읍 태평리 141-5번지","category":"유통업 영리 - 슈퍼마켓"}]},{"lat":"37.204389564","long":"127.54517759","items":[{"name":"이석민피자","tel":"031-881-2918","addr":"경기도 여주시 가남읍 태평리 174번지","category":"일반휴게음식 - 서양음식"}]},{"lat":"37.206116591","long":"127.54582077","items":[{"name":"이천여주가남플라워","tel":"031-884-0203","addr":"경기도 여주시 가남읍 태평리 191-46번지 이천여주가남플라워","category":"문화.취미 - 화원"}]},{"lat":"37.201781293","long":"127.54611637","items":[{"name":"이화모텔","tel":"031-883-1790","addr":"경기도 여주시 가남읍 태평리 111-7번지 이화파크","category":"숙박업 - 여관/기타숙박업"}]},{"lat":"37.206111584","long":"127.53701176","items":[{"name":"임당어린이집","tel":"031-884-8990","addr":"경기도 여주시 가남읍 태평리 326-1번지","category":"학원 - 유아원"},{"name":"임당유치원[아이행복]","tel":"031-884-8990","addr":"경기도 여주시 가남읍 태평리 326-1번지","category":"학원 - 유치원"}]},{"lat":"37.203864823","long":"127.54367568","items":[{"name":"잉글리쉬 키","tel":"031-884-0660","addr":"경기도 여주시 가남읍 태평리 165번지 2층","category":"학원 - 보습학원"}]},{"lat":"37.203699334","long":"127.54242416","items":[{"name":"장인지물포","tel":"031-883-4115","addr":"경기도 여주시 가남읍 태평리 167번지","category":"직물 - 카페트,커튼,천막,지물"}]},{"lat":"37.203700425","long":"127.54809011","items":[{"name":"제일어린이집","tel":"031-882-0500","addr":"경기도 여주시 가남읍 태평리 106번지","category":"학원 - 유치원"},{"name":"제일어린이집[아이행복]","tel":"031-882-0500","addr":"경기도 여주시 가남읍 태평리 106번지","category":"학원 - 유아원"}]},{"lat":"37.203671548","long":"127.54456418","items":[{"name":"제주가고향","tel":"031-111-1111","addr":"경기도 여주시 가남읍 태평리 164-6번지","category":"일반휴게음식 - 일반한식"}]},{"lat":"37.206923636","long":"127.54470007","items":[{"name":"주유마트","tel":"033-734-2371","addr":"경기도 여주시 가남읍 태평리 768-9번지","category":"유통업 영리 - 기타유통업"}]},{"lat":"37.202897668","long":"127.54434463","items":[{"name":"지가네해물찜아구탕","tel":"031-881-3343","addr":"경기도 여주시 가남읍 태평리 160-3번지","category":"일반휴게음식 - 일반한식"},{"name":"한양성모의원","tel":"031-882-2200","addr":"경기도 여주시 가남읍 태평리 160-3번지","category":"의원 - 의원"}]},{"lat":"37.203757024","long":"127.54753857","items":[{"name":"참사랑인성태권도장","tel":"031-882-4093","addr":"경기도 여주시 가남읍 태평리 102-4번지","category":"학원 - 예·체능계학원"},{"name":"초밥전문점나고야","tel":"031-886-4999","addr":"경기도 여주시 가남읍 태평리 102-4번지 외1필지","category":"일반휴게음식 - 일식·회집"}]},{"lat":"37.2030078379","long":"127.5458660847","items":[{"name":"채널코코","tel":"031-883-5296","addr":"경기도 여주시 가남읍 태평리 141-14번지","category":"의류 - 아동의류"}]},{"lat":"37.202060705","long":"127.54609585","items":[{"name":"청사초롱","tel":"031-882-3071","addr":"경기도 여주시 가남읍 태평리 141-58번지","category":"일반휴게음식 - 일반한식"},{"name":"청사초롱","tel":"031-882-3071","addr":"경기도 여주시 가남읍 태평리 141-58번지","category":"일반휴게음식 - 일반한식"}]},{"lat":"37.202974812","long":"127.5471725","items":[{"name":"청우수산","tel":"031-882-6392","addr":"경기도 여주시 가남읍 태평리 105-8번지","category":"일반휴게음식 - 일반한식"}]},{"lat":"37.203863044","long":"127.5361173","items":[{"name":"청운화학","tel":"031-883-3860","addr":"경기도 여주시 가남읍 태평리 363번지","category":"기타 - 기타 전문점"}]},{"lat":"37.207870187","long":"127.54262282","items":[{"name":"초향상사","tel":"031-881-5874","addr":"경기도 여주시 가남읍 태평리 209번지","category":"용역 서비스 - 기타용역서비스"}]},{"lat":"37.202894343","long":"127.54703675","items":[{"name":"칸호프","tel":"","addr":"경기도 여주시 가남읍 태평리 105-6번지 1층","category":"일반휴게음식 - 주점"}]},{"lat":"37.202147136","long":"127.54689621","items":[{"name":"캐슬","tel":"031-882-0272","addr":"경기도 여주시 가남읍 태평리 110-18번지 외3필지","category":"숙박업 - 여관/기타숙박업"}]},{"lat":"37.200534813","long":"127.53487739","items":[{"name":"클린킹","tel":"","addr":"경기도 여주시 가남읍 태평리 531-12번지","category":"용역 서비스 - 종합용역"}]},{"lat":"37.202254635","long":"127.54703216","items":[{"name":"태평마루","tel":"031-881-1668","addr":"경기도 여주시 가남읍 태평리 110-12번지","category":"일반휴게음식 - 일반한식"},{"name":"한잔할까","tel":"031-884-4441","addr":"경기도 여주시 가남읍 태평리 110-12번지","category":"일반휴게음식 - 주점"}]},{"lat":"37.201810852","long":"127.54556465","items":[{"name":"태평본가","tel":"031-881-3744","addr":"경기도 여주시 가남읍 태평리 138-2번지","category":"일반휴게음식 - 일반한식"},{"name":"홍익광고기획","tel":"031-883-3822","addr":"경기도 여주시 가남읍 태평리 138-2번지","category":"용역 서비스 - 종합용역"}]},{"lat":"37.203981336","long":"127.54381168","items":[{"name":"태평종합건재","tel":"031-881-6233","addr":"경기도 여주시 가남읍 태평리 164-3번지","category":"건축자재 - 목재·석재·철물"}]},{"lat":"37.2031130133","long":"127.5465088986","items":[{"name":"태평플라워","tel":"031-881-5425","addr":"경기도 여주시 가남읍 태평리 178-18번지","category":"문화.취미 - 화원"}]},{"lat":"37.202005422","long":"127.54439458","items":[{"name":"토지가든","tel":"031-883-5208","addr":"경기도 여주시 가남읍 태평리 산78-16번지","category":"일반휴게음식 - 일반한식"}]},{"lat":"37.20742297","long":"127.54189869","items":[{"name":"트리팜원예종묘","tel":"031-882-5933","addr":"경기도 여주시 가남읍 태평리 207-4번지","category":"농업 - 비료,사료,종자"}]},{"lat":"37.203204147","long":"127.54628427","items":[{"name":"파리바게트","tel":"031-883-8202","addr":"경기도 여주시 가남읍 태평리 178-21번지","category":"음료식품 - 제과점"}]},{"lat":"37.207251899","long":"127.54581763","items":[{"name":"포시즌 편의점 태평점","tel":"070-8119-1719","addr":"경기도 여주시 가남읍 태평리 771-18번지","category":"유통업 영리 - 슈퍼마켓"}]},{"lat":"37.197836393","long":"127.53784327","items":[{"name":"풍년해물손칼국수","tel":"031-882-3520","addr":"경기도 여주시 가남읍 태평리 492번지","category":"일반휴게음식 - 일반한식"}]},{"lat":"37.203616435","long":"127.54676032","items":[{"name":"한중양육관","tel":"031-883-3999","addr":"경기도 여주시 가남읍 태평리 178-3번지","category":"일반휴게음식 - 중국식"}]},{"lat":"37.202612705","long":"127.54754161","items":[{"name":"행복한왕족발","tel":"031-884-9693","addr":"경기도 여주시 가남읍 태평리 108-5번지","category":"일반휴게음식 - 일반한식"}]},{"lat":"37.203448294","long":"127.54609453","items":[{"name":"헤드스파컴퍼니","tel":"031-884-7716","addr":"경기도 여주시 가남읍 태평리 178-10번지","category":"보건위생 - 미용재료"}]},{"lat":"37.207813842","long":"127.5470608","items":[{"name":"헬스에스엠(Health S.M)","tel":"","addr":"경기도 여주시 가남읍 태평리 771-8번지 401호","category":"건강식품 - 기타건강식품"}]},{"lat":"37.202673539","long":"127.54606644","items":[{"name":"현대공판장","tel":"031-884-7092","addr":"경기도 여주시 가남읍 태평리 141-25번지","category":"음료식품 - 기타음료식품"}]},{"lat":"37.202532064","long":"127.5454797","items":[{"name":"현대식당","tel":"031-884-9871","addr":"경기도 여주시 가남읍 태평리 141-39번지","category":"일반휴게음식 - 일반한식"}]},{"lat":"37.210727991","long":"127.54228269","items":[{"name":"효성건재철물공업사","tel":"031-882-2776","addr":"경기도 여주시 가남읍 태평리 229-10번지","category":"건축자재 - 목재·석재·철물"}]}]