[{"lat":"37.108369389","long":"126.93320882","items":[{"name":"갈비명가","tel":"031-366-0092","addr":"경기도 화성시 향남읍 화리현리 258-20번지","category":"일반휴게음식 - 일반한식"}]},{"lat":"37.114200847","long":"126.93607253","items":[{"name":"고향식당부페","tel":"031-8059-1467","addr":"경기도 화성시 향남읍 화리현리 194","category":"일반휴게음식 - 일반한식"}]},{"lat":"37.114174835","long":"126.93790649","items":[{"name":"길성이 백숙(향남점)","tel":"031-366-4996","addr":"경기도 화성시 향남읍 화리현리 166-4번지","category":"일반휴게음식 - 일반한식"},{"name":"조군에어컨","tel":"","addr":"경기도 화성시 향남읍 화리현리 166-4번지","category":"용역 서비스 - 기타용역서비스"}]},{"lat":"37.11305785","long":"126.9384925","items":[{"name":"러블리어린이집[아이행복]","tel":"031-8059-5990","addr":"경기도 화성시 향남읍 화리현리 165-2번지","category":"학원 - 유아원"}]},{"lat":"37.113812184","long":"126.93395766","items":[{"name":"마징가 자동차 공업사","tel":"031-354-1158","addr":"경기도 화성시 향남읍 화리현리 209-7번지","category":"자동차정비 유지 - 자동차정비"}]},{"lat":"37.111143856","long":"126.93190119","items":[{"name":"서해안푸드","tel":"031-353-2813","addr":"경기도 화성시 향남읍 화리현리 232-9번지","category":"음료식품 - 기타음료식품"}]},{"lat":"37.114335275","long":"126.93478977","items":[{"name":"세웅산업","tel":"031-354-4120","addr":"경기도 화성시 향남읍 화리현리 185번지 200호","category":"신변잡화 - 기타잡화"}]},{"lat":"37.116087348","long":"126.94221416","items":[{"name":"옛날추어탕","tel":"031-353-5956","addr":"경기도 화성시 향남읍 화리현리 118-1","category":"일반휴게음식 - 일반한식"}]},{"lat":"37.113893876","long":"126.93499269","items":[{"name":"요산테크","tel":"031-8059-4774","addr":"경기도 화성시 향남읍 화리현리 201번지","category":"기타 - 기계공구"}]},{"lat":"37.106586968","long":"126.93610171","items":[{"name":"제이에스테크","tel":"031-366-5290","addr":"경기도 화성시 향남읍 화리현리 263-16번지","category":"기타 - 기계공구"}]},{"lat":"37.113587084","long":"126.93423914","items":[{"name":"참옻골","tel":"031-353-1027","addr":"경기도 화성시 향남읍 화리현리 202번지 203호","category":"일반휴게음식 - 일반한식"}]},{"lat":"37.117030402","long":"126.9365201","items":[{"name":"태성중기공업사","tel":"02-000-0000","addr":"경기도 화성시 향남읍 화리현리 68-7번지 1층 1호","category":"기타 - 기계공구"}]},{"lat":"37.105864349","long":"126.93301987","items":[{"name":"홍해F&D(주)","tel":"031-352-3920","addr":"경기도 화성시 향남읍 화리현리 258-9","category":"음료식품 - 기타음료식품"}]}]