[{"lat":"37.157473504","long":"126.84538846","items":[{"name":"(주)씨엠케이 페인트사업부","tel":"031-8058-4500","addr":"경기도 화성시 팔탄면 노하리 621-25번지","category":"건축자재 - 페인트"}]},{"lat":"37.157998495","long":"126.86157587","items":[{"name":"감골오리","tel":"031-354-8430","addr":"경기도 화성시 팔탄면 노하리 405-1번지","category":"음료식품 - 정육점"}]},{"lat":"37.155106689","long":"126.84761104","items":[{"name":"노루목카센타","tel":"031-353-9948","addr":"경기도 화성시 팔탄면 노하리 1178-4번지","category":"자동차정비 유지 - 자동차정비"},{"name":"세븐일레븐화성노하점","tel":"031-1577-0711","addr":"경기도 화성시 팔탄면 노하리 1178-4번지 106~107호","category":"유통업 영리 - 편 의 점"},{"name":"햇님식당","tel":"031-354-9570","addr":"경기도 화성시 팔탄면 노하리 1178-4번지 101호","category":"일반휴게음식 - 일반한식"}]},{"lat":"37.158389019","long":"126.84955191","items":[{"name":"노하할인마트","tel":"031-366-1566","addr":"경기도 화성시 팔탄면 노하리 450-18번지 나동","category":"유통업 영리 - 슈퍼마켓"},{"name":"맛있는밥집","tel":"031-355-8193","addr":"경기도 화성시 팔탄면 노하리 450-18","category":"일반휴게음식 - 일반한식"}]},{"lat":"37.154557327","long":"126.86226896","items":[{"name":"늘푸른씨앤씨","tel":"031-354-3577","addr":"경기도 화성시 팔탄면 노하리 561-2번지","category":"신변잡화 - 기타잡화"}]},{"lat":"37.158302558","long":"126.86732799","items":[{"name":"대경한식","tel":"031-354-5937","addr":"경기도 화성시 팔탄면 노하리 197-14번지","category":"일반휴게음식 - 일반한식"},{"name":"티엔바이오","tel":"","addr":"경기도 화성시 팔탄면 노하리 197-14번지 201호","category":"서적문구 - 과학기자재"}]},{"lat":"37.157884144","long":"126.84932778","items":[{"name":"대박할인마트","tel":"031-353-1203","addr":"경기도 화성시 팔탄면 노하리 450-19","category":"유통업 영리 - 슈퍼마켓"},{"name":"오천식당","tel":"031-366-0382","addr":"경기도 화성시 팔탄면 노하리 450-19번지 1층","category":"일반휴게음식 - 일반한식"},{"name":"월드마트","tel":"031-353-1203","addr":"경기도 화성시 팔탄면 노하리 450-19번지","category":"유통업 영리 - 슈퍼마켓"}]},{"lat":"37.162275918","long":"126.85946261","items":[{"name":"대성기술 주식회사","tel":"031-432-1251","addr":"경기도 화성시 팔탄면 노하리 376-48번지","category":"기타 - 기계공구"}]},{"lat":"37.161943913","long":"126.86832347","items":[{"name":"대양레이저 주식회사","tel":"031-359-8932","addr":"경기도 화성시 팔탄면 노하리 174-19번지 C동,B동","category":"용역 서비스 - 기타용역서비스"}]},{"lat":"37.158084636","long":"126.85108357","items":[{"name":"동성기업","tel":"031-366-2810","addr":"경기도 화성시 팔탄면 노하리 450-13번지","category":"기타 - 기계공구"}]},{"lat":"37.162746504","long":"126.86890748","items":[{"name":"먹보쉼터","tel":"031-354-5788","addr":"경기도 화성시 팔탄면 노하리 282-11번지","category":"일반휴게음식 - 일반한식"}]},{"lat":"37.158833826","long":"126.86702308","items":[{"name":"몽마르","tel":"031-353-6248","addr":"경기도 화성시 팔탄면 노하리 197-4번지 1층","category":"일반휴게음식 - 일반한식"}]},{"lat":"37.154584187","long":"126.84769091","items":[{"name":"사막커피","tel":"031-352-7855","addr":"경기도 화성시 팔탄면 노하리 1096-12번지 101호","category":"일반휴게음식 - 서양음식"}]},{"lat":"37.158635725","long":"126.86713601","items":[{"name":"산성한식부페","tel":"031-354-5131","addr":"경기도 화성시 팔탄면 노하리 197-5번지 1층","category":"일반휴게음식 - 일반한식"},{"name":"에이스마트","tel":"031-355-3292","addr":"경기도 화성시 팔탄면 노하리 197-5번지","category":"유통업 영리 - 슈퍼마켓"}]},{"lat":"37.154666442","long":"126.84858006","items":[{"name":"성진종합상사","tel":"031-352-1914","addr":"경기도 화성시 팔탄면 노하리 1178-14번지","category":"기타 - 기계공구"},{"name":"천우중전기","tel":"031-353-6430","addr":"경기도 화성시 팔탄면 노하리 1178-14번지","category":"수리서비스 - 기타수리서비스"},{"name":"치킨먹고 피자먹고","tel":"031-356-8999","addr":"경기도 화성시 팔탄면 노하리 1178-14번지 1층","category":"일반휴게음식 - 서양음식"}]},{"lat":"37.167995804","long":"126.86559929","items":[{"name":"소연","tel":"031-366-7945","addr":"경기도 화성시 팔탄면 노하리 325-3번지","category":"직물 - 침구·수예점"}]},{"lat":"37.156195455","long":"126.84647182","items":[{"name":"엠텍","tel":"031-366-4853","addr":"경기도 화성시 팔탄면 노하리 621-31번지","category":"기타 - 기계공구"}]},{"lat":"37.155748444","long":"126.86374146","items":[{"name":"유진리프트게이트(화성점)","tel":"031-8059-9907","addr":"경기도 화성시 팔탄면 노하리 577번지","category":"자동차정비 유지 - 자동차부품"}]},{"lat":"37.157194154","long":"126.85230116","items":[{"name":"장나루","tel":"031-354-8585","addr":"경기도 화성시 팔탄면 노하리 454-16번지","category":"일반휴게음식 - 일반한식"}]},{"lat":"37.156527021","long":"126.85927084","items":[{"name":"장수식당","tel":"031-352-5680","addr":"경기도 화성시 팔탄면 노하리 504-1","category":"일반휴게음식 - 일반한식"}]},{"lat":"37.158385033","long":"126.84650108","items":[{"name":"주식회사 성신포장산업","tel":"031-355-9451","addr":"경기도 화성시 팔탄면 노하리 621-13번지","category":"유통업 영리 - 기타유통업"}]},{"lat":"37.159056619","long":"126.85019226","items":[{"name":"주식회사 주주랩","tel":"031-528-7234","addr":"경기도 화성시 팔탄면 노하리 450-1번지","category":"자동차정비 유지 - 자동차부품"}]},{"lat":"37.152193302","long":"126.85952668","items":[{"name":"주식회사오토복스코리아","tel":"031-353-2003","addr":"경기도 화성시 팔탄면 노하리 601-18","category":"자동차정비 유지 - 자동차부품"}]},{"lat":"37.153387919","long":"126.85644002","items":[{"name":"중앙씨씨티비(cctv)","tel":"070-8031-4038","addr":"경기도 화성시 팔탄면 노하리 1240-1번지","category":"용역 서비스 - 기타용역서비스"}]},{"lat":"37.154385662","long":"126.84746617","items":[{"name":"칠성산업가스","tel":"031-357-0700","addr":"경기도 화성시 팔탄면 노하리 1096-1","category":"연료판매점 - LPG 취급점"}]},{"lat":"37.154872799","long":"126.86235843","items":[{"name":"폴로 까사","tel":"031-353-4638","addr":"경기도 화성시 팔탄면 노하리 561-1번지 1동","category":"가구 - 일반가구"}]},{"lat":"37.155832615","long":"126.86638678","items":[{"name":"햇빛농장","tel":"031-354-5661","addr":"경기도 화성시 팔탄면 노하리 582-5번지","category":"음료식품 - 농·축·수산품"}]},{"lat":"37.157718836","long":"126.86129495","items":[{"name":"화성천막공사","tel":"031-353-6662","addr":"경기도 화성시 팔탄면 노하리 406-1번지","category":"직물 - 카페트,커튼,천막,지물"},{"name":"화성판넬","tel":"031-352-6628","addr":"경기도 화성시 팔탄면 노하리 406-1","category":"건축자재 - 건축용 요업제품"}]}]