[{"lat":"36.931231202","long":"127.23877016","items":[{"name":"(주)OS에너지 안성대로주유소","tel":"031-675-9771","addr":"경기도 안성시 서운면 송정리 63-11번지","category":"연료판매점 - GS주유소"}]},{"lat":"36.933502511","long":"127.23388327","items":[{"name":"대승산업가스(주)","tel":"031-675-3400","addr":"경기도 안성시 서운면 송정리 151-1","category":"연료판매점 - LPG 취급점"}]},{"lat":"36.935586904","long":"127.23238543","items":[{"name":"동광농원","tel":"","addr":"경기도 안성시 서운면 송정리 114번지","category":"음료식품 - 농·축·수산품"}]},{"lat":"36.925952868","long":"127.23316464","items":[{"name":"리더팜농기계","tel":"031-675-9787","addr":"경기도 안성시 서운면 송정리 411번지","category":"농업 - 농기계"}]},{"lat":"36.930305918","long":"127.22802588","items":[{"name":"보리수농장","tel":"031-672-3054","addr":"경기도 안성시 서운면 송정리 190","category":"음료식품 - 농·축·수산품"}]},{"lat":"36.931675207","long":"127.23291247","items":[{"name":"새로미","tel":"031-000-0000","addr":"경기도 안성시 서운면 송정리 168-1번지","category":"가구 - 일반가구"}]},{"lat":"36.927365417","long":"127.2342688","items":[{"name":"새마을농장","tel":"041-588-6524","addr":"경기도 안성시 서운면 송정리 264번지","category":"음료식품 - 농·축·수산품"}]},{"lat":"36.926223202","long":"127.22846282","items":[{"name":"성진스틸","tel":"031-671-7122","addr":"경기도 안성시 서운면 송정리 산195-4번지","category":"건축자재 - 기타건축자재"}]},{"lat":"36.935674445","long":"127.23371022","items":[{"name":"송정골 숯불갈비 전문점","tel":"031-2923-4779","addr":"경기도 안성시 서운면 송정리 130-1번지","category":"일반휴게음식 - 일반한식"}]},{"lat":"36.931170742","long":"127.24196887","items":[{"name":"송죽농원","tel":"031-676-2261","addr":"경기도 안성시 서운면 송정리 53-1번지","category":"음료식품 - 농·축·수산품"}]},{"lat":"36.938250704","long":"127.23413333","items":[{"name":"아시아마트","tel":"031-224-5011","addr":"경기도 안성시 서운면 송정리 27-1번지","category":"유통업 영리 - 슈퍼마켓"},{"name":"호성","tel":"031-677-0945","addr":"경기도 안성시 서운면 송정리 27-1번지","category":"용역 서비스 - 기타용역서비스"}]},{"lat":"36.932448736","long":"127.23363315","items":[{"name":"주식회사 신우테크","tel":"041-676-1491","addr":"경기도 안성시 서운면 송정리 150-3번지","category":"전기제품 - 기타전기제품"}]},{"lat":"36.933366061","long":"127.2345451","items":[{"name":"주식회사국민렌탈","tel":"02-921-7714","addr":"경기도 안성시 서운면 송정리 152-1번지","category":"가구 - 기타가구"}]},{"lat":"36.927837741","long":"127.23232853","items":[{"name":"준희농원","tel":"031-1111-1111","addr":"경기도 안성시 서운면 송정리 405","category":"음료식품 - 농·축·수산품"}]},{"lat":"36.933478546","long":"127.23230054","items":[{"name":"지이바이오 농업회사법인(주)","tel":"031-677-8930","addr":"경기도 안성시 서운면 송정리 145번지","category":"농업 - 비료,사료,종자"}]},{"lat":"36.92886529","long":"127.23216325","items":[{"name":"태광산업(주)","tel":"031-674-8551","addr":"경기도 안성시 서운면 송정리 216","category":"가구 - 일반가구"}]}]