[{"lat":"37.169363815","long":"127.00181235","items":[{"name":"(주)한송","tel":"031-8059-8150","addr":"경기도 화성시 정남면 용수리 58-23번지","category":"음료식품 - 농·축·수산품"}]},{"lat":"37.168003232","long":"127.00128319","items":[{"name":"가신공구","tel":"031-354-7910","addr":"경기도 화성시 정남면 용수리 75-1번지","category":"건축자재 - 목재·석재·철물"},{"name":"수담푸드시스템","tel":"031-353-9496","addr":"경기도 화성시 정남면 용수리 75-1번지","category":"일반휴게음식 - 일반한식"},{"name":"포유25,용수점","tel":"031-352-5764","addr":"경기도 화성시 정남면 용수리 75-1번지 1층","category":"음료식품 - 농·축·수산품"}]},{"lat":"37.172057917","long":"127.00053996","items":[{"name":"가인테리어","tel":"031-354-7504","addr":"경기도 화성시 정남면 용수리 53-12번지 영선빌라 401호","category":"건축자재 - 인테리어전문"}]},{"lat":"37.165525364","long":"127.00158723","items":[{"name":"광명상사","tel":"031-352-7897","addr":"경기도 화성시 정남면 용수리 88-4번지","category":"건축자재 - 페인트"}]},{"lat":"37.169273713","long":"127.00370392","items":[{"name":"알탑 (ALTOP)","tel":"031-353-2519","addr":"경기도 화성시 정남면 용수리 58-65번지","category":"기타 - 기계공구"}]},{"lat":"37.170724395","long":"127.00251042","items":[{"name":"에코뜰","tel":"031-267-2555","addr":"경기도 화성시 정남면 용수리 58-10,58-11,58-12","category":"레저업소 - 기타레져업소"}]},{"lat":"37.167940168","long":"127.00211636","items":[{"name":"우리두리 한식뷔페","tel":"031-352-9838","addr":"경기도 화성시 정남면 용수리 75-20번지","category":"일반휴게음식 - 일반한식"}]},{"lat":"37.16688594","long":"127.00428936","items":[{"name":"주식회사 한초담","tel":"031-377-7588","addr":"경기도 화성시 정남면 용수리 58-149번지 1층","category":"약국 - 한약방"},{"name":"한초담 원외탕전실","tel":"031-377-7588","addr":"경기도 화성시 정남면 용수리 58-149번지 1층","category":"약국 - 한약방"}]},{"lat":"37.17222008","long":"126.99950405","items":[{"name":"창문이야기","tel":"031-266-7771","addr":"경기도 화성시 정남면 용수리 36","category":"건축자재 - 보일러·펌프·샷시"}]},{"lat":"37.165858749","long":"127.0014296","items":[{"name":"추억의밥상","tel":"031-353-9596","addr":"경기도 화성시 정남면 용수리 88-1번지","category":"일반휴게음식 - 일반한식"}]},{"lat":"37.170634285","long":"127.00162092","items":[{"name":"키즈펀교육센타","tel":"031-366-4883","addr":"경기도 화성시 정남면 용수리 54-3번지","category":"회원제형태 - 서적"}]}]