[{"lat":"37.67717974","long":"126.7680757","items":[{"name":"경희코원체육관","tel":"031-918-5999","addr":"경기도 고양시 일산서구 일산로","category":"학원 - 예·체능계학원"}]},{"lat":"37.679547265","long":"126.7626043","items":[{"name":"네오휘트니스","tel":"031-925-6733","addr":"경기도 고양시 일산서구 일산로","category":"회원제형태 - 레져업소"},{"name":"라벨르헤어","tel":"031-919-7306","addr":"경기도 고양시 일산서구 일산로","category":"보건위생 - 미용원"},{"name":"오드리","tel":"031-911-2497","addr":"경기도 고양시 일산서구 일산로","category":"의류 - 정장"},{"name":"제이지기타교습소","tel":"031-912-4713","addr":"경기도 고양시 일산서구 일산로","category":"회원제형태 - 학원"},{"name":"지앤지(GnG)아카데미","tel":"031-915-1775","addr":"경기도 고양시 일산서구 일산로","category":"학원 - 기타 교육기관"}]},{"lat":"37.676596705","long":"126.76938113","items":[{"name":"더레전드학원","tel":"031-911-0755","addr":"경기도 고양시 일산서구 일산로","category":"학원 - 보습학원"}]},{"lat":"37.682428952","long":"126.75755031","items":[{"name":"더치앤빈","tel":"031-925-3859","addr":"경기도 고양시 일산서구 일산로","category":"일반휴게음식 - 일반한식"}]},{"lat":"37.677627775","long":"126.76685004","items":[{"name":"리틀스콜라학원","tel":"","addr":"경기도 고양시 일산서구 일산로","category":"학원 - 보습학원"}]},{"lat":"37.67899132","long":"126.76390972","items":[{"name":"마테시스수학학원","tel":"031-925-0501","addr":"경기도 고양시 일산서구 일산로","category":"학원 - 보습학원"},{"name":"요거프레소","tel":"031-913-1594","addr":"경기도 고양시 일산서구 일산로","category":"일반휴게음식 - 스넥"},{"name":"요거프레소(사진관)","tel":"031-913-1594","addr":"경기도 고양시 일산서구 일산로","category":"광학제품 - 사진관"}]},{"lat":"37.677909177","long":"126.76790337","items":[{"name":"매스플러스어진국어학원","tel":"031-923-3232","addr":"경기도 고양시 일산서구 일산로","category":"회원제형태 - 학원"}]},{"lat":"37.678040489","long":"126.76598721","items":[{"name":"명문스터디학원","tel":"031-916-8373","addr":"경기도 고양시 일산서구 일산로","category":"회원제형태 - 학원"},{"name":"봉구스밥버거 후곡마을점","tel":"031-911-3848","addr":"경기도 고양시 일산서구 일산로","category":"일반휴게음식 - 스넥"}]},{"lat":"37.677457704","long":"126.76740602","items":[{"name":"명품텔레콤","tel":"070-4157-4377","addr":"경기도 고양시 일산서구 일산로","category":"사무통신 - 통신기기"}]},{"lat":"37.67907504","long":"126.76521308","items":[{"name":"민물나라가물치","tel":"031-916-8558","addr":"경기도 고양시 일산서구 일산로","category":"건강식품 - 기타건강식품"},{"name":"페이스영어교습소","tel":"031-913-3572","addr":"경기도 고양시 일산서구 일산로","category":"회원제형태 - 학원"},{"name":"후곡글사랑국어학원","tel":"031-917-2410","addr":"경기도 고양시 일산서구 일산로","category":"학원 - 보습학원"}]},{"lat":"37.677604227","long":"126.76859581","items":[{"name":"백가네떡시루","tel":"031-915-9494","addr":"경기도 고양시 일산서구 일산로","category":"음료식품 - 제과점"}]},{"lat":"37.679487581","long":"126.76427088","items":[{"name":"비젼필즈학원","tel":"031-817-0949","addr":"경기도 고양시 일산서구 일산로","category":"학원 - 보습학원"},{"name":"탑영어학원","tel":"070-7716-0542","addr":"경기도 고양시 일산서구 일산로","category":"학원 - 보습학원"}]},{"lat":"37.677128921","long":"126.76970819","items":[{"name":"비타민노래연습장","tel":"031-919-2430","addr":"경기도 고양시 일산서구 일산로","category":"레저업소 - 노 래 방"}]},{"lat":"37.678124481","long":"126.76743792","items":[{"name":"뽀글이","tel":"031-921-2882","addr":"경기도 고양시 일산서구 일산로","category":"일반휴게음식 - 일반한식"}]},{"lat":"37.678599811","long":"126.76634818","items":[{"name":"서울프라임치과","tel":"031-923-7275","addr":"경기도 고양시 일산서구 일산로","category":"의원 - 치과의원"},{"name":"이룸수학교습소","tel":"031-914-4756","addr":"경기도 고양시 일산서구 일산로","category":"회원제형태 - 학원"}]},{"lat":"37.677684931","long":"126.76840285","items":[{"name":"센스헤어","tel":"031-912-0880","addr":"경기도 고양시 일산서구 일산로","category":"보건위생 - 미용원"}]},{"lat":"37.677574171","long":"126.76707692","items":[{"name":"쎈학원","tel":"031-924-0164","addr":"경기도 고양시 일산서구 일산로","category":"학원 - 보습학원"}]},{"lat":"37.677765701","long":"126.76824389","items":[{"name":"아이미안경후곡","tel":"031-924-7007","addr":"경기도 고양시 일산서구 일산로","category":"보건위생 - 안경"}]},{"lat":"37.678211056","long":"126.76568061","items":[{"name":"에스에이치수학교습소","tel":"031-923-3729","addr":"경기도 고양시 일산서구 일산로","category":"회원제형태 - 학원"},{"name":"정혜욱수능국어연구소","tel":"031-915-5505","addr":"경기도 고양시 일산서구 일산로","category":"회원제형태 - 학원"}]},{"lat":"37.678877833","long":"126.76571249","items":[{"name":"에스엠보습학원","tel":"031-916-9913","addr":"경기도 고양시 일산서구 일산로","category":"학원 - 보습학원"}]},{"lat":"37.676040573","long":"126.77062977","items":[{"name":"에스크영어학원","tel":"031-918-0478","addr":"경기도 고양시 일산서구 일산로","category":"회원제형태 - 학원"}]},{"lat":"37.676874676","long":"126.76871146","items":[{"name":"엠이사오유본원 학원","tel":"031-917-5245","addr":"경기도 고양시 일산서구 일산로","category":"회원제형태 - 학원"}]},{"lat":"37.673458909","long":"126.77272346","items":[{"name":"예광설비","tel":"031-906-2373","addr":"경기도 고양시 일산서구 일산로","category":"회원제형태 - 기타4"}]},{"lat":"37.681989484","long":"126.75851534","items":[{"name":"오리한","tel":"031-916-8776","addr":"경기도 고양시 일산서구 일산로","category":"일반휴게음식 - 서양음식"}]},{"lat":"37.678569772","long":"126.76485195","items":[{"name":"임(  )가떡방","tel":"031-912-7711","addr":"경기도 고양시 일산서구 일산로","category":"음료식품 - 제과점"}]},{"lat":"37.678241266","long":"126.76726752","items":[{"name":"잉글리쉬스피킹어학원","tel":"031-925-0519","addr":"경기도 고양시 일산서구 일산로","category":"회원제형태 - 학원"}]},{"lat":"37.679568323","long":"126.76410058","items":[{"name":"주식회사 김혜진수능영어","tel":"031-922-7205","addr":"경기도 고양시 일산서구 일산로","category":"학원 - 보습학원"}]},{"lat":"37.677182664","long":"126.76954932","items":[{"name":"프로당구클럽","tel":"070-8956-3840","addr":"경기도 고양시 일산서구 일산로","category":"레저업소 - 당 구 장"}]},{"lat":"37.681879746","long":"126.75343703","items":[{"name":"해송아구해물","tel":"031-942-5498","addr":"경기도 고양시 일산서구 일산로","category":"일반휴게음식 - 일반한식"}]}]