[{"lat":"37.108066456","long":"127.21418436","items":[{"name":"건영정화조","tel":"031-677-0613","addr":"경기도 안성시 양성면 장서리 254-3번지","category":"건축자재 - 기타건축자재"}]},{"lat":"37.107096717","long":"127.21226915","items":[{"name":"까디 디퓨져","tel":"","addr":"경기도 안성시 양성면 장서리 319-1번지","category":"신변잡화 - 기타잡화"}]},{"lat":"37.107259541","long":"127.2119096","items":[{"name":"만나가든","tel":"031-674-2080","addr":"경기도 안성시 양성면 장서리 317-6번지","category":"일반휴게음식 - 일반한식"}]},{"lat":"37.107540824","long":"127.2107966","items":[{"name":"모차모텔","tel":"031-674-8484","addr":"경기도 안성시 양성면 장서리 316-11번지","category":"숙박업 - 여관/기타숙박업"}]},{"lat":"37.108145621","long":"127.21526461","items":[{"name":"씨스페이스 안성양성점","tel":"070-8796-4539","addr":"경기도 안성시 양성면 장서리 243-5번지","category":"유통업 영리 - 편 의 점"}]},{"lat":"37.107511732","long":"127.21701786","items":[{"name":"양성농협미곡종합처리장","tel":"031-674-8740","addr":"경기도 안성시 양성면 장서리 216번지","category":"음료식품 - 미곡상"}]},{"lat":"37.094652643","long":"127.21257236","items":[{"name":"용마가스뱅크","tel":"031-676-1322","addr":"경기도 안성시 양성면 장서리 369-10번지","category":"연료판매점 - LPG 취급점"}]},{"lat":"37.103321308","long":"127.21227001","items":[{"name":"주식회사 피피아이엘엔케이","tel":"031-673-5786","addr":"경기도 안성시 양성면 장서리 331-25번지","category":"신변잡화 - 기타잡화"}]},{"lat":"37.107728819","long":"127.21149463","items":[{"name":"창대가든","tel":"031-673-9887","addr":"경기도 안성시 양성면 장서리 255-13번지 1층","category":"일반휴게음식 - 일반한식"}]},{"lat":"37.108065914","long":"127.21448812","items":[{"name":"탑앵글러","tel":"031-677-7221","addr":"경기도 안성시 양성면 장서리 254-4","category":"레져용품 - 스포츠·레져용품"}]},{"lat":"37.10803828","long":"127.21482555","items":[{"name":"하늘패키지","tel":"070-7576-3379","addr":"경기도 안성시 양성면 장서리 254-5번지 2호","category":"유통업 영리 - 기타유통업"}]},{"lat":"37.107207239","long":"127.21090819","items":[{"name":"호반가든","tel":"031-673-9528","addr":"경기도 안성시 양성면 장서리 316-10","category":"일반휴게음식 - 일반한식"}]}]