[{"lat":"37.380315168","long":"127.56961018","items":[{"name":"THE 스크린 SG 골프","tel":"031-881-0752","addr":"경기도 여주시 대신면 보통리 517-7번지","category":"레저업소 - 스크린골프"},{"name":"날라리양꼬치","tel":"031-883-9266","addr":"경기도 여주시 대신면 보통리 517-7번지 1층","category":"일반휴게음식 - 일반한식"}]},{"lat":"37.375931687","long":"127.57803341","items":[{"name":"고향노래연습장","tel":"031-882-8620","addr":"경기도 여주시 대신면 보통리 84번지","category":"레저업소 - 노 래 방"}]},{"lat":"37.375486578","long":"127.5769236","items":[{"name":"궁전파크여관","tel":"031-884-4208","addr":"경기도 여주시 대신면 보통리 97-3번지","category":"숙박업 - 여관/기타숙박업"}]},{"lat":"37.373293035","long":"127.5759134","items":[{"name":"극동샤링","tel":"031-881-0728","addr":"경기도 여주시 대신면 보통리 146번지","category":"건축자재 - 기타건축자재"}]},{"lat":"37.382176559","long":"127.56660951","items":[{"name":"내산주유소","tel":"031-884-2783","addr":"경기도 여주시 대신면 보통리 497-1번지","category":"연료판매점 - GS주유소"}]},{"lat":"37.375730935","long":"127.57669966","items":[{"name":"대성농산물","tel":"031-882-8201","addr":"경기도 여주시 대신면 보통리 94번지 1층","category":"음료식품 - 농·축·수산품"}]},{"lat":"37.374041462","long":"127.57205801","items":[{"name":"대신상회","tel":"054-338-3881","addr":"경기도 여주시 대신면 보통리 182-2번지","category":"음료식품 - 농·축·수산품"}]},{"lat":"37.381008264","long":"127.56975088","items":[{"name":"두메촌","tel":"031-882-0240","addr":"경기도 여주시 대신면 보통리 513-3번지","category":"일반휴게음식 - 일반한식"},{"name":"두메촌농원","tel":"031-882-0240","addr":"경기도 여주시 대신면 보통리 513-3번지","category":"음료식품 - 미곡상"}]},{"lat":"37.375622435","long":"127.57677786","items":[{"name":"러브텔","tel":"031-883-8643","addr":"경기도 여주시 대신면 보통리 96-2번지","category":"숙박업 - 여관/기타숙박업"}]},{"lat":"37.37604282","long":"127.57741331","items":[{"name":"럭키모텔","tel":"031-884-1350","addr":"경기도 여주시 대신면 보통리 97-2번지","category":"숙박업 - 여관/기타숙박업"}]},{"lat":"37.37531848","long":"127.57814162","items":[{"name":"보통집","tel":"031-881-5866","addr":"경기도 여주시 대신면 보통리 81-1번지","category":"일반휴게음식 - 일반한식"}]},{"lat":"37.381204203","long":"127.57022657","items":[{"name":"오복순대국","tel":"031-884-2190","addr":"경기도 여주시 대신면 보통리 513-1번지 1층","category":"일반휴게음식 - 일반한식"}]},{"lat":"37.385181004","long":"127.56194607","items":[{"name":"이천수석원","tel":"031-883-0882","addr":"경기도 여주시 대신면 보통리 439-6번지","category":"가구 - 기타가구"}]},{"lat":"37.379175752","long":"127.57421941","items":[{"name":"인성상회","tel":"070-7753-9205","addr":"경기도 여주시 대신면 보통리 220-31번지","category":"음료식품 - 농·축·수산품"}]},{"lat":"37.375843236","long":"127.57769403","items":[{"name":"임가네콩나물국밥","tel":"031-881-2112","addr":"경기도 여주시 대신면 보통리 97-9번지","category":"일반휴게음식 - 일반한식"}]},{"lat":"37.37687456","long":"127.57683256","items":[{"name":"태경공인중개사사무소","tel":"031-883-7311","addr":"경기도 여주시 대신면 보통리 92-1번지","category":"용역 서비스 - 부동산 중개·임대"}]},{"lat":"37.377096293","long":"127.57755682","items":[{"name":"파인힐여관","tel":"031-881-4205","addr":"경기도 여주시 대신면 보통리 86번지","category":"숙박업 - 여관/기타숙박업"}]}]