[{"lat":"37.170636295","long":"127.06450542","items":[{"name":"(주)도드람푸드 도드람미트마켓(오산세교점","tel":"031-777-3361","addr":"경기도 오산시 수청동 617-2번지 1층 106호","category":"음료식품 - 정육점"},{"name":"(주)리버베어 재주당 오산세교점","tel":"062-514-8899","addr":"경기도 오산시 수청동 617-2번지 111호","category":"일반휴게음식 - 일반한식"},{"name":"곰차 3.15","tel":"031-000-0000","addr":"경기도 오산시 수청동 617-2번지 104호","category":"일반휴게음식 - 서양음식"},{"name":"내이름은장어","tel":"","addr":"경기도 오산시 수청동 617-2번지 1층 119호","category":"일반휴게음식 - 일반한식"},{"name":"놀숲오산세교점","tel":"031-373-9524","addr":"경기도 오산시 수청동 617-2번지 시너지타워오산A 2층 205호","category":"레저업소 - 기타레져업소"},{"name":"농수산직송판매장","tel":"031-111-1111","addr":"경기도 오산시 수청동 617-2번지 시너지타워 120호","category":"음료식품 - 농·축·수산품"},{"name":"도담도담식빵오산세교점","tel":"031-373-5742","addr":"경기도 오산시 수청동 617-2번지 107호","category":"음료식품 - 제과점"},{"name":"땡초우동","tel":"031-208-1478","addr":"경기도 오산시 수청동 617-2번지 118호","category":"일반휴게음식 - 주점"},{"name":"레전드푸드존","tel":"031-376-8279","addr":"경기도 오산시 수청동 617-2번지 204호","category":"일반휴게음식 - 일반한식"},{"name":"레전드히어로즈 오산세교점","tel":"031-376-8279","addr":"경기도 오산시 수청동 617-2번지 204호","category":"레저업소 - 기타레져업소"},{"name":"새벽달 오산세교점","tel":"062-514-8899","addr":"경기도 오산시 수청동 617-2번지 112~114호","category":"일반휴게음식 - 일반한식"},{"name":"스타일노리터 오산세교점","tel":"031-374-0906","addr":"경기도 오산시 수청동 617-2번지 1층 102호","category":"의류 - 아동의류"},{"name":"신진미통닭","tel":"","addr":"경기도 오산시 수청동 617-2번지 115호","category":"일반휴게음식 - 스넥"},{"name":"에그풀","tel":"070-4145-8097","addr":"경기도 오산시 수청동 617-2번지 101호","category":"일반휴게음식 - 서양음식"},{"name":"오레시피오산세교점","tel":"031-378-1309","addr":"경기도 오산시 수청동 617-2번지 시너지타워 1층 108호","category":"음료식품 - 기타음료식품"},{"name":"요미요미 오산교육원","tel":"","addr":"경기도 오산시 수청동 617-2번지 THE-시너지A 203호","category":"학원 - 학습지 교육"},{"name":"육회지존오산대역점","tel":"031-372-6696","addr":"경기도 오산시 수청동 617-2번지 117호","category":"일반휴게음식 - 일반한식"},{"name":"이디야커피 오산수청점","tel":"031-377-9946","addr":"경기도 오산시 수청동 617-2번지 시너지타워 109호,110호","category":"일반휴게음식 - 서양음식"},{"name":"주식회사 북앤마켓 북스터세교점","tel":"031-111-1111","addr":"경기도 오산시 수청동 617-2번지 1층 101호","category":"서적문구 - 일반서적"},{"name":"죽이야기 오산대역점","tel":"031-374-6288","addr":"경기도 오산시 수청동 617-2번지 105호","category":"일반휴게음식 - 일반한식"},{"name":"청담동 말자싸롱 오산수청점","tel":"","addr":"경기도 오산시 수청동 617-2번지 116호","category":"일반휴게음식 - 주점"}]},{"lat":"37.168972528","long":"127.05808627","items":[{"name":"(주)리뷰티베일리","tel":"070-8285-6715","addr":"경기도 오산시 수청동 592-6번지 1층(1층)","category":"보건위생 - 화장품"}]},{"lat":"37.169608936","long":"127.0648311","items":[{"name":"(주)애드풀노랑통닭오산대역점","tel":"","addr":"경기도 오산시 수청동 619-6번지 103,104호","category":"일반휴게음식 - 스넥"},{"name":"백채김치찌개","tel":"031-472-7408","addr":"경기도 오산시 수청동 619-6번지 105호","category":"일반휴게음식 - 일반한식"},{"name":"본케어 운동센터","tel":"","addr":"경기도 오산시 수청동 619-6번지 306호","category":"레저업소 - 헬스클럽"},{"name":"슬라임&폰데코","tel":"031-373-5345","addr":"경기도 오산시 수청동 619-6번지 3층 303호","category":"레저업소 - 기타레져업소"},{"name":"오색전","tel":"031-374-1471","addr":"경기도 오산시 수청동 619-6번지 107호","category":"일반휴게음식 - 일반한식"},{"name":"짝태노가리오산대역점","tel":"031-691-8223","addr":"경기도 오산시 수청동 619-6번지 108호","category":"일반휴게음식 - 일반한식"},{"name":"태양 노래연습장","tel":"031-375-8228","addr":"경기도 오산시 수청동 619-6번지 로데오프라자 205호 206호","category":"레저업소 - 노 래 방"},{"name":"포차야","tel":"","addr":"경기도 오산시 수청동 619-6번지 109호","category":"일반휴게음식 - 주점"}]},{"lat":"37.168553167","long":"127.06772386","items":[{"name":"(주)에코바이오","tel":"031-378-9898","addr":"경기도 오산시 수청동 629-13번지","category":"신변잡화 - 기타잡화"},{"name":"가비당","tel":"","addr":"경기도 오산시 수청동 629-13번지 1층","category":"일반휴게음식 - 서양음식"}]},{"lat":"37.169557553","long":"127.0594716","items":[{"name":"(주)이노건축디자인","tel":"031-376-4622","addr":"경기도 오산시 수청동 598-1번지","category":"용역 서비스 - 기타용역서비스"}]},{"lat":"37.165247368","long":"127.06580705","items":[{"name":"(주)짬뽕지존 오산점","tel":"031-377-5161","addr":"경기도 오산시 수청동 114-1번지 ((추가지번) 오산시 수청동 119-2)","category":"일반휴게음식 - 중국식"},{"name":"골프존SC스크린 오산수청점","tel":"031-376-0531","addr":"경기도 오산시 수청동 114-1번지 3층","category":"레저업소 - 스크린골프"}]},{"lat":"37.161227568","long":"127.06792025","items":[{"name":"(주)화진정","tel":"031-373-8868","addr":"경기도 오산시 수청동 88-11번지","category":"일반휴게음식 - 일반한식"},{"name":"화진정","tel":"031-373-8868","addr":"경기도 오산시 수청동 88-11번지","category":"일반휴게음식 - 일반한식"}]},{"lat":"37.172693499","long":"127.05880961","items":[{"name":"2막5장","tel":"031-375-3220","addr":"경기도 오산시 수청동 558-8번지","category":"일반휴게음식 - 일반한식"},{"name":"니하오 양꼬치","tel":"","addr":"경기도 오산시 수청동 558-8번지 1층 일부","category":"일반휴게음식 - 중국식"}]},{"lat":"37.169473483","long":"127.06539396","items":[{"name":"345헤어살롱오산대역점","tel":"031-375-1345","addr":"경기도 오산시 수청동 619-3번지 302호","category":"보건위생 - 미용원"},{"name":"FNC학원","tel":"031-372-5752","addr":"경기도 오산시 수청동 619-3번지 402호","category":"학원 - 보습학원"},{"name":"그심정심리상담센터","tel":"031-378-1408","addr":"경기도 오산시 수청동 619-3번지 A동 401호","category":"보건위생 - 기타대인서비스"},{"name":"두리맛감자탕및해물뼈찜","tel":"031-0000-0000","addr":"경기도 오산시 수청동 619-3번지 201~203호","category":"일반휴게음식 - 일반한식"},{"name":"마로니쥬얼리","tel":"031-223-8654","addr":"경기도 오산시 수청동 619-3번지 A동 105호","category":"신변잡화 - 귀금속"},{"name":"맹꽁이 노래연습장","tel":"031-373-4401","addr":"경기도 오산시 수청동 619-3번지 베네치아 A동 204호","category":"레저업소 - 노 래 방"},{"name":"바로크음악학원","tel":"031-375-5572","addr":"경기도 오산시 수청동 619-3번지 403호","category":"학원 - 예·체능계학원"},{"name":"바로크음악학원","tel":"031-375-5572","addr":"경기도 오산시 수청동 619-3번지 403호","category":"학원 - 예·체능계학원"},{"name":"불불이족발","tel":"031-377-7890","addr":"경기도 오산시 수청동 619-3번지 110호","category":"일반휴게음식 - 일반한식"},{"name":"세교자연약국","tel":"031-376-7123","addr":"경기도 오산시 수청동 619-3번지 베내치아1 1층 106호","category":"약국 - 약국"},{"name":"세븐일레븐오산대역점","tel":"","addr":"경기도 오산시 수청동 619-3번지 베네치아 109호","category":"유통업 영리 - 편 의 점"},{"name":"싸고이쁘게","tel":"","addr":"경기도 오산시 수청동 619-3번지 베네치아 104호","category":"의류 - 정장"},{"name":"쎄미","tel":"031-000-0000","addr":"경기도 오산시 수청동 619-3번지 1층 102호","category":"보건위생 - 피부미용실"},{"name":"원조큰맘할매순대국 오산대역점","tel":"031-373-2227","addr":"경기도 오산시 수청동 619-3번지 111,112호","category":"일반휴게음식 - 일반한식"},{"name":"제닉스 아레나 PC방 수청점","tel":"","addr":"경기도 오산시 수청동 619-3번지 3층","category":"레저업소 - 기타레져업소"}]},{"lat":"37.165164983","long":"127.06819383","items":[{"name":"Brown Ling(브라운링)","tel":"031-376-2956","addr":"경기도 오산시 수청동 44-4번지 1호","category":"일반휴게음식 - 서양음식"},{"name":"삼미식당","tel":"031-223-9159","addr":"경기도 오산시 수청동 44-4번지 1층","category":"일반휴게음식 - 일반한식"},{"name":"에텔","tel":"031-377-8547","addr":"경기도 오산시 수청동 44-4번지 2층","category":"광학제품 - 사진관"},{"name":"주주헤어클럽","tel":"031-376-1403","addr":"경기도 오산시 수청동 44-4번지","category":"보건위생 - 미용원"}]},{"lat":"37.163601339","long":"127.06012015","items":[{"name":"GS25오산공덕점","tel":"","addr":"경기도 오산시 수청동 532번지 공덕그린빌라 103동 지하층 상가호","category":"유통업 영리 - 편 의 점"},{"name":"네모장군숯불구이","tel":"031-000-0000","addr":"경기도 오산시 수청동 532번지 공덕그린빌라 103동 지하층 상가","category":"일반휴게음식 - 일반한식"}]},{"lat":"37.169418076","long":"127.06789349","items":[{"name":"GS25오산매홀점","tel":"","addr":"경기도 오산시 수청동 631-3번지 1층","category":"유통업 영리 - 편 의 점"}]},{"lat":"37.164474429","long":"127.062001","items":[{"name":"GS25오산수청점","tel":"02-2006-2485","addr":"경기도 오산시 수청동 517-8번지 1층","category":"유통업 영리 - 편 의 점"}]},{"lat":"37.164527102","long":"127.06472563","items":[{"name":"J모터스","tel":"031-375-3261","addr":"경기도 오산시 수청동 108번지","category":"자동차정비 유지 - 자동차정비"},{"name":"J모터스","tel":"031-376-9774","addr":"경기도 오산시 수청동 108번지","category":"자동차정비 유지 - 자동차정비"}]},{"lat":"37.172225009","long":"127.05869666","items":[{"name":"LUS에듀","tel":"070-7759-1237","addr":"경기도 오산시 수청동 558-2번지 2층","category":"회원제형태 - 학원"},{"name":"청춘당찹쌀꽈배기오산점","tel":"031-377-1043","addr":"경기도 오산시 수청동 558-2번지 누리빌딩 1층 101,102호","category":"일반휴게음식 - 일반한식"}]},{"lat":"37.171948089","long":"127.05333683","items":[{"name":"L뮤직음악교습소","tel":"031-373-7331","addr":"경기도 오산시 수청동 581번지 물향기마을휴먼시아꿈에그린 201호","category":"학원 - 예·체능계학원"},{"name":"살롱드메인","tel":"031-374-9909","addr":"경기도 오산시 수청동 581번지 물향기마을휴먼시아꿈에그린 1층 101호","category":"보건위생 - 미용원"},{"name":"정석태권도","tel":"031-372-5338","addr":"경기도 오산시 수청동 581번지 물향기마을휴먼시아꿈에그린 상가 301호","category":"학원 - 예·체능계학원"},{"name":"호크마학원","tel":"031-377-1120","addr":"경기도 오산시 수청동 581번지 꿈에그린 상가동 202호","category":"학원 - 기타 교육기관"}]},{"lat":"37.164303765","long":"127.06092004","items":[{"name":"OLD&NEW(올드앤뉴)","tel":"031-378-1787","addr":"경기도 오산시 수청동 520-3번지 102호","category":"의류 - 정장"}]},{"lat":"37.170059498","long":"127.06475266","items":[{"name":"RE,one(리원)","tel":"031-374-1104","addr":"경기도 오산시 수청동 619-8번지 107,108일부호","category":"일반휴게음식 - 서양음식"},{"name":"도화양꼬치","tel":"031-663-0447","addr":"경기도 오산시 수청동 619-8번지 108호 일부 109호","category":"일반휴게음식 - 중국식"},{"name":"동해수산","tel":"031-377-1776","addr":"경기도 오산시 수청동 619-8번지 1층 101호","category":"음료식품 - 농·축·수산품"},{"name":"위풍당당대대클럽","tel":"02-1111-1111","addr":"경기도 오산시 수청동 619-8번지 203,204호","category":"레저업소 - 당 구 장"},{"name":"최가네오복전","tel":"031-377-6473","addr":"경기도 오산시 수청동 619-8번지 104호","category":"일반휴게음식 - 일반한식"},{"name":"펀비어킹 오산대역점","tel":"031-373-9281","addr":"경기도 오산시 수청동 619-8번지 투미프라자 105, 106호","category":"일반휴게음식 - 일반한식"}]},{"lat":"37.169419687","long":"127.06488725","items":[{"name":"SK행운편의점","tel":"","addr":"경기도 오산시 수청동 619-5번지 1층 103호 일부","category":"유통업 영리 - 편 의 점"},{"name":"랭커PC카페","tel":"","addr":"경기도 오산시 수청동 619-5번지 3층 301-303호","category":"레저업소 - 기타레져업소"},{"name":"마론헤어","tel":"031-376-9870","addr":"경기도 오산시 수청동 619-5번지 베네치아 B동 203호","category":"보건위생 - 미용원"},{"name":"명랑쌀핫도그오산대역점","tel":"031-376-6877","addr":"경기도 오산시 수청동 619-5번지 107호","category":"일반휴게음식 - 일반한식"},{"name":"서우직업전문학교","tel":"031-378-6267","addr":"경기도 오산시 수청동 619-5번지 403,404호","category":"학원 - 기능학원"},{"name":"수 노래연습장","tel":"","addr":"경기도 오산시 수청동 619-5번지 2층 204호","category":"레저업소 - 노 래 방"},{"name":"수당구클럽","tel":"031-376-1424","addr":"경기도 오산시 수청동 619-5번지 304호","category":"레저업소 - 당 구 장"},{"name":"심봉사도로케오산대역점","tel":"02-000-0000","addr":"경기도 오산시 수청동 619-5번지 106호","category":"일반휴게음식 - 일반한식"},{"name":"아부찌부대찌개오산세교점","tel":"031-373-2319","addr":"경기도 오산시 수청동 619-5번지 108호","category":"음료식품 - 기타음료식품"},{"name":"저팔계연탄막창세교점","tel":"031-663-0447","addr":"경기도 오산시 수청동 619-5번지 B동 101동 102호","category":"일반휴게음식 - 일반한식"},{"name":"참다한홍삼 오산대역점","tel":"031-374-4233","addr":"경기도 오산시 수청동 619-5번지 103호","category":"건강식품 - 홍삼제품"},{"name":"치즈다","tel":"031-226-6404","addr":"경기도 오산시 수청동 619-5번지 B동 104호","category":"일반휴게음식 - 스넥"},{"name":"커피마마오산대역점","tel":"031-374-1292","addr":"경기도 오산시 수청동 619-5번지 1층 101,102호","category":"일반휴게음식 - 서양음식"},{"name":"화통삼 오산대역점","tel":"031-375-9192","addr":"경기도 오산시 수청동 619-5번지 1층 110호 111,112호","category":"일반휴게음식 - 일반한식"}]},{"lat":"37.169143726","long":"127.0580864","items":[{"name":"TV 할인 매장","tel":"070-4814-9677","addr":"경기도 오산시 수청동 592-7번지","category":"전기제품 - 가전제품"}]},{"lat":"37.171305577","long":"127.0594729","items":[{"name":"cafe sis","tel":"070-2569-4653","addr":"경기도 오산시 수청동 566-1번지 현대캐슬 1층","category":"일반휴게음식 - 서양음식"},{"name":"삐삐","tel":"","addr":"경기도 오산시 수청동 566-1번지 현대캐슬 402호","category":"신변잡화 - 액세서리"},{"name":"한국도시농업(주)경기지사","tel":"031-374-1650","addr":"경기도 오산시 수청동 566-1번지","category":"농업 - 기타농업관련"}]},{"lat":"37.172531156","long":"127.05913602","items":[{"name":"scv컴퓨터","tel":"031-377-2998","addr":"경기도 오산시 수청동 559-2번지 세교택지개발지구단8-9-16 102호","category":"수리서비스 - 사무·통신기기수리"}]},{"lat":"37.170473451","long":"127.06575509","items":[{"name":"가족사진연구소","tel":"","addr":"경기도 오산시 수청동 620-1번지 백현프라자 401호","category":"광학제품 - 사진관"},{"name":"뉴욕 (New York)","tel":"","addr":"경기도 오산시 수청동 620-1번지 백현프라자 107호","category":"의류 - 정장"},{"name":"맘스터치수청점","tel":"031-376-9292","addr":"경기도 오산시 수청동 620-1번지 백현프라자 104호,105호","category":"일반휴게음식 - 서양음식"},{"name":"메가엠지씨커피오산수청점","tel":"031-375-1811","addr":"경기도 오산시 수청동 620-1번지 백현프라자 106호","category":"일반휴게음식 - 서양음식"},{"name":"쁘띠앙쥬속눈썹&왁싱","tel":"","addr":"경기도 오산시 수청동 620-1번지 111호","category":"보건위생 - 피부미용실"},{"name":"숲필라테스","tel":"031-375-0925","addr":"경기도 오산시 수청동 620-1번지 백현프라자 4층 402호","category":"레저업소 - 헬스클럽"},{"name":"아이블루","tel":"","addr":"경기도 오산시 수청동 620-1번지 백현프라자 404호","category":"보건위생 - 화장품"},{"name":"연세 원내과","tel":"031-8077-2123","addr":"경기도 오산시 수청동 620-1번지 301,302,303,304호","category":"의원 - 의원"},{"name":"자민약국","tel":"031-376-7558","addr":"경기도 오산시 수청동 620-1번지 1층 108호","category":"약국 - 약국"},{"name":"점핑하이","tel":"031-111-1111","addr":"경기도 오산시 수청동 620-1번지 501호","category":"레저업소 - 헬스클럽"},{"name":"클래스K학원","tel":"031-373-2345","addr":"경기도 오산시 수청동 620-1번지 백현프라자 502,503호","category":"학원 - 보습학원"},{"name":"클래스K학원","tel":"031-373-2345","addr":"경기도 오산시 수청동 620-1번지 백현프라자 502,503호","category":"학원 - 보습학원"},{"name":"토리헤어","tel":"031-362-6000","addr":"경기도 오산시 수청동 620-1번지 2층 203호","category":"보건위생 - 미용원"},{"name":"파리바게트 (오산매홀점)","tel":"031-377-7368","addr":"경기도 오산시 수청동 620-1번지 102,103,201호","category":"음료식품 - 제과점"},{"name":"홈런아이스크림할인마트","tel":"","addr":"경기도 오산시 수청동 620-1번지 1층 109호","category":"음료식품 - 기타음료식품"}]},{"lat":"37.170752965","long":"127.06539501","items":[{"name":"강의하는아이들 세교캠퍼스학원","tel":"031-377-7761","addr":"경기도 오산시 수청동 617-6번지 G-플레이스 5층 505호","category":"학원 - 보습학원"},{"name":"경희대 한빛태권도장","tel":"031-376-7989","addr":"경기도 오산시 수청동 617-6번지 6층 601호,602호","category":"학원 - 예·체능계학원"},{"name":"골프존파크 수청세교점","tel":"031-377-7145","addr":"경기도 오산시 수청동 617-6번지 701-703호","category":"레져용품 - 골프용품 전문점"},{"name":"공신학원","tel":"","addr":"경기도 오산시 수청동 617-6번지 G플레이스 6층 605호","category":"학원 - 보습학원"},{"name":"권투인 복싱 다이어트","tel":"031-1111-1111","addr":"경기도 오산시 수청동 617-6번지 2층 208호","category":"레저업소 - 헬스클럽"},{"name":"김밥천국오산대역점","tel":"031-378-0338","addr":"경기도 오산시 수청동 617-6번지 111호","category":"일반휴게음식 - 스넥"},{"name":"당근폰","tel":"031-223-5214","addr":"경기도 오산시 수청동 617-6번지 G플레이스 116호","category":"사무통신 - 통신기기"},{"name":"더펀즈","tel":"02-1111-1111","addr":"경기도 오산시 수청동 617-6번지 205호 일부호","category":"일반휴게음식 - 일반한식"},{"name":"라프레미디","tel":"","addr":"경기도 오산시 수청동 617-6번지 1층 119호","category":"의류 - 정장"},{"name":"르코어트파파(Le coer de papa)","tel":"","addr":"경기도 오산시 수청동 617-6번지 110호","category":"음료식품 - 제과점"},{"name":"맥스피드PC오산대역점","tel":"","addr":"경기도 오산시 수청동 617-6번지 401호,402호","category":"레저업소 - 기타레져업소"},{"name":"미끌리(MIKKLI)","tel":"031-378-3633","addr":"경기도 오산시 수청동 617-6번지 207호","category":"보건위생 - 미용원"},{"name":"바다","tel":"031-663-0447","addr":"경기도 오산시 수청동 617-6번지 301호","category":"보건위생 - 화장품"},{"name":"보담발달센터","tel":"031-111-1111","addr":"경기도 오산시 수청동 617-6번지","category":"보건위생 - 기타대인서비스"},{"name":"브루노발레스쿨학원","tel":"031-000-0000","addr":"경기도 오산시 수청동 617-6번지 302호","category":"학원 - 예·체능계학원"},{"name":"샨티요가","tel":"031-373-0858","addr":"경기도 오산시 수청동 617-6번지","category":"레저업소 - 헬스클럽"},{"name":"세교 지.디.알(GDR)아카데미","tel":"031-377-7145","addr":"경기도 오산시 수청동 617-6번지 지플레이스 701동 705호","category":"레저업소 - 골프연습장"},{"name":"세교바른약국","tel":"031-373-0844","addr":"경기도 오산시 수청동 617-6번지 108호","category":"약국 - 약국"},{"name":"세교엘리트치과의원","tel":"031-374-2879","addr":"경기도 오산시 수청동 617-6번지 407호","category":"의원 - 치과의원"},{"name":"세븐잉글리쉬학원","tel":"031-876-7548","addr":"경기도 오산시 수청동 617-6번지 G플레이스 5층 507호","category":"학원 - 외국어학원"},{"name":"스터디카페공간 오산세교점","tel":"031-375-0913","addr":"경기도 오산시 수청동 617-6번지 303,304호","category":"용역 서비스 - 사무서비스"},{"name":"알파고 독서실","tel":"","addr":"경기도 오산시 수청동 617-6번지 G플레이스 3층 305호","category":"학원 - 독서실"},{"name":"온사랑한의원","tel":"031-374-7979","addr":"경기도 오산시 수청동 617-6번지 GPLACE오산상가건물 506호","category":"의원 - 한의원"},{"name":"올리앤 오산점","tel":"031-000-0000","addr":"경기도 오산시 수청동 617-6번지 206호","category":"일반휴게음식 - 일반한식"},{"name":"자이언트 피트니스","tel":"031-375-8994","addr":"경기도 오산시 수청동 617-6번지 8층 801-803","category":"레저업소 - 헬스클럽"},{"name":"정글비 오산수청점","tel":"031-376-6090","addr":"경기도 오산시 수청동 617-6번지 203호","category":"일반휴게음식 - 일반한식"},{"name":"청년다방오산세교점","tel":"031-8777-9009","addr":"경기도 오산시 수청동 617-6번지 109호","category":"일반휴게음식 - 스넥"}]},{"lat":"37.163889406","long":"127.06067204","items":[{"name":"거닐다","tel":"","addr":"경기도 오산시 수청동 519-7번지 1층","category":"일반휴게음식 - 서양음식"},{"name":"광명유통","tel":"031-375-6136","addr":"경기도 오산시 수청동 519-7번지","category":"음료식품 - 정육점"},{"name":"느루떡케이크","tel":"","addr":"경기도 오산시 수청동 519-7번지 1층","category":"음료식품 - 제과점"}]},{"lat":"37.169445015","long":"127.06806241","items":[{"name":"건강하우스","tel":"031-373-9772","addr":"경기도 오산시 수청동 631-4번지 101호","category":"건강식품 - 기타건강식품"},{"name":"민스헤어","tel":"","addr":"경기도 오산시 수청동 631-4번지 103호","category":"보건위생 - 미용원"},{"name":"버거판다","tel":"031-372-8258","addr":"경기도 오산시 수청동 631-4번지 102호","category":"일반휴게음식 - 일반한식"},{"name":"햇살분식","tel":"031-378-7533","addr":"경기도 오산시 수청동 631-4번지 1층","category":"일반휴게음식 - 스넥"}]},{"lat":"37.169003011","long":"127.06895151","items":[{"name":"경기마을교육공동체사회적협동조합매홀고분","tel":"031-370-4387","addr":"경기도 오산시 수청동 632번지 매홀고등학교","category":"음료식품 - 기타음료식품"},{"name":"매홀고등학교","tel":"031-370-4300","addr":"경기도 오산시 수청동 632번지 매홀고등학교","category":"학원 - 초중고교육기관"},{"name":"매홀고등학교_수업료","tel":"031-370-4500","addr":"경기도 오산시 수청동 632번지 매홀고등학교","category":"학원 - 초중고교육기관"}]},{"lat":"37.161416346","long":"127.06871974","items":[{"name":"경기서부관광버스협동조합","tel":"031-376-9800","addr":"경기도 오산시 수청동 87-13번지","category":"여행 - 관광여행"}]},{"lat":"37.172748577","long":"127.05661398","items":[{"name":"경희대 문무체육관","tel":"031-376-1411","addr":"경기도 오산시 수청동 569번지 우미이노스빌 301호","category":"학원 - 예·체능계학원"},{"name":"꼬망세어린이집[아이행복]","tel":"031-377-2281","addr":"경기도 오산시 수청동 569번지 우미이노스빌","category":"학원 - 유아원"},{"name":"대마왕떡볶이","tel":"031-374-1470","addr":"경기도 오산시 수청동 569번지 우미이노스빌 201동 2호","category":"일반휴게음식 - 일반한식"},{"name":"미소헤어","tel":"031-375-2757","addr":"경기도 오산시 수청동 569번지 우미이노스빌 상가 1층 104호","category":"보건위생 - 미용원"},{"name":"미스터헤어클럽","tel":"031-375-7652","addr":"경기도 오산시 수청동 569번지 외1필지 우미이노스빌 상가 105호","category":"보건위생 - 미용원"},{"name":"우미할인마트","tel":"031-373-3931","addr":"경기도 오산시 수청동 569번지 우미이노스빌 상가 101호","category":"유통업 영리 - 슈퍼마켓"},{"name":"하은미술교습소","tel":"031-377-8243","addr":"경기도 오산시 수청동 569번지 우미이노스빌 상가동 201-1호","category":"학원 - 예·체능계학원"},{"name":"후라이드참잘하는집 수청궐동점","tel":"031-376-0806","addr":"경기도 오산시 수청동 569번지 우미이노스빌 상가동 1층 103호","category":"일반휴게음식 - 스넥"}]},{"lat":"37.169304942","long":"127.06013571","items":[{"name":"계경순대국 세교점","tel":"031-378-2335","addr":"경기도 오산시 수청동 601-6번지 1층 102호","category":"일반휴게음식 - 일반한식"}]},{"lat":"37.164302457","long":"127.06353204","items":[{"name":"고고통닭","tel":"031-373-6292","addr":"경기도 오산시 수청동 514-1번지 1층","category":"일반휴게음식 - 일반한식"},{"name":"그림나무미술학원","tel":"031-372-0994","addr":"경기도 오산시 수청동 514-1번지 2층","category":"학원 - 예·체능계학원"},{"name":"에이비씨(ABC)커피","tel":"070-7884-1049","addr":"경기도 오산시 수청동 514-1번지 1층","category":"일반휴게음식 - 서양음식"}]},{"lat":"37.169779576","long":"127.06588963","items":[{"name":"고봉민김밥인 오산대역점","tel":"031-377-2588","addr":"경기도 오산시 수청동 620-4번지 101호","category":"일반휴게음식 - 일반한식"},{"name":"다온한의원","tel":"031-360-1075","addr":"경기도 오산시 수청동 620-4번지 우정프라자 202,203호","category":"의원 - 한의원"},{"name":"라임온누리약국","tel":"031-373-0702","addr":"경기도 오산시 수청동 620-4번지 102호","category":"약국 - 약국"},{"name":"매드인커피","tel":"031-374-4785","addr":"경기도 오산시 수청동 620-4번지 1층 107호","category":"일반휴게음식 - 서양음식"},{"name":"본 주짓수 오산수청","tel":"031-111-1111","addr":"경기도 오산시 수청동 620-4번지 301호","category":"레저업소 - 헬스클럽"},{"name":"블루모바일","tel":"031-373-7785","addr":"경기도 오산시 수청동 620-4번지 103호","category":"사무통신 - 통신기기"},{"name":"살롱드뮤토","tel":"031-376-4633","addr":"경기도 오산시 수청동 620-4번지 우정프라자 108호","category":"보건위생 - 미용원"},{"name":"삼성연합의원","tel":"031-376-5475","addr":"경기도 오산시 수청동 620-4번지 301호","category":"의원 - 의원"},{"name":"서울늘솜치과","tel":"031-374-5999","addr":"경기도 오산시 수청동 620-4번지 302호","category":"의원 - 치과의원"},{"name":"씨유경기수정점","tel":"080-080-3663","addr":"경기도 오산시 수청동 620-4번지 우정프라자 104호","category":"유통업 영리 - 편 의 점"}]},{"lat":"37.163002811","long":"127.06758402","items":[{"name":"곤지암소머리곰탕","tel":"031-377-3744","addr":"경기도 오산시 수청동 73-2번지","category":"일반휴게음식 - 일반한식"},{"name":"오산수청동우편취급소","tel":"031-100-0000","addr":"경기도 오산시 수청동 73-2번지","category":"용역 서비스 - 공공요금대행서비스/소"},{"name":"카랜드엔진나라","tel":"031-376-8272","addr":"경기도 오산시 수청동 73-2번지","category":"자동차정비 유지 - 자동차정비"}]},{"lat":"37.169030782","long":"127.06761168","items":[{"name":"곰프로","tel":"","addr":"경기도 오산시 수청동 629-17번지 1층 상가","category":"보건위생 - 미용원"}]},{"lat":"37.172774422","long":"127.05916998","items":[{"name":"국민공인중개사합동사무소","tel":"031-378-0501","addr":"경기도 오산시 수청동 558-10번지 1층 102호","category":"용역 서비스 - 부동산 중개·임대"},{"name":"러스(LUS)","tel":"031-232-1907","addr":"경기도 오산시 수청동 558-10번지 3층 301호","category":"용역 서비스 - 기타용역서비스"},{"name":"러스카페(LUS Cafe)","tel":"031-232-1907","addr":"경기도 오산시 수청동 558-10번지 3층","category":"일반휴게음식 - 서양음식"},{"name":"수노래연습장","tel":"031-374-7735","addr":"경기도 오산시 수청동 558-10번지 4층","category":"레저업소 - 노 래 방"},{"name":"수노래연습장","tel":"031-374-7735","addr":"경기도 오산시 수청동 558-10번지","category":"레저업소 - 노 래 방"},{"name":"여비네연탄집","tel":"031-376-8297","addr":"경기도 오산시 수청동 558-10번지 103호,104호","category":"일반휴게음식 - 일반한식"},{"name":"푸딩","tel":"031-372-7633","addr":"경기도 오산시 수청동 558-10번지","category":"일반휴게음식 - 스넥"}]},{"lat":"37.1707261","long":"127.06507973","items":[{"name":"국수나무오산대역점","tel":"031-377-5458","addr":"경기도 오산시 수청동 617-5번지 108호","category":"일반휴게음식 - 일반한식"},{"name":"더라임","tel":"031-000-0000","addr":"경기도 오산시 수청동 617-5번지 111호","category":"의류 - 정장"},{"name":"동대문곱창오산본점","tel":"031-378-7544","addr":"경기도 오산시 수청동 617-5번지 110호","category":"일반휴게음식 - 일반한식"},{"name":"빽다방 오산세교삼미점","tel":"031-375-8452","addr":"경기도 오산시 수청동 617-5번지 106호","category":"일반휴게음식 - 서양음식"},{"name":"뽀까뽀까","tel":"031-372-1222","addr":"경기도 오산시 수청동 617-5번지 102호","category":"보건위생 - 미용원"},{"name":"제시네일(Nail by Jessie)","tel":"031-378-2490","addr":"경기도 오산시 수청동 617-5번지 112호","category":"보건위생 - 피부미용실"},{"name":"죠스떡복이 오산세교점","tel":"031-373-8338","addr":"경기도 오산시 수청동 617-5번지 105호","category":"일반휴게음식 - 스넥"},{"name":"주식회사 시너지타워","tel":"031-376-8279","addr":"경기도 오산시 수청동 617-5번지 지스퀘어 106호","category":"건축자재 - 부동산 분양"},{"name":"준 텔레콤","tel":"031-377-1121","addr":"경기도 오산시 수청동 617-5번지 103호","category":"사무통신 - 통신기기"},{"name":"총각네 옛날통닭 오산세교점","tel":"031-000-0000","addr":"경기도 오산시 수청동 617-5번지 지스퀘어 1층 104호","category":"일반휴게음식 - 스넥"},{"name":"코인워시 오산대역점","tel":"031-375-5457","addr":"경기도 오산시 수청동 617-5번지 107호","category":"수리서비스 - 세탁소"},{"name":"포펫","tel":"02-1111-1111","addr":"경기도 오산시 수청동 617-5번지 지스퀘어 1층 101호","category":"일반휴게음식 - 서양음식"},{"name":"필라테스731 (PILATES731)","tel":"","addr":"경기도 오산시 수청동 617-5번지 지-스퀘어 201동","category":"레저업소 - 헬스클럽"}]},{"lat":"37.16422294","long":"127.06036831","items":[{"name":"권혜경헤어샵","tel":"031-376-9092","addr":"경기도 오산시 수청동 521-5번지 1층","category":"보건위생 - 미용원"}]},{"lat":"37.169026316","long":"127.05867179","items":[{"name":"그곳","tel":"031-8043-1100","addr":"경기도 오산시 수청동 593-4번지","category":"용역 서비스 - 종합용역"},{"name":"커피볶는집 위드임","tel":"031-372-0027","addr":"경기도 오산시 수청동 593-4번지","category":"일반휴게음식 - 서양음식"}]},{"lat":"37.170248747","long":"127.06469651","items":[{"name":"그래요커피오산대역점","tel":"031-000-0000","addr":"경기도 오산시 수청동 619-9번지 1층 103호104호","category":"일반휴게음식 - 서양음식"},{"name":"박군치킨수청점","tel":"031-374-4875","addr":"경기도 오산시 수청동 619-9번지 105,106호","category":"일반휴게음식 - 스넥"},{"name":"오늘도 청춘갈매기 오산대역점","tel":"031-377-1557","addr":"경기도 오산시 수청동 619-9번지 1층 108,109호","category":"일반휴게음식 - 일반한식"},{"name":"이츠글라시스안경오산대역점","tel":"031-732-7238","addr":"경기도 오산시 수청동 619-9번지 101호","category":"보건위생 - 안경"},{"name":"제이엠씨줄넘기세교점","tel":"031-378-8807","addr":"경기도 오산시 수청동 619-9번지 201,202호","category":"레저업소 - 헬스클럽"}]},{"lat":"37.168976897","long":"127.06728511","items":[{"name":"그레이스네 애견","tel":"031-374-0704","addr":"경기도 오산시 수청동 628-3번지","category":"문화.취미 - 애완동물"}]},{"lat":"37.169554285","long":"127.06594574","items":[{"name":"그리다네일(Grida Nail)","tel":"070-7539-5205","addr":"경기도 오산시 수청동 620-5번지 405호","category":"보건위생 - 피부미용실"},{"name":"나이스가이오산대역점","tel":"","addr":"경기도 오산시 수청동 620-5번지 109호","category":"보건위생 - 미용원"},{"name":"더샵음악학원","tel":"031-377-9145","addr":"경기도 오산시 수청동 620-5번지 센터프라자 701호","category":"학원 - 예·체능계학원"},{"name":"뚜레쥬르 오산대역점","tel":"031-376-4558","addr":"경기도 오산시 수청동 620-5번지 센터프라자 104호,105,305호","category":"음료식품 - 제과점"},{"name":"미미향양꼬치","tel":"031-304-7299","addr":"경기도 오산시 수청동 620-5번지 204호","category":"일반휴게음식 - 일반한식"},{"name":"미성독서실","tel":"031-376-5788","addr":"경기도 오산시 수청동 620-5번지 센터프라자 502동 504호","category":"학원 - 독서실"},{"name":"본죽 오산수청점","tel":"031-375-6289","addr":"경기도 오산시 수청동 620-5번지 1층 101호","category":"일반휴게음식 - 일반한식"},{"name":"세교퍼스트치과","tel":"031-373-7582","addr":"경기도 오산시 수청동 620-5번지 401,402호","category":"의원 - 치과의원"},{"name":"소소한카페","tel":"070-9102-7412","addr":"경기도 오산시 수청동 620-5번지 센타프라자 106호","category":"일반휴게음식 - 서양음식"},{"name":"스마일동물병원","tel":"031-375-5975","addr":"경기도 오산시 수청동 620-5번지 102,103호","category":"기타의료기관 - 동물병원"},{"name":"신참떡볶이오산대역점","tel":"031-375-3430","addr":"경기도 오산시 수청동 620-5번지 1층 111호","category":"일반휴게음식 - 스넥"},{"name":"위테니스아카데이","tel":"031-375-2777","addr":"경기도 오산시 수청동 620-5번지 802호,803호,804호","category":"레저업소 - 테니스장"},{"name":"종로엠스쿨 학원","tel":"031-375-3725","addr":"경기도 오산시 수청동 620-5번지 센타프라자 603,604호","category":"학원 - 보습학원"},{"name":"헤어의봄꽃","tel":"031-373-6127","addr":"경기도 오산시 수청동 620-5번지 센타프라자 201호","category":"보건위생 - 미용원"},{"name":"홍루이젠 오산대역점","tel":"","addr":"경기도 오산시 수청동 620-5번지 108호","category":"일반휴게음식 - 서양음식"},{"name":"화랑합기도 특공무술","tel":"031-373-2470","addr":"경기도 오산시 수청동 620-5번지 센타프라자 703,704호","category":"학원 - 예·체능계학원"}]},{"lat":"37.172386909","long":"127.05930481","items":[{"name":"글로리아 생수유통","tel":"031-241-1665","addr":"경기도 오산시 수청동 559-8번지","category":"유통업 영리 - 기타유통업"}]},{"lat":"37.165948567","long":"127.06877997","items":[{"name":"글로빅(GLOVIK)","tel":"070-7594-1686","addr":"경기도 오산시 수청동 14-13번지 유한빌라 302호","category":"전기제품 - 가전제품"}]},{"lat":"37.163804722","long":"127.06761848","items":[{"name":"금성자동차공업사","tel":"031-376-8585","addr":"경기도 오산시 수청동 58-3번지","category":"자동차정비 유지 - 자동차정비"}]},{"lat":"37.172666584","long":"127.05856187","items":[{"name":"김떡순","tel":"031-372-6933","addr":"경기도 오산시 수청동 558-6번지 마이다스프라자 106호","category":"일반휴게음식 - 스넥"},{"name":"김서영수학학원","tel":"031-377-9119","addr":"경기도 오산시 수청동 558-6번지 외2필지마이다스프라자 203호","category":"회원제형태 - 학원"},{"name":"데일리뷰티","tel":"031-372-3696","addr":"경기도 오산시 수청동 558-6번지 마이다스프라자 107호","category":"보건위생 - 미용원"},{"name":"뒤풀이2노래연습장","tel":"031-377-3974","addr":"경기도 오산시 수청동 558-6번지 외2필지 마이다스프라자 4층 402호","category":"레저업소 - 노 래 방"},{"name":"뒤풀이노래연습장","tel":"031-373-0430","addr":"경기도 오산시 수청동 558-6번지 마이다스프라자 403호","category":"레저업소 - 노 래 방"},{"name":"마이큐","tel":"031-374-3404","addr":"경기도 오산시 수청동 558-6번지 마이다스프라자 303호","category":"레저업소 - 당 구 장"},{"name":"머리하는날","tel":"031-377-7313","addr":"경기도 오산시 수청동 558-6마이다스프라자 110호~111호","category":"보건위생 - 미용원"},{"name":"물향기헤어샵","tel":"031-374-8027","addr":"경기도 오산시 수청동 558-6번지 마이다스프라자 103호","category":"보건위생 - 미용원"},{"name":"삼미통닭","tel":"031-377-7119","addr":"경기도 오산시 수청동 558-6번지 마이다스프라자 4호","category":"일반휴게음식 - 스넥"},{"name":"세교검도관","tel":"031-377-0330","addr":"경기도 오산시 수청동 558-6번지 마이다스프라자 203호","category":"학원 - 예·체능계학원"},{"name":"크린토피아","tel":"031-377-1970","addr":"경기도 오산시 수청동 558-6번지 마이다스프라자 1층 109호","category":"수리서비스 - 세탁소"},{"name":"펀앤조이(FunNJoy)피씨방수청점","tel":"","addr":"경기도 오산시 수청동 558-6번지 마이다스프라자 2층 201-202호","category":"레저업소 - 기타레져업소"},{"name":"푸라닭오산수청점","tel":"031-374-9206","addr":"경기도 오산시 수청동 558-6번지 마이다스프라자 1층 108호","category":"일반휴게음식 - 스넥"},{"name":"휴대폰11번가(물향기)","tel":"031-375-6010","addr":"경기도 오산시 수청동 558-6번지 외2필지101호~102호 101호","category":"사무통신 - 통신기기"}]},{"lat":"37.169418187","long":"127.06769082","items":[{"name":"김스마리","tel":"","addr":"경기도 오산시 수청동 631-2번지 1층 일부호","category":"일반휴게음식 - 스넥"},{"name":"앤다락공방","tel":"031-731-9709","addr":"경기도 오산시 수청동 631-2번지 103호","category":"문화.취미 - 화원"}]},{"lat":"37.170248178","long":"127.06577742","items":[{"name":"깡S케어","tel":"031-373-3080","addr":"경기도 오산시 수청동 620-2번지 스마트캐슬 3층 10호","category":"보건위생 - 화장품"},{"name":"돈비가","tel":"","addr":"경기도 오산시 수청동 620-2번지 스마트캐슬 117,118,119호","category":"일반휴게음식 - 일반한식"},{"name":"라라향마라탕","tel":"","addr":"경기도 오산시 수청동 620-2번지 1층 104호","category":"일반휴게음식 - 중국식"},{"name":"서브웨이오산대역점","tel":"","addr":"경기도 오산시 수청동 620-2번지 109,110호","category":"일반휴게음식 - 서양음식"},{"name":"아이원안경","tel":"031-373-0201","addr":"경기도 오산시 수청동 620-2번지 스마트캐슬 108호","category":"보건위생 - 안경"},{"name":"역전우동0410오산대역동부점","tel":"031-378-0278","addr":"경기도 오산시 수청동 620-2번지 107호","category":"일반휴게음식 - 일반한식"},{"name":"오닭꼬치오산대역점","tel":"031-375-3323","addr":"경기도 오산시 수청동 620-2번지 115호,116호","category":"일반휴게음식 - 일반한식"},{"name":"타이 4.U.","tel":"031-8077-6446","addr":"경기도 오산시 수청동 620-2번지 2층 201호","category":"보건위생 - 화장품"},{"name":"현플러스현헤어샵","tel":"","addr":"경기도 오산시 수청동 620-2번지 스마트캐슬 111,112호","category":"보건위생 - 미용원"}]},{"lat":"37.168887067","long":"127.06677837","items":[{"name":"꼬샤","tel":"031-375-9317","addr":"경기도 오산시 수청동 627-2번지 1층","category":"문화.취미 - 문화취미기타"},{"name":"엠엔엠 (M&M)","tel":"","addr":"경기도 오산시 수청동 627-2번지 1층","category":"문화.취미 - 문화취미기타"}]},{"lat":"37.168891016","long":"127.0589757","items":[{"name":"꽃봉자","tel":"031-377-7717","addr":"경기도 오산시 수청동 595-19번지 102호","category":"일반휴게음식 - 일반한식"},{"name":"홍시 떡볶이","tel":"031-376-9946","addr":"경기도 오산시 수청동 595-19번지 1층","category":"일반휴게음식 - 스넥"}]},{"lat":"37.170113301","long":"127.06524812","items":[{"name":"꿀꿀이통버섯","tel":"","addr":"경기도 오산시 수청동 619-1번지 2층 201,202,203호","category":"일반휴게음식 - 일반한식"},{"name":"빨간석쇠구이 (오산세교점)","tel":"","addr":"경기도 오산시 수청동 619-1번지 1층 105호","category":"일반휴게음식 - 스넥"},{"name":"생활맥주오산세교점","tel":"031-111-1111","addr":"경기도 오산시 수청동 619-1번지 1층 122호","category":"일반휴게음식 - 주점"},{"name":"서민반찬(오산)","tel":"02-1644-6166","addr":"경기도 오산시 수청동 619-1번지 109호","category":"음료식품 - 기타음료식품"},{"name":"송도불향쭈꾸미오산직영점","tel":"031-5536-8509","addr":"경기도 오산시 수청동 619-1번지 112,113호","category":"일반휴게음식 - 일반한식"},{"name":"한잔","tel":"","addr":"경기도 오산시 수청동 619-1번지 120호","category":"일반휴게음식 - 주점"},{"name":"할리스 오산수청점","tel":"","addr":"경기도 오산시 수청동 619-1번지 101~104호","category":"일반휴게음식 - 서양음식"}]},{"lat":"37.169773777","long":"127.05952806","items":[{"name":"내방에먹자골목","tel":"031-000-0000","addr":"경기도 오산시 수청동 596-6번지 그랜드캐슬 1층 102호","category":"일반휴게음식 - 일반한식"}]},{"lat":"37.169274455","long":"127.06689129","items":[{"name":"너나들이cafe","tel":"","addr":"경기도 오산시 수청동 626-3번지 1층 102호","category":"일반휴게음식 - 서양음식"},{"name":"수신닭발세교점","tel":"031-372-8977","addr":"경기도 오산시 수청동 626-3번지 1층 101호","category":"일반휴게음식 - 일반한식"}]},{"lat":"37.16399715","long":"127.06144896","items":[{"name":"네오피자 오산점","tel":"031-376-9987","addr":"경기도 오산시 수청동 518-13번지 101호","category":"일반휴게음식 - 서양음식"},{"name":"오렌지 노래방","tel":"031-375-9933","addr":"경기도 오산시 수청동 518-13번지","category":"레저업소 - 노 래 방"}]},{"lat":"37.168941975","long":"127.06519086","items":[{"name":"노봉쪽갈비","tel":"","addr":"경기도 오산시 수청동 621-1번지 1층 108호","category":"일반휴게음식 - 일반한식"},{"name":"동산약국","tel":"031-378-0948","addr":"경기도 오산시 수청동 621-1번지 2층 206호","category":"약국 - 약국"},{"name":"똥강아지들","tel":"031-373-4612","addr":"경기도 오산시 수청동 621-1번지 1층 106호","category":"문화.취미 - 애완동물"},{"name":"뷰티플러스스킨","tel":"031-000-0000","addr":"경기도 오산시 수청동 621-1번지 205호","category":"보건위생 - 피부미용실"},{"name":"브리제","tel":"","addr":"경기도 오산시 수청동 621-1번지 선우중앙타워 107호","category":"의류 - 정장"},{"name":"블링블링","tel":"031-378-1477","addr":"경기도 오산시 수청동 621-1번지 201호","category":"보건위생 - 미용원"},{"name":"세교서울이비인후과","tel":"031-373-3993","addr":"경기도 오산시 수청동 621-1번지 2층 208,209호","category":"의원 - 의원"},{"name":"세교수면보청기센터","tel":"031-373-3993","addr":"경기도 오산시 수청동 621-1번지 2층 208호","category":"보건위생 - 의료용품"},{"name":"오레오양꼬치","tel":"031-376-7667","addr":"경기도 오산시 수청동 621-1번지 110호","category":"일반휴게음식 - 일반한식"},{"name":"일미뚝빼기짬뽕","tel":"","addr":"경기도 오산시 수청동 621-1번지 1층 109호","category":"일반휴게음식 - 중국식"},{"name":"중앙주차타워","tel":"031-377-4666","addr":"경기도 오산시 수청동 621-1번지","category":"자동차정비 유지 - 주차장"},{"name":"중앙주차타워","tel":"031-377-4666","addr":"경기도 오산시 수청동 621-1번지","category":"자동차정비 유지 - 주차장"},{"name":"지에스파크24(주)선우중앙타워 주차장","tel":"02-3272-0722","addr":"경기도 오산시 수청동 621-1번지","category":"자동차정비 유지 - 주차장"},{"name":"진로마트 오산대점","tel":"031-377-9666","addr":"경기도 오산시 수청동 621-1번지 오산대역 선우중앙타워 111동 1층 118호","category":"유통업 영리 - 슈퍼마켓"},{"name":"한우생각","tel":"031-374-5678","addr":"경기도 오산시 수청동 621-1번지 선우중앙타워 1층 101호","category":"일반휴게음식 - 일반한식"},{"name":"해솔식당","tel":"031-111-1111","addr":"경기도 오산시 수청동 621-1번지 203,204호","category":"일반휴게음식 - 일반한식"}]},{"lat":"37.164141456","long":"127.06116761","items":[{"name":"농업회사법인 독산성최고집김치 주식회사","tel":"031-372-5021","addr":"경기도 오산시 수청동 518번지 1층","category":"음료식품 - 기타음료식품"}]},{"lat":"37.165029176","long":"127.06936462","items":[{"name":"뉴맥스칸하우스","tel":"031-372-6725","addr":"경기도 오산시 수청동 15-1번지 1층","category":"일반휴게음식 - 스넥"},{"name":"오산으뜸체육관","tel":"031-374-0662","addr":"경기도 오산시 수청동 15-1(삼익상가3층)","category":"학원 - 예·체능계학원"},{"name":"창호인테리어","tel":"031-8058-5823","addr":"경기도 오산시 수청동 15-1번지","category":"건축자재 - 인테리어전문"}]},{"lat":"37.171359918","long":"127.05888744","items":[{"name":"다산 FURNITURE","tel":"031-376-6671","addr":"경기도 오산시 수청동 567-3번지","category":"가구 - 철제가구"},{"name":"성진아이트래이드","tel":"070-4670-7623","addr":"경기도 오산시 수청동 567-3번지","category":"전기제품 - 가전제품"}]},{"lat":"37.17069305","long":"127.05908962","items":[{"name":"달리는 쿡푸드","tel":"","addr":"경기도 오산시 수청동 586-2번지 1층 좌측","category":"일반휴게음식 - 일반한식"}]},{"lat":"37.169332882","long":"127.05822165","items":[{"name":"당강헤어","tel":"031-000-0000","addr":"경기도 오산시 수청동 592-2번지 1층","category":"보건위생 - 미용원"}]},{"lat":"37.171746861","long":"127.05994614","items":[{"name":"대경네트워크","tel":"031-376-3077","addr":"경기도 오산시 수청동 563-1번지","category":"수리서비스 - 사무·통신기기수리"},{"name":"물향기밥향기","tel":"031-374-0176","addr":"경기도 오산시 수청동 563-1번지","category":"일반휴게음식 - 일반한식"},{"name":"하진산업","tel":"031-224-5134","addr":"경기도 오산시 수청동 563-1번지 1층 1호","category":"음료식품 - 기타음료식품"}]},{"lat":"37.164195341","long":"127.06152792","items":[{"name":"대광I.T","tel":"070-6478-2137","addr":"경기도 오산시 수청동 518-3번지 1층","category":"사무통신 - 사무용 OA기기"}]},{"lat":"37.169834208","long":"127.06480877","items":[{"name":"대동집","tel":"031-8055-8774","addr":"경기도 오산시 수청동 619-7번지 1층 105,106호","category":"일반휴게음식 - 일반한식"},{"name":"뚱보집","tel":"031-373-3324","addr":"경기도 오산시 수청동 619-7번지 109호","category":"일반휴게음식 - 일반한식"},{"name":"러스뮤직","tel":"","addr":"경기도 오산시 수청동 619-7번지 수청프라자 4층 2호","category":"학원 - 예·체능계학원"},{"name":"러스미디어","tel":"031-378-2293","addr":"경기도 오산시 수청동 619-7번지 수청프라자 4층 401호","category":"전기제품 - 가전제품"},{"name":"러스미술","tel":"031-111-1111","addr":"경기도 오산시 수청동 619-7번지 1동 3층 301호","category":"학원 - 예·체능계학원"},{"name":"러스카페","tel":"031-2401-9997","addr":"경기도 오산시 수청동 619-7번지 수청프라자 3층 301호","category":"일반휴게음식 - 서양음식"},{"name":"물음표","tel":"","addr":"경기도 오산시 수청동 619-7번지 1층 108호","category":"일반휴게음식 - 주점"},{"name":"일일일잔","tel":"031-223-5214","addr":"경기도 오산시 수청동 619-7번지 1층 107호","category":"일반휴게음식 - 주점"}]},{"lat":"37.166527712","long":"127.06416431","items":[{"name":"대명에너지(세교)","tel":"031-377-5188","addr":"경기도 오산시 수청동 616-5번지","category":"연료판매점 - 현대정유(오일뱅크)"},{"name":"할리스커피 오산대역DT점","tel":"031-372-9750","addr":"경기도 오산시 수청동 616-5번지 ,1~3층","category":"일반휴게음식 - 서양음식"}]},{"lat":"37.166254488","long":"127.0695571","items":[{"name":"대선교육","tel":"031-373-2387","addr":"경기도 오산시 수청동 12-8번지","category":"서적문구 - 일반서적"}]},{"lat":"37.16455573","long":"127.06158449","items":[{"name":"대성ENG","tel":"031-000-0000","addr":"경기도 오산시 수청동 517-4번지 1층","category":"건축자재 - 보일러·펌프·샷시"}]},{"lat":"37.164501846","long":"127.06122418","items":[{"name":"대성농산","tel":"070-1111-1111","addr":"경기도 오산시 수청동 517-1번지 101호","category":"음료식품 - 농·축·수산품"}]},{"lat":"37.163997695","long":"127.06033436","items":[{"name":"대양사우나","tel":"031-376-1333","addr":"경기도 오산시 수청동 522-1번지","category":"보건위생 - 사우나"}]},{"lat":"37.165168317","long":"127.06183266","items":[{"name":"대영축산물유통","tel":"031-374-6664","addr":"경기도 오산시 수청동 512-4번지 101호","category":"음료식품 - 정육점"}]},{"lat":"37.164033069","long":"127.06169668","items":[{"name":"대우노래연습장","tel":"031-373-4840","addr":"경기도 오산시 수청동 518-11번지","category":"레저업소 - 노 래 방"},{"name":"칠보당","tel":"031-373-1161","addr":"경기도 오산시 수청동 518-11번지 근린상가 102호","category":"신변잡화 - 귀금속"},{"name":"필헤어샵","tel":"031-374-1265","addr":"경기도 오산시 수청동 518-11번지","category":"보건위생 - 미용원"}]},{"lat":"37.164582566","long":"127.06197857","items":[{"name":"대우반점","tel":"031-375-2322","addr":"경기도 오산시 수청동 517-7번지","category":"일반휴게음식 - 중국식"}]},{"lat":"37.163970191","long":"127.06130258","items":[{"name":"대우설비철물","tel":"031-375-6886","addr":"경기도 오산시 수청동 518-14번지","category":"건축자재 - 목재·석재·철물"},{"name":"한국김밥","tel":"031-377-8525","addr":"경기도 오산시 수청동 518-14번지","category":"일반휴게음식 - 스넥"}]},{"lat":"37.165032715","long":"127.06272199","items":[{"name":"대우정육점식당","tel":"031-375-0656","addr":"경기도 오산시 수청동 514 지층 05호","category":"일반휴게음식 - 일반한식"},{"name":"오산이화유치원","tel":"031-373-9199","addr":"경기도 오산시 수청동 514","category":"학원 - 유치원"},{"name":"오산이화유치원[아이행복]","tel":"031-373-9198","addr":"경기도 오산시 수청동 514","category":"학원 - 유치원"}]},{"lat":"37.169337345","long":"127.06722912","items":[{"name":"대원축산","tel":"031-376-1433","addr":"경기도 오산시 수청동 626-5 103","category":"음료식품 - 정육점"},{"name":"라벨제이","tel":"031-663-0447","addr":"경기도 오산시 수청동 626-5번지 102호","category":"의류 - 아동의류"},{"name":"에테르헤어","tel":"031-372-8015","addr":"경기도 오산시 수청동 626-5번지 104호","category":"보건위생 - 미용원"}]},{"lat":"37.167003372","long":"127.06772254","items":[{"name":"대한체육진흥원","tel":"031-378-3698","addr":"경기도 오산시 수청동 637-2번지 1층","category":"학원 - 예·체능계학원"}]},{"lat":"37.165861925","long":"127.06222726","items":[{"name":"대흥피엔씨","tel":"031-376-8404","addr":"경기도 오산시 수청동 355-1","category":"기타 - 기타 전문점"}]},{"lat":"37.164033125","long":"127.06158409","items":[{"name":"더컷","tel":"031-372-7277","addr":"경기도 오산시 수청동 518-12번지","category":"보건위생 - 미용원"}]},{"lat":"37.16769575","long":"127.07027895","items":[{"name":"더페인트","tel":"031-376-7282","addr":"경기도 오산시 수청동 10-54번지","category":"건축자재 - 페인트"}]},{"lat":"37.168998981","long":"127.05931355","items":[{"name":"덕성족발물향기점","tel":"031-373-4999","addr":"경기도 오산시 수청동 601-1번지 1층","category":"일반휴게음식 - 일반한식"}]},{"lat":"37.168837731","long":"127.05730928","items":[{"name":"데바스드라마잉글리쉬학원/주식회사 김앤정","tel":"070-4606-3559","addr":"경기도 오산시 수청동 595-8번지 101호","category":"학원 - 외국어학원"}]},{"lat":"37.170836282","long":"127.06102637","items":[{"name":"도래동물병원","tel":"031-375-7590","addr":"경기도 오산시 수청동 608-8번지","category":"기타의료기관 - 동물병원"}]},{"lat":"37.171585179","long":"127.05888761","items":[{"name":"도미노피자 오산세교점","tel":"031-378-8761","addr":"경기도 오산시 수청동 567-1번지 1층","category":"일반휴게음식 - 서양음식"},{"name":"세교세차장","tel":"031-378-3334","addr":"경기도 오산시 수청동 567-1번지","category":"자동차정비 유지 - 세차장"}]},{"lat":"37.16719288","long":"127.06719353","items":[{"name":"돈닭","tel":"031-376-4668","addr":"경기도 오산시 수청동 636-5번지 1층","category":"일반휴게음식 - 일반한식"},{"name":"플로디 랩","tel":"031-372-5910","addr":"경기도 오산시 수청동 636-5번지 102호","category":"문화.취미 - 화원"}]},{"lat":"37.163943292","long":"127.06103235","items":[{"name":"돈천년","tel":"031-373-3378","addr":"경기도 오산시 수청동 519-4번지 1층","category":"일반휴게음식 - 일반한식"}]},{"lat":"37.168697346","long":"127.06770147","items":[{"name":"드레(DERE)","tel":"","addr":"경기도 오산시 수청동 629-14번지 1층","category":"의류 - 정장"},{"name":"쎄미뇽베베","tel":"","addr":"경기도 오산시 수청동 629-14번지 상가 1층","category":"의류 - 정장"}]},{"lat":"37.165636955","long":"127.06164162","items":[{"name":"드림마트","tel":"031-375-9135","addr":"경기도 오산시 수청동 416번지 천보빌라 101동 101호","category":"유통업 영리 - 슈퍼마켓"}]},{"lat":"37.171837882","long":"127.05800954","items":[{"name":"드림지게차","tel":"","addr":"경기도 오산시 수청동 569번지 우미이노스빌 109동 701호","category":"자동차정비 유지 - 자동차정비"}]},{"lat":"37.16905412","long":"127.05700544","items":[{"name":"디자인데코","tel":"031-377-3304","addr":"경기도 오산시 수청동 595-6번지 아이빌 204호","category":"직물 - 침구·수예점"}]},{"lat":"37.16939126","long":"127.06749939","items":[{"name":"또봉이통닭(수청점)","tel":"031-377-4200","addr":"경기도 오산시 수청동 631-1 광봉하이츠빌102호","category":"일반휴게음식 - 스넥"},{"name":"신데렐라헤어","tel":"070-4410-1312","addr":"경기도 오산시 수청동 631-1","category":"보건위생 - 미용원"},{"name":"플스빌","tel":"031-373-3415","addr":"경기도 오산시 수청동 631-1번지 상가 103호","category":"서적문구 - 완구점"}]},{"lat":"37.164113967","long":"127.06209079","items":[{"name":"뚜레쥬르 오산수청점","tel":"031-373-1109","addr":"경기도 오산시 수청동 518-8번지","category":"음료식품 - 제과점"},{"name":"엄마떡볶이","tel":"031-374-7827","addr":"경기도 오산시 수청동 518-8번지","category":"일반휴게음식 - 스넥"},{"name":"이순주헤어스토리","tel":"031-374-2839","addr":"경기도 오산시 수청동 518-8번지 1층","category":"보건위생 - 미용원"}]},{"lat":"37.169192877","long":"127.06778071","items":[{"name":"라라 힐링카페","tel":"","addr":"경기도 오산시 수청동 629-2번지 101호","category":"신변잡화 - 기타잡화"}]},{"lat":"37.170836634","long":"127.06030576","items":[{"name":"라이프 룩","tel":"","addr":"경기도 오산시 수청동 564-4번지 9호","category":"의류 - 정장"},{"name":"장어세상","tel":"031-8059-1266","addr":"경기도 오산시 수청동 564-4번지","category":"일반휴게음식 - 일반한식"},{"name":"코니케이크","tel":"031-000-0000","addr":"경기도 오산시 수청동 564-4번지 1층 9호","category":"음료식품 - 제과점"}]},{"lat":"37.168607549","long":"127.06713843","items":[{"name":"러브 펫(LUV PET)","tel":"","addr":"경기도 오산시 수청동 628-14번지 1층","category":"문화.취미 - 애완동물"}]},{"lat":"37.171251632","long":"127.05922515","items":[{"name":"러스댄스스튜디오학원","tel":"070-2134-5588","addr":"경기도 오산시 수청동 566-7번지 1층 일부","category":"학원 - 예·체능계학원"}]},{"lat":"37.163303984","long":"127.06014245","items":[{"name":"럭키정육점","tel":"031-375-8817","addr":"경기도 오산시 수청동 532번지 공덕그린빌라 상가동 1층","category":"음료식품 - 정육점"}]},{"lat":"37.168837334","long":"127.05816499","items":[{"name":"로즈버드렌탈서비스","tel":"031-378-1369","addr":"경기도 오산시 수청동 592-5번지 101호","category":"음료식품 - 기타음료식품"},{"name":"마이산삼농원","tel":"031-613-0338","addr":"경기도 오산시 수청동 592-5번지 104호","category":"건강식품 - 홍삼제품"}]},{"lat":"37.169058277","long":"127.06675599","items":[{"name":"로코코 플라워","tel":"031-376-0755","addr":"경기도 오산시 수청동 627-1번지","category":"문화.취미 - 화원"},{"name":"탑클래스수학교습소","tel":"031-372-9757","addr":"경기도 오산시 수청동 627-1번지 101호","category":"학원 - 보습학원"}]},{"lat":"37.171692052","long":"127.06147742","items":[{"name":"리안헤어오산대역점","tel":"031-372-6695","addr":"경기도 오산시 수청동 609-3번지 3층","category":"보건위생 - 미용원"}]},{"lat":"37.169310405","long":"127.06706021","items":[{"name":"린지","tel":"031-000-0000","addr":"경기도 오산시 수청동 626-4번지 1층","category":"보건위생 - 피부미용실"}]},{"lat":"37.172360192","long":"127.05864047","items":[{"name":"마스터영수학원","tel":"031-376-3533","addr":"경기도 오산시 수청동 558-3번지 수청빌딩 2츠","category":"학원 - 보습학원"},{"name":"이이씨지(ICG)치킨앤(&)버거 세교점","tel":"031-377-5977","addr":"경기도 오산시 수청동 558-3번지 수청빌딩 1층","category":"일반휴게음식 - 스넥"}]},{"lat":"37.17074693","long":"127.05947249","items":[{"name":"마젠타-J","tel":"031-376-2670","addr":"경기도 오산시 수청동 586-4번지 101(101호~102호)","category":"가구 - 기타가구"},{"name":"엠엔디(M&D)","tel":"031-376-2670","addr":"경기도 오산시 수청동 586-4번지 부성빌 1층 101호","category":"기타 - 기계공구"}]},{"lat":"37.164025352","long":"127.05902839","items":[{"name":"만두에어컨","tel":"031-613-7464","addr":"경기도 오산시 수청동 525번지 물향기빌 101호","category":"용역 서비스 - 기타용역서비스"}]},{"lat":"37.165527466","long":"127.06433239","items":[{"name":"매일보관창고","tel":"031-377-2996","addr":"경기도 오산시 수청동 110-1번지","category":"용역 서비스 - 보관및 창고업"}]},{"lat":"37.169282802","long":"127.0681073","items":[{"name":"매직디자인","tel":"031-374-9032","addr":"경기도 오산시 수청동 630-1번지 리치빌 1층","category":"용역 서비스 - 종합용역"}]},{"lat":"37.167777842","long":"127.06850008","items":[{"name":"매홀중학교","tel":"031-374-2014","addr":"경기도 오산시 수청동 634번지 매홀중학교","category":"학원 - 초중고교육기관"}]},{"lat":"37.162365183","long":"127.06358678","items":[{"name":"매홀초등학교","tel":"031-374-0252","addr":"경기도 오산시 수청동 534-1번지 매홀초등학교","category":"학원 - 초중고교육기관"},{"name":"매홀초등학교_수업료","tel":"031-374-0252","addr":"경기도 오산시 수청동 534-1번지 매홀초등학교","category":"학원 - 초중고교육기관"},{"name":"매홀초등학교병설유치원[아이행복]","tel":"031-373-9398","addr":"경기도 오산시 수청동 534-1번지 매홀초등학교","category":"학원 - 유치원"}]},{"lat":"37.169449412","long":"127.0595053","items":[{"name":"매화향기","tel":"","addr":"경기도 오산시 수청동 598-5번지 1층","category":"문화.취미 - 문화취미기타"},{"name":"매화향기찻집","tel":"","addr":"경기도 오산시 수청동 598-5번지 1층 101호","category":"일반휴게음식 - 서양음식"}]},{"lat":"37.168724273","long":"127.0678929","items":[{"name":"멍이양이","tel":"031-373-4314","addr":"경기도 오산시 수청동 629-6번지 3층 301호","category":"문화.취미 - 애완동물"},{"name":"칸영수학원","tel":"031-375-0405","addr":"경기도 오산시 수청동 629-6번지 1층","category":"학원 - 보습학원"}]},{"lat":"37.162228066","long":"127.0673019","items":[{"name":"명성자동차공업사","tel":"031-373-9273","addr":"경기도 오산시 수청동 84번지","category":"자동차정비 유지 - 가타자동차서비스"},{"name":"오산주유소","tel":"031-373-3330","addr":"경기도 오산시 수청동 84번지","category":"연료판매점 - GS주유소"}]},{"lat":"37.16700363","long":"127.06724966","items":[{"name":"모박사부대찌개세교점","tel":"031-376-3927","addr":"경기도 오산시 수청동 636-6번지","category":"일반휴게음식 - 일반한식"}]},{"lat":"37.168666031","long":"127.05839005","items":[{"name":"물향기 아동복","tel":"","addr":"경기도 오산시 수청동 595-15번지 101호","category":"의류 - 아동의류"}]},{"lat":"37.169306097","long":"127.05769244","items":[{"name":"물향기 족욕","tel":"031-1111-1111","addr":"경기도 오산시 수청동 591-1번지 쏘니빌 101호","category":"보건위생 - 기타대인서비스"},{"name":"치킨더홈 세교점","tel":"031-375-9978","addr":"경기도 오산시 수청동 591-1번지 쏘니빌 상가동 101호","category":"일반휴게음식 - 스넥"}]},{"lat":"37.164780952","long":"127.06166348","items":[{"name":"물향기고시텔","tel":"031-374-5259","addr":"경기도 오산시 수청동 407-7번지","category":"학원 - 독서실"}]},{"lat":"37.170972029","long":"127.05981044","items":[{"name":"물향기닷컴","tel":"031-377-3112","addr":"경기도 오산시 수청동 563-9번지","category":"사무통신 - 사무용 OA기기"},{"name":"배달삼겹돼지되지오산대점","tel":"031-372-8591","addr":"경기도 오산시 수청동 563-9번지 105호","category":"일반휴게음식 - 일반한식"},{"name":"으뜸통닭수청세교점","tel":"031-377-6180","addr":"경기도 오산시 수청동 563-9번지 1층","category":"일반휴게음식 - 스넥"}]},{"lat":"37.169612063","long":"127.05852585","items":[{"name":"물향기밥상","tel":"031-831-8881","addr":"경기도 오산시 수청동 589-3번지","category":"일반휴게음식 - 일반한식"}]},{"lat":"37.169413278","long":"127.05969668","items":[{"name":"물향기수라청감자탕","tel":"031-374-0090","addr":"경기도 오산시 수청동 598-3번지 수목원빌 1층","category":"일반휴게음식 - 일반한식"}]},{"lat":"37.171719938","long":"127.05972093","items":[{"name":"미니스톱 오산수청점","tel":"031-1577-9621","addr":"경기도 오산시 수청동 563-14번지 101,102호","category":"유통업 영리 - 편 의 점"},{"name":"주식회사 성이에프앤에스","tel":"031-378-6586","addr":"경기도 오산시 수청동 563-14번지 제이파크빌 103호","category":"음료식품 - 기타음료식품"}]},{"lat":"37.163970241","long":"127.06120125","items":[{"name":"미소치킨호프","tel":"031-376-8233","addr":"경기도 오산시 수청동 518-15번지 1층","category":"일반휴게음식 - 스넥"},{"name":"선목원공부방","tel":"031-234-0150","addr":"경기도 오산시 수청동 518-15번지 201호","category":"학원 - 기타 교육기관"},{"name":"최명자헤어","tel":"031-372-7836","addr":"경기도 오산시 수청동 518-15번지 101호","category":"보건위생 - 이용원"},{"name":"케리홈치킨","tel":"031-374-8295","addr":"경기도 오산시 수청동 518-15번지","category":"일반휴게음식 - 주점"}]},{"lat":"37.169863681","long":"127.05994472","items":[{"name":"미숙이네","tel":"031-376-2588","addr":"경기도 오산시 수청동 596-4번지 장수빌","category":"일반휴게음식 - 일반한식"}]},{"lat":"37.163889351","long":"127.06078462","items":[{"name":"미친꽈배기","tel":"070-4042-4670","addr":"경기도 오산시 수청동 519-6번지 1층","category":"음료식품 - 기타음료식품"},{"name":"우리공방","tel":"031-8029-4093","addr":"경기도 오산시 수청동 519-6번지","category":"문화.취미 - 문화취미기타"},{"name":"전기숯불통닭구이","tel":"031-378-2900","addr":"경기도 오산시 수청동 519-6번지 1층 일부","category":"일반휴게음식 - 일반한식"},{"name":"헤어맨","tel":"031-378-4140","addr":"경기도 오산시 수청동 519-6번지 대운학원 1층 102호","category":"보건위생 - 미용원"}]},{"lat":"37.169138617","long":"127.06814096","items":[{"name":"미희씨공방","tel":"070-8260-0101","addr":"경기도 오산시 수청동 630-2번지","category":"문화.취미 - 민예·공예품"},{"name":"좋아짐","tel":"","addr":"경기도 오산시 수청동 630-2번지 1층","category":"레저업소 - 헬스클럽"}]},{"lat":"37.169170366","long":"127.05891961","items":[{"name":"바느질일기","tel":"031-378-2607","addr":"경기도 오산시 수청동 594-2번지 물향기빌 102호","category":"직물 - 옷감·직물"},{"name":"아이유뷰티","tel":"031-374-2093","addr":"경기도 오산시 수청동 594-2번지 물향기빌 103호","category":"보건위생 - 화장품"}]},{"lat":"37.169170563","long":"127.05850301","items":[{"name":"바른자세 교정.정통활법교정원","tel":"070-7808-1676","addr":"경기도 오산시 수청동 593-6번지 기준빌 101호","category":"보건위생 - 기타대인서비스"},{"name":"오산안성키즈","tel":"031-378-8055","addr":"경기도 오산시 수청동 593-6번지 기준빌 1층 102호","category":"음료식품 - 기타음료식품"}]},{"lat":"37.163835491","long":"127.06036802","items":[{"name":"바비헤어","tel":"031-376-2030","addr":"경기도 오산시 수청동 522-2번지 신성종합상가 201호","category":"보건위생 - 미용원"},{"name":"용인대유일태권도","tel":"031-374-1020","addr":"경기도 오산시 수청동 522-2번지 202-205호","category":"학원 - 예·체능계학원"},{"name":"풀타임PC방","tel":"070-2235-2248","addr":"경기도 오산시 수청동 522-2번지 신성종합상가 3층 301호","category":"레저업소 - 기타레져업소"}]},{"lat":"37.172134655","long":"127.05922581","items":[{"name":"박선생창의역사지리교실","tel":"031-8050-2671","addr":"경기도 오산시 수청동 561-1번지 한신빌 1층 상가호","category":"서적문구 - 일반서적"},{"name":"이엔에스","tel":"031-378-5430","addr":"경기도 오산시 수청동 561-1번지 한신빌 101호","category":"수리서비스 - 기타수리서비스"}]},{"lat":"37.165444338","long":"127.06813778","items":[{"name":"박은숙헤어샵","tel":"031-372-9145","addr":"경기도 오산시 수청동 44-2번지 열린속셈학원 2호","category":"보건위생 - 미용원"},{"name":"세븐일레븐오산수청점","tel":"031-1577-0711","addr":"경기도 오산시 수청동 44-2번지 1층 103호,104호","category":"유통업 영리 - 편 의 점"},{"name":"열린학원","tel":"031-372-1045","addr":"경기도 오산시 수청동 44-2번지","category":"학원 - 보습학원"}]},{"lat":"37.164330703","long":"127.06111146","items":[{"name":"밥통","tel":"031-377-5540","addr":"경기도 오산시 수청동 517-15번지","category":"일반휴게음식 - 일반한식"}]},{"lat":"37.168579908","long":"127.06825307","items":[{"name":"벌떡떡볶이 오산수청점","tel":"031-377-2016","addr":"경기도 오산시 수청동 630-6번지 1층","category":"일반휴게음식 - 스넥"},{"name":"뽕뜨락피자수청점","tel":"031-372-2833","addr":"경기도 오산시 수청동 630-6번지","category":"일반휴게음식 - 서양음식"}]},{"lat":"37.167913818","long":"127.06700273","items":[{"name":"별스시2호점","tel":"","addr":"경기도 오산시 수청동 636-1번지 102호","category":"일반휴게음식 - 일식·회집"}]},{"lat":"37.169332945","long":"127.05808653","items":[{"name":"본래순대 오산대역점","tel":"031-375-1380","addr":"경기도 오산시 수청동 592-1번지 1층","category":"일반휴게음식 - 일반한식"},{"name":"치킨플러스오산세교점","tel":"031-375-1380","addr":"경기도 오산시 수청동 592-1번지","category":"일반휴게음식 - 일반한식"}]},{"lat":"37.169692892","long":"127.05908888","items":[{"name":"봉평메밀고을","tel":"031-377-7717","addr":"경기도 오산시 수청동 596-8번지 1층","category":"일반휴게음식 - 일반한식"}]},{"lat":"37.16616572","long":"127.06713636","items":[{"name":"브론드헤어","tel":"031-378-4186","addr":"경기도 오산시 수청동 31번지","category":"보건위생 - 미용원"}]},{"lat":"37.169584303","long":"127.06005711","items":[{"name":"블랙울프물향기수목원점","tel":"031-378-0085","addr":"경기도 오산시 수청동 599번지 103호","category":"일반휴게음식 - 서양음식"},{"name":"신안왕소금구이","tel":"031-375-9235","addr":"경기도 오산시 수청동 599번지 101호,102호","category":"일반휴게음식 - 일반한식"}]},{"lat":"37.17044516","long":"127.06808578","items":[{"name":"삼미예꼬어린이집[아이행복]","tel":"031-377-6408","addr":"경기도 오산시 수청동 625번지 삼미마을 관리동","category":"학원 - 유아원"},{"name":"씨유오산매홀점","tel":"031-375-7961","addr":"경기도 오산시 수청동 625번지 삼미마을 제상가동1층 101호","category":"유통업 영리 - 편 의 점"},{"name":"크리스탈헤어샵","tel":"031-372-1152","addr":"경기도 오산시 수청동 625번지 삼미마을 상가동 103호","category":"보건위생 - 미용원"}]},{"lat":"37.164555675","long":"127.06169708","items":[{"name":"삼시세끼밥상","tel":"031-376-9428","addr":"경기도 오산시 수청동 517-5번지 1층","category":"일반휴게음식 - 일반한식"},{"name":"청년바베큐닭갈비","tel":"031-8043-3123","addr":"경기도 오산시 수청동 517-5번지 1층 102호","category":"일반휴게음식 - 일반한식"}]},{"lat":"37.164248636","long":"127.06305913","items":[{"name":"상현할인마트","tel":"031-375-4863","addr":"경기도 오산시 수청동 514-5번지","category":"유통업 영리 - 슈퍼마켓"},{"name":"현이네분식","tel":"031-375-7363","addr":"경기도 오산시 수청동 514-5번지","category":"일반휴게음식 - 일반한식"},{"name":"현이네분식","tel":"031-375-7363","addr":"경기도 오산시 수청동 514-5번지 1층","category":"일반휴게음식 - 일반한식"}]},{"lat":"37.163638179","long":"127.05844266","items":[{"name":"새아람어린이집[아이행복]","tel":"031-374-8494","addr":"경기도 오산시 수청동 528번지","category":"학원 - 유아원"}]},{"lat":"37.168751612","long":"127.06732996","items":[{"name":"샵스팀","tel":"","addr":"경기도 오산시 수청동 628-5번지 1층","category":"자동차정비 유지 - 세차장"}]},{"lat":"37.169224285","long":"127.05922365","items":[{"name":"서연궁","tel":"031-377-4878","addr":"경기도 오산시 수청동 597-3번지","category":"일반휴게음식 - 일반한식"}]},{"lat":"37.165948904","long":"127.06817199","items":[{"name":"선우헤어","tel":"031-374-1978","addr":"경기도 오산시 수청동 11-5번지 주공 상가 102호","category":"보건위생 - 미용원"}]},{"lat":"37.164114518","long":"127.06097619","items":[{"name":"설리반어린이집[아이행복]","tel":"031-376-9869","addr":"경기도 오산시 수청동 519-3번지","category":"학원 - 유아원"}]},{"lat":"37.171840102","long":"127.05301023","items":[{"name":"세교신도시 꼬마숲어린이집[아이행복]","tel":"031-3766-6168","addr":"경기도 오산시 수청동 581번지 물향기마을휴먼시아꿈에그린 1305동 T101호","category":"학원 - 유아원"}]},{"lat":"37.170555446","long":"127.06403245","items":[{"name":"세교아이들치과의원","tel":"","addr":"경기도 오산시 수청동 617-1번지 3층 1호","category":"의원 - 치과의원"},{"name":"웰봄내과의원","tel":"031-8077-2124","addr":"경기도 오산시 수청동 617-1번지 4층","category":"의원 - 의원"},{"name":"웰봄병원","tel":"031-373-7585","addr":"경기도 오산시 수청동 617-1번지 5층 일부및 6-10층","category":"병원 - 병원"},{"name":"이가마트(IGA MART) 웰봄병원점","tel":"","addr":"경기도 오산시 수청동 617-1번지 1층 101호","category":"유통업 영리 - 편 의 점"},{"name":"지에스파크24(주)웰봄병원 주차장","tel":"02-3272-3500","addr":"경기도 오산시 수청동 617-1번지","category":"자동차정비 유지 - 주차장"},{"name":"판도라봄약국","tel":"031-376-6171","addr":"경기도 오산시 수청동 617-1번지 105호","category":"약국 - 약국"}]},{"lat":"37.169392943","long":"127.06433552","items":[{"name":"세교엘약국","tel":"031-376-8997","addr":"경기도 오산시 수청동 618-5번지 1층 102,103호","category":"약국 - 약국"},{"name":"송호욱병원","tel":"031-1800-6655","addr":"경기도 오산시 수청동 618-5번지 ,6-10층","category":"병원 - 병원"},{"name":"오산심리상담센터","tel":"","addr":"경기도 오산시 수청동 618-5번지 광장프라자 503호","category":"보건위생 - 기타대인서비스"},{"name":"주식회사 오에스팜","tel":"032-378-1228","addr":"경기도 오산시 수청동 618-5번지 501호","category":"약국 - 제약회사"},{"name":"진중국어교습소","tel":"031-378-3836","addr":"경기도 오산시 수청동 618-5번지 404호","category":"학원 - 외국어학원"},{"name":"카페88(cafe88)","tel":"031-373-6588","addr":"경기도 오산시 수청동 618-5번지 104호","category":"일반휴게음식 - 서양음식"}]},{"lat":"37.172720466","long":"127.05894475","items":[{"name":"세븐일레븐오산우미정","tel":"","addr":"경기도 오산시 수청동 558-9번지","category":"유통업 영리 - 편 의 점"},{"name":"하이플러스마트 수청점","tel":"031-372-4498","addr":"경기도 오산시 수청동 558-9번지 마이다스프라자","category":"유통업 영리 - 슈퍼마켓"},{"name":"하이플러스정육점","tel":"031-372-4498","addr":"경기도 오산시 수청동 558-9번지","category":"음료식품 - 정육점"}]},{"lat":"37.170944007","long":"127.06183715","items":[{"name":"세븐일레븐오산위드스타점","tel":"031-1577-0711","addr":"경기도 오산시 수청동 608-11번지 1층 111호","category":"유통업 영리 - 편 의 점"},{"name":"행복하소 축산","tel":"031-225-4881","addr":"경기도 오산시 수청동 608-11번지 1동 1층 2호","category":"음료식품 - 기타음료식품"}]},{"lat":"37.163115073","long":"127.05950057","items":[{"name":"수원칠성생수","tel":"031-377-9055","addr":"경기도 오산시 수청동 531-4번지 301호","category":"음료식품 - 기타음료식품"}]},{"lat":"37.170611758","long":"127.05950616","items":[{"name":"수청 불향기 쭈꾸미","tel":"031-378-7719","addr":"경기도 오산시 수청동 586-6번지 101호","category":"일반휴게음식 - 일반한식"}]},{"lat":"37.170667592","long":"127.0556667","items":[{"name":"수청초등학교","tel":"031-372-5493","addr":"경기도 오산시 수청동 584번지 수청초등학교","category":"학원 - 초중고교육기관"},{"name":"수청초등학교병설유치원[아이행복]","tel":"031-378-5494","addr":"경기도 오산시 수청동 584번지 수청초등학교","category":"학원 - 유치원"}]},{"lat":"37.165282162","long":"127.06811512","items":[{"name":"수청컴퓨터세탁소","tel":"031-374-9011","addr":"경기도 오산시 수청동 44-3번지","category":"수리서비스 - 세탁소"}]},{"lat":"37.169385927","long":"127.06036096","items":[{"name":"스시웨이 오산세교점","tel":"031-375-6766","addr":"경기도 오산시 수청동 601-7번지 행복한집 1층 101호","category":"일반휴게음식 - 일식·회집"}]},{"lat":"37.171836671","long":"127.06055423","items":[{"name":"스타트요양병원","tel":"031-373-1773","addr":"경기도 오산시 수청동 608-1번지 3,4,5,6,7층","category":"병원 - 병원"},{"name":"씨유오산수청점","tel":"080-080-3663","addr":"경기도 오산시 수청동 608-1번지 더블유타워 1층 104호","category":"유통업 영리 - 편 의 점"},{"name":"양계장집아들(오산수청점)/원진디엔씨(주)","tel":"031-373-3706","addr":"경기도 오산시 수청동 608-1번지 석진 파아란오피스텔 811호","category":"일반휴게음식 - 스넥"}]},{"lat":"37.171918602","long":"127.05880904","items":[{"name":"시립매홀어린이집[아이행복]","tel":"031-375-0222","addr":"경기도 오산시 수청동 557번지 시립매홀어린이집","category":"학원 - 유아원"},{"name":"시립매홀어린이집[아이행복]","tel":"031-375-0222","addr":"경기도 오산시 수청동 557번지 시립매홀어린이집","category":"학원 - 유아원"}]},{"lat":"37.169697945","long":"127.06689165","items":[{"name":"시립은여울어린이집[아이행복]","tel":"031-374-5454","addr":"경기도 오산시 수청동 624-1번지","category":"학원 - 유아원"}]},{"lat":"37.164086992","long":"127.06197818","items":[{"name":"시온약국","tel":"031-375-4715","addr":"경기도 오산시 수청동 518-9번지","category":"약국 - 약국"},{"name":"페리카나 궐동 대우체인점","tel":"031-375-1486","addr":"경기도 오산시 수청동 518-9번지","category":"일반휴게음식 - 스넥"}]},{"lat":"37.172468174","long":"127.05894456","items":[{"name":"신도화성OA","tel":"031-375-7444","addr":"경기도 오산시 수청동 559-1번지 신도리코","category":"사무통신 - 사무용 OA기기"}]},{"lat":"37.163857685","long":"127.06960003","items":[{"name":"신성에어컨","tel":"","addr":"경기도 오산시 수청동 69-38번지 한호빌라 5동 101호","category":"용역 서비스 - 기타용역서비스"}]},{"lat":"37.164196433","long":"127.05927621","items":[{"name":"신우방충망","tel":"070-8174-3536","addr":"경기도 오산시 수청동 525-14번지 B02호","category":"용역 서비스 - 기타용역서비스"}]},{"lat":"37.16424914","long":"127.06205712","items":[{"name":"싹뚝헤어샵(SNIPZ)","tel":"070-7764-2828","addr":"경기도 오산시 수청동 518-7번지 해피문구 102호","category":"보건위생 - 미용원"},{"name":"태성가공원","tel":"031-373-8008","addr":"경기도 오산시 수청동 518-7번지","category":"음료식품 - 기타음료식품"},{"name":"태성추출가공식품원","tel":"031-373-8008","addr":"경기도 오산시 수청동 518-7번지","category":"건강식품 - 기타건강식품"}]},{"lat":"37.169890604","long":"127.06016993","items":[{"name":"쌔카스팀세차 오산세교점","tel":"","addr":"경기도 오산시 수청동 596-3번지 수목원빌 1층","category":"자동차정비 유지 - 카인테리어"}]},{"lat":"37.171107466","long":"127.05922504","items":[{"name":"쎈소방방재","tel":"","addr":"경기도 오산시 수청동 566-6번지 204호","category":"기타 - 기계공구"}]},{"lat":"37.170052013","long":"127.06175764","items":[{"name":"씨앤엘플러스내과","tel":"031-375-1175","addr":"경기도 오산시 수청동 610번지 홈플러스오산점 2층","category":"의원 - 의원"},{"name":"씨제이올리브네트웍스(주)홈플러스 오산점","tel":"031-372-5320","addr":"경기도 오산시 수청동 610번지 1층","category":"유통업 영리 - 편 의 점"},{"name":"크린토피아","tel":"031-374-4205","addr":"경기도 오산시 수청동 610번지 홈플러스오산점 1층","category":"수리서비스 - 세탁소"},{"name":"홈플러스 문화센터 오산점","tel":"031-8077-8800","addr":"경기도 오산시 수청동 610번지","category":"유통업 영리 - 인터넷 종합 Mall"},{"name":"홈플러스온라인오산점","tel":"031-8077-8800","addr":"경기도 오산시 수청동 610번지","category":"유통업 영리 - 인터넷 종합 Mall"}]},{"lat":"37.170639083","long":"127.05888691","items":[{"name":"씨유오산물향기점","tel":"031-898-6568","addr":"경기도 오산시 수청동 586-1번지 102호","category":"유통업 영리 - 편 의 점"}]},{"lat":"37.169085144","long":"127.06706002","items":[{"name":"아넬로(Anhelo)","tel":"031-372-4755","addr":"경기도 오산시 수청동 628-1번지","category":"일반휴게음식 - 서양음식"}]},{"lat":"37.163719204","long":"127.05858908","items":[{"name":"아람어린이집[아이행복]","tel":"031-374-8494","addr":"경기도 오산시 수청동 528-1번지 아람어린이집","category":"학원 - 유아원"}]},{"lat":"37.169557472","long":"127.05964049","items":[{"name":"아미고물향기수목원점","tel":"031-8050-7864","addr":"경기도 오산시 수청동 598-2번지 1층","category":"일반휴게음식 - 일반한식"}]},{"lat":"37.167696094","long":"127.06967095","items":[{"name":"아이누리오산식자재","tel":"070-4842-1006","addr":"경기도 오산시 수청동 10-56번지 1층 101호","category":"음료식품 - 기타음료식품"}]},{"lat":"37.16916997","long":"127.05975279","items":[{"name":"야꼬닭","tel":"031-375-9926","addr":"경기도 오산시 수청동 601-4번지 102호","category":"일반휴게음식 - 스넥"},{"name":"카페감성","tel":"031-368-0606","addr":"경기도 오산시 수청동 601-4번지 1층","category":"일반휴게음식 - 서양음식"}]},{"lat":"37.170720463","long":"127.05827896","items":[{"name":"얌얌베베","tel":"031-373-6391","addr":"경기도 오산시 수청동 568-2번지 101호","category":"음료식품 - 기타음료식품"},{"name":"피자헛오산세교점","tel":"031-374-0221","addr":"경기도 오산시 수청동 568-2번지 1층 102호","category":"일반휴게음식 - 서양음식"}]},{"lat":"37.172891348","long":"127.0596092","items":[{"name":"양반전","tel":"","addr":"경기도 오산시 수청동 558-13번지","category":"일반휴게음식 - 일반한식"}]},{"lat":"37.168553632","long":"127.06686816","items":[{"name":"엄마손식당","tel":"031-378-9928","addr":"경기도 오산시 수청동 627-4번지 1층 전체호","category":"일반휴게음식 - 일반한식"}]},{"lat":"37.16702929","long":"127.06972666","items":[{"name":"업앤뷰티","tel":"","addr":"경기도 오산시 수청동 10-21번지 2층","category":"보건위생 - 화장품"}]},{"lat":"37.165362983","long":"127.06861058","items":[{"name":"에덴음악학원","tel":"031-376-8215","addr":"경기도 오산시 수청동 15-11번지 2층","category":"학원 - 예·체능계학원"},{"name":"정일품홍삼","tel":"031-374-0662","addr":"경기도 오산시 수청동 15-11번지 외1필지","category":"건강식품 - 홍삼제품"},{"name":"판문점분식닭발","tel":"031-376-7974","addr":"경기도 오산시 수청동 15-11번지 2층","category":"일반휴게음식 - 일반한식"},{"name":"홍씨아지매","tel":"031-8043-2272","addr":"경기도 오산시 수청동 15-11번지 2층","category":"일반휴게음식 - 일반한식"}]},{"lat":"37.1722515","long":"127.05983392","items":[{"name":"에듀에이스","tel":"031-123-4567","addr":"경기도 오산시 수청동 561-5번지 2층 201호","category":"학원 - 예·체능계학원"}]},{"lat":"37.1614442","long":"127.06722243","items":[{"name":"에스OA","tel":"031-378-6608","addr":"경기도 오산시 수청동 89-6번지","category":"사무통신 - 사무용 OA기기"}]},{"lat":"37.164060632","long":"127.06061588","items":[{"name":"에코스라이프","tel":"070-8818-5149","addr":"경기도 오산시 수청동 519번지","category":"건축자재 - 기타건축자재"}]},{"lat":"37.164249867","long":"127.06058224","items":[{"name":"엔젤아트피오피","tel":"","addr":"경기도 오산시 수청동 520-5번지 1층","category":"문화.취미 - 문화취미기타"}]},{"lat":"37.170837323","long":"127.05886454","items":[{"name":"엘스커피디자인카페","tel":"031-373-7433","addr":"경기도 오산시 수청동 567-7번지 1층 101호","category":"일반휴게음식 - 서양음식"}]},{"lat":"37.164806384","long":"127.06480467","items":[{"name":"엠제이모터스","tel":"031-374-8870","addr":"경기도 오산시 수청동 109번지","category":"자동차정비 유지 - 자동차부품"}]},{"lat":"37.171767741","long":"127.05366324","items":[{"name":"예뜰어린이집[아이행복]","tel":"031-8043-1012","addr":"경기도 오산시 수청동 581번지 물향기마을휴먼시아꿈에그린 1306동 102호","category":"학원 - 유아원"}]},{"lat":"37.168585194","long":"127.05783829","items":[{"name":"예수향","tel":"070-8884-1764","addr":"경기도 오산시 수청동 595-12번지 1층 102호","category":"일반휴게음식 - 서양음식"}]},{"lat":"37.169332265","long":"127.05952773","items":[{"name":"오로미아카페로스터스","tel":"","addr":"경기도 오산시 수청동 598-4번지 1층","category":"일반휴게음식 - 서양음식"}]},{"lat":"37.170945305","long":"127.05916863","items":[{"name":"오산 다몸트레이닝 센터","tel":"","addr":"경기도 오산시 수청동 566-5번지 정원하우스 상가 101호","category":"보건위생 - 피부미용실"}]},{"lat":"37.164338413","long":"127.06370094","items":[{"name":"오산농업협동조합수청지점","tel":"031-375-9113","addr":"경기도 오산시 수청동 514-2번지","category":"유통업 비영리 - 농,축협 직영매장"},{"name":"헬스메니아","tel":"031-378-9129","addr":"경기도 오산시 수청동 514-2번지 2층","category":"회원제형태 - 레져업소"}]},{"lat":"37.167365781","long":"127.06397359","items":[{"name":"오산대역충전소","tel":"031-354-6610","addr":"경기도 오산시 수청동 616-4번지","category":"연료판매점 - E1가스충전소"}]},{"lat":"37.169359468","long":"127.05916745","items":[{"name":"오산바른자세운동원","tel":"031-375-9847","addr":"경기도 오산시 수청동 597-2번지 강남빌","category":"회원제형태 - 레져업소"}]},{"lat":"37.162834613","long":"127.06183085","items":[{"name":"오산소리엘음악학원","tel":"031-377-7697","addr":"경기도 오산시 수청동 533번지 2상가동 101호","category":"학원 - 예·체능계학원"},{"name":"한솔가정의원","tel":"031-374-1267","addr":"경기도 오산시 수청동 533번지 대우제2상가 106호","category":"의원 - 의원"}]},{"lat":"37.166003606","long":"127.06700112","items":[{"name":"오세영","tel":"","addr":"경기도 오산시 수청동 32번지 3층 2호","category":"학원 - 기타 교육기관"}]},{"lat":"37.164447465","long":"127.06186588","items":[{"name":"옥분이네","tel":"031-372-0230","addr":"경기도 오산시 수청동 517-9번지 1층","category":"일반휴게음식 - 일반한식"}]},{"lat":"37.171999326","long":"127.05958602","items":[{"name":"온세약초","tel":"031-378-6688","addr":"경기도 오산시 수청동 561-7번지 1층","category":"음료식품 - 기타음료식품"},{"name":"제이제이 사무기기","tel":"031-354-1511","addr":"경기도 오산시 수청동 561-7번지 한국자격개발원 202호","category":"사무통신 - 사무용 OA기기"}]},{"lat":"37.17134427","long":"127.05361792","items":[{"name":"와이즈메이커즈","tel":"031-1112-1111","addr":"경기도 오산시 수청동 581번지 물향기마을휴먼시아꿈에그린13단지아파트 1307동 1104호","category":"서적문구 - 문구용품"}]},{"lat":"37.164420557","long":"127.06161817","items":[{"name":"왓포 타이 커뮤니케이션","tel":"","addr":"경기도 오산시 수청동 517-11번지 2층 202호","category":"신변잡화 - 기타잡화"},{"name":"참좋은","tel":"031-375-8599","addr":"경기도 오산시 수청동 517-11번지 1층","category":"일반휴게음식 - 일반한식"}]},{"lat":"37.172359958","long":"127.0591359","items":[{"name":"용자푸드","tel":"070-4556-5656","addr":"경기도 오산시 수청동 559-9번지 1층 102호","category":"음료식품 - 기타음료식품"},{"name":"토탈365","tel":"031-377-3684","addr":"경기도 오산시 수청동 559-9 101호~102호 101","category":"전기제품 - 가전제품"},{"name":"한신시스템","tel":"031-377-3684","addr":"경기도 오산시 수청동 559-9번지 102호","category":"전기제품 - 냉열기기"}]},{"lat":"37.164780796","long":"127.06197872","items":[{"name":"우리동네 솥뚜껑삼겹살","tel":"070-8260-3322","addr":"경기도 오산시 수청동 516번지 1층","category":"일반휴게음식 - 일반한식"},{"name":"우리동네 솥뚜껑삼겹살","tel":"070-8260-3322","addr":"경기도 오산시 수청동 516번지 1층","category":"일반휴게음식 - 일반한식"}]},{"lat":"37.172487564","long":"127.05597198","items":[{"name":"우미숲속어린이집[아이행복]","tel":"031-378-4291","addr":"경기도 오산시 수청동 570번지 우미이노스빌 105동 103호","category":"학원 - 유아원"}]},{"lat":"37.166641892","long":"127.06963625","items":[{"name":"움찬협동조합","tel":"031-000-0000","addr":"경기도 오산시 수청동 10-15번지","category":"서적문구 - 기타서적문구"}]},{"lat":"37.169585519","long":"127.05747871","items":[{"name":"원탑","tel":"031-373-2447","addr":"경기도 오산시 수청동 588-5번지 101호","category":"기타 - 기계공구"}]},{"lat":"37.163390321","long":"127.06747177","items":[{"name":"유림카서비스","tel":"031-373-2153","addr":"경기도 오산시 수청동 72-1번지","category":"자동차정비 유지 - 자동차정비"},{"name":"청학자동차매매상사","tel":"031-377-0500","addr":"경기도 오산시 수청동 72-1번지","category":"자동차판매 - 중고자동차판매"}]},{"lat":"37.168724849","long":"127.06683453","items":[{"name":"유진춘천닭갈비","tel":"031-376-1556","addr":"경기도 오산시 수청동 627-3번지 1층","category":"일반휴게음식 - 일반한식"}]},{"lat":"37.170414066","long":"127.05836881","items":[{"name":"이씨씨어학원","tel":"031-376-6701","addr":"경기도 오산시 수청동 585-2번지 102,202호","category":"회원제형태 - 학원"},{"name":"정원유치원[아이행복]","tel":"031-376-6701","addr":"경기도 오산시 수청동 585-2번지","category":"학원 - 유치원"}]},{"lat":"37.169698774","long":"127.06533785","items":[{"name":"이차돌 오산대역점","tel":"","addr":"경기도 오산시 수청동 619-2번지 1층 107-109호","category":"일반휴게음식 - 일반한식"},{"name":"족발야시장 오산대역점","tel":"031-373-4960","addr":"경기도 오산시 수청동 619-2번지 리더스프라자 101,102호","category":"일반휴게음식 - 일반한식"},{"name":"크라운호프 오산대역점","tel":"","addr":"경기도 오산시 수청동 619-2번지 1층 105호","category":"일반휴게음식 - 주점"}]},{"lat":"37.164060033","long":"127.0618318","items":[{"name":"이현헤어","tel":"031-375-1427","addr":"경기도 오산시 수청동 518-10번지","category":"보건위생 - 미용원"},{"name":"행복한떡볶이","tel":"031-373-7972","addr":"경기도 오산시 수청동 518-10번지","category":"일반휴게음식 - 스넥"}]},{"lat":"37.163975155","long":"127.06900343","items":[{"name":"정마트","tel":"031-374-4620","addr":"경기도 오산시 수청동 69-10번지","category":"유통업 영리 - 슈퍼마켓"}]},{"lat":"37.164610148","long":"127.06086398","items":[{"name":"좋은아이어린이집[아이행복]","tel":"031-375-5393","addr":"경기도 오산시 수청동 407-4번지 좋은아이 어린이집","category":"학원 - 유아원"}]},{"lat":"37.16852632","long":"127.06738606","items":[{"name":"주식회사 태그공작소","tel":"031-372-0706","addr":"경기도 오산시 수청동 628-7번지 미담 1층 101호","category":"건축자재 - 인테리어전문"}]},{"lat":"37.165832662","long":"127.0665281","items":[{"name":"주식회사도일렌터카","tel":"031-377-5000","addr":"경기도 오산시 수청동 34번지","category":"여행 - 렌터카"}]},{"lat":"37.171945425","long":"127.05924819","items":[{"name":"주식회사삼성오피스","tel":"00-1544-1218","addr":"경기도 오산시 수청동 561-8번지 세명 1층","category":"사무통신 - 사무용 OA기기"}]},{"lat":"37.170972469","long":"127.05888716","items":[{"name":"중화관","tel":"","addr":"경기도 오산시 수청동 567-6번지 배삼건설 가동 1층","category":"일반휴게음식 - 중국식"}]},{"lat":"37.167969781","long":"127.0633886","items":[{"name":"쥬씨(오산대역점)","tel":"","addr":"경기도 오산시 수청동 435-1번지 오산대역","category":"일반휴게음식 - 서양음식"}]},{"lat":"37.169143663","long":"127.05822151","items":[{"name":"지원드림네트워크주식회사","tel":"070-7794-8570","addr":"경기도 오산시 수청동 592-3번지 2층","category":"보건위생 - 미용재료"}]},{"lat":"37.169585122","long":"127.05833442","items":[{"name":"지원드림솔루션주식회사","tel":"031-372-2242","addr":"경기도 오산시 수청동 589-4번지 101호","category":"회원제형태 - 기타1"}]},{"lat":"37.170584823","long":"127.05930347","items":[{"name":"지혜꽃화원","tel":"031-376-5870","addr":"경기도 오산시 수청동 586-7번지 101호","category":"문화.취미 - 화원"}]},{"lat":"37.164087542","long":"127.06086358","items":[{"name":"짱가포차","tel":"031-377-7649","addr":"경기도 오산시 수청동 519-2번지","category":"일반휴게음식 - 일반한식"}]},{"lat":"37.164393581","long":"127.06150556","items":[{"name":"쭈니네","tel":"070-4036-7033","addr":"경기도 오산시 수청동 517-12번지 1층","category":"음료식품 - 기타음료식품"}]},{"lat":"37.168999354","long":"127.0585254","items":[{"name":"착한대구왕뽈찜","tel":"031-377-9333","addr":"경기도 오산시 수청동 593-5번지 단동빌 상가동 101호","category":"일반휴게음식 - 일반한식"}]},{"lat":"37.163916333","long":"127.06088597","items":[{"name":"참괜찮은미용실","tel":"031-375-9733","addr":"경기도 오산시 수청동 519-5번지","category":"보건위생 - 미용원"},{"name":"화랑인테리어","tel":"031-378-8572","addr":"경기도 오산시 수청동 519-5번지 태진전기 1층 101호","category":"건축자재 - 인테리어전문"}]},{"lat":"37.164223011","long":"127.06022195","items":[{"name":"치킨데이","tel":"031-372-4111","addr":"경기도 오산시 수청동 521-4번지","category":"일반휴게음식 - 주점"}]},{"lat":"37.171107626","long":"127.05888726","items":[{"name":"카젠","tel":"031-373-8257","addr":"경기도 오산시 수청동 567-5번지","category":"자동차정비 유지 - 카인테리어"},{"name":"카젠(수청점)","tel":"031-373-8257","addr":"경기도 오산시 수청동 567-5번지","category":"자동차정비 유지 - 자동차정비"}]},{"lat":"37.168724696","long":"127.06711601","items":[{"name":"케이(K)메이저크리닝","tel":"","addr":"경기도 오산시 수청동 628-15번지 삼원빌 1층","category":"수리서비스 - 세탁소"}]},{"lat":"37.168690868","long":"127.06289376","items":[{"name":"코레일네트웍스(주)오산대","tel":"02-3271-0737","addr":"경기도 오산시 수청동 320-5","category":"자동차정비 유지 - 주차장"}]},{"lat":"37.161669172","long":"127.06775176","items":[{"name":"타이어프로","tel":"031-375-5663","addr":"경기도 오산시 수청동 85-3번지","category":"자동차정비 유지 - 자동차시트·타이어"},{"name":"타이어프로 오산세교점","tel":"031-375-5663","addr":"경기도 오산시 수청동 85-3번지 외3필지(85-5.85-6.88.10)","category":"자동차정비 유지 - 자동차시트·타이어"},{"name":"프로카 정비","tel":"031-375-5663","addr":"경기도 오산시 수청동 85-3번지","category":"자동차정비 유지 - 자동차정비"}]},{"lat":"37.169247527","long":"127.06669986","items":[{"name":"탐나석기(수청동점)","tel":"031-233-2011","addr":"경기도 오산시 수청동 626-2번지 1층","category":"일반휴게음식 - 일반한식"}]},{"lat":"37.172965397","long":"127.05534177","items":[{"name":"토이야","tel":"","addr":"경기도 오산시 수청동 569번지 우미이노스빌 104동 805호","category":"서적문구 - 완구점"}]},{"lat":"37.169359745","long":"127.05858196","items":[{"name":"통영식도락","tel":"031-375-0663","addr":"경기도 오산시 수청동 593-2번지","category":"일반휴게음식 - 일반한식"}]},{"lat":"37.171774914","long":"127.0577843","items":[{"name":"하은음악학원","tel":"031-375-8870","addr":"경기도 오산시 수청동 570번지 우미이노스빌 302호","category":"학원 - 예·체능계학원"}]},{"lat":"37.169531904","long":"127.05649911","items":[{"name":"할매푸드 수청점","tel":"02-1522-1473","addr":"경기도 오산시 수청동 595-2번지 1층","category":"일반휴게음식 - 일반한식"}]},{"lat":"37.168247082","long":"127.0672282","items":[{"name":"해밀수학학원","tel":"031-378-0966","addr":"경기도 오산시 수청동 628-11번지 1층","category":"학원 - 보습학원"}]},{"lat":"37.164949054","long":"127.0676082","items":[{"name":"현대카모터스","tel":"031-373-0430","addr":"경기도 오산시 수청동 52-2번지","category":"자동차정비 유지 - 자동차정비"}]},{"lat":"37.170945117","long":"127.05956271","items":[{"name":"현대포장","tel":"031-374-1650","addr":"경기도 오산시 수청동 566-3","category":"유통업 영리 - 기타유통업"}]},{"lat":"37.167364108","long":"127.06713738","items":[{"name":"홈베이킹오름","tel":"031-376-7137","addr":"경기도 오산시 수청동 636-4번지 1동 101호","category":"음료식품 - 제과점"}]},{"lat":"37.169079984","long":"127.05950502","items":[{"name":"황제바지락짬뽕","tel":"031-375-9494","addr":"경기도 오산시 수청동 601-2번지","category":"일반휴게음식 - 중국식"}]},{"lat":"37.1656962","long":"127.06891486","items":[{"name":"후슬라임","tel":"","addr":"경기도 오산시 수청동 14-5번지 3층","category":"서적문구 - 완구점"}]},{"lat":"37.170503911","long":"127.05892059","items":[{"name":"후아닝손짜장","tel":"031-372-0880","addr":"경기도 오산시 수청동 586-9번지","category":"일반휴게음식 - 중국식"}]}]