[{"lat":"37.320436443","long":"127.46093473","items":[{"name":"(주)내츄럴에프앤디","tel":"031-000-0000","addr":"경기도 이천시 백사면 신대리 346-5번지 1층","category":"음료식품 - 기타음료식품"}]},{"lat":"37.323154523","long":"127.46862309","items":[{"name":"담꼴","tel":"031-634-0920","addr":"경기도 이천시 백사면 신대리 70","category":"문화.취미 - 민예·공예품"}]},{"lat":"37.321351165","long":"127.4689617","items":[{"name":"돈이도니","tel":"","addr":"경기도 이천시 백사면 신대리 6-1번지","category":"일반휴게음식 - 일반한식"}]},{"lat":"37.323791469","long":"127.45540422","items":[{"name":"백사면새마을협의회","tel":"031-636-0180","addr":"경기도 이천시 백사면 신대리 478-1번지","category":"음료식품 - 농·축·수산품"}]},{"lat":"37.323432971","long":"127.47339717","items":[{"name":"백사중학교","tel":"031-634-6441","addr":"경기도 이천시 백사면 신대리 20-1번지 백사중학교","category":"학원 - 초중고교육기관"}]},{"lat":"37.319181897","long":"127.45915591","items":[{"name":"베스트키즈 유아체육","tel":"02-000-0000","addr":"경기도 이천시 백사면 신대리 363-6번지","category":"학원 - 기타 교육기관"}]},{"lat":"37.324741638","long":"127.45668483","items":[{"name":"삼부목산","tel":"031-111-1111","addr":"경기도 이천시 백사면 신대리 산17","category":"음료식품 - 농·축·수산품"}]},{"lat":"37.322267148","long":"127.4720135","items":[{"name":"엠티(M.T)골프연습장","tel":"031-633-1203","addr":"경기도 이천시 백사면 신대리 20-3번지","category":"레저업소 - 골프연습장"}]},{"lat":"37.322656005","long":"127.47165489","items":[{"name":"이천클린공조냉동","tel":"","addr":"경기도 이천시 백사면 신대리 17-11번지","category":"용역 서비스 - 기타용역서비스"}]},{"lat":"37.317291315","long":"127.46340881","items":[{"name":"테라앤금일","tel":"031-637-7601","addr":"경기도 이천시 백사면 신대리 120번지","category":"사무통신 - 컴퓨터"}]},{"lat":"37.318712486","long":"127.45704344","items":[{"name":"행복나무","tel":"","addr":"경기도 이천시 백사면 신대리 392-2번지","category":"음료식품 - 농·축·수산품"}]}]