[{"lat":"37.670826499","long":"126.75849528","items":[{"name":"(주)스포츠메디슨코리아지점일산솔축구센터","tel":"031-906-8207","addr":"경기도 고양시 일산서구 중앙로","category":"레저업소 - 기타레져업소"},{"name":"아모레카운셀러","tel":"031-914-4725","addr":"경기도 고양시 일산서구 중앙로","category":"보건위생 - 화장품"},{"name":"아모레카운셀러","tel":"031-914-4725","addr":"경기도 고양시 일산서구 중앙로","category":"보건위생 - 화장품"},{"name":"아모레카운셀러","tel":"031-914-4725","addr":"경기도 고양시 일산서구 중앙로","category":"보건위생 - 화장품"},{"name":"아모레카운셀러","tel":"031-924-4725","addr":"경기도 고양시 일산서구 중앙로","category":"보건위생 - 화장품"},{"name":"아모레카운셀러","tel":"031-914-4725","addr":"경기도 고양시 일산서구 중앙로","category":"보건위생 - 화장품"},{"name":"아모레카운셀러","tel":"031-914-4725","addr":"경기도 고양시 일산서구 중앙로","category":"보건위생 - 화장품"},{"name":"예화랑","tel":"031-921-4012","addr":"경기도 고양시 일산서구 중앙로","category":"문화.취미 - 화랑"},{"name":"휴크린","tel":"031-1599-9226","addr":"경기도 고양시 일산서구 중앙로","category":"용역 서비스 - 종합용역"}]},{"lat":"37.675345479","long":"126.74815397","items":[{"name":"e튼튼치과","tel":"031-912-5480","addr":"경기도 고양시 일산서구 중앙로","category":"의원 - 치과의원"},{"name":"두리하나 산후조리원","tel":"031-924-5600","addr":"경기도 고양시 일산서구 중앙로","category":"기타의료기관 - 산후조리원"}]},{"lat":"37.669269747","long":"126.76382755","items":[{"name":"고릴라렌트카(주)","tel":"031-925-8841","addr":"경기도 고양시 일산서구 중앙로","category":"여행 - 렌터카"},{"name":"아페토뮤직앤컴퍼니","tel":"031-918-3301","addr":"경기도 고양시 일산서구 중앙로","category":"용역 서비스 - 종합용역"},{"name":"요미요미주엽교육원","tel":"070-7648-8440","addr":"경기도 고양시 일산서구 중앙로","category":"회원제형태 - 서적"}]},{"lat":"37.667321077","long":"126.76701869","items":[{"name":"고성기획","tel":"031-913-9500","addr":"경기도 고양시 일산서구 중앙로","category":"용역 서비스 - 사무서비스"},{"name":"빨래터","tel":"031-913-3339","addr":"경기도 고양시 일산서구 중앙로","category":"수리서비스 - 세탁소"},{"name":"사람들기획","tel":"031-913-5566","addr":"경기도 고양시 일산서구 중앙로","category":"사무통신 - 통신기기"},{"name":"탐라랜드사우나","tel":"031-922-7336","addr":"경기도 고양시 일산서구 중앙로","category":"보건위생 - 사우나"}]},{"lat":"37.675659269","long":"126.74743877","items":[{"name":"공룡노래연습장","tel":"031-911-2825","addr":"경기도 고양시 일산서구 중앙로","category":"레저업소 - 노 래 방"}]},{"lat":"37.669965625","long":"126.76045897","items":[{"name":"공차주엽역점","tel":"031-916-0037","addr":"경기도 고양시 일산서구 중앙로","category":"일반휴게음식 - 서양음식"},{"name":"이폴리스킨앤수소스파","tel":"031-916-0681","addr":"경기도 고양시 일산서구 중앙로","category":"회원제형태 - 기타4"}]},{"lat":"37.676488027","long":"126.74737925","items":[{"name":"글로우스튜디오","tel":"070-4200-2916","addr":"경기도 고양시 일산서구 중앙로","category":"광학제품 - 사진관"}]},{"lat":"37.670575544","long":"126.75913084","items":[{"name":"금동한의원","tel":"031-912-8875","addr":"경기도 고양시 일산서구 중앙로","category":"의원 - 한의원"},{"name":"에임즈학원","tel":"031-905-0661","addr":"경기도 고양시 일산서구 중앙로","category":"회원제형태 - 학원"}]},{"lat":"37.670184828","long":"126.76190908","items":[{"name":"김밥나라","tel":"031-911-3199","addr":"경기도 고양시 일산서구 중앙로","category":"일반휴게음식 - 스넥"}]},{"lat":"37.671408421","long":"126.75671382","items":[{"name":"김연실헤어토크","tel":"031-917-8337","addr":"경기도 고양시 일산서구 중앙로","category":"보건위생 - 미용원"}]},{"lat":"37.666625316","long":"126.76601216","items":[{"name":"대한불교조계선종무차선원","tel":"031-921-9001","addr":"경기도 고양시 일산서구 중앙로","category":"기타 - 비영리/대상"}]},{"lat":"37.676290896","long":"126.74787869","items":[{"name":"대화파크여관","tel":"031-921-5959","addr":"경기도 고양시 일산서구 중앙로","category":"숙박업 - 여관/기타숙박업"}]},{"lat":"37.676595602","long":"126.7471295","items":[{"name":"돈쥬앙","tel":"031-911-5072","addr":"경기도 고양시 일산서구 중앙로","category":"일반휴게음식 - 일반한식"},{"name":"법무법인 한사랑","tel":"031-924-8000","addr":"경기도 고양시 일산서구 중앙로","category":"용역 서비스 - 법률회계서비스(법인)"}]},{"lat":"37.668543152","long":"126.76540535","items":[{"name":"레이디","tel":"031-917-7623","addr":"경기도 고양시 일산서구 중앙로","category":"의류 - 정장"},{"name":"머릿결사랑","tel":"031-925-9015","addr":"경기도 고양시 일산서구 중앙로","category":"보건위생 - 미용재료"},{"name":"미시투","tel":"031-913-8670","addr":"경기도 고양시 일산서구 중앙로","category":"신변잡화 - 액세서리"},{"name":"민들레","tel":"031-919-1936","addr":"경기도 고양시 일산서구 중앙로","category":"의류 - 정장"},{"name":"수","tel":"","addr":"경기도 고양시 일산서구 중앙로","category":"의류 - 기타의류"},{"name":"올리브","tel":"031-918-0390","addr":"경기도 고양시 일산서구 중앙로","category":"의류 - 정장"},{"name":"카나국수","tel":"031-911-1088","addr":"경기도 고양시 일산서구 중앙로","category":"일반휴게음식 - 일반한식"},{"name":"태영북갤러리(책먹는여우)","tel":"031-978-4959","addr":"경기도 고양시 일산서구 중앙로","category":"서적문구 - 일반서적"},{"name":"한 블라인드","tel":"031-913-7787","addr":"경기도 고양시 일산서구 중앙로","category":"직물 - 카페트,커튼,천막,지물"},{"name":"혼또","tel":"031-915-6928","addr":"경기도 고양시 일산서구 중앙로","category":"의류 - 정장"}]},{"lat":"37.667739561","long":"126.76454652","items":[{"name":"루카","tel":"031-913-7748","addr":"경기도 고양시 일산서구 중앙로","category":"의류 - 정장"},{"name":"애플트리","tel":"070-8763-4747","addr":"경기도 고양시 일산서구 중앙로","category":"신변잡화 - 기타잡화"}]},{"lat":"37.672346741","long":"126.75734547","items":[{"name":"몬스팩토리(Mons Factory)","tel":"070-8835-8535","addr":"경기도 고양시 일산서구 중앙로","category":"가구 - 일반가구"},{"name":"빌킹당구클럽","tel":"031-913-4939","addr":"경기도 고양시 일산서구 중앙로","category":"레저업소 - 당 구 장"},{"name":"에넥스일산전시장","tel":"031-917-9993","addr":"경기도 고양시 일산서구 중앙로","category":"주방용구 - 주방용구"},{"name":"에스비에스스킨케어","tel":"031-912-1129","addr":"경기도 고양시 일산서구 중앙로","category":"회원제형태 - 기타4"},{"name":"연어하우스","tel":"031-918-1047","addr":"경기도 고양시 일산서구 중앙로","category":"일반휴게음식 - 일반한식"},{"name":"일섬","tel":"031-911-5964","addr":"경기도 고양시 일산서구 중앙로","category":"보건위생 - 화장품"},{"name":"테이크아웃바이크","tel":"070-7737-7733","addr":"경기도 고양시 일산서구 중앙로","category":"레져용품 - 스포츠·레져용품"},{"name":"토탈세이프티","tel":"031-814-7326","addr":"경기도 고양시 일산서구 중앙로","category":"신변잡화 - 기타잡화"},{"name":"헬로바나나영","tel":"031-919-8283","addr":"경기도 고양시 일산서구 중앙로","category":"문화.취미 - 문화취미기타"}]},{"lat":"37.668988285","long":"126.76276303","items":[{"name":"미로걸헤어","tel":"070-4115-7603","addr":"경기도 고양시 일산서구 중앙로","category":"보건위생 - 미용원"},{"name":"애니창아미술학원","tel":"031-902-0401","addr":"경기도 고양시 일산서구 중앙로","category":"학원 - 예·체능계학원"},{"name":"일산이지함피부과의원","tel":"031-916-5300","addr":"경기도 고양시 일산서구 중앙로","category":"의원 - 의원"},{"name":"일산창조의아침미술학원","tel":"031-902-0401","addr":"경기도 고양시 일산서구 중앙로","category":"학원 - 예·체능계학원"}]},{"lat":"37.675684601","long":"126.7425418","items":[{"name":"버거샵","tel":"031-914-1227","addr":"경기도 고양시 일산서구 중앙로","category":"음료식품 - 기타음료식품"},{"name":"사단법인 한국원예문화협회","tel":"031-903-1245","addr":"경기도 고양시 일산서구 중앙로","category":"문화.취미 - 화원"}]},{"lat":"37.675542685","long":"126.74768855","items":[{"name":"벨리시마헤어","tel":"031-925-4634","addr":"경기도 고양시 일산서구 중앙로","category":"보건위생 - 미용원"},{"name":"인터넷114닷컴","tel":"031-976-0114","addr":"경기도 고양시 일산서구 중앙로","category":"용역 서비스 - 종합용역"}]},{"lat":"37.675130203","long":"126.74859678","items":[{"name":"보스헤어","tel":"031-904-2210","addr":"경기도 고양시 일산서구 중앙로","category":"보건위생 - 미용원"},{"name":"창성","tel":"031-111-1111","addr":"경기도 고양시 일산서구 중앙로","category":"의류 - 내의판매"}]},{"lat":"37.671458085","long":"126.75893526","items":[{"name":"서은바디라인","tel":"031-923-4670","addr":"경기도 고양시 일산서구 중앙로","category":"보건위생 - 화장품"},{"name":"하승수 세무회계사무소","tel":"031-812-9360","addr":"경기도 고양시 일산서구 중앙로","category":"용역 서비스 - 법률회계서비스(개인)"},{"name":"한양JY심리발달센터","tel":"031-911-2266","addr":"경기도 고양시 일산서구 중앙로","category":"보건위생 - 기타대인서비스"}]},{"lat":"37.674735758","long":"126.74951628","items":[{"name":"씨유대화킨텍스존점","tel":"031-916-7276","addr":"경기도 고양시 일산서구 중앙로","category":"유통업 영리 - 편 의 점"}]},{"lat":"37.67229607","long":"126.75465927","items":[{"name":"에비뉴옷할인마트","tel":"031-913-2993","addr":"경기도 고양시 일산서구 중앙로","category":"의류 - 정장"}]},{"lat":"37.676875733","long":"126.74751395","items":[{"name":"예가찬방","tel":"031-919-9197","addr":"경기도 고양시 일산서구 중앙로","category":"음료식품 - 기타음료식품"},{"name":"체형관리","tel":"031-917-5505","addr":"경기도 고양시 일산서구 중앙로","category":"회원제형태 - 기타4"}]},{"lat":"37.670207857","long":"126.75995946","items":[{"name":"일산차앤박피부과의원","tel":"031-911-7571","addr":"경기도 고양시 일산서구 중앙로","category":"의원 - 의원"}]},{"lat":"37.670324421","long":"126.75968705","items":[{"name":"퍼피랜드","tel":"031-918-8400","addr":"경기도 고양시 일산서구 중앙로","category":"문화.취미 - 애완동물"}]},{"lat":"37.669709399","long":"126.76293072","items":[{"name":"한사랑피부과의원","tel":"031-918-3290","addr":"경기도 고양시 일산서구 중앙로","category":"의원 - 의원"}]},{"lat":"37.669104856","long":"126.76249063","items":[{"name":"한솥도시락일산주엽점","tel":"031-912-3229","addr":"경기도 고양시 일산서구 중앙로","category":"일반휴게음식 - 스넥"}]},{"lat":"37.67618332","long":"126.74812844","items":[{"name":"한솥일산대화역킨텍스","tel":"031-912-0001","addr":"경기도 고양시 일산서구 중앙로","category":"일반휴게음식 - 일반한식"}]}]