[{"lat":"37.007520183","long":"127.26265619","items":[{"name":"BBQ","tel":"031-675-8008","addr":"경기도 안성시 아양동 300-1아양주공상가103","category":"일반휴게음식 - 스넥"},{"name":"주공설비","tel":"031-674-6027","addr":"경기도 안성시 아양동 300-1 주공상가 104","category":"용역 서비스 - 기타용역서비스"},{"name":"한라 회 수산","tel":"031-671-8509","addr":"경기도 안성시 아양동 300-1번지 아양1차아파트 108호","category":"일반휴게음식 - 일식·회집"},{"name":"한아름문구","tel":"031-675-1239","addr":"경기도 안성시 아양동 300-1","category":"서적문구 - 문구용품"}]},{"lat":"37.004555178","long":"127.25873633","items":[{"name":"GS25안성서희점","tel":"","addr":"경기도 안성시 아양동 337-6번지 서희스타힐스 상가동 101~102호","category":"유통업 영리 - 편 의 점"},{"name":"한국타이어T스테이션도기점","tel":"031-677-0304","addr":"경기도 안성시 아양동 337-6번지","category":"자동차정비 유지 - 자동차정비"}]},{"lat":"37.005610355","long":"127.26245869","items":[{"name":"LG오휘화장품안성지사","tel":"031-671-3442","addr":"경기도 안성시 아양동 304-2번지","category":"보건위생 - 화장품"},{"name":"더 (THE)예쁨뷰티#","tel":"031-672-5677","addr":"경기도 안성시 아양동 304-2번지 2층","category":"보건위생 - 피부미용실"},{"name":"바보스","tel":"031-671-9507","addr":"경기도 안성시 아양동 304-2","category":"일반휴게음식 - 주점"},{"name":"바보스 아양점","tel":"031-671-9507","addr":"경기도 안성시 아양동 304-2번지 가동 1층","category":"일반휴게음식 - 주점"}]},{"lat":"37.007437216","long":"127.26350979","items":[{"name":"hair hong(헤어 홍)","tel":"031-676-5882","addr":"경기도 안성시 아양동 269-13번지","category":"보건위생 - 미용원"},{"name":"엄마의 오늘반찬","tel":"031-673-9155","addr":"경기도 안성시 아양동 269-13번지","category":"음료식품 - 기타음료식품"}]},{"lat":"37.004195166","long":"127.25854413","items":[{"name":"가가공사","tel":"031-671-2504","addr":"경기도 안성시 아양동 341-1번지 안성서희스타힐스NHF 405동 1804호","category":"용역 서비스 - 기타용역서비스"},{"name":"미유","tel":"070-2365-9090","addr":"경기도 안성시 아양동 341-1번지 안성서희스타힐스NHF 405동 1301호","category":"신변잡화 - 액세서리"},{"name":"서희어린이집[아이행복]","tel":"031-673-4321","addr":"경기도 안성시 아양동 341-1번지 서희스타힐스 A","category":"학원 - 유아원"},{"name":"조은온누리약국","tel":"031-673-9798","addr":"경기도 안성시 아양동 341-1번지 안성서희스타힐스NHF 103호","category":"약국 - 약국"},{"name":"카앤피플 안성점","tel":"","addr":"경기도 안성시 아양동 341-1번지 안성서희스타힐스NHF 403동 1406호","category":"자동차정비 유지 - 세차장"}]},{"lat":"37.005888532","long":"127.26706605","items":[{"name":"경기농산","tel":"031-674-8089","addr":"경기도 안성시 아양동 286-4번지","category":"음료식품 - 농·축·수산품"},{"name":"베스트 아시아마트","tel":"","addr":"경기도 안성시 아양동 286-4번지","category":"유통업 영리 - 슈퍼마켓"},{"name":"새하얀","tel":"031-672-0321","addr":"경기도 안성시 아양동 286-4번지","category":"보건위생 - 미용원"},{"name":"안성땅콩상회","tel":"031-674-8089","addr":"경기도 안성시 아양동 286-4번지","category":"음료식품 - 농·축·수산품"},{"name":"일품축산","tel":"031-676-0322","addr":"경기도 안성시 아양동 286-4번지 1층","category":"음료식품 - 정육점"},{"name":"일품축산","tel":"031-676-0322","addr":"경기도 안성시 아양동 286-4번지","category":"음료식품 - 정육점"},{"name":"해정식당","tel":"031-673-8068","addr":"경기도 안성시 아양동 286-4번지 가동","category":"일반휴게음식 - 일반한식"}]},{"lat":"37.005497466","long":"127.26462668","items":[{"name":"경기주산암산학원내혜홀교육관","tel":"031-677-5735","addr":"경기도 안성시 아양동 294-1번지 1층","category":"학원 - 기타 교육기관"},{"name":"세븐일레븐안성내혜홀점","tel":"031-1577-0711","addr":"경기도 안성시 아양동 294-1번지","category":"유통업 영리 - 편 의 점"}]},{"lat":"37.005187777","long":"127.26613112","items":[{"name":"경도건축종합설비","tel":"031-672-6458","addr":"경기도 안성시 아양동 288-4번지","category":"건축자재 - 보일러·펌프·샷시"},{"name":"라니네 샤브칼국수","tel":"031-672-4408","addr":"경기도 안성시 아양동 288-4번지","category":"일반휴게음식 - 일반한식"},{"name":"비상학원","tel":"031-674-9440","addr":"경기도 안성시 아양동 288-4번지","category":"학원 - 기타 교육기관"},{"name":"용인백암순대국","tel":"031-676-0592","addr":"경기도 안성시 아양동 288-4번지 1층","category":"일반휴게음식 - 일반한식"}]},{"lat":"37.00527721","long":"127.26643477","items":[{"name":"기성타일위생도기상사","tel":"031-673-5083","addr":"경기도 안성시 아양동 288-5번지","category":"건축자재 - 건축용 요업제품"}]},{"lat":"37.005996909","long":"127.26695408","items":[{"name":"남전사오토바이","tel":"031-674-3616","addr":"경기도 안성시 아양동 285-4번지","category":"자동차판매 - 이륜차판매"},{"name":"안성경기농약사","tel":"031-671-3800","addr":"경기도 안성시 아양동 285-4,13","category":"농업 - 비료,사료,종자"}]},{"lat":"37.006830192","long":"127.26501325","items":[{"name":"내혜홀 주차장","tel":"","addr":"경기도 안성시 아양동 278-2번지 1층","category":"자동차정비 유지 - 주차장"},{"name":"더만나스토리(The만나Story)","tel":"031-676-9279","addr":"경기도 안성시 아양동 278-2번지","category":"일반휴게음식 - 일반한식"}]},{"lat":"37.006027504","long":"127.26534755","items":[{"name":"내혜홀초등학교","tel":"031-671-1084","addr":"경기도 안성시 아양동 292-1번지 내혜홀초등학교","category":"학원 - 초중고교육기관"},{"name":"내혜홀초등학교_수업료","tel":"031-671-1084","addr":"경기도 안성시 아양동 292-1번지 내혜홀초등학교","category":"학원 - 초중고교육기관"},{"name":"내혜홀초등학교병설유치원[아이행복]","tel":"031-671-1089","addr":"경기도 안성시 아양동 292-1번지 내혜홀초등학교","category":"학원 - 유치원"}]},{"lat":"37.005021439","long":"127.26392848","items":[{"name":"대신광고기업","tel":"031-676-0037","addr":"경기도 안성시 아양동 366-21번지","category":"용역 서비스 - 종합용역"},{"name":"탑스크린골프","tel":"031-676-0099","addr":"경기도 안성시 아양동 366-21번지 1,2층","category":"레저업소 - 스크린골프"}]},{"lat":"37.005497764","long":"127.26449186","items":[{"name":"뚜뚜떡볶이","tel":"","addr":"경기도 안성시 아양동 294-7번지","category":"일반휴게음식 - 일반한식"}]},{"lat":"37.007020282","long":"127.26462067","items":[{"name":"맛칼국수","tel":"031-675-9932","addr":"경기도 안성시 아양동 275-6번지","category":"일반휴게음식 - 일반한식"},{"name":"빅원치킨 안성점","tel":"031-671-3393","addr":"경기도 안성시 아양동 275-6번지","category":"일반휴게음식 - 스넥"}]},{"lat":"37.006721195","long":"127.26540611","items":[{"name":"머리이야기","tel":"031-8052-8078","addr":"경기도 안성시 아양동 278-5번지 1층","category":"보건위생 - 미용원"},{"name":"용인대 내혜홀 태권도장","tel":"031-671-3716","addr":"경기도 안성시 아양동 278-5번지","category":"학원 - 예·체능계학원"},{"name":"정석통족구이","tel":"031-671-3351","addr":"경기도 안성시 아양동 278-5번지","category":"일반휴게음식 - 일반한식"}]},{"lat":"37.005408647","long":"127.26404215","items":[{"name":"백석피아노학원","tel":"031-677-3958","addr":"경기도 안성시 아양동 294-10번지","category":"학원 - 예·체능계학원"},{"name":"제이스키친","tel":"031-672-1525","addr":"경기도 안성시 아양동 294-10번지 가동 1층","category":"일반휴게음식 - 서양음식"}]},{"lat":"37.004966881","long":"127.26415299","items":[{"name":"삼성식당","tel":"031-676-0335","addr":"경기도 안성시 아양동 366-28번지","category":"일반휴게음식 - 일반한식"}]},{"lat":"37.006385962","long":"127.26623637","items":[{"name":"상하이박","tel":"031-677-9234","addr":"경기도 안성시 아양동 280-3번지 가동 1층","category":"일반휴게음식 - 중국식"},{"name":"신흥농산물판매장","tel":"031-675-3170","addr":"경기도 안성시 아양동 280-3번지","category":"음료식품 - 농·축·수산품"},{"name":"주식회사 침향인","tel":"032-322-7977","addr":"경기도 안성시 아양동 280-3번지 103호","category":"신변잡화 - 액세서리"}]},{"lat":"37.004637014","long":"127.26254526","items":[{"name":"새벽시장","tel":"031-676-8720","addr":"경기도 안성시 아양동 366-79번지","category":"일반휴게음식 - 일식·회집"},{"name":"아양수산 직판장","tel":"","addr":"경기도 안성시 아양동 366-79번지","category":"음료식품 - 농·축·수산품"}]},{"lat":"37.007439948","long":"127.26226267","items":[{"name":"소담집","tel":"031-675-5345","addr":"경기도 안성시 아양동 300-2번지 1층","category":"일반휴게음식 - 일반한식"},{"name":"스텔라요가","tel":"031-671-3310","addr":"경기도 안성시 아양동 300-2번지 3층","category":"레저업소 - 헬스클럽"},{"name":"은하수노래연습장","tel":"031-677-5345","addr":"경기도 안성시 아양동 300-2번지","category":"레저업소 - 노 래 방"},{"name":"킴스당구클럽","tel":"031-675-3949","addr":"경기도 안성시 아양동 300-2번지 2층","category":"레저업소 - 당 구 장"}]},{"lat":"37.007854804","long":"127.26209555","items":[{"name":"신림동또순이순대보쌈","tel":"031-676-0090","addr":"경기도 안성시 아양동 385번지","category":"일반휴게음식 - 일반한식"}]},{"lat":"37.004271766","long":"127.26062285","items":[{"name":"씨유안성아양스타점","tel":"02-1577-8007","addr":"경기도 안성시 아양동 344-11번지 안성하우스디NHF 상가동 101호","category":"유통업 영리 - 편 의 점"}]},{"lat":"37.005134212","long":"127.26590623","items":[{"name":"안방손님 코다리","tel":"031-616-2299","addr":"경기도 안성시 아양동 288-1번지 2층","category":"일반휴게음식 - 일반한식"}]},{"lat":"37.005609553","long":"127.2669078","items":[{"name":"안성수산","tel":"031-673-3345","addr":"경기도 안성시 아양동 362-19번지","category":"음료식품 - 농·축·수산품"}]},{"lat":"37.006222523","long":"127.26679756","items":[{"name":"안성신통마취통증의학과의원","tel":"031-671-8275","addr":"경기도 안성시 아양동 285-10번지","category":"의원 - 의원"}]},{"lat":"37.007193239","long":"127.26382355","items":[{"name":"존프랭클 안성 주짓수던전","tel":"031-0000-0000","addr":"경기도 안성시 아양동 270-2번지 2층","category":"레저업소 - 헬스클럽"},{"name":"한라산 숯불갈비","tel":"031-677-8211","addr":"경기도 안성시 아양동 270-2번지","category":"일반휴게음식 - 일반한식"}]},{"lat":"37.005853538","long":"127.26659406","items":[{"name":"주식회사한국유통","tel":"031-671-8888","addr":"경기도 안성시 아양동 285-11번지","category":"유통업 영리 - 슈퍼마켓"}]},{"lat":"37.006191999","long":"127.26017992","items":[{"name":"줄리아헤어","tel":"031-672-9963","addr":"경기도 안성시 아양동 317-6번지 아양LH1단지 상가동 1층 103호","category":"보건위생 - 미용원"}]},{"lat":"37.005355004","long":"127.26385097","items":[{"name":"크리아트 미술학원","tel":"031-677-8245","addr":"경기도 안성시 아양동 294-11번지 1층","category":"학원 - 예·체능계학원"}]},{"lat":"37.00769467","long":"127.26115123","items":[{"name":"킨더하임어린이집[아이행복]","tel":"031-676-2187","addr":"경기도 안성시 아양동 384번지 아양2차아파트","category":"학원 - 유아원"}]},{"lat":"37.002188239","long":"127.25740272","items":[{"name":"타이어매니아","tel":"031-673-3901","addr":"경기도 안성시 아양동 355-4번지","category":"자동차정비 유지 - 자동차시트·타이어"}]},{"lat":"37.004943251","long":"127.26260248","items":[{"name":"프로모터스","tel":"031-672-2929","addr":"경기도 안성시 아양동 366-52번지","category":"자동차정비 유지 - 자동차정비"}]},{"lat":"37.00511006","long":"127.26460288","items":[{"name":"필스포츠샵","tel":"031-673-6185","addr":"경기도 안성시 아양동 366-30번지","category":"레져용품 - 스포츠·레져용품"}]},{"lat":"37.006528403","long":"127.26293369","items":[{"name":"한일주공유통","tel":"031-675-3703","addr":"경기도 안성시 아양동 300번지 주공 101호","category":"유통업 영리 - 슈퍼마켓"}]},{"lat":"37.008234866","long":"127.2613553","items":[{"name":"향기나는 꽃집","tel":"031-675-8827","addr":"경기도 안성시 아양동 384번지 아양2차아파트 205동 709호","category":"문화.취미 - 화원"}]}]