[{"lat":"37.378860794","long":"126.95419695","items":[{"name":"(주)포유실버사업단","tel":"031-455-9182","addr":"경기도 안양시 동안구 경수대로","category":"음료식품 - 농·축·수산품"}]},{"lat":"37.364311926","long":"126.96067461","items":[{"name":"경향태권도","tel":"031-455-5353","addr":"경기도 안양시 동안구 경수대로","category":"학원 - 예·체능계학원"},{"name":"마루텔레콤","tel":"031-453-5003","addr":"경기도 안양시 동안구 경수대로","category":"사무통신 - 통신기기"},{"name":"무지개김밥스낵","tel":"031-471-8884","addr":"경기도 안양시 동안구 경수대로","category":"일반휴게음식 - 스넥"},{"name":"태후사랑","tel":"031-459-5522","addr":"경기도 안양시 동안구 경수대로","category":"보건위생 - 화장품"},{"name":"플로라","tel":"031-454-1358","addr":"경기도 안양시 동안구 경수대로","category":"문화.취미 - 화원"}]},{"lat":"37.397889101","long":"126.93400327","items":[{"name":"대동식당(정육)","tel":"031-466-4278","addr":"경기도 안양시 동안구 경수대로","category":"일반휴게음식 - 일반한식"},{"name":"대동식당(정육)","tel":"031-466-4278","addr":"경기도 안양시 동안구 경수대로","category":"음료식품 - 정육점"}]},{"lat":"37.361753627","long":"126.96233538","items":[{"name":"동의보감한의원","tel":"031-458-8575","addr":"경기도 안양시 동안구 경수대로","category":"의원 - 한의원"},{"name":"치킨마루포도원점","tel":"031-477-0087","addr":"경기도 안양시 동안구 경수대로","category":"일반휴게음식 - 스넥"}]},{"lat":"37.378554511","long":"126.95434393","items":[{"name":"디에스컴퍼니","tel":"031-452-9255","addr":"경기도 안양시 동안구 경수대로","category":"건축자재 - 인테리어전문"}]},{"lat":"37.391695549","long":"126.94398022","items":[{"name":"로얄펜싱클럽","tel":"031-455-0013","addr":"경기도 안양시 동안구 경수대로","category":"회원제형태 - 레져업소"},{"name":"천연 쑥효소방","tel":"031-454-0304","addr":"경기도 안양시 동안구 경수대로","category":"회원제형태 - 기타4"}]},{"lat":"37.383698087","long":"126.95150649","items":[{"name":"매직터치 호계점","tel":"031-429-3396","addr":"경기도 안양시 동안구 경수대로","category":"자동차정비 유지 - 카인테리어"}]},{"lat":"37.385418676","long":"126.9507262","items":[{"name":"메이","tel":"031-346-9002","addr":"경기도 안양시 동안구 경수대로","category":"신변잡화 - 기타잡화"}]},{"lat":"37.381031747","long":"126.95303258","items":[{"name":"물좋은 세차장","tel":"070-7503-6424","addr":"경기도 안양시 동안구 경수대로","category":"자동차정비 유지 - 세차장"}]},{"lat":"37.365365704","long":"126.95954516","items":[{"name":"베베슐레어린이집[아이행복]","tel":"031-427-9319","addr":"경기도 안양시 동안구 경수대로","category":"학원 - 유아원"}]},{"lat":"37.362168144","long":"126.96248191","items":[{"name":"산텔레콤","tel":"031-427-0222","addr":"경기도 안양시 동안구 경수대로","category":"사무통신 - 통신기기"},{"name":"아리따움","tel":"031-454-7775","addr":"경기도 안양시 동안구 경수대로","category":"보건위생 - 화장품"}]},{"lat":"37.381671312","long":"126.95267085","items":[{"name":"삼신자동차공업사","tel":"031-429-7282","addr":"경기도 안양시 동안구 경수대로","category":"자동차정비 유지 - 자동차정비"}]},{"lat":"37.389912637","long":"126.94620619","items":[{"name":"성천막국수","tel":"031-458-7523","addr":"경기도 안양시 동안구 경수대로","category":"일반휴게음식 - 일반한식"}]},{"lat":"37.363852986","long":"126.96232296","items":[{"name":"송가상사","tel":"031-202-3240","addr":"경기도 안양시 동안구 경수대로","category":"회원제형태 - 기타3"}]},{"lat":"37.393415189","long":"126.9414493","items":[{"name":"스피드메이트 비산점","tel":"031-468-3295","addr":"경기도 안양시 동안구 경수대로","category":"자동차정비 유지 - 자동차부품"}]},{"lat":"37.366752598","long":"126.95776074","items":[{"name":"스피드메이트안양호계점","tel":"031-477-0620","addr":"경기도 안양시 동안구 경수대로","category":"자동차정비 유지 - 자동차시트·타이어"}]},{"lat":"37.366446262","long":"126.9577835","items":[{"name":"쌍용자동차 동안부품대리점","tel":"031-456-8285","addr":"경기도 안양시 동안구 경수대로","category":"자동차정비 유지 - 자동차부품"}]},{"lat":"37.370338513","long":"126.95745378","items":[{"name":"아모레카운셀러","tel":"031-456-1564","addr":"경기도 안양시 동안구 경수대로","category":"보건위생 - 화장품"}]},{"lat":"37.362591539","long":"126.96224463","items":[{"name":"아이편한어린이집[아이행복]","tel":"031-427-8487","addr":"경기도 안양시 동안구 경수대로","category":"학원 - 유아원"}]},{"lat":"37.36375389","long":"126.96236817","items":[{"name":"은성어린이집[아이행복]","tel":"031-452-5050","addr":"경기도 안양시 동안구 경수대로","category":"학원 - 유아원"}]},{"lat":"37.369338419","long":"126.95753341","items":[{"name":"이정래식당(호계점)","tel":"031-348-7471","addr":"경기도 안양시 동안구 경수대로","category":"일반휴게음식 - 일반한식"},{"name":"이정래정육점(호계점)","tel":"031-348-7471","addr":"경기도 안양시 동안구 경수대로","category":"음료식품 - 정육점"}]},{"lat":"37.388003641","long":"126.94864669","items":[{"name":"이카루스","tel":"031-427-7282","addr":"경기도 안양시 동안구 경수대로","category":"자동차정비 유지 - 자동차정비"}]},{"lat":"37.363402652","long":"126.96283118","items":[{"name":"조이피아노","tel":"031-451-0233","addr":"경기도 안양시 동안구 경수대로","category":"회원제형태 - 학원"}]},{"lat":"37.3725279","long":"126.95726054","items":[{"name":"주식회사아이비전","tel":"031-452-6060","addr":"경기도 안양시 동안구 경수대로","category":"사무통신 - 컴퓨터"}]},{"lat":"37.385112417","long":"126.95091837","items":[{"name":"채담수학학원","tel":"031-455-0942","addr":"경기도 안양시 동안구 경수대로","category":"회원제형태 - 학원"}]},{"lat":"37.371555156","long":"126.95817557","items":[{"name":"청우애드컴","tel":"031-456-4455","addr":"경기도 안양시 동안구 경수대로","category":"신변잡화 - 기타잡화"}]},{"lat":"37.388390778","long":"126.94800277","items":[{"name":"치어스(안양호계점)","tel":"031-383-0880","addr":"경기도 안양시 동안구 경수대로","category":"일반휴게음식 - 주점"}]},{"lat":"37.379698553","long":"126.95375607","items":[{"name":"티업(T.UP)스크린골프","tel":"031-429-0174","addr":"경기도 안양시 동안구 경수대로","category":"회원제형태 - 레져업소"}]},{"lat":"37.366581927","long":"126.95914936","items":[{"name":"한국 레즈본","tel":"070-8172-6103","addr":"경기도 안양시 동안구 경수대로","category":"건축자재 - 목재·석재·철물"}]},{"lat":"37.375420031","long":"126.95695395","items":[{"name":"한국인간과학연구회주식회사(지점)","tel":"031-457-6784","addr":"경기도 안양시 동안구 경수대로","category":"회원제형태 - 사무서비스"}]},{"lat":"37.396828481","long":"126.93856672","items":[{"name":"헤어스토리","tel":"031-388-3547","addr":"경기도 안양시 동안구 경수대로","category":"보건위생 - 미용원"}]}]