[{"lat":"37.33428716","long":"127.3233334","items":[{"name":"(주)이노텍코리아","tel":"031-764-7666","addr":"경기도 광주시 도척면 궁평리 217-12","category":"건축자재 - 목재·석재·철물"}]},{"lat":"37.33667699","long":"127.3191909","items":[{"name":"AVVIO GRANDE(아비오그란데)","tel":"031-765-0216","addr":"경기도 광주시 도척면 궁평리 542-1번지","category":"일반휴게음식 - 서양음식"},{"name":"곤지암스키","tel":"031-798-9227","addr":"경기도 광주시 도척면 궁평리 542-1번지","category":"레져용품 - 스포츠·레져용품"},{"name":"코리아카모터스","tel":"031-761-2497","addr":"경기도 광주시 도척면 궁평리 542-1번지","category":"자동차정비 유지 - 자동차정비"}]},{"lat":"37.33598712","long":"127.3177211","items":[{"name":"GS25광주궁평점","tel":"","addr":"경기도 광주시 도척면 궁평리 573-1번지","category":"유통업 영리 - 상품권전문판매"},{"name":"GS25광주궁평점","tel":"","addr":"경기도 광주시 도척면 궁평리 573-1번지","category":"유통업 영리 - 편 의 점"},{"name":"현대종합건재","tel":"031-762-7777","addr":"경기도 광주시 도척면 궁평리 573-1번지","category":"건축자재 - 기타건축자재"},{"name":"현대종합건재","tel":"031-762-7777","addr":"경기도 광주시 도척면 궁평리 573-1","category":"건축자재 - 기타건축자재"}]},{"lat":"37.33712616","long":"127.3196893","items":[{"name":"HONEYDECO","tel":"070-4410-7890","addr":"경기도 광주시 도척면 궁평리 539-3번지","category":"문화.취미 - 화원"},{"name":"대동강","tel":"031-769-6956","addr":"경기도 광주시 도척면 궁평리 539-3번지 1층","category":"일반휴게음식 - 일반한식"},{"name":"대동강","tel":"031-769-6956","addr":"경기도 광주시 도척면 궁평리 539-3번지","category":"일반휴게음식 - 일반한식"}]},{"lat":"37.34051397","long":"127.3163068","items":[{"name":"K401 (케이사공일)","tel":"070-7758-0401","addr":"경기도 광주시 도척면 궁평리 401-1번지 1-2층","category":"일반휴게음식 - 서양음식"},{"name":"케이사공일 (K401)","tel":"","addr":"경기도 광주시 도척면 궁평리 401-1번지 지층","category":"숙박업 - 여관/기타숙박업"}]},{"lat":"37.33587065","long":"127.3174724","items":[{"name":"SIGN-SKI24","tel":"031-762-2416","addr":"경기도 광주시 도척면 궁평리 573-5","category":"레져용품 - 스포츠·레져용품"}]},{"lat":"37.33843169","long":"127.3233848","items":[{"name":"W(더블유)스키샵","tel":"031-763-2990","addr":"경기도 광주시 도척면 궁평리 326-8번지","category":"레져용품 - 스포츠·레져용품"},{"name":"루돌프","tel":"031-761-4901","addr":"경기도 광주시 도척면 궁평리 326-8번지","category":"레져용품 - 스포츠·레져용품"},{"name":"월드","tel":"031-769-7762","addr":"경기도 광주시 도척면 궁평리 326-8번지 2층","category":"레저업소 - 노 래 방"}]},{"lat":"37.33742847","long":"127.3211914","items":[{"name":"가마솥순대국","tel":"031-769-7012","addr":"경기도 광주시 도척면 궁평리 274번지","category":"일반휴게음식 - 일반한식"}]},{"lat":"37.33187378","long":"127.3228379","items":[{"name":"가온대리석","tel":"031-766-9226","addr":"경기도 광주시 도척면 궁평리 196번지","category":"건축자재 - 목재·석재·철물"}]},{"lat":"37.33773061","long":"127.3227499","items":[{"name":"고향마을한식부페","tel":"031-797-5587","addr":"경기도 광주시 도척면 궁평리 269-1번지 매화빌딩","category":"일반휴게음식 - 일반한식"},{"name":"스타당구클럽","tel":"070-4922-1261","addr":"경기도 광주시 도척면 궁평리 269-1번지 매화빌딩 2층","category":"레저업소 - 당 구 장"}]},{"lat":"37.33414798","long":"127.3147232","items":[{"name":"곤대감뼈감자탕","tel":"031-765-3553","addr":"경기도 광주시 도척면 궁평리 696-1번지","category":"일반휴게음식 - 일반한식"},{"name":"숯불메추리포차","tel":"031-000-0000","addr":"경기도 광주시 도척면 궁평리 696-1번지","category":"일반휴게음식 - 일반한식"}]},{"lat":"37.34317699","long":"127.3375002","items":[{"name":"곤지암 중고자재","tel":"031-764-1453","addr":"경기도 광주시 도척면 궁평리 1-34","category":"건축자재 - 기타건축자재"}]},{"lat":"37.33654078","long":"127.3195853","items":[{"name":"골다방","tel":"031-797-6869","addr":"경기도 광주시 도척면 궁평리 543-4번지 1동 1층","category":"일반휴게음식 - 서양음식"},{"name":"대가","tel":"031-762-4327","addr":"경기도 광주시 도척면 궁평리 543-4번지","category":"일반휴게음식 - 일반한식"},{"name":"스키뱅크","tel":"031-763-5542","addr":"경기도 광주시 도척면 궁평리 543-4","category":"레져용품 - 스포츠·레져용품"}]},{"lat":"37.342265","long":"127.3317746","items":[{"name":"구좌리얼크니손칼국수","tel":"031-767-3224","addr":"경기도 광주시 도척면 궁평리 68번지 1-2동 1층","category":"일반휴게음식 - 일반한식"}]},{"lat":"37.34168073","long":"127.3312755","items":[{"name":"궁돈가","tel":"031-763-5522","addr":"경기도 광주시 도척면 궁평리 72번지","category":"일반휴게음식 - 일반한식"},{"name":"궁돈정육점","tel":"031-763-5522","addr":"경기도 광주시 도척면 궁평리 72번지","category":"음료식품 - 정육점"}]},{"lat":"37.34225842","long":"127.3142263","items":[{"name":"궁뜨레","tel":"","addr":"경기도 광주시 도척면 궁평리 749번지 1층","category":"숙박업 - 여관/기타숙박업"}]},{"lat":"37.33975847","long":"127.3356118","items":[{"name":"궁뜰","tel":"031-766-0987","addr":"경기도 광주시 도척면 궁평리 2-5번지 1층","category":"일반휴게음식 - 일반한식"},{"name":"궁뜰/미소외식협동조합 궁뜰","tel":"031-766-0987","addr":"경기도 광주시 도척면 궁평리 2-5번지","category":"일반휴게음식 - 일식·회집"},{"name":"궁뜰사랑채","tel":"","addr":"경기도 광주시 도척면 궁평리 2-5번지","category":"일반휴게음식 - 일반한식"},{"name":"맛있는 발효밥상궁뜰","tel":"031-766-0987","addr":"경기도 광주시 도척면 궁평리 2-5번지","category":"일반휴게음식 - 일반한식"}]},{"lat":"37.33962379","long":"127.3354419","items":[{"name":"궁뜰푸줏간","tel":"031-766-1767","addr":"경기도 광주시 도척면 궁평리 2-6번지","category":"음료식품 - 정육점"}]},{"lat":"37.33700975","long":"127.319418","items":[{"name":"궁잔치국수","tel":"031-766-5222","addr":"경기도 광주시 도척면 궁평리 539-5번지","category":"일반휴게음식 - 일반한식"}]},{"lat":"37.33784366","long":"127.3209223","items":[{"name":"궁평식당/주식회사 궁평일구팔칠","tel":"031-761-3190","addr":"경기도 광주시 도척면 궁평리 279번지","category":"일반휴게음식 - 일반한식"}]},{"lat":"37.33334583","long":"127.3182178","items":[{"name":"그린산업","tel":"031-797-1405","addr":"경기도 광주시 도척면 궁평리 642","category":"건축자재 - 목재·석재·철물"}]},{"lat":"37.33792703","long":"127.3234165","items":[{"name":"기왕이면도토리묵밥집","tel":"031-673-0433","addr":"경기도 광주시 도척면 궁평리 300-2번지 1층","category":"일반휴게음식 - 일반한식"}]},{"lat":"37.33567589","long":"127.3262167","items":[{"name":"꿈 드림","tel":"031-769-1830","addr":"경기도 광주시 도척면 궁평리 222번지","category":"가구 - 일반가구"},{"name":"대성산업","tel":"031-764-3551","addr":"경기도 광주시 도척면 궁평리 222번지","category":"건축자재 - 기타건축자재"}]},{"lat":"37.34184303","long":"127.3376636","items":[{"name":"노다지","tel":"031-763-4910","addr":"경기도 광주시 도척면 궁평리 1-23번지","category":"서적문구 - 문구용품"},{"name":"대신철망","tel":"031-765-8091","addr":"경기도 광주시 도척면 궁평리 1-23번지","category":"기타 - 기계공구"}]},{"lat":"37.33431993","long":"127.3278358","items":[{"name":"달인TECH","tel":"031-767-0544","addr":"경기도 광주시 도척면 궁평리 177-4번지","category":"가구 - 일반가구"}]},{"lat":"37.33490161","long":"127.315945","items":[{"name":"달콤회담","tel":"","addr":"경기도 광주시 도척면 궁평리 590-3번지 1층 102호","category":"일반휴게음식 - 서양음식"},{"name":"락스키","tel":"031-761-0308","addr":"경기도 광주시 도척면 궁평리 590-3번지 1층","category":"레져용품 - 스포츠·레져용품"},{"name":"플라잉보드","tel":"031-762-2207","addr":"경기도 광주시 도척면 궁평리 590-3번지","category":"레져용품 - 스포츠·레져용품"}]},{"lat":"37.33475885","long":"127.315414","items":[{"name":"동궁염소탕","tel":"031-762-4100","addr":"경기도 광주시 도척면 궁평리 589번지 주건축물제 1동 1층","category":"일반휴게음식 - 일반한식"},{"name":"청춘스키","tel":"031-764-3938","addr":"경기도 광주시 도척면 궁평리 589번지","category":"레져용품 - 스포츠·레져용품"}]},{"lat":"37.33093131","long":"127.31814","items":[{"name":"동양분체","tel":"031-798-0121","addr":"경기도 광주시 도척면 궁평리 671번지","category":"용역 서비스 - 기타용역서비스"}]},{"lat":"37.33373607","long":"127.3137511","items":[{"name":"뚝배기양평해장국(광주궁평점)","tel":"031-763-7942","addr":"경기도 광주시 도척면 궁평리 694-1번지","category":"일반휴게음식 - 일반한식"},{"name":"뚝배기양평해장국(광주궁평점)","tel":"031-763-7942","addr":"경기도 광주시 도척면 궁평리 694-1번지","category":"일반휴게음식 - 일반한식"}]},{"lat":"37.33770493","long":"127.3222533","items":[{"name":"라멘맛타쿠","tel":"031-767-9558","addr":"경기도 광주시 도척면 궁평리 276-1번지 105호","category":"일반휴게음식 - 일식·회집"},{"name":"불난닭발불닭발","tel":"031-768-8228","addr":"경기도 광주시 도척면 궁평리 276-1번지 1층 전체","category":"일반휴게음식 - 일반한식"},{"name":"온반","tel":"031-766-8877","addr":"경기도 광주시 도척면 궁평리 276-1번지 1층","category":"일반휴게음식 - 일반한식"},{"name":"킹차이나","tel":"031-798-2446","addr":"경기도 광주시 도척면 궁평리 276-1번지 1층","category":"일반휴게음식 - 중국식"},{"name":"헤어리더","tel":"031-762-8878","addr":"경기도 광주시 도척면 궁평리 276-1번지","category":"보건위생 - 미용원"}]},{"lat":"37.33896057","long":"127.3210512","items":[{"name":"라비퀸(RABIQUEEN)","tel":"031-768-3690","addr":"경기도 광주시 도척면 궁평리 282-2번지 2층","category":"음료식품 - 기타음료식품"}]},{"lat":"37.34232002","long":"127.3378575","items":[{"name":"마루","tel":"031-763-5682","addr":"경기도 광주시 도척면 궁평리 1-24","category":"가구 - 일반가구"}]},{"lat":"37.34073814","long":"127.3364737","items":[{"name":"마리스","tel":"","addr":"경기도 광주시 도척면 궁평리 1-15번지","category":"문화.취미 - 애완동물"}]},{"lat":"37.33651604","long":"127.3187276","items":[{"name":"메가폰","tel":"031-797-9824","addr":"경기도 광주시 도척면 궁평리 579번지","category":"레져용품 - 스포츠·레져용품"}]},{"lat":"37.33976281","long":"127.3175563","items":[{"name":"명촌도예","tel":"031-764-6959","addr":"경기도 광주시 도척면 궁평리 432-1","category":"문화.취미 - 민예·공예품"}]},{"lat":"37.3385118","long":"127.3237463","items":[{"name":"몬스터스노우","tel":"031-797-1788","addr":"경기도 광주시 도척면 궁평리 315-3","category":"레져용품 - 스포츠·레져용품"}]},{"lat":"37.3409749","long":"127.3191638","items":[{"name":"물사랑","tel":"031-767-7629","addr":"경기도 광주시 도척면 궁평리 454-2번지 창암빌라","category":"유통업 영리 - 기타유통업"}]},{"lat":"37.33826123","long":"127.3231133","items":[{"name":"미니스톱광주행운점","tel":"031-1577-9621","addr":"경기도 광주시 도척면 궁평리 326-7번지","category":"유통업 영리 - 편 의 점"}]},{"lat":"37.33778992","long":"127.3241381","items":[{"name":"민들레보습학원","tel":"031-768-6881","addr":"경기도 광주시 도척면 궁평리 305번지 1층","category":"학원 - 보습학원"}]},{"lat":"37.34270901","long":"127.3141943","items":[{"name":"바우하우스 (BAUHAUS)","tel":"","addr":"경기도 광주시 도척면 궁평리 749-1번지","category":"숙박업 - 여관/기타숙박업"}]},{"lat":"37.34306876","long":"127.3144441","items":[{"name":"바우하우스TWO","tel":"","addr":"경기도 광주시 도척면 궁평리 759-2번지","category":"숙박업 - 여관/기타숙박업"}]},{"lat":"37.33314931","long":"127.3275825","items":[{"name":"베르모","tel":"031-000-0000","addr":"경기도 광주시 도척면 궁평리 177-9번지","category":"가구 - 일반가구"}]},{"lat":"37.33620315","long":"127.317801","items":[{"name":"브이스키","tel":"031-769-9997","addr":"경기도 광주시 도척면 궁평리 572","category":"레져용품 - 스포츠·레져용품"}]},{"lat":"37.33793303","long":"127.3211935","items":[{"name":"사래골김치찌개집","tel":"031-767-2244","addr":"경기도 광주시 도척면 궁평리 278-4번지","category":"일반휴게음식 - 일반한식"}]},{"lat":"37.33878847","long":"127.321389","items":[{"name":"선일산업","tel":"031-769-8700","addr":"경기도 광주시 도척면 궁평리 283-1","category":"건축자재 - 기타건축자재"}]},{"lat":"37.33273337","long":"127.3147286","items":[{"name":"성보화학 주식회사 (Sung Bo Chemical Co L","tel":"031-765-8685","addr":"경기도 광주시 도척면 궁평리 692-1번지","category":"유통업 영리 - 기타유통업"}]},{"lat":"37.33806594","long":"127.3220291","items":[{"name":"소양호 민물 매운탕","tel":"031-798-6442","addr":"경기도 광주시 도척면 궁평리 278-5번지 1호동 1층","category":"일반휴게음식 - 일반한식"}]},{"lat":"37.33806645","long":"127.3218373","items":[{"name":"순덕한정식","tel":"031-798-3379","addr":"경기도 광주시 도척면 궁평리 278-16번지","category":"일반휴게음식 - 일반한식"}]},{"lat":"37.33801652","long":"127.3236426","items":[{"name":"씨유광주궁평점","tel":"080-080-3663","addr":"경기도 광주시 도척면 궁평리 300-11번지","category":"유통업 영리 - 편 의 점"}]},{"lat":"37.34051449","long":"127.3294423","items":[{"name":"아이원","tel":"031-797-9907","addr":"경기도 광주시 도척면 궁평리 77-3번지","category":"레져용품 - 스포츠·레져용품"}]},{"lat":"37.33395869","long":"127.3281389","items":[{"name":"아트플레이","tel":"031-764-9177","addr":"경기도 광주시 도척면 궁평리 175번지","category":"서적문구 - 출판 및 인쇄물"}]},{"lat":"37.33135048","long":"127.3197553","items":[{"name":"에이스테크","tel":"02-442-6525","addr":"경기도 광주시 도척면 궁평리 667","category":"건축자재 - 기타건축자재"}]},{"lat":"37.34048855","long":"127.3156973","items":[{"name":"올포","tel":"","addr":"경기도 광주시 도척면 궁평리 407-1번지","category":"숙박업 - 여관/기타숙박업"}]},{"lat":"37.34048774","long":"127.3358068","items":[{"name":"운담목재창호","tel":"031-767-8833","addr":"경기도 광주시 도척면 궁평리 14번지","category":"건축자재 - 목재·석재·철물"}]},{"lat":"37.33487216","long":"127.3168589","items":[{"name":"운문진양","tel":"031-761-4640","addr":"경기도 광주시 도척면 궁평리 596번지 103호","category":"음료식품 - 주류 판매점"},{"name":"주식회사 운문","tel":"031-761-4640","addr":"경기도 광주시 도척면 궁평리 596번지 102호","category":"음료식품 - 주류 판매점"}]},{"lat":"37.33804009","long":"127.3215889","items":[{"name":"의정부부대찌개","tel":"031-762-0788","addr":"경기도 광주시 도척면 궁평리 278-15번지","category":"일반휴게음식 - 일반한식"},{"name":"통영바다","tel":"031-798-0050","addr":"경기도 광주시 도척면 궁평리 278-15번지 1층","category":"일반휴게음식 - 일반한식"}]},{"lat":"37.33254224","long":"127.3255263","items":[{"name":"이레붙박이시스템","tel":"02-484-1067","addr":"경기도 광주시 도척면 궁평리 218-1번지","category":"가구 - 일반가구"}]},{"lat":"37.33465228","long":"127.3249147","items":[{"name":"인우정밀","tel":"031-797-6865","addr":"경기도 광주시 도척면 궁평리 218-8번지","category":"기타 - 기계공구"}]},{"lat":"37.33187253","long":"127.3233005","items":[{"name":"제니스디자인","tel":"031-797-4894","addr":"경기도 광주시 도척면 궁평리 201-4,-6","category":"가구 - 일반가구"}]},{"lat":"37.33354101","long":"127.3193583","items":[{"name":"주식회사 아선","tel":"031-762-4050","addr":"경기도 광주시 도척면 궁평리 645-3번지","category":"기타 - 기계공구"}]},{"lat":"37.33604355","long":"127.3301339","items":[{"name":"주식회사부림토탈팩","tel":"031-763-8445","addr":"경기도 광주시 도척면 궁평리 148번지 1동","category":"유통업 영리 - 기타유통업"}]},{"lat":"37.33559245","long":"127.3170537","items":[{"name":"준스키 곤지암","tel":"070-7862-1697","addr":"경기도 광주시 도척면 궁평리 577-1번지 577-4","category":"레져용품 - 스포츠·레져용품"}]},{"lat":"37.34262738","long":"127.3374978","items":[{"name":"지게차코리아","tel":"031-766-8133","addr":"경기도 광주시 도척면 궁평리 1-7번지","category":"기타 - 기계공구"}]},{"lat":"37.34098148","long":"127.3299973","items":[{"name":"천덕봉 산삼랜드휴게소","tel":"031-764-6445","addr":"경기도 광주시 도척면 궁평리 77-1번지","category":"건강식품 - 인삼제품"},{"name":"천덕봉산삼랜드","tel":"031-764-6445","addr":"경기도 광주시 도척면 궁평리 77-1번지","category":"건강식품 - 기타건강식품"}]},{"lat":"37.33843318","long":"127.3228319","items":[{"name":"초야산식당","tel":"031-762-7637","addr":"경기도 광주시 도척면 궁평리 296번지","category":"일반휴게음식 - 일반한식"}]},{"lat":"37.33531425","long":"127.316635","items":[{"name":"카페모이(cafe moi)","tel":"070-8765-8680","addr":"경기도 광주시 도척면 궁평리 576-1번지","category":"일반휴게음식 - 서양음식"}]},{"lat":"37.33637233","long":"127.3185577","items":[{"name":"클럽제임스보드","tel":"031-762-6192","addr":"경기도 광주시 도척면 궁평리 570-1번지","category":"레져용품 - 스포츠·레져용품"}]},{"lat":"37.33831404","long":"127.3134427","items":[{"name":"파구스엠","tel":"031-798-9898","addr":"경기도 광주시 도척면 궁평리 709-3번지","category":"용역 서비스 - 부동산 중개·임대"}]},{"lat":"37.33815484","long":"127.3123023","items":[{"name":"황토마을","tel":"031-762-1525","addr":"경기도 광주시 도척면 궁평리 710-35번지","category":"숙박업 - 여관/기타숙박업"}]}]