[{"lat":"37.088571863","long":"127.14480145","items":[{"name":"(주)현대그린푸드 한국표준협회 인재개발원","tel":"031-525-2233","addr":"경기도 안성시 원곡면 성주리 362-1번지","category":"일반휴게음식 - 위탁급식업"},{"name":"한국표준협회","tel":"02-6009-4535","addr":"경기도 안성시 원곡면 성주리 362-1번지","category":"기타 - 비영리/대상"}]},{"lat":"37.081572588","long":"127.17715537","items":[{"name":"가리왕산건강원","tel":"031-651-6664","addr":"경기도 안성시 원곡면 성주리 51번지","category":"건강식품 - 기타건강식품"},{"name":"송림","tel":"","addr":"경기도 안성시 원곡면 성주리 51번지 1층","category":"일반휴게음식 - 일반한식"}]},{"lat":"37.080621479","long":"127.16805502","items":[{"name":"가야스포츠","tel":"031-651-6013","addr":"경기도 안성시 원곡면 성주리 165번지","category":"기타 - 기타 전문점"}]},{"lat":"37.086262843","long":"127.17388197","items":[{"name":"고향한식뷔페","tel":"031-321-4018","addr":"경기도 안성시 원곡면 성주리 23","category":"일반휴게음식 - 일반한식"}]},{"lat":"37.088123191","long":"127.15066046","items":[{"name":"뜰안애","tel":"031-376-6377","addr":"경기도 안성시 원곡면 성주리 318","category":"문화.취미 - 화원"}]},{"lat":"37.088150978","long":"127.15005316","items":[{"name":"성은종합농기계","tel":"031-656-3360","addr":"경기도 안성시 원곡면 성주리 316-3","category":"농업 - 농기계"},{"name":"송백가구","tel":"031-651-5409","addr":"경기도 안성시 원곡면 성주리 316-3번지","category":"가구 - 일반가구"},{"name":"에스와이타이어","tel":"031-658-7626","addr":"경기도 안성시 원곡면 성주리 316-3번지","category":"농업 - 농기계"}]},{"lat":"37.090403233","long":"127.1503612","items":[{"name":"알타무역(Alta Trading Corp.)","tel":"031-655-5052","addr":"경기도 안성시 원곡면 성주리 307-4번지","category":"기타 - 기계공구"}]},{"lat":"37.088731664","long":"127.16094176","items":[{"name":"와이 포퍼먼스","tel":"","addr":"경기도 안성시 원곡면 성주리 244번지 1층","category":"자동차정비 유지 - 자동차정비"}]},{"lat":"37.086123367","long":"127.17685087","items":[{"name":"유한회사 마도로스키친","tel":"02-2054-8292","addr":"경기도 안성시 원곡면 성주리 10-2번지 1층","category":"문화.취미 - 애완동물"},{"name":"유한회사 마도로스키친","tel":"02-2054-8737","addr":"경기도 안성시 원곡면 성주리 10-2번지","category":"문화.취미 - 애완동물"},{"name":"유한회사 마도로스펫","tel":"031-274-0489","addr":"경기도 안성시 원곡면 성주리 10-2번지","category":"농업 - 비료,사료,종자"}]},{"lat":"37.089874965","long":"127.14763827","items":[{"name":"은성화학(주)","tel":"031-658-4087","addr":"경기도 안성시 원곡면 성주리 356-6번지","category":"전기제품 - 기타전기제품"}]},{"lat":"37.089430772","long":"127.15691661","items":[{"name":"자연아이","tel":"031-655-2125","addr":"경기도 안성시 원곡면 성주리 266-3번지","category":"학원 - 기타 교육기관"}]},{"lat":"37.090430544","long":"127.1501363","items":[{"name":"장수촌가든","tel":"031-651-4406","addr":"경기도 안성시 원곡면 성주리 307","category":"일반휴게음식 - 일반한식"}]},{"lat":"37.088680946","long":"127.158411","items":[{"name":"주식회사 에이에스컨벤션연수원","tel":"031-000-0000","addr":"경기도 안성시 원곡면 성주리 257번지","category":"학원 - 기타 교육기관"},{"name":"펜타스 간이서점","tel":"070-4350-3073","addr":"경기도 안성시 원곡면 성주리 257번지","category":"서적문구 - 일반서적"},{"name":"펜타스기숙학원","tel":"070-4350-3073","addr":"경기도 안성시 원곡면 성주리 257번지","category":"학원 - 보습학원"}]},{"lat":"37.085791212","long":"127.16971954","items":[{"name":"진흥산업","tel":"031-656-9142","addr":"경기도 안성시 원곡면 성주리 122-2","category":"수리서비스 - 기타수리서비스"}]},{"lat":"37.082544451","long":"127.16536003","items":[{"name":"청산오리농장","tel":"031-654-4509","addr":"경기도 안성시 원곡면 성주리 202","category":"음료식품 - 정육점"}]}]