[{"lat":"37.598947588","long":"127.2289493","items":[{"name":"(주)내가웰빙메디컬","tel":"031-1544-7530","addr":"경기도 남양주시 와부읍 월문리 1149-2번지","category":"보건위생 - 의료용품"}]},{"lat":"37.612779572","long":"127.2670233","items":[{"name":"(주)리틀플레이메이트","tel":"031-595-4692","addr":"경기도 남양주시 와부읍 월문리 155-1 제1호2층","category":"건축자재 - 기타건축자재"},{"name":"금강보리밥","tel":"031-576-0047","addr":"경기도 남양주시 와부읍 월문리 155-1번지 1층","category":"일반휴게음식 - 일반한식"}]},{"lat":"37.612950248","long":"127.26725042","items":[{"name":"(주)미백","tel":"070-4036-5558","addr":"경기도 남양주시 와부읍 월문리 157-8번지","category":"수리서비스 - 세탁소"}]},{"lat":"37.600591575","long":"127.28552888","items":[{"name":"(주)수경고려인삼","tel":"031-000-0000","addr":"경기도 남양주시 와부읍 월문리 25-2번지","category":"건강식품 - 인삼제품"}]},{"lat":"37.60172532","long":"127.24130104","items":[{"name":"(주)케이아이글로벌","tel":"031-521-9093","addr":"경기도 남양주시 와부읍 월문리 538-27번지","category":"의류 - 아동의류"}]},{"lat":"37.601004201","long":"127.24588498","items":[{"name":"(주)케이지에스티골프연구소","tel":"031-542-9888","addr":"경기도 남양주시 와부읍 월문리 436번지 3층","category":"레져용품 - 골프용품 전문점"}]},{"lat":"37.625145507","long":"127.28071692","items":[{"name":"(주)태초생활건강","tel":"080-855-8885","addr":"경기도 남양주시 와부읍 월문리 86-3번지","category":"음료식품 - 정육점"}]},{"lat":"37.601509796","long":"127.2409493","items":[{"name":"(주)티앤아이컬쳐스","tel":"070-7019-2922","addr":"경기도 남양주시 와부읍 월문리 538-20번지 M동 2층","category":"광학제품 - 사진관"},{"name":"유니슨코리아","tel":"070-4007-8408","addr":"경기도 남양주시 와부읍 월문리 538-20","category":"기타 - 기타 전문점"}]},{"lat":"37.609726362","long":"127.26247103","items":[{"name":"(주)함스에프앤에스","tel":"031-521-6131","addr":"경기도 남양주시 와부읍 월문리 251-11번지","category":"음료식품 - 기타음료식품"}]},{"lat":"37.613700324","long":"127.27024313","items":[{"name":"365타일도기","tel":"031-577-8730","addr":"경기도 남양주시 와부읍 월문리 178번지","category":"건축자재 - 건축용 요업제품"},{"name":"고든B&C(비앤씨)","tel":"031-577-5365","addr":"경기도 남양주시 와부읍 월문리 178번지","category":"건축자재 - 건축용 요업제품"}]},{"lat":"37.616452488","long":"127.27235969","items":[{"name":"COFFEE SUN","tel":"031-576-3737","addr":"경기도 남양주시 와부읍 월문리 187-1번지 1층","category":"일반휴게음식 - 서양음식"},{"name":"제이제이커피","tel":"070-7514-8208","addr":"경기도 남양주시 와부읍 월문리 187-1번지 3층","category":"음료식품 - 기타음료식품"}]},{"lat":"37.620201886","long":"127.27569202","items":[{"name":"K.D퍼니쳐","tel":"031-567-2112","addr":"경기도 남양주시 와부읍 월문리 108-7번지","category":"가구 - 일반가구"}]},{"lat":"37.618613483","long":"127.27294515","items":[{"name":"NS 세차장","tel":"","addr":"경기도 남양주시 와부읍 월문리 109-10번지","category":"자동차정비 유지 - 카인테리어"},{"name":"NS골프스낵바","tel":"031-576-0990","addr":"경기도 남양주시 와부읍 월문리 109-10번지","category":"음료식품 - 기타음료식품"},{"name":"NS야외스크린골프","tel":"031-577-0703","addr":"경기도 남양주시 와부읍 월문리 109-10번지","category":"레저업소 - 스크린골프"},{"name":"골프라이프","tel":"031-576-7678","addr":"경기도 남양주시 와부읍 월문리 109-10번지","category":"레져용품 - 스포츠·레져용품"}]},{"lat":"37.612809675","long":"127.26966232","items":[{"name":"SA CERAMICS(에스에이 세라믹스)","tel":"031-521-2254","addr":"경기도 남양주시 와부읍 월문리 151-1번지","category":"건축자재 - 건축용 요업제품"},{"name":"두리창고","tel":"031-595-4414","addr":"경기도 남양주시 와부읍 월문리 151-1번지","category":"건축자재 - 건축용 요업제품"}]},{"lat":"37.601587939","long":"127.24680413","items":[{"name":"SONGSAN MART","tel":"02-1111-1111","addr":"경기도 남양주시 와부읍 월문리 425-3번지","category":"유통업 영리 - 슈퍼마켓"}]},{"lat":"37.615894974","long":"127.27188197","items":[{"name":"Top Line (탑라인)","tel":"070-8283-9122","addr":"경기도 남양주시 와부읍 월문리 184-1번지 1층 103호","category":"의류 - 스포츠의류"},{"name":"금성유통","tel":"","addr":"경기도 남양주시 와부읍 월문리 184-1번지 102호","category":"음료식품 - 기타음료식품"},{"name":"이플렛","tel":"","addr":"경기도 남양주시 와부읍 월문리 184-1번지 1층 일부","category":"일반휴게음식 - 서양음식"}]},{"lat":"37.609843861","long":"127.26230156","items":[{"name":"bluekiki","tel":"031-577-7444","addr":"경기도 남양주시 와부읍 월문리 251-10","category":"레져용품 - 스포츠·레져용품"}]},{"lat":"37.596837076","long":"127.23010923","items":[{"name":"가구왕자","tel":"031-556-8337","addr":"경기도 남양주시 와부읍 월문리 1132-1번지","category":"가구 - 일반가구"}]},{"lat":"37.594844332","long":"127.22621934","items":[{"name":"강민건축 인테리어","tel":"031-521-8642","addr":"경기도 남양주시 와부읍 월문리 1252-9번지 외2필지 1층","category":"건축자재 - 인테리어전문"}]},{"lat":"37.60642572","long":"127.25558537","items":[{"name":"갤러리퍼플","tel":"031-524-0160","addr":"경기도 남양주시 와부읍 월문리 317-21번지 일부 1층","category":"문화.취미 - 화랑"}]},{"lat":"37.622310882","long":"127.25929783","items":[{"name":"고을산장","tel":"031-576-1625","addr":"경기도 남양주시 와부읍 월문리 344-4번지","category":"일반휴게음식 - 일반한식"}]},{"lat":"37.595007448","long":"127.22572161","items":[{"name":"고창풍천장어","tel":"031-521-9752","addr":"경기도 남양주시 와부읍 월문리 1245-11번지","category":"일반휴게음식 - 일반한식"}]},{"lat":"37.59186645","long":"127.22866746","items":[{"name":"골프존파크","tel":"031-577-3307","addr":"경기도 남양주시 와부읍 월문리 1054-2번지 2층","category":"레저업소 - 골프연습장"},{"name":"커피쓰담","tel":"070-8817-9723","addr":"경기도 남양주시 와부읍 월문리 1054-2번지","category":"일반휴게음식 - 서양음식"}]},{"lat":"37.594673447","long":"127.22606031","items":[{"name":"교감막국수","tel":"031-576-4627","addr":"경기도 남양주시 와부읍 월문리 1252-19번지","category":"일반휴게음식 - 일반한식"}]},{"lat":"37.60944715","long":"127.28216479","items":[{"name":"구선도방","tel":"0611-576-4224","addr":"경기도 남양주시 와부읍 월문리 60번지","category":"주방용구 - 주방용식기"}]},{"lat":"37.593731744","long":"127.2285259","items":[{"name":"국제 실내테니스 아카데미","tel":"031-8793-0755","addr":"경기도 남양주시 와부읍 월문리 1060-1번지","category":"레저업소 - 테니스장"}]},{"lat":"37.619003976","long":"127.26761165","items":[{"name":"그린가든","tel":"031-521-3331","addr":"경기도 남양주시 와부읍 월문리 205-2번지 1층","category":"일반휴게음식 - 일반한식"}]},{"lat":"37.596225635","long":"127.22947327","items":[{"name":"그미무역","tel":"031-521-6685","addr":"경기도 남양주시 와부읍 월문리 1134-3","category":"가구 - 일반가구"}]},{"lat":"37.593421246","long":"127.22597731","items":[{"name":"금강산화원","tel":"031-527-7071","addr":"경기도 남양주시 와부읍 월문리 1265번지","category":"문화.취미 - 화원"},{"name":"제이모드","tel":"031-557-5571","addr":"경기도 남양주시 와부읍 월문리 1265번지","category":"주방용구 - 주방용구"}]},{"lat":"37.620923575","long":"127.2633255","items":[{"name":"금토일","tel":"070-7768-7460","addr":"경기도 남양주시 와부읍 월문리 234-2번지","category":"일반휴게음식 - 일반한식"}]},{"lat":"37.616864522","long":"127.27341453","items":[{"name":"기사식당 한식부페","tel":"02-1577-0000","addr":"경기도 남양주시 와부읍 월문리 117-7번지 1층","category":"일반휴게음식 - 일반한식"}]},{"lat":"37.616785094","long":"127.27268936","items":[{"name":"길손집","tel":"031-576-7583","addr":"경기도 남양주시 와부읍 월문리 119-2번지 1층","category":"일반휴게음식 - 일반한식"}]},{"lat":"37.612558837","long":"127.26902718","items":[{"name":"깊은산맑은옥","tel":"02-3436-7878","addr":"경기도 남양주시 와부읍 월문리 151번지","category":"기타 - 기타 전문점"},{"name":"덕소애견","tel":"031-576-8888","addr":"경기도 남양주시 와부읍 월문리 151번지","category":"문화.취미 - 애완동물"}]},{"lat":"37.618981176","long":"127.26572","items":[{"name":"나들이","tel":"031-577-5250","addr":"경기도 남양주시 와부읍 월문리 238번지","category":"일반휴게음식 - 일반한식"}]},{"lat":"37.609142251","long":"127.26177816","items":[{"name":"남양주월문초병설유치원[아이행복]","tel":"031-577-6934","addr":"경기도 남양주시 와부읍 월문리 269-1번지","category":"학원 - 유치원"}]},{"lat":"37.611893389","long":"127.27635253","items":[{"name":"남양주재활용센터","tel":"031-576-4499","addr":"경기도 남양주시 와부읍 월문리 133-2번지","category":"신변잡화 - 기타잡화"}]},{"lat":"37.614754403","long":"127.27026955","items":[{"name":"남주막국수","tel":"031-521-0071","addr":"경기도 남양주시 와부읍 월문리 168-4번지","category":"일반휴게음식 - 일반한식"}]},{"lat":"37.591006362","long":"127.2261173","items":[{"name":"내 여친은 미식가","tel":"070-4409-7291","addr":"경기도 남양주시 와부읍 월문리 1278-1번지 2층","category":"음료식품 - 기타음료식품"},{"name":"육개보감","tel":"031-576-4006","addr":"경기도 남양주시 와부읍 월문리 1278-1번지","category":"일반휴게음식 - 일반한식"}]},{"lat":"37.620453842","long":"127.27582886","items":[{"name":"노블래스","tel":"031-521-0244","addr":"경기도 남양주시 와부읍 월문리 107-1번지 2층","category":"주방용구 - 주방용구"}]},{"lat":"37.591920985","long":"127.22841853","items":[{"name":"능라","tel":"031-576-6665","addr":"경기도 남양주시 와부읍 월문리 1057-19번지","category":"음료식품 - 기타음료식품"},{"name":"메디 포즈 동물병원","tel":"","addr":"경기도 남양주시 와부읍 월문리 1057-19번지 1층","category":"기타의료기관 - 동물병원"}]},{"lat":"37.593531295","long":"127.22969156","items":[{"name":"니시스퍼니쳐","tel":"031-521-9790","addr":"경기도 남양주시 와부읍 월문리 1074-2번지","category":"주방용구 - 주방용구"}]},{"lat":"37.621001384","long":"127.27671437","items":[{"name":"달콤한상상(주)","tel":"031-111-1111","addr":"경기도 남양주시 와부읍 월문리 106번지 6동","category":"음료식품 - 기타음료식품"},{"name":"주식회사 라하커피","tel":"070-4447-9879","addr":"경기도 남양주시 와부읍 월문리 106번지 주 1동","category":"주방용구 - 주방용구"},{"name":"주식회사 리뉴바이오","tel":"031-577-4466","addr":"경기도 남양주시 와부읍 월문리 106번지 1동 2층 1호","category":"농업 - 기타농업관련"}]},{"lat":"37.596646693","long":"127.23072012","items":[{"name":"대경전복수산","tel":"031-576-1289","addr":"경기도 남양주시 와부읍 월문리 1133-3번지","category":"음료식품 - 농·축·수산품"}]},{"lat":"37.593228884","long":"127.2276412","items":[{"name":"대명주방","tel":"02-477-6328","addr":"경기도 남양주시 와부읍 월문리 1061-11번지 11","category":"주방용구 - 주방용구"}]},{"lat":"37.592758304","long":"127.22872677","items":[{"name":"대하산업","tel":"031-576-4455","addr":"경기도 남양주시 와부읍 월문리 1060-6번지","category":"서적문구 - 출판 및 인쇄물"},{"name":"인터테크","tel":"031-521-5601","addr":"경기도 남양주시 와부읍 월문리 1060-6번지","category":"기타 - 기계공구"}]},{"lat":"37.591483406","long":"127.22636782","items":[{"name":"대한기업","tel":"031-566-7515","addr":"경기도 남양주시 와부읍 월문리 1275-1","category":"건축자재 - 유리"}]},{"lat":"37.623226039","long":"127.26105673","items":[{"name":"대한불교조계종 묘적사","tel":"031-577-1761","addr":"경기도 남양주시 와부읍 월문리 223번지","category":"기타 - 비영리/대상"}]},{"lat":"37.601534442","long":"127.24653218","items":[{"name":"더고트","tel":"","addr":"경기도 남양주시 와부읍 월문리 424-8번지 1,2층","category":"일반휴게음식 - 일반한식"}]},{"lat":"37.618529799","long":"127.27407752","items":[{"name":"더로스터스앤커피3타임즈","tel":"031-521-0010","addr":"경기도 남양주시 와부읍 월문리 109-2번지","category":"음료식품 - 기타음료식품"}]},{"lat":"37.600894043","long":"127.24247608","items":[{"name":"더로키","tel":"","addr":"경기도 남양주시 와부읍 월문리 511-1번지 1층","category":"일반휴게음식 - 서양음식"}]},{"lat":"37.60934049","long":"127.24477956","items":[{"name":"덕소승마클럽","tel":"070-8813-6485","addr":"경기도 남양주시 와부읍 월문리 666번지","category":"레저업소 - 기타레져업소"}]},{"lat":"37.594119295","long":"127.22369215","items":[{"name":"덕소한우사랑","tel":"031-577-2488","addr":"경기도 남양주시 와부읍 월문리 1246-17번지","category":"일반휴게음식 - 일반한식"}]},{"lat":"37.592199702","long":"127.22872508","items":[{"name":"덕소해장","tel":"031-576-9915","addr":"경기도 남양주시 와부읍 월문리 1054-1번지","category":"일반휴게음식 - 일반한식"}]},{"lat":"37.617088932","long":"127.27377779","items":[{"name":"돈킴 덕소점","tel":"031-567-8889","addr":"경기도 남양주시 와부읍 월문리 117-15번지 1층","category":"일반휴게음식 - 일반한식"}]},{"lat":"37.606369072","long":"127.23944726","items":[{"name":"동아렌탈","tel":"000-0000-0000","addr":"경기도 남양주시 와부읍 월문리 580-4번지","category":"신변잡화 - 기타잡화"}]},{"lat":"37.615342431","long":"127.27707871","items":[{"name":"동양앤틱","tel":"031-576-6586","addr":"경기도 남양주시 와부읍 월문리 125-10번지","category":"가구 - 일반가구"}]},{"lat":"37.592478526","long":"127.22897503","items":[{"name":"두꺼비","tel":"031-576-5104","addr":"경기도 남양주시 와부읍 월문리 1082번지","category":"일반휴게음식 - 일반한식"},{"name":"두꺼비정육점","tel":"031-576-5104","addr":"경기도 남양주시 와부읍 월문리 1082번지","category":"음료식품 - 정육점"}]},{"lat":"37.62464214","long":"127.28021663","items":[{"name":"드라이브인띠아모호텔","tel":"031-576-4787","addr":"경기도 남양주시 와부읍 월문리 86-5번지","category":"숙박업 - 여관/기타숙박업"}]},{"lat":"37.593641928","long":"127.22361148","items":[{"name":"라브륀느","tel":"031-521-2525","addr":"경기도 남양주시 와부읍 월문리 1247-4번지 1층","category":"일반휴게음식 - 일반한식"}]},{"lat":"37.6073379","long":"127.25874813","items":[{"name":"랑랑이네 정원","tel":"031-577-0726","addr":"경기도 남양주시 와부읍 월문리 317-37번지","category":"일반휴게음식 - 서양음식"}]},{"lat":"37.607838615","long":"127.28038074","items":[{"name":"런닝머신114","tel":"","addr":"경기도 남양주시 와부읍 월문리 56-3번지 1동 2동","category":"레져용품 - 스포츠·레져용품"}]},{"lat":"37.606281226","long":"127.25574343","items":[{"name":"로프트317","tel":"031-511-9175","addr":"경기도 남양주시 와부읍 월문리 317-28번지 1층","category":"일반휴게음식 - 서양음식"}]},{"lat":"37.595142338","long":"127.22585789","items":[{"name":"리브로쇼파","tel":"031-1566-9156","addr":"경기도 남양주시 와부읍 월문리 1245-5번지 외 1필지 1층","category":"가구 - 일반가구"}]},{"lat":"37.615085807","long":"127.27113153","items":[{"name":"리비오 가구","tel":"031-511-7994","addr":"경기도 남양주시 와부읍 월문리 184-3번지","category":"가구 - 일반가구"}]},{"lat":"37.600587046","long":"127.2428035","items":[{"name":"마니또 스토어","tel":"031-792-6109","addr":"경기도 남양주시 와부읍 월문리 505-3번지","category":"유통업 영리 - 편 의 점"},{"name":"백애현한복","tel":"031-577-0064","addr":"경기도 남양주시 와부읍 월문리 505-3번지 102호","category":"의류 - 맞춤복점"}]},{"lat":"37.590675083","long":"127.22975082","items":[{"name":"마당","tel":"031-521-9277","addr":"경기도 남양주시 와부읍 월문리 1049번지","category":"일반휴게음식 - 일반한식"}]},{"lat":"37.611732296","long":"127.26393901","items":[{"name":"만수로","tel":"031-575-3517","addr":"경기도 남양주시 와부읍 월문리 249-1번지","category":"유통업 영리 - 기타유통업"}]},{"lat":"37.596757468","long":"127.28002253","items":[{"name":"맨윗집","tel":"031-576-8658","addr":"경기도 남양주시 와부읍 월문리 1357번지","category":"일반휴게음식 - 일반한식"}]},{"lat":"37.614197275","long":"127.27357476","items":[{"name":"맨첫집","tel":"031-576-9252","addr":"경기도 남양주시 와부읍 월문리 127-1번지","category":"일반휴게음식 - 일반한식"}]},{"lat":"37.600338382","long":"127.28591293","items":[{"name":"머치고개정원","tel":"031-0000-0000","addr":"경기도 남양주시 와부읍 월문리 1303번지","category":"문화.취미 - 화원"}]},{"lat":"37.616478507","long":"127.27280151","items":[{"name":"묘적식당","tel":"031-576-6878","addr":"경기도 남양주시 와부읍 월문리 182-1번지","category":"일반휴게음식 - 일반한식"}]},{"lat":"37.60186574","long":"127.24752978","items":[{"name":"미니스톱월문제일점","tel":"031-1577-9621","addr":"경기도 남양주시 와부읍 월문리 430-1번지 1층","category":"유통업 영리 - 편 의 점"},{"name":"수레짬뽕","tel":"031-573-7970","addr":"경기도 남양주시 와부읍 월문리 430-1번지 2층","category":"일반휴게음식 - 중국식"}]},{"lat":"37.616641328","long":"127.27251894","items":[{"name":"민가네 어탕국수","tel":"031-576-1533","addr":"경기도 남양주시 와부읍 월문리 119-3번지 1층","category":"일반휴게음식 - 일반한식"}]},{"lat":"37.595005391","long":"127.22680863","items":[{"name":"바람에포차","tel":"","addr":"경기도 남양주시 와부읍 월문리 1254-2번지 1층","category":"일반휴게음식 - 일반한식"},{"name":"신)구리상사","tel":"031-551-7771","addr":"경기도 남양주시 와부읍 월문리 1254-2","category":"보건위생 - 화장품"},{"name":"아트앤피플 통","tel":"070-8971-3018","addr":"경기도 남양주시 와부읍 월문리 1254-2번지 101호","category":"학원 - 기타 교육기관"},{"name":"지민수산","tel":"","addr":"경기도 남양주시 와부읍 월문리 1254-2번지","category":"일반휴게음식 - 일반한식"}]},{"lat":"37.600007979","long":"127.24400197","items":[{"name":"바른파트너스","tel":"031-0000-0000","addr":"경기도 남양주시 와부읍 월문리 507-1번지","category":"가구 - 일반가구"}]},{"lat":"37.608336524","long":"127.25941974","items":[{"name":"바오로건강센타","tel":"031-577-4389","addr":"경기도 남양주시 와부읍 월문리 269-2번지","category":"건강식품 - 기타건강식품"}]},{"lat":"37.592615857","long":"127.22783184","items":[{"name":"밥한상","tel":"031-577-1199","addr":"경기도 남양주시 와부읍 월문리 1261-1번지","category":"일반휴게음식 - 일반한식"}]},{"lat":"37.610141056","long":"127.26235922","items":[{"name":"백봉꿀갈비","tel":"031-576-5868","addr":"경기도 남양주시 와부읍 월문리 251-17번지","category":"일반휴게음식 - 일반한식"}]},{"lat":"37.601814799","long":"127.24160708","items":[{"name":"복이네한정식","tel":"031-577-5218","addr":"경기도 남양주시 와부읍 월문리 538-5번지","category":"일반휴게음식 - 일반한식"}]},{"lat":"37.615559833","long":"127.27266228","items":[{"name":"부국산업","tel":"031-576-0351","addr":"경기도 남양주시 와부읍 월문리 182-11번지","category":"건축자재 - 목재·석재·철물"}]},{"lat":"37.597141571","long":"127.23106133","items":[{"name":"블루베리","tel":"031-577-3892","addr":"경기도 남양주시 와부읍 월문리 1122-4번지","category":"신변잡화 - 기타잡화"}]},{"lat":"37.606310917","long":"127.2544978","items":[{"name":"사계절합판","tel":"031-576-8548","addr":"경기도 남양주시 와부읍 월문리 388-2번지","category":"건축자재 - 목재·석재·철물"}]},{"lat":"37.618725295","long":"127.27132583","items":[{"name":"산약초이야기건강촌","tel":"031-577-2500","addr":"경기도 남양주시 와부읍 월문리 200-1번지","category":"일반휴게음식 - 일반한식"}]},{"lat":"37.617641451","long":"127.2724999","items":[{"name":"삼화셔터","tel":"02-972-9966","addr":"경기도 남양주시 와부읍 월문리 196","category":"건축자재 - 목재·석재·철물"}]},{"lat":"37.616314933","long":"127.27341254","items":[{"name":"상신소음기","tel":"031-576-0377","addr":"경기도 남양주시 와부읍 월문리 116-6번지","category":"자동차정비 유지 - 자동차부품"},{"name":"파워윙스톤","tel":"031-576-7727","addr":"경기도 남양주시 와부읍 월문리 116-6번지 1층","category":"자동차정비 유지 - 자동차부품"}]},{"lat":"37.607176438","long":"127.25841915","items":[{"name":"상원","tel":"031-551-5785","addr":"경기도 남양주시 와부읍 월문리 309-7번지","category":"가구 - 일반가구"}]},{"lat":"37.619336043","long":"127.27608529","items":[{"name":"석주조각원","tel":"031-577-4036","addr":"경기도 남양주시 와부읍 월문리 114번지","category":"건축자재 - 목재·석재·철물"}]},{"lat":"37.616642956","long":"127.27180538","items":[{"name":"선원공조","tel":"","addr":"경기도 남양주시 와부읍 월문리 188-1번지","category":"용역 서비스 - 기타용역서비스"}]},{"lat":"37.6156149","long":"127.27222075","items":[{"name":"성원","tel":"031-577-8517","addr":"경기도 남양주시 와부읍 월문리 182-3번지","category":"레져용품 - 악기점"}]},{"lat":"37.616954229","long":"127.27358476","items":[{"name":"세기전기조명","tel":"031-521-5990","addr":"경기도 남양주시 와부읍 월문리 117-3번지 1,2층","category":"건축자재 - 조명기구"}]},{"lat":"37.617752466","long":"127.27516204","items":[{"name":"쉴모텔","tel":"031-576-6200","addr":"경기도 남양주시 와부읍 월문리 115-7번지","category":"숙박업 - 여관/기타숙박업"}]},{"lat":"37.602731354","long":"127.24281038","items":[{"name":"스사모몰","tel":"031-521-2278","addr":"경기도 남양주시 와부읍 월문리 550-2번지","category":"주방용구 - 주방용구"}]},{"lat":"37.590539481","long":"127.22525539","items":[{"name":"스타유통","tel":"031-346-7677","addr":"경기도 남양주시 와부읍 월문리 1280-7번지 1층","category":"의류 - 정장"}]},{"lat":"37.616253654","long":"127.2726308","items":[{"name":"시온산업","tel":"031-577-1642","addr":"경기도 남양주시 와부읍 월문리 182-19번지 월문카공업사 2호","category":"기타 - 기계공구"},{"name":"월문자동차공업사","tel":"031-576-0659","addr":"경기도 남양주시 와부읍 월문리 182-19번지","category":"자동차정비 유지 - 자동차정비"}]},{"lat":"37.608398754","long":"127.259805","items":[{"name":"신혼방","tel":"031-577-2074","addr":"경기도 남양주시 와부읍 월문리 269-11번지 1층","category":"일반휴게음식 - 서양음식"}]},{"lat":"37.59509041","long":"127.22946982","items":[{"name":"싸인아트디자인","tel":"031-576-0973","addr":"경기도 남양주시 와부읍 월문리 1075-1번지","category":"건축자재 - 인테리어전문"}]},{"lat":"37.595481443","long":"127.22758003","items":[{"name":"쌍용자동차덕소서비스프라자","tel":"031-577-5581","addr":"경기도 남양주시 와부읍 월문리 1139-1번지 1층","category":"자동차정비 유지 - 자동차정비"}]},{"lat":"37.598089518","long":"127.2346991","items":[{"name":"씨엠에스코리아(CMSKOREA)","tel":"02-822-4064","addr":"경기도 남양주시 와부읍 월문리 988번지","category":"용역 서비스 - 기타용역서비스"}]},{"lat":"37.591482204","long":"127.22700188","items":[{"name":"아네스다육","tel":"031-577-0069","addr":"경기도 남양주시 와부읍 월문리 1057-7 외3필지 1053-4, 1057-23, 1057-22","category":"문화.취미 - 화원"}]},{"lat":"37.602560119","long":"127.2472263","items":[{"name":"아란밥상","tel":"031-577-3738","addr":"경기도 남양주시 와부읍 월문리 407-2번지 1층","category":"일반휴게음식 - 일반한식"}]},{"lat":"37.622112299","long":"127.26357885","items":[{"name":"아르페지오","tel":"031-576-5868","addr":"경기도 남양주시 와부읍 월문리 218-2번지","category":"일반휴게음식 - 일반한식"}]},{"lat":"37.595004703","long":"127.22717097","items":[{"name":"알파카코리아. 알파카뉴질랜드","tel":"031-521-7300","addr":"경기도 남양주시 와부읍 월문리 1255-2번지 301호","category":"직물 - 침구·수예점"},{"name":"월문식당","tel":"031-521-9666","addr":"경기도 남양주시 와부읍 월문리 1255-2번지 1층","category":"일반휴게음식 - 일반한식"}]},{"lat":"37.596031691","long":"127.24103376","items":[{"name":"압구정 렌탈","tel":"02-3424-8688","addr":"경기도 남양주시 와부읍 월문리 472번지","category":"신변잡화 - 기타잡화"}]},{"lat":"37.607950819","long":"127.27863709","items":[{"name":"애견테마아우름","tel":"031-521-9040","addr":"경기도 남양주시 와부읍 월문리 53번지","category":"문화.취미 - 애완동물"}]},{"lat":"37.601149032","long":"127.24555705","items":[{"name":"어닝 만드는 여자","tel":"031-000-0000","addr":"경기도 남양주시 와부읍 월문리 434-4번지 1동","category":"직물 - 카페트,커튼,천막,지물"}]},{"lat":"37.604260174","long":"127.25286016","items":[{"name":"어화천","tel":"031-576-6442","addr":"경기도 남양주시 와부읍 월문리 396-2번지","category":"문화.취미 - 수족관"}]},{"lat":"37.600866504","long":"127.22903438","items":[{"name":"에스에스디자인(SS DESIGN)","tel":"031-576-3064","addr":"경기도 남양주시 와부읍 월문리 1157번지 1동","category":"건축자재 - 보일러·펌프·샷시"}]},{"lat":"37.595003713","long":"127.22769183","items":[{"name":"에이치엠코리아","tel":"031-000-0000","addr":"경기도 남양주시 와부읍 월문리 1065-3번지","category":"유통업 영리 - 기타유통업"}]},{"lat":"37.606594109","long":"127.2568883","items":[{"name":"엘주란(L.JURAN)","tel":"031-576-6103","addr":"경기도 남양주시 와부읍 월문리 313-1번지","category":"음료식품 - 농·축·수산품"}]},{"lat":"37.613588528","long":"127.27186234","items":[{"name":"엠엔에이취퍼니쳐","tel":"031-551-0850","addr":"경기도 남양주시 와부읍 월문리 179번지","category":"가구 - 일반가구"}]},{"lat":"37.606003731","long":"127.2590833","items":[{"name":"영광불교토속공예","tel":"031-576-1763","addr":"경기도 남양주시 와부읍 월문리 306번지","category":"문화.취미 - 민예·공예품"}]},{"lat":"37.60967415","long":"127.24463341","items":[{"name":"예원","tel":"","addr":"경기도 남양주시 와부읍 월문리 700번지","category":"문화.취미 - 화원"}]},{"lat":"37.601560439","long":"127.24263676","items":[{"name":"오거나이저","tel":"031-528-6263","addr":"경기도 남양주시 와부읍 월문리 542번지 1층","category":"서적문구 - 완구점"}]},{"lat":"37.594590321","long":"127.22713575","items":[{"name":"오렌지","tel":"031-577-1916","addr":"경기도 남양주시 와부읍 월문리 1062번지","category":"의류 - 아동의류"}]},{"lat":"37.5962808","long":"127.22889594","items":[{"name":"옹기종기","tel":"031-521-7287","addr":"경기도 남양주시 와부읍 월문리 1141-11번지 1층","category":"일반휴게음식 - 일반한식"}]},{"lat":"37.608704261","long":"127.28007817","items":[{"name":"와부마트","tel":"070-8156-7916","addr":"경기도 남양주시 와부읍 월문리 62-8번지","category":"유통업 영리 - 슈퍼마켓"}]},{"lat":"37.605230737","long":"127.28210373","items":[{"name":"와이제이(YJ)갤러리","tel":"070-7797-1805","addr":"경기도 남양주시 와부읍 월문리 46번지","category":"문화.취미 - 화랑"}]},{"lat":"37.601645821","long":"127.24494716","items":[{"name":"외할머니집","tel":"031-521-7701","addr":"경기도 남양주시 와부읍 월문리 427-8번지","category":"일반휴게음식 - 일반한식"},{"name":"해마루흑두부","tel":"031-521-2080","addr":"경기도 남양주시 와부읍 월문리 427-8번지","category":"일반휴게음식 - 일반한식"}]},{"lat":"37.600090945","long":"127.23861206","items":[{"name":"우정한방꽃차교육원","tel":"031-000-0000","addr":"경기도 남양주시 와부읍 월문리 977-1번지","category":"학원 - 기타 교육기관"}]},{"lat":"37.596175228","long":"127.23224733","items":[{"name":"워터월드정수기백화점","tel":"031-551-4597","addr":"경기도 남양주시 와부읍 월문리 1112번지","category":"주방용구 - 정수기"}]},{"lat":"37.605670201","long":"127.25916143","items":[{"name":"월드그린","tel":"031-577-5424","addr":"경기도 남양주시 와부읍 월문리 294-3번지 1층 2층","category":"용역 서비스 - 종합용역"}]},{"lat":"37.617119848","long":"127.27207893","items":[{"name":"월문공조","tel":"","addr":"경기도 남양주시 와부읍 월문리 194-7번지","category":"용역 서비스 - 기타용역서비스"}]},{"lat":"37.596424543","long":"127.22911152","items":[{"name":"월문한식부페","tel":"031-576-0606","addr":"경기도 남양주시 와부읍 월문리 1141-2번지 외2필지","category":"일반휴게음식 - 일반한식"}]},{"lat":"37.600589729","long":"127.2862989","items":[{"name":"위드헬스케어","tel":"031-510-6650","addr":"경기도 남양주시 와부읍 월문리 1287-3번지 1층","category":"보건위생 - 의료용품"}]},{"lat":"37.603753339","long":"127.28201893","items":[{"name":"육군제5797부대","tel":"031-577-5793","addr":"경기도 남양주시 와부읍 월문리 43번지 경리과","category":"유통업 비영리 - 구내매점(국가기관"}]},{"lat":"37.595426111","long":"127.22824794","items":[{"name":"육대장","tel":"031-577-9772","addr":"경기도 남양주시 와부읍 월문리 1138-2번지 1층","category":"일반휴게음식 - 일반한식"}]},{"lat":"37.600059006","long":"127.24105792","items":[{"name":"이마트24 남양주월문점","tel":"","addr":"경기도 남양주시 와부읍 월문리 503-8번지","category":"유통업 영리 - 편 의 점"}]},{"lat":"37.593839676","long":"127.22386117","items":[{"name":"자성화 코다리네 덕소점","tel":"031-555-1967","addr":"경기도 남양주시 와부읍 월문리 1247-7번지","category":"일반휴게음식 - 일반한식"}]},{"lat":"37.606173983","long":"127.25533537","items":[{"name":"장원불고기","tel":"031-7191-7581","addr":"경기도 남양주시 와부읍 월문리 317-30번지","category":"일반휴게음식 - 일반한식"}]},{"lat":"37.615258681","long":"127.27822235","items":[{"name":"제이에이치 (JH)공조","tel":"031-576-0707","addr":"경기도 남양주시 와부읍 월문리 125-13번지","category":"용역 서비스 - 기타용역서비스"}]},{"lat":"37.620283157","long":"127.27561302","items":[{"name":"제이엠가구(JM가구)","tel":"070-7420-3096","addr":"경기도 남양주시 와부읍 월문리 108-6번지","category":"가구 - 일반가구"}]},{"lat":"37.596455935","long":"127.23152349","items":[{"name":"제주은갈치","tel":"031-521-1999","addr":"경기도 남양주시 와부읍 월문리 1115번지","category":"일반휴게음식 - 일반한식"}]},{"lat":"37.609614636","long":"127.27991167","items":[{"name":"제주종갓집","tel":"031-576-1616","addr":"경기도 남양주시 와부읍 월문리 62-4번지","category":"일반휴게음식 - 일반한식"}]},{"lat":"37.603147368","long":"127.25077275","items":[{"name":"주식회사 기성마루","tel":"031-521-8722","addr":"경기도 남양주시 와부읍 월문리 402-2번지","category":"건축자재 - 기타건축자재"}]},{"lat":"37.595978793","long":"127.23132954","items":[{"name":"주식회사 소모","tel":"031-000-0000","addr":"경기도 남양주시 와부읍 월문리 1109-1번지","category":"자동차정비 유지 - 자동차부품"}]},{"lat":"37.62372446","long":"127.27965818","items":[{"name":"주식회사 아람실업","tel":"02-1599-5942","addr":"경기도 남양주시 와부읍 월문리 86-8번지 나동 2","category":"용역 서비스 - 종합용역"}]},{"lat":"37.593281301","long":"127.2285019","items":[{"name":"주식회사 애니워터(ANYWATER)","tel":"02-1600-3479","addr":"경기도 남양주시 와부읍 월문리 1060-9번지","category":"주방용구 - 정수기"}]},{"lat":"37.592843145","long":"127.22675686","items":[{"name":"주식회사 에바다산업","tel":"031-591-1634","addr":"경기도 남양주시 와부읍 월문리 1261-22번지","category":"직물 - 옷감·직물"}]},{"lat":"37.59939177","long":"127.23680937","items":[{"name":"주식회사 정현미트","tel":"031-000-0000","addr":"경기도 남양주시 와부읍 월문리 979-2번지 1층","category":"음료식품 - 정육점"}]},{"lat":"37.597093734","long":"127.23249926","items":[{"name":"주식회사 휴네이스","tel":"031-521-1188","addr":"경기도 남양주시 와부읍 월문리 1118-9번지","category":"주방용구 - 주방용구"}]},{"lat":"37.622473597","long":"127.25904919","items":[{"name":"주식회사가이아디앤씨","tel":"02-515-7270","addr":"경기도 남양주시 와부읍 월문리 342번지","category":"용역 서비스 - 부동산 중개·임대"}]},{"lat":"37.620751213","long":"127.27580729","items":[{"name":"진승가구렌탈","tel":"031-577-3431","addr":"경기도 남양주시 와부읍 월문리 107번지","category":"가구 - 일반가구"}]},{"lat":"37.601704667","long":"127.24699702","items":[{"name":"천서리막국수남양주점","tel":"031-521-2055","addr":"경기도 남양주시 와부읍 월문리 425-1번지","category":"일반휴게음식 - 일반한식"},{"name":"케이에스스포츠","tel":"02-417-7184","addr":"경기도 남양주시 와부읍 월문리 425-1번지 2층","category":"레져용품 - 스포츠·레져용품"}]},{"lat":"37.613616481","long":"127.26746797","items":[{"name":"청기와","tel":"031-576-0711","addr":"경기도 남양주시 와부읍 월문리 161-1번지","category":"일반휴게음식 - 일반한식"}]},{"lat":"37.59042712","long":"127.2274969","items":[{"name":"카카오 골프","tel":"031-577-6667","addr":"경기도 남양주시 와부읍 월문리 1052-7번지 지하1층","category":"레저업소 - 스크린골프"}]},{"lat":"37.612176344","long":"127.26277402","items":[{"name":"카페더뷰","tel":"031-577-4679","addr":"경기도 남양주시 와부읍 월문리 249-2번지","category":"일반휴게음식 - 서양음식"}]},{"lat":"37.601032487","long":"127.24527357","items":[{"name":"카페라움","tel":"031-521-7739","addr":"경기도 남양주시 와부읍 월문리 434-7번지 1층","category":"일반휴게음식 - 서양음식"}]},{"lat":"37.592480819","long":"127.22777482","items":[{"name":"카페비요","tel":"031-510-5219","addr":"경기도 남양주시 와부읍 월문리 1059-6번지 1층","category":"일반휴게음식 - 서양음식"}]},{"lat":"37.592089892","long":"127.22960792","items":[{"name":"카페언더힐 (cafe nuder hill)","tel":"031-521-7395","addr":"경기도 남양주시 와부읍 월문리 1089-2번지 2층","category":"일반휴게음식 - 서양음식"},{"name":"함박웃음양평해장국","tel":"031-576-2225","addr":"경기도 남양주시 와부읍 월문리 1089-2번지 1층","category":"일반휴게음식 - 일반한식"}]},{"lat":"37.608200358","long":"127.2798045","items":[{"name":"케이나인 아우름의식탁","tel":"031-521-9041","addr":"경기도 남양주시 와부읍 월문리 56-5번지","category":"일반휴게음식 - 일반한식"}]},{"lat":"37.592009326","long":"127.22933593","items":[{"name":"코다리명가별당","tel":"031-577-7709","addr":"경기도 남양주시 와부읍 월문리 1087-1번지","category":"일반휴게음식 - 일반한식"}]},{"lat":"37.592064036","long":"127.22899642","items":[{"name":"키즈빌어린이집[아이행복]","tel":"031-521-9473","addr":"경기도 남양주시 와부읍 월문리 1084번지","category":"학원 - 유아원"}]},{"lat":"37.606369458","long":"127.23925474","items":[{"name":"태양종합상사","tel":"031-795-3644","addr":"경기도 남양주시 와부읍 월문리 580-11","category":"직물 - 침구·수예점"}]},{"lat":"37.605204197","long":"127.25380326","items":[{"name":"태영퍼니쳐","tel":"02-412-0811","addr":"경기도 남양주시 와부읍 월문리 391-8번지","category":"주방용구 - 주방용구"}]},{"lat":"37.592314482","long":"127.22994829","items":[{"name":"팔당집","tel":"031-576-4511","addr":"경기도 남양주시 와부읍 월문리 1091-1번지","category":"일반휴게음식 - 일반한식"}]},{"lat":"37.590588756","long":"127.22778045","items":[{"name":"팽현숙의 옛날순대국","tel":"031-521-8377","addr":"경기도 남양주시 와부읍 월문리 1052-6번지 2층","category":"일반휴게음식 - 일반한식"}]},{"lat":"37.616920239","long":"127.27268984","items":[{"name":"풍성한전원식당","tel":"031-576-1861","addr":"경기도 남양주시 와부읍 월문리 119-1번지","category":"일반휴게음식 - 일반한식"}]},{"lat":"37.618507549","long":"127.27591236","items":[{"name":"피노키오","tel":"031-577-8885","addr":"경기도 남양주시 와부읍 월문리 115-43번지","category":"숙박업 - 여관/기타숙박업"}]},{"lat":"37.600815623","long":"127.28602798","items":[{"name":"피터패트(PIT A PAT)","tel":"031-000-0000","addr":"경기도 남양주시 와부읍 월문리 1292번지","category":"일반휴게음식 - 서양음식"}]},{"lat":"37.592198161","long":"127.22952899","items":[{"name":"필모터스","tel":"031-521-5189","addr":"경기도 남양주시 와부읍 월문리 1090-1번지","category":"자동차정비 유지 - 자동차부품"}]},{"lat":"37.590642339","long":"127.22802971","items":[{"name":"한마음정육식당","tel":"031-521-3957","addr":"경기도 남양주시 와부읍 월문리 1052-10번지","category":"일반휴게음식 - 일반한식"}]},{"lat":"37.614834899","long":"127.27053034","items":[{"name":"한우플러스나주곰탕","tel":"031-576-7411","addr":"경기도 남양주시 와부읍 월문리 168-3번지","category":"일반휴게음식 - 일반한식"}]},{"lat":"37.600200296","long":"127.24247386","items":[{"name":"한울타리펫브리더스영농조합법인","tel":"031-521-4987","addr":"경기도 남양주시 와부읍 월문리 506-1번지","category":"문화.취미 - 애완동물"}]},{"lat":"37.592620769","long":"127.22997186","items":[{"name":"할배할매모종농장","tel":"","addr":"경기도 남양주시 와부읍 월문리 1104-5번지","category":"농업 - 비료,사료,종자"}]},{"lat":"37.60095456","long":"127.28444314","items":[{"name":"해넘이 숲속마을","tel":"031-576-3117","addr":"경기도 남양주시 와부읍 월문리 26번지","category":"일반휴게음식 - 일반한식"}]},{"lat":"37.611119638","long":"127.26393687","items":[{"name":"행복퍼니처","tel":"031-521-2888","addr":"경기도 남양주시 와부읍 월문리 255번지","category":"주방용구 - 주방용구"}]},{"lat":"37.59361511","long":"127.22349817","items":[{"name":"허니포크","tel":"031-576-0477","addr":"경기도 남양주시 와부읍 월문리 1247-12번지","category":"일반휴게음식 - 일반한식"}]},{"lat":"37.61872946","long":"127.26546993","items":[{"name":"황제능이백숙","tel":"02-2679-6605","addr":"경기도 남양주시 와부읍 월문리 237번지 1층","category":"일반휴게음식 - 일반한식"}]}]