[{"lat":"37.37637001","long":"127.3278816","items":[{"name":"(주)아코폰","tel":"031-765-1055","addr":"경기도 광주시 초월읍 학동리 335-3","category":"주방용구 - 주방용구"}]},{"lat":"37.38250727","long":"127.3306405","items":[{"name":"GS25광주학동점","tel":"","addr":"경기도 광주시 초월읍 학동리 173-3번지 1층","category":"유통업 영리 - 편 의 점"}]},{"lat":"37.38081333","long":"127.3273927","items":[{"name":"LETTO디자인","tel":"031-769-2842","addr":"경기도 광주시 초월읍 학동리 313-1번지","category":"가구 - 일반가구"}]},{"lat":"37.38233771","long":"127.3300526","items":[{"name":"그냥치킨","tel":"031-762-5549","addr":"경기도 광주시 초월읍 학동리 184","category":"일반휴게음식 - 주점"},{"name":"살구나무매점","tel":"031-762-5549","addr":"경기도 광주시 초월읍 학동리 184","category":"유통업 영리 - 슈퍼마켓"},{"name":"살구나무식당","tel":"031-762-5549","addr":"경기도 광주시 초월읍 학동리 184","category":"일반휴게음식 - 일반한식"}]},{"lat":"37.38514828","long":"127.3334975","items":[{"name":"금마디자인","tel":"031-768-3608","addr":"경기도 광주시 초월읍 학동리 152-2번지 1층,2층","category":"주방용구 - 주방용구"}]},{"lat":"37.37626155","long":"127.3344972","items":[{"name":"다이손","tel":"031-768-4000","addr":"경기도 광주시 초월읍 학동리 446-2번지 1층","category":"주방용구 - 주방용구"}]},{"lat":"37.38164715","long":"127.3288867","items":[{"name":"다희할인마트","tel":"031-766-2612","addr":"경기도 광주시 초월읍 학동리 196번지","category":"유통업 영리 - 슈퍼마켓"}]},{"lat":"37.38611601","long":"127.33541","items":[{"name":"대진건설산업","tel":"031-769-7785","addr":"경기도 광주시 초월읍 학동리 145","category":"건축자재 - 기타건축자재"}]},{"lat":"37.39475804","long":"127.3412753","items":[{"name":"대진산업","tel":"","addr":"경기도 광주시 초월읍 학동리 14-4번지","category":"건강식품 - 기타건강식품"}]},{"lat":"37.38137171","long":"127.3307485","items":[{"name":"더존프라임폴딩 도어","tel":"031-798-7448","addr":"경기도 광주시 초월읍 학동리 208번지 2동","category":"건축자재 - 기타건축자재"}]},{"lat":"37.37770223","long":"127.3250535","items":[{"name":"동성기업사","tel":"031-763-3071","addr":"경기도 광주시 초월읍 학동리 324-10번지","category":"의류 - 기타의류"}]},{"lat":"37.38064292","long":"127.3336132","items":[{"name":"명인우드","tel":"031-768-8675","addr":"경기도 광주시 초월읍 학동리 268-2번지","category":"건축자재 - 기타건축자재"}]},{"lat":"37.39209406","long":"127.3402244","items":[{"name":"미가","tel":"031-798-8003","addr":"경기도 광주시 초월읍 학동리 30-3번지","category":"일반휴게음식 - 일반한식"}]},{"lat":"37.37767713","long":"127.3341421","items":[{"name":"블루곤","tel":"031-762-0341","addr":"경기도 광주시 초월읍 학동리 281번지","category":"문화.취미 - 화원"}]},{"lat":"37.3832825","long":"127.333749","items":[{"name":"생각랜드","tel":"031-769-0125","addr":"경기도 광주시 초월읍 학동리 236-9번지","category":"레저업소 - 기타레져업소"}]},{"lat":"37.39158744","long":"127.3409449","items":[{"name":"선산가구","tel":"","addr":"경기도 광주시 초월읍 학동리 61번지","category":"가구 - 일반가구"}]},{"lat":"37.38233693","long":"127.3303349","items":[{"name":"성운카공업사","tel":"031-763-1761","addr":"경기도 광주시 초월읍 학동리 174-5","category":"자동차정비 유지 - 자동차정비"},{"name":"집밥밥집","tel":"031-797-2772","addr":"경기도 광주시 초월읍 학동리 174-5번지","category":"일반휴게음식 - 일반한식"}]},{"lat":"37.38309423","long":"127.3334094","items":[{"name":"세중피앤피","tel":"050-4427-4737","addr":"경기도 광주시 초월읍 학동리 244번지","category":"유통업 영리 - 기타유통업"}]},{"lat":"37.38114922","long":"127.3329944","items":[{"name":"소망어닝","tel":"","addr":"경기도 광주시 초월읍 학동리 266-3번지","category":"직물 - 카페트,커튼,천막,지물"}]},{"lat":"37.38728219","long":"127.3340263","items":[{"name":"아임슬리핑","tel":"","addr":"경기도 광주시 초월읍 학동리 138번지 2층","category":"직물 - 침구·수예점"}]},{"lat":"37.38517749","long":"127.3327185","items":[{"name":"에스에이치테크","tel":"","addr":"경기도 광주시 초월읍 학동리 160-1번지","category":"가구 - 철제가구"}]},{"lat":"37.38372578","long":"127.3331073","items":[{"name":"에이브이씨주식회사/원격지","tel":"031-768-9111","addr":"경기도 광주시 초월읍 학동리 234-3번지","category":"기타 - 기타 전문점"}]},{"lat":"37.37856274","long":"127.3364154","items":[{"name":"엠케이(MK)테니스아카데미","tel":"","addr":"경기도 광주시 초월읍 학동리 277-33번지","category":"레저업소 - 테니스장"}]},{"lat":"37.37906272","long":"127.3283561","items":[{"name":"영재교육 앤 에스피씨(EDU & SPC)","tel":"031-8027-2146","addr":"경기도 광주시 초월읍 학동리 317-9번지 1동전체","category":"서적문구 - 기타서적문구"},{"name":"주식회사 아이로앤에스피씨","tel":"031-8027-2147","addr":"경기도 광주시 초월읍 학동리 317-9번지 1동","category":"가구 - 일반가구"}]},{"lat":"37.38303817","long":"127.3308912","items":[{"name":"옥천가든","tel":"031-763-7556","addr":"경기도 광주시 초월읍 학동리 170-3번지","category":"일반휴게음식 - 일반한식"}]},{"lat":"37.38456052","long":"127.3342514","items":[{"name":"우창N.C","tel":"031-769-7302","addr":"경기도 광주시 초월읍 학동리 149-14번지","category":"가구 - 일반가구"}]},{"lat":"37.38020531","long":"127.3289708","items":[{"name":"원스튜디오","tel":"031-761-5665","addr":"경기도 광주시 초월읍 학동리 305-4번지","category":"광학제품 - 사진관"}]},{"lat":"37.37742428","long":"127.3245555","items":[{"name":"월드디자인","tel":"031-769-5778","addr":"경기도 광주시 초월읍 학동리 324-18","category":"가구 - 일반가구"}]},{"lat":"37.3849763","long":"127.333779","items":[{"name":"장수구들온수침대","tel":"031-769-6526","addr":"경기도 광주시 초월읍 학동리 149-11","category":"가구 - 일반가구"}]},{"lat":"37.3875038","long":"127.3353258","items":[{"name":"주식회사 다나가구","tel":"031-763-6727","addr":"경기도 광주시 초월읍 학동리 133번지 1층","category":"가구 - 일반가구"}]},{"lat":"37.38772857","long":"127.3354962","items":[{"name":"주식회사 씨앤컴퍼니","tel":"031-761-8801","addr":"경기도 광주시 초월읍 학동리 133-3번지","category":"레져용품 - 스포츠·레져용품"}]},{"lat":"37.38292298","long":"127.3301907","items":[{"name":"지엠(GM)포장","tel":"031-000-0000","addr":"경기도 광주시 초월읍 학동리 178번지","category":"유통업 영리 - 기타유통업"}]},{"lat":"37.38458998","long":"127.3333821","items":[{"name":"찬덕","tel":"031-792-6288","addr":"경기도 광주시 초월읍 학동리 236-22번지","category":"신변잡화 - 기념품점"}]},{"lat":"37.38391948","long":"127.3347228","items":[{"name":"한강산업전기 (주)","tel":"031-769-1491","addr":"경기도 광주시 초월읍 학동리 149-29","category":"전기제품 - 기타전기제품"}]},{"lat":"37.39195407","long":"127.3419177","items":[{"name":"한국양봉프로폴리스","tel":"031-797-6550","addr":"경기도 광주시 초월읍 학동리 24번지","category":"건강식품 - 기타건강식품"}]},{"lat":"37.37812268","long":"127.3261617","items":[{"name":"해태조명","tel":"031-766-7471","addr":"경기도 광주시 초월읍 학동리 324-5번지","category":"건축자재 - 조명기구"}]},{"lat":"37.37742368","long":"127.3345587","items":[{"name":"홈앤에듀","tel":"070-7719-5404","addr":"경기도 광주시 초월읍 학동리 436-2번지","category":"서적문구 - 출판 및 인쇄물"}]},{"lat":"37.38211421","long":"127.3294194","items":[{"name":"화성에프앤비(주)","tel":"031-797-7301","addr":"경기도 광주시 초월읍 학동리 197","category":"서적문구 - 과학기자재"}]}]