[{"lat":"37.464248729","long":"127.40026393","items":[{"name":"교육농장 봄네동산","tel":"031-774-0745","addr":"경기도 양평군 강하면 동오리 180-3번지","category":"레저업소 - 기타레져업소"}]},{"lat":"37.457973468","long":"127.39887444","items":[{"name":"금호농원","tel":"031-771-4352","addr":"경기도 양평군 강하면 동오리 108-1번지","category":"음료식품 - 기타음료식품"}]},{"lat":"37.458607171","long":"127.39254838","items":[{"name":"동오구판장","tel":"031-771-3074","addr":"경기도 양평군 강하면 동오리 556-4번지","category":"음료식품 - 기타음료식품"}]},{"lat":"37.455419617","long":"127.39467923","items":[{"name":"로사","tel":"031-774-1919","addr":"경기도 양평군 강하면 동오리 597번지","category":"숙박업 - 여관/기타숙박업"}]},{"lat":"37.462244678","long":"127.40140624","items":[{"name":"봄네동산","tel":"031-774-0745","addr":"경기도 양평군 강하면 동오리 171-2","category":"레저업소 - 기타레져업소"}]},{"lat":"37.455999162","long":"127.39380069","items":[{"name":"부창농장","tel":"031-774-1988","addr":"경기도 양평군 강하면 동오리 585번지","category":"음료식품 - 농·축·수산품"}]},{"lat":"37.455914087","long":"127.38677035","items":[{"name":"산천","tel":"031-774-2249","addr":"경기도 양평군 강하면 동오리 637-3번지","category":"일반휴게음식 - 일반한식"}]},{"lat":"37.455555103","long":"127.38354743","items":[{"name":"쉬자트리하우스","tel":"","addr":"경기도 양평군 강하면 동오리 708-1번지","category":"숙박업 - 여관/기타숙박업"}]},{"lat":"37.45538665","long":"127.38549052","items":[{"name":"아라뱃길 걷는 비숑프리제","tel":"031-1111-1111","addr":"경기도 양평군 강하면 동오리 634번지 1층","category":"문화.취미 - 애완동물"}]}]