[{"lat":"37.708748624","long":"127.46622849","items":[{"name":"GS25가평풀빌라온점","tel":"","addr":"경기도 가평군 청평면 호명리 342-6번지 A동 2층","category":"유통업 영리 - 편 의 점"},{"name":"라온(RAON)","tel":"070-8866-4536","addr":"경기도 가평군 청평면 호명리 342-6번지 C동","category":"신변잡화 - 기타잡화"},{"name":"라온수상에이전시","tel":"070-4190-4157","addr":"경기도 가평군 청평면 호명리 342-6번지","category":"레져용품 - 스포츠·레져용품"}]},{"lat":"37.708243685","long":"127.46861815","items":[{"name":"Le Point","tel":"031-582-1000","addr":"경기도 가평군 청평면 호명리 339-3번지","category":"숙박업 - 여관/기타숙박업"},{"name":"르푸앙수상레져","tel":"031-585-1968","addr":"경기도 가평군 청평면 호명리 339-3번지","category":"레저업소 - 기타레져업소"},{"name":"크레이지토마토 (Crazy Tomato)","tel":"031-585-1968","addr":"경기도 가평군 청평면 호명리 339-3번지 송강","category":"일반휴게음식 - 서양음식"}]},{"lat":"37.708248973","long":"127.46955942","items":[{"name":"Le Point Cafe(르푸앙카페)","tel":"031-582-1000","addr":"경기도 가평군 청평면 호명리 339-4번지","category":"일반휴게음식 - 서양음식"},{"name":"르푸앙(Le Point)","tel":"031-582-1000","addr":"경기도 가평군 청평면 호명리 339-4번지","category":"숙박업 - 여관/기타숙박업"}]},{"lat":"37.709916606","long":"127.45780975","items":[{"name":"가평빠지블롭점프크라운수상레저","tel":"070-8959-9628","addr":"경기도 가평군 청평면 호명리 산18-1번지","category":"레저업소 - 기타레져업소"},{"name":"킹","tel":"031-225-2300","addr":"경기도 가평군 청평면 호명리 산18-1번지","category":"일반휴게음식 - 일반한식"}]},{"lat":"37.732688623","long":"127.47035937","items":[{"name":"감성216","tel":"070-4882-2869","addr":"경기도 가평군 청평면 호명리 46-6번지","category":"숙박업 - 여관/기타숙박업"}]},{"lat":"37.711695728","long":"127.45436168","items":[{"name":"경춘가경호텔","tel":"031-585-1113","addr":"경기도 가평군 청평면 호명리 287-21번지","category":"숙박업 - 여관/기타숙박업"}]},{"lat":"37.716527783","long":"127.45828115","items":[{"name":"까페제이씨리오","tel":"031-584-6388","addr":"경기도 가평군 청평면 호명리 262-1번지","category":"일반휴게음식 - 서양음식"},{"name":"씨유청평호반로점","tel":"080-080-3663","addr":"경기도 가평군 청평면 호명리 262-1번지","category":"유통업 영리 - 편 의 점"}]},{"lat":"37.73255412","long":"127.46791957","items":[{"name":"꽃향기펜션","tel":"031-584-8567","addr":"경기도 가평군 청평면 호명리 77번지","category":"숙박업 - 여관/기타숙박업"}]},{"lat":"37.71038816","long":"127.45467129","items":[{"name":"더모스트","tel":"","addr":"경기도 가평군 청평면 호명리 291-8번지 1층","category":"음료식품 - 기타음료식품"},{"name":"리버포인트수상레저","tel":"070-7552-6333","addr":"경기도 가평군 청평면 호명리 291-8번지","category":"레저업소 - 기타레져업소"}]},{"lat":"37.708415948","long":"127.46605632","items":[{"name":"라온수상레저","tel":"","addr":"경기도 가평군 청평면 호명리 344-3번지 선","category":"레저업소 - 기타레져업소"}]},{"lat":"37.709135338","long":"127.46869177","items":[{"name":"라플로르","tel":"031-000-0000","addr":"경기도 가평군 청평면 호명리 340-13번지","category":"숙박업 - 여관/기타숙박업"}]},{"lat":"37.724882275","long":"127.45992029","items":[{"name":"마로니에","tel":"070-7728-2291","addr":"경기도 가평군 청평면 호명리 144-4","category":"숙박업 - 여관/기타숙박업"}]},{"lat":"37.72471826","long":"127.46039568","items":[{"name":"별을보다","tel":"","addr":"경기도 가평군 청평면 호명리 144-35번지 2,3,4동","category":"숙박업 - 여관/기타숙박업"}]},{"lat":"37.729244222","long":"127.46878366","items":[{"name":"손두부세상","tel":"031-585-2373","addr":"경기도 가평군 청평면 호명리 94","category":"일반휴게음식 - 일반한식"}]},{"lat":"37.721333776","long":"127.46191741","items":[{"name":"솔향기","tel":"070-8956-3358","addr":"경기도 가평군 청평면 호명리 154","category":"숙박업 - 여관/기타숙박업"}]},{"lat":"37.724603996","long":"127.46428555","items":[{"name":"송이가든","tel":"031-585-3546","addr":"경기도 가평군 청평면 호명리 136-1번지","category":"일반휴게음식 - 일반한식"},{"name":"송이가든","tel":"031-585-3546","addr":"경기도 가평군 청평면 호명리 137번지","category":"일반휴게음식 - 일반한식"}]},{"lat":"37.72335441","long":"127.4635859","items":[{"name":"숲속계곡","tel":"031-585-5575","addr":"경기도 가평군 청평면 호명리 166-1번지","category":"숙박업 - 여관/기타숙박업"},{"name":"아트루","tel":"031-585-5850","addr":"경기도 가평군 청평면 호명리 166-1번지","category":"숙박업 - 여관/기타숙박업"}]},{"lat":"37.725249449","long":"127.4581644","items":[{"name":"숲속에는","tel":"","addr":"경기도 가평군 청평면 호명리 144-21번지","category":"숙박업 - 여관/기타숙박업"}]},{"lat":"37.708884824","long":"127.46824793","items":[{"name":"슈가트리펜션","tel":"031-584-3410","addr":"경기도 가평군 청평면 호명리 340-18번지","category":"숙박업 - 여관/기타숙박업"}]},{"lat":"37.726551361","long":"127.46624863","items":[{"name":"슈에뜨","tel":"031-585-1036","addr":"경기도 가평군 청평면 호명리 110번지","category":"숙박업 - 여관/기타숙박업"}]},{"lat":"37.720854295","long":"127.46242485","items":[{"name":"스카이정원","tel":"031-585-7780","addr":"경기도 가평군 청평면 호명리 176-3번지","category":"숙박업 - 여관/기타숙박업"}]},{"lat":"37.731463856","long":"127.47022689","items":[{"name":"아름뜰","tel":"","addr":"경기도 가평군 청평면 호명리 45번지","category":"숙박업 - 여관/기타숙박업"}]},{"lat":"37.735019548","long":"127.47099796","items":[{"name":"아이리스","tel":"031-584-0369","addr":"경기도 가평군 청평면 호명리 50-1번지","category":"음료식품 - 기타음료식품"},{"name":"아이리스펜션","tel":"031-584-0369","addr":"경기도 가평군 청평면 호명리 50-1번지 6동","category":"숙박업 - 여관/기타숙박업"},{"name":"청평아이리스","tel":"031-584-0369","addr":"경기도 가평군 청평면 호명리 50-1번지","category":"숙박업 - 여관/기타숙박업"}]},{"lat":"37.682025411","long":"127.37772981","items":[{"name":"약수터식당","tel":"","addr":"경기도 가평군 청평면 호명리 367-1번지","category":"일반휴게음식 - 일반한식"}]},{"lat":"37.727800483","long":"127.46706179","items":[{"name":"예그리나","tel":"032-000-0000","addr":"경기도 가평군 청평면 호명리 106-1번지","category":"숙박업 - 여관/기타숙박업"}]},{"lat":"37.72802518","long":"127.46719931","items":[{"name":"예그리나2","tel":"032-000-0000","addr":"경기도 가평군 청평면 호명리 106번지","category":"숙박업 - 여관/기타숙박업"}]},{"lat":"37.733873839","long":"127.47137645","items":[{"name":"오띠모 펜션","tel":"031-585-8037","addr":"경기도 가평군 청평면 호명리 49-1번지 4동","category":"숙박업 - 여관/기타숙박업"}]},{"lat":"37.733963346","long":"127.47152449","items":[{"name":"오띠모펜션","tel":"031-585-8037","addr":"경기도 가평군 청평면 호명리 49-1번지","category":"숙박업 - 여관/기타숙박업"}]},{"lat":"37.708661158","long":"127.46555887","items":[{"name":"정화여각","tel":"","addr":"경기도 가평군 청평면 호명리 344-5번지","category":"숙박업 - 여관/기타숙박업"}]},{"lat":"37.723382722","long":"127.46325714","items":[{"name":"청평물소리펜션","tel":"031-585-6208","addr":"경기도 가평군 청평면 호명리 165-7번지","category":"숙박업 - 여관/기타숙박업"}]},{"lat":"37.712939095","long":"127.44961735","items":[{"name":"클리프하우스","tel":"070-4139-0101","addr":"경기도 가평군 청평면 호명리 362-14번지 1층","category":"일반휴게음식 - 일반한식"}]},{"lat":"37.716665068","long":"127.45772625","items":[{"name":"평강이네 김치전문점","tel":"031-584-0855","addr":"경기도 가평군 청평면 호명리 261-1번지 1층","category":"일반휴게음식 - 일반한식"}]},{"lat":"37.716522624","long":"127.45728306","items":[{"name":"호명골손두부","tel":"","addr":"경기도 가평군 청평면 호명리 255번지","category":"일반휴게음식 - 일반한식"}]},{"lat":"37.725688846","long":"127.45636356","items":[{"name":"힐스토리펜션","tel":"031-585-3327","addr":"경기도 가평군 청평면 호명리 143-167번지","category":"숙박업 - 여관/기타숙박업"}]}]