[{"lat":"37.29329933","long":"127.66607963","items":[{"name":"CAFE THE RIVER","tel":"031-882-1142","addr":"경기도 여주시 연양동 304-8번지 리버스랜드 C동 2층","category":"일반휴게음식 - 서양음식"},{"name":"국수가","tel":"031-1111-1111","addr":"경기도 여주시 연양동 304-8번지","category":"일반휴게음식 - 일반한식"},{"name":"불야성노래연습장","tel":"031-885-3289","addr":"경기도 여주시 연양동 304-8번지","category":"레저업소 - 노 래 방"},{"name":"불야성노래연습장","tel":"031-885-3289","addr":"경기도 여주시 연양동 304-8번지","category":"레저업소 - 노 래 방"},{"name":"여주시청","tel":"031-887-3548","addr":"경기도 여주시 연양동 304-8번지","category":"문화.취미 - 티켓"},{"name":"여주자전거대여점","tel":"031-881-0716","addr":"경기도 여주시 연양동 304-8번지","category":"레져용품 - 스포츠·레져용품"},{"name":"원두막식당","tel":"031-885-0073","addr":"경기도 여주시 연양동 304-8번지","category":"일반휴게음식 - 일반한식"},{"name":"유원지 매점","tel":"031-885-8010","addr":"경기도 여주시 연양동 304-8번지 폰박물관 1층","category":"레져용품 - 스포츠·레져용품"},{"name":"캠핑포장마차","tel":"031-886-2323","addr":"경기도 여주시 연양동 304-8번지","category":"일반휴게음식 - 주점"},{"name":"활을쏘다","tel":"031-885-0852","addr":"경기도 여주시 연양동 304-8번지 1층","category":"레저업소 - 기타레져업소"}]},{"lat":"37.291215331","long":"127.65847173","items":[{"name":"GS25여주강변점","tel":"","addr":"경기도 여주시 연양동 407-2번지","category":"유통업 영리 - 편 의 점"},{"name":"꼬미네 다육","tel":"","addr":"경기도 여주시 연양동 407-2번지","category":"문화.취미 - 화원"},{"name":"베스트올 여주언양점","tel":"031-886-5481","addr":"경기도 여주시 연양동 407-2번지","category":"유통업 영리 - 편 의 점"},{"name":"썸원정보시스템","tel":"031-886-4581","addr":"경기도 여주시 연양동 407-2번지","category":"기타 - 기계공구"}]},{"lat":"37.292854467","long":"127.66022269","items":[{"name":"O cafe","tel":"031-880-3852","addr":"경기도 여주시 연양동 414번지","category":"일반휴게음식 - 서양음식"},{"name":"썬벨리헤어샵","tel":"031-883-9900","addr":"경기도 여주시 연양동 414번지","category":"보건위생 - 미용원"},{"name":"썬편의점","tel":"031-880-3777","addr":"경기도 여주시 연양동 414번지","category":"유통업 영리 - 편 의 점"}]},{"lat":"37.293776849","long":"127.66285841","items":[{"name":"강변수산","tel":"","addr":"경기도 여주시 연양동 304-18번지","category":"음료식품 - 농·축·수산품"},{"name":"알펜시아","tel":"031-884-2356","addr":"경기도 여주시 연양동 304-18번지 1,2층","category":"일반휴게음식 - 서양음식"}]},{"lat":"37.292274347","long":"127.66729988","items":[{"name":"개성궁손만두","tel":"02-1111-1111","addr":"경기도 여주시 연양동 316번지 1층","category":"일반휴게음식 - 일반한식"},{"name":"미래탑상사","tel":"031-881-1911","addr":"경기도 여주시 연양동 316번지","category":"레져용품 - 스포츠·레져용품"}]},{"lat":"37.290551625","long":"127.65954858","items":[{"name":"금강산모텔","tel":"031-886-2341","addr":"경기도 여주시 연양동 398-2번지","category":"숙박업 - 여관/기타숙박업"}]},{"lat":"37.293856872","long":"127.66466354","items":[{"name":"남한강매점","tel":"031-885-7739","addr":"경기도 여주시 연양동 304-19번지","category":"음료식품 - 기타음료식품"},{"name":"라니커피","tel":"031-885-7739","addr":"경기도 여주시 연양동 304-19번지","category":"일반휴게음식 - 서양음식"},{"name":"스마일스피드","tel":"031-883-7737","addr":"경기도 여주시 연양동 304-19번지","category":"레져용품 - 스포츠·레져용품"}]},{"lat":"37.289691236","long":"127.66680353","items":[{"name":"리버뷰","tel":"031-885-0393","addr":"경기도 여주시 연양동 279-9번지","category":"숙박업 - 여관/기타숙박업"}]},{"lat":"37.287859462","long":"127.67526756","items":[{"name":"무진약품","tel":"","addr":"경기도 여주시 연양동 32-4번지","category":"직물 - 옷감·직물"}]},{"lat":"37.292271552","long":"127.66458199","items":[{"name":"버치힐무인텔","tel":"031-886-0222","addr":"경기도 여주시 연양동 327번지","category":"숙박업 - 여관/기타숙박업"}]},{"lat":"37.287466002","long":"127.66029986","items":[{"name":"벽창호","tel":"031-882-1073","addr":"경기도 여주시 연양동 394-10번지","category":"직물 - 침구·수예점"}]},{"lat":"37.28899164","long":"127.65977184","items":[{"name":"사랑스런어린이집[아이행복]","tel":"031-885-3210","addr":"경기도 여주시 연양동 348-4번지 영진리버빌 107동 103호","category":"학원 - 유아원"}]},{"lat":"37.291714733","long":"127.65777687","items":[{"name":"썬모텔","tel":"031-885-1818","addr":"경기도 여주시 연양동 430-1번지","category":"숙박업 - 여관/기타숙박업"}]},{"lat":"37.292053526","long":"127.65516345","items":[{"name":"앤모텔","tel":"031-885-2165","addr":"경기도 여주시 연양동 434번지","category":"숙박업 - 여관/기타숙박업"},{"name":"앤모텔","tel":"031-885-2165","addr":"경기도 여주시 연양동 434번지","category":"숙박업 - 여관/기타숙박업"}]},{"lat":"37.293050345","long":"127.66549101","items":[{"name":"여주놀이공원","tel":"","addr":"경기도 여주시 연양동 304-9번지 2동 1층","category":"레저업소 - 기타레져업소"},{"name":"여주스쿠터","tel":"031-886-2688","addr":"경기도 여주시 연양동 304-9번지","category":"자동차판매 - 이륜차판매"},{"name":"여주자전거여행","tel":"031-885-1121","addr":"경기도 여주시 연양동 304-9번지","category":"레져용품 - 스포츠·레져용품"},{"name":"유원지스쿠터대여점","tel":"031-886-2688","addr":"경기도 여주시 연양동 304-9번지","category":"레져용품 - 스포츠·레져용품"}]},{"lat":"37.291555178","long":"127.65730184","items":[{"name":"여주막국수","tel":"031-886-1148","addr":"경기도 여주시 연양동 430번지","category":"일반휴게음식 - 일반한식"}]},{"lat":"37.290889109","long":"127.65880722","items":[{"name":"여주재활용센타","tel":"031-884-8830","addr":"경기도 여주시 연양동 399-7번지","category":"용역 서비스 - 사무서비스"}]},{"lat":"37.292167147","long":"127.66552838","items":[{"name":"연양정원","tel":"031-648-7651","addr":"경기도 여주시 연양동 327-1번지","category":"일반휴게음식 - 서양음식"}]},{"lat":"37.289527899","long":"127.66055462","items":[{"name":"영진밥상","tel":"031-882-2456","addr":"경기도 여주시 연양동 348-4번지 영진리버빌아파트","category":"일반휴게음식 - 일반한식"},{"name":"영진할인마트","tel":"031-882-3479","addr":"경기도 여주시 연양동 348-4번지 영진리버빌단지 상가 106호","category":"유통업 영리 - 슈퍼마켓"}]},{"lat":"37.291857282","long":"127.66615719","items":[{"name":"온 리버(OnRiver)","tel":"031-886-2112","addr":"경기도 여주시 연양동 321번지","category":"일반휴게음식 - 서양음식"}]},{"lat":"37.2935532822","long":"127.6689914880","items":[{"name":"은모래 식당","tel":"031-886-6869","addr":"경기도 여주시 연양동 307-1번지","category":"일반휴게음식 - 일반한식"}]},{"lat":"37.293553282","long":"127.66899149","items":[{"name":"은모래매점","tel":"031-886-6869","addr":"경기도 여주시 연양동 307-1번지","category":"유통업 영리 - 슈퍼마켓"}]},{"lat":"37.287108133","long":"127.66308209","items":[{"name":"이화자연어린이집[아이행복]","tel":"031-882-5772","addr":"경기도 여주시 연양동 387번지","category":"학원 - 유아원"}]},{"lat":"37.291582478","long":"127.6588809","items":[{"name":"장수촌","tel":"031-886-5287","addr":"경기도 여주시 연양동 409-1번지","category":"일반휴게음식 - 일반한식"}]},{"lat":"37.293497379","long":"127.66771662","items":[{"name":"재단법인여주세종문화재단","tel":"031-881-9694","addr":"경기도 여주시 연양동 304-3번지","category":"문화.취미 - 민예·공예품"}]},{"lat":"37.287333486","long":"127.65982509","items":[{"name":"주아승가구갤러리","tel":"","addr":"경기도 여주시 연양동 394-7번지","category":"가구 - 일반가구"}]},{"lat":"37.288746425","long":"127.66658096","items":[{"name":"진안마이산흑생돼지","tel":"031-882-3988","addr":"경기도 여주시 연양동 249-2번지","category":"일반휴게음식 - 일반한식"}]},{"lat":"37.291164563","long":"127.66435803","items":[{"name":"하늘천따지","tel":"031-881-0011","addr":"경기도 여주시 연양동 279-1번지","category":"일반휴게음식 - 일반한식"}]},{"lat":"37.287220423","long":"127.66071496","items":[{"name":"한미컨테이너","tel":"","addr":"경기도 여주시 연양동 394-4번지 1층","category":"건축자재 - 기타건축자재"}]},{"lat":"37.291854767","long":"127.65852239","items":[{"name":"허브모텔","tel":"031-886-0330","addr":"경기도 여주시 연양동 428번지","category":"숙박업 - 여관/기타숙박업"}]}]