[{"lat":"37.438689527","long":"126.78199813","items":[{"name":"#김미경","tel":"031-313-4758","addr":"경기도 시흥시 신천동 758-12번지","category":"소매업 - 의류"}]},{"lat":"37.432879629","long":"126.79273765","items":[{"name":"(복)복음자리","tel":"031-317-7117","addr":"경기도 시흥시 신천동 882-3번지","category":"소매업 - 쨈,차류"},{"name":"작은자리 종합사회복지관","tel":"031-313-6249","addr":"경기도 시흥시 신천동 882-3번지","category":"교육서비스업 - 복지관"}]},{"lat":"37.43507076","long":"126.78866388","items":[{"name":"(주)신천홈마트","tel":"031-312-2002","addr":"경기도 시흥시 신천동 860-16번지","category":"소매업 - 슈퍼마켓"}]},{"lat":"37.441630042","long":"126.77893849","items":[{"name":"(주)에버스포츠 시흥신천링스점","tel":"031-312-8754","addr":"경기도 시흥시 신천동 410-3번지 102호","category":"소매업 - 골프 신발"},{"name":"(주)에버스포츠 팬텀시흥신천점","tel":"031-312-8753","addr":"경기도 시흥시 신천동 410-3번지 101호","category":"소매업 - 골프 신발"}]},{"lat":"37.441963153","long":"126.7788019","items":[{"name":"(주)에버스포츠 제이디엑스 멀티스포츠 시흥신천점","tel":"031-316-2202","addr":"경기도 시흥시 신천동 411-14번지","category":"소매업 - 스포츠의류, 신발,용품"}]},{"lat":"37.440522018","long":"126.78385721","items":[{"name":"2호","tel":"","addr":"경기도 시흥시 신천동 738-2번지","category":"소매업 - 건어물, 야채"},{"name":"3호점(야채가게)","tel":"","addr":"경기도 시흥시 신천동 738-2번지 외 5필지의 일부","category":"소매업 - 야채"},{"name":"명동의류","tel":"031-311-3384","addr":"경기도 시흥시 신천동 738-2번지 지하","category":"소매업 - 외의, 모자, 기타"},{"name":"명성왕족발","tel":"031-435-9088","addr":"경기도 시흥시 신천동 738-2번지 1층 17, 18호","category":"음식점업 - 한식"},{"name":"본죽 시흥삼미시장점","tel":"031-312-6233","addr":"경기도 시흥시 신천동 738-2번지 늘푸른교회 1층 6호","category":"음식점업 - 한식"},{"name":"삼미김치전골","tel":"031-313-3690","addr":"경기도 시흥시 신천동 738-2번지","category":"음식점업 - 한식"},{"name":"삼우의료기","tel":"031-312-0011","addr":"경기도 시흥시 신천동 738-2번지","category":"소매업 - 의료용품"},{"name":"샤트렌 시흥지점","tel":"031-314-5557","addr":"경기도 시흥시 신천동 738-2번지 늘푸른교회 1층 2호, 3호","category":"소매업 - 의류/스포츠용품"},{"name":"쥬씨 삼미시장점","tel":"031-313-3253","addr":"경기도 시흥시 신천동 738-2번지","category":"음식점업 - 생과일쥬스, 커피"},{"name":"청안동물병원","tel":"031-311-4148","addr":"경기도 시흥시 신천동 738-2번지 삼미상가 A동 1층 5호","category":"보건업 - 동물병원"},{"name":"칼디","tel":"031-404-0078","addr":"경기도 시흥시 신천동 738-2번지 늘푸른교회","category":"음식점업 - 카페"},{"name":"토속음식점","tel":"031-311-1650","addr":"경기도 시흥시 신천동 738-2번지 늘푸른교회 1층 12호","category":"음식점업 - 한식"}]},{"lat":"37.43793235","long":"126.78668962","items":[{"name":"365고기나라","tel":"031-316-1108","addr":"경기도 시흥시 신천동 772번지 신동맨션 나동 101호","category":"소매업 - 정육점"},{"name":"가마솥광주통닭(시흥점)","tel":"031-314-8023","addr":"경기도 시흥시 신천동 772-25번지 신풍맨션 나동 102호","category":"음식점업 - 음식"}]},{"lat":"37.440794259","long":"126.78490731","items":[{"name":"365신천중앙약국","tel":"031-313-0542","addr":"경기도 시흥시 신천동 711번지 1층","category":"보건업 - 약국"},{"name":"강식빵","tel":"","addr":"경기도 시흥시 신천동 711번지 삼영아트빌 1층","category":"소매업 - 제과점"},{"name":"성모공감정신건강의학과의원","tel":"031-8042-3535","addr":"경기도 시흥시 신천동 711번지 삼영아트빌 5층","category":"보건업 - 정신건강의학과의원"}]},{"lat":"37.431491751","long":"126.79254945","items":[{"name":"59쌀피자신일초교점","tel":"031-311-5985","addr":"경기도 시흥시 신천동 888-7번지","category":"음식점업 - 피자"},{"name":"빵내음","tel":"031-318-4888","addr":"경기도 시흥시 신천동 888-7번지 1층","category":"음식점업 - 제과"}]},{"lat":"37.438685879","long":"126.78005462","items":[{"name":"59피자","tel":"031-311-5969","addr":"경기도 시흥시 신천동 752-19번지 1층","category":"음식점업 - 휴게음식"},{"name":"카페디얼리","tel":"","addr":"경기도 시흥시 신천동 752-19번지 1층 일부호","category":"음식점업 - 카페"}]},{"lat":"37.43785484","long":"126.78374069","items":[{"name":"72전기구이통닭","tel":"031-314-8989","addr":"경기도 시흥시 신천동 762번지","category":"음식점업 - 일반음식"}]},{"lat":"37.438493763","long":"126.77851845","items":[{"name":"88켄터키치킨","tel":"031-316-9289","addr":"경기도 시흥시 신천동 832-1번지","category":"음식점업 - 음식"}]},{"lat":"37.438431334","long":"126.7885752","items":[{"name":"91커피","tel":"","addr":"경기도 시흥시 신천동 776-5번지 원약국 103호","category":"음식점업 - 휴게음식점"},{"name":"에이스카센터","tel":"","addr":"경기도 시흥시 신천동 776-5번지","category":"개인서비스업 - 정비"}]},{"lat":"37.439376331","long":"126.77830113","items":[{"name":"BHC 시흥 신천점","tel":"031-504-3352","addr":"경기도 시흥시 신천동 817-1번지 기원빌딩 1층","category":"음식점업 - 치킨"},{"name":"국가대표부부태권스쿨","tel":"031-318-3336","addr":"경기도 시흥시 신천동 817-1번지 3층","category":"교육서비스업 - 태권도"},{"name":"도원음악학원","tel":"031-317-5538","addr":"경기도 시흥시 신천동 817-1번지","category":"교육서비스업 - 음악학원"},{"name":"키움학원","tel":"031-313-9662","addr":"경기도 시흥시 신천동 817-1번지 기원빌딩 2층 201호","category":"교육서비스업 - 교습학원"}]},{"lat":"37.438828083","long":"126.78382825","items":[{"name":"BYC 가정점","tel":"031-313-1022","addr":"경기도 시흥시 신천동 761-3번지 1층","category":"소매업 - 내의,속옷"}]},{"lat":"37.437410928","long":"126.78732388","items":[{"name":"G.H시스템(지에이치시스템)","tel":"031-312-7719","addr":"경기도 시흥시 신천동 773-14번지 201호","category":"소매업 - 분배기,난방온도조절기"},{"name":"치킨매니아 (삼미시장점)","tel":"","addr":"경기도 시흥시 신천동 773-14번지","category":"음식점업 - 치킨"}]},{"lat":"37.44023795","long":"126.78130429","items":[{"name":"GS25 시흥삼미시장점","tel":"031-311-2528","addr":"경기도 시흥시 신천동 741-18번지 1층 4호","category":"소매업 - 편의점"},{"name":"푸른건강원","tel":"031-313-3555","addr":"경기도 시흥시 신천동 741-18번지","category":"소매업 - 건강원"}]},{"lat":"37.439988352","long":"126.7827401","items":[{"name":"JS당구장","tel":"","addr":"경기도 시흥시 신천동 740번지 4층","category":"스포츠및여가관련서비스업 - 당구장"},{"name":"쉬즈하우스","tel":"","addr":"경기도 시흥시 신천동 740번지 경도빌딩 1층 102호","category":"소매업 - 의류"},{"name":"신남대문안경","tel":"031-313-0937","addr":"경기도 시흥시 신천동 740번지","category":"소매업 - 안경"},{"name":"신풍각","tel":"031-311-8002","addr":"경기도 시흥시 신천동 740번지","category":"음식점업 - 중화요리"},{"name":"심봉사도로케","tel":"031-312-3673","addr":"경기도 시흥시 신천동 740번지 1층 일부","category":"음식점업 - 도너츠"}]},{"lat":"37.441827468","long":"126.7785198","items":[{"name":"NEPA 경기신천네파","tel":"031-314-8998","addr":"경기도 시흥시 신천동 411-23번지","category":"소매업 - 스포츠의류"}]},{"lat":"37.442266374","long":"126.77716248","items":[{"name":"STCO(에스티코 시흥정은타운점)","tel":"031-313-7439","addr":"경기도 시흥시 신천동 430-8번지","category":"소매업 - 스포츠의류"}]},{"lat":"37.432518845","long":"126.78751869","items":[{"name":"ok카써비스","tel":"031-313-1688","addr":"경기도 시흥시 신천동 863-27번지","category":"개인서비스업 - 자동차부분수리"}]},{"lat":"37.441434916","long":"126.78057757","items":[{"name":"㈜ 노스시흥신천점","tel":"031-315-9001","addr":"경기도 시흥시 신천동 744-1번지","category":"소매업 - 스포츠용품"},{"name":"휠라인티모 경기신천점","tel":"031-404-6089","addr":"경기도 시흥시 신천동 744-1번지 1층","category":"소매업 - 스포츠언더웨어및속옷"}]},{"lat":"37.437656411","long":"126.78362828","items":[{"name":"㈜다우건설","tel":"031-312-1104","addr":"경기도 시흥시 신천동 842-4번지","category":"기타 - 기계설비공사업, 인테리어공사"}]},{"lat":"37.439188628","long":"126.7839063","items":[{"name":"㈜대진유통","tel":"031-315-6787","addr":"경기도 시흥시 신천동 735-3번지","category":"소매업 - 수산물"},{"name":"밝은가정의원","tel":"031-312-8300","addr":"경기도 시흥시 신천동 735-3번지 3층","category":"보건업 - 가정의학과"}]},{"lat":"37.438244738","long":"126.79002207","items":[{"name":"㈜로뎀과사람들","tel":"031-505-1211","addr":"경기도 시흥시 신천동 779-11번지","category":"교육서비스업 - 바리스타 교육 등"},{"name":"로뎀카페","tel":"031-505-1211","addr":"경기도 시흥시 신천동 779-11번지 2층","category":"음식점업 - 카페"}]},{"lat":"37.441883005","long":"126.77929934","items":[{"name":"㈜무진유통 데상트스포츠","tel":"031-312-7889","addr":"경기도 시흥시 신천동 409-8번지","category":"소매업 - 스포츠의류"},{"name":"㈜무진유통 르꼬끄스포츠","tel":"031-312-0312","addr":"경기도 시흥시 신천동 409-8번지","category":"소매업 - 스포츠의류"}]},{"lat":"37.441684936","long":"126.77937903","items":[{"name":"㈜무진유통 디스커버리","tel":"031-312-0797","addr":"경기도 시흥시 신천동 409-9번지","category":"소매업 - 스포츠의류"},{"name":"㈜무진유통 루이까스텔","tel":"031-312-7088","addr":"경기도 시흥시 신천동 409-9번지","category":"소매업 - 스포츠의류"}]},{"lat":"37.441549893","long":"126.77943593","items":[{"name":"㈜무진유통 레노마골프","tel":"031-312-0717","addr":"경기도 시흥시 신천동 409-13번지","category":"소매업 - 스포츠의류"}]},{"lat":"37.441880325","long":"126.77788684","items":[{"name":"㈜무진유통 르꼬끄골프","tel":"031-312-7087","addr":"경기도 시흥시 신천동 431-1번지","category":"소매업 - 스포츠의류"},{"name":"휠라 신천점","tel":"031-312-0450","addr":"경기도 시흥시 신천동 431-1번지","category":"소매업 - 의류 및 스포츠"}]},{"lat":"37.431410165","long":"126.7872733","items":[{"name":"㈜밤브밤브(올통)","tel":"031-316-0350","addr":"경기도 시흥시 신천동 166번지","category":"음식점업 - 한식음식점"}]},{"lat":"37.437375814","long":"126.78783246","items":[{"name":"㈜수성전기","tel":"031-314-1263","addr":"경기도 시흥시 신천동 773-13번지","category":"소매업 - 조명자재"}]},{"lat":"37.440906862","long":"126.78246621","items":[{"name":"㈜에이볼","tel":"1688-0925","addr":"경기도 시흥시 신천동 743-2번지 B1층","category":"스포츠및여가관련서비스업 - 볼링장,전"},{"name":"대홍프라자약국","tel":"031-311-1366","addr":"경기도 시흥시 신천동 743-2번지 1층","category":"보건업 - 의약품"},{"name":"맬빵","tel":"031-404-0848","addr":"경기도 시흥시 신천동 743-2번지 A107호","category":"음식점업 - 제과점업"},{"name":"커피제이 (COFFEE. J)","tel":"031-317-4709","addr":"경기도 시흥시 신천동 743-2번지 대홍프라자 1층 124호","category":"음식점업 - 커피, 디저트"},{"name":"향원훠궈샤브샤브","tel":"031-312-8011","addr":"경기도 시흥시 신천동 743-2번지 대흥프라자 2층 214호","category":"음식점업 - 샤브샤브"}]},{"lat":"37.442159676","long":"126.77790861","items":[{"name":"㈜태인패션","tel":"031-313-6461","addr":"경기도 시흥시 신천동 430-7번지","category":"소매업 - 스포츠의류"},{"name":"슈트하우스","tel":"031-313-6462","addr":"경기도 시흥시 신천동 430-7번지","category":"소매업 - 스포츠의류"}]},{"lat":"37.431516603","long":"126.79132915","items":[{"name":"가야에너지","tel":"031-434-2211","addr":"경기도 시흥시 신천동 886-23번지","category":"소매업 - 경유,등유,얼음"}]},{"lat":"37.441076489","long":"126.78162952","items":[{"name":"간장게장백반","tel":"031-318-0881","addr":"경기도 시흥시 신천동 743-1번지 월드아트빌 2층","category":"음식점업 - 한식"}]},{"lat":"37.442182833","long":"126.78546828","items":[{"name":"강촌숯불닭갈비","tel":"031-504-9978","addr":"경기도 시흥시 신천동 707-56번지","category":"음식점업 - 한식"},{"name":"제주까망돼지(신천점)","tel":"031-504-3549","addr":"경기도 시흥시 신천동 707-56번지 1층","category":"음식점업 - 한식"}]},{"lat":"37.437074768","long":"126.78579944","items":[{"name":"개성진찹쌀순대","tel":"031-313-5689","addr":"경기도 시흥시 신천동 848-3번지 1층","category":"음식점업 - 한식 음식점업"}]},{"lat":"37.438189296","long":"126.78432729","items":[{"name":"거기까페","tel":"","addr":"경기도 시흥시 신천동 762-3번지 201호","category":"음식점업 - 까페"},{"name":"경인농산","tel":"031-314-6164","addr":"경기도 시흥시 신천동 762-3번지 1층 4호","category":"소매업 - 식품,양곡,농산물"},{"name":"미네르바","tel":"031-312-5955","addr":"경기도 시흥시 신천동 762-3번지","category":"개인서비스업 - 헤어미용, 화장품"},{"name":"찬과함께","tel":"031-404-3959","addr":"경기도 시흥시 신천동 762-3번지 기흥프라자 104호","category":"소매업 - 반찬류"}]},{"lat":"37.439683463","long":"126.78352067","items":[{"name":"거창왕족발","tel":"031-312-0033","addr":"경기도 시흥시 신천동 740-4번지","category":"음식점업 - 족발"},{"name":"고기천국","tel":"031-311-2256","addr":"경기도 시흥시 신천동 740-4번지","category":"소매업 - 도소매,식육"},{"name":"삼미보떼","tel":"031-312-1698","addr":"경기도 시흥시 신천동 740-4번지","category":"소매업 - 화장품"},{"name":"제일혼수방","tel":"031-318-7089","addr":"경기도 시흥시 신천동 740-4번지","category":"소매업 - 이불"}]},{"lat":"37.435462587","long":"126.79110336","items":[{"name":"건영치과의원","tel":"031-315-0027","addr":"경기도 시흥시 신천동 948번지 신천휴먼시아 303호","category":"보건업 - 치과"},{"name":"경남마트","tel":"031-314-1612","addr":"경기도 시흥시 신천동 948번지 휴먼프라자상가 108호","category":"소매업 - 슈퍼마켓"},{"name":"늘좋은약국","tel":"031-313-5007","addr":"경기도 시흥시 신천동 948번지 휴먼시아 상가 106호","category":"보건업 - 약국"},{"name":"머슴갈비","tel":"031-312-0032","addr":"경기도 시흥시 신천동 948번지 휴먼프라자 109호","category":"음식점업 - 한식"},{"name":"묵은지밥상","tel":"031-312-1552","addr":"경기도 시흥시 신천동 948번지 신천휴먼시아 1층 102호","category":"음식점업 - 한식"},{"name":"보나뻬띠","tel":"","addr":"경기도 시흥시 신천동 948번지","category":"음식점업 - 제과"},{"name":"비인음악학원","tel":"031-312-7304","addr":"경기도 시흥시 신천동 948번지 3층","category":"교육서비스업 - 음악학원"},{"name":"스칼렛","tel":"031-435-3232","addr":"경기도 시흥시 신천동 948번지 휴먼프라자 109호","category":"소매업 - 미용재료, 가발"},{"name":"크린토피아 신천경남점","tel":"031-311-9955","addr":"경기도 시흥시 신천동 948번지 휴먼프라자 1층 103호","category":"개인서비스업 - 세탁중계업"},{"name":"크린토피아 신천경남점","tel":"","addr":"경기도 시흥시 신천동 948번지 신천휴먼시아 103호","category":"개인서비스업 - 세탁"},{"name":"키즈펀태권도","tel":"031-404-4447","addr":"경기도 시흥시 신천동 948번지 휴먼프라자 305호","category":"교육서비스업 - 태권도장"}]},{"lat":"37.439548104","long":"126.78340807","items":[{"name":"경기육계","tel":"031-311-0677","addr":"경기도 시흥시 신천동 740-5번지","category":"소매업 - 닭,오리"},{"name":"라이프가방","tel":"031-313-6389","addr":"경기도 시흥시 신천동 740-5번지","category":"소매업 - 의류,가방"},{"name":"이니스프리 신천동대리점","tel":"031-311-0132","addr":"경기도 시흥시 신천동 740-5번지","category":"소매업 - 화장품"},{"name":"행복반찬","tel":"031-314-5987","addr":"경기도 시흥시 신천동 740-5번지 1층","category":"소매업 - 반찬"}]},{"lat":"37.438133247","long":"126.78815797","items":[{"name":"경기재활주야간보호센터","tel":"","addr":"경기도 시흥시 신천동 774번지 우명프라자 4층 401호","category":"보건업 - 주야간보호센터"},{"name":"롤고고씽","tel":"031-311-1182","addr":"경기도 시흥시 신천동 774번지 우명프라자 지하1층 104호","category":"개인서비스업 - 롤러스케이트"},{"name":"시흥소래요양보호사교육원","tel":"","addr":"경기도 시흥시 신천동 774번지 우명프라자 2층 205호","category":"교육서비스업 - 요양보호사교육원"},{"name":"진로마트 시흥점","tel":"031-315-5333","addr":"경기도 시흥시 신천동 774번지 우명프라자 제1층외 18개소","category":"소매업 - 슈퍼마켓"}]},{"lat":"37.439906652","long":"126.78241264","items":[{"name":"경상도과일야채가게","tel":"","addr":"경기도 시흥시 신천동 741-14번지","category":"소매업 - 과일"},{"name":"나래한복","tel":"","addr":"경기도 시흥시 신천동 741-14번지","category":"개인서비스업 - 한복수선및대여"}]},{"lat":"37.43223992","long":"126.79273943","items":[{"name":"경식이네쌀통닭","tel":"","addr":"경기도 시흥시 신천동 883-4번지","category":"음식점업 - 한식"},{"name":"뚱스밥버거(신천점)","tel":"031-315-3872","addr":"경기도 시흥시 신천동 883-4번지 1층","category":"음식점업 - 음식"}]},{"lat":"37.436104524","long":"126.78735023","items":[{"name":"경인마트","tel":"031-314-3224","addr":"경기도 시흥시 신천동 852-14번지 1층상가 1,2호","category":"소매업 - 식품"}]},{"lat":"37.432993004","long":"126.79063577","items":[{"name":"경희대 석사 정진태권도장","tel":"031-313-5035","addr":"경기도 시흥시 신천동 878-7번지 2층","category":"교육서비스업 - 태권도"},{"name":"금잔디미용실","tel":"","addr":"경기도 시흥시 신천동 878-7번지","category":"개인서비스업 - 미용실"}]},{"lat":"37.438437818","long":"126.78230396","items":[{"name":"계몽학원","tel":"031-315-1080","addr":"경기도 시흥시 신천동 840-4번지","category":"교육서비스업 - 보습학원"},{"name":"마당놀이 식당","tel":"031-312-2217","addr":"경기도 시흥시 신천동 840-4번지","category":"음식점업 - 한식"},{"name":"종로약국","tel":"031-314-4719","addr":"경기도 시흥시 신천동 840-4번지","category":"보건업 - 약국"}]},{"lat":"37.438819847","long":"126.78424636","items":[{"name":"계절맛집","tel":"031-404-2633","addr":"경기도 시흥시 신천동 734-4번지","category":"음식점업 - 한식"},{"name":"원스튜디오","tel":"031-313-2657","addr":"경기도 시흥시 신천동 734-4번지","category":"개인서비스업 - 사진관"},{"name":"초우축산","tel":"031-315-4985","addr":"경기도 시흥시 신천동 734-4번지","category":"소매업 - 정육"},{"name":"해양수산","tel":"031-435-2177","addr":"경기도 시흥시 신천동 734-4번지","category":"소매업 - 생선도,소매"}]},{"lat":"37.443910551","long":"126.77473927","items":[{"name":"고구려 짬뽕집","tel":"031-317-3636","addr":"경기도 시흥시 신천동 587-18번지 1,2층","category":"음식점업 - 중식"}]},{"lat":"37.437796248","long":"126.77655444","items":[{"name":"고명연탄","tel":"031-313-4011","addr":"경기도 시흥시 신천동 815-17번지 예촌빌라 401호","category":"소매업 - 연탄"}]},{"lat":"37.440350619","long":"126.78374472","items":[{"name":"고향산천","tel":"","addr":"경기도 시흥시 신천동 738-4번지 소망교회 B동 103호","category":"음식점업 - 한식전업"},{"name":"다모아한복","tel":"031-311-1747","addr":"경기도 시흥시 신천동 738-4번지 소망교회 1층 6호","category":"소매업 - 침구류및한복"},{"name":"대도의류","tel":"031-313-3936","addr":"경기도 시흥시 신천동 738-4번지","category":"소매업 - 의류"},{"name":"동대문녹두빈대떡","tel":"031-314-6001","addr":"경기도 시흥시 신천동 738-4번지","category":"음식점업 - 일반음식"},{"name":"땅스부대찌개삼미시장점","tel":"031-315-8599","addr":"경기도 시흥시 신천동 738-4번지 소망교회 1층 17호","category":"음식점업 - 즉석식품(부대찌개)"},{"name":"무학 먹거리","tel":"","addr":"경기도 시흥시 신천동 738-4번지","category":"음식점업 - 음식점"},{"name":"삼미수산 75호","tel":"","addr":"경기도 시흥시 신천동 738-4번지","category":"소매업 - 수산물"},{"name":"성진유통","tel":"031-313-1899","addr":"경기도 시흥시 신천동 738-4번지 삼미시장B동8,9호","category":"소매업 - 생닭"},{"name":"속옷나라","tel":"031-315-2282","addr":"경기도 시흥시 신천동 738-4번지","category":"소매업 - 의류"},{"name":"조군통닭&강정","tel":"","addr":"경기도 시흥시 신천동 738-4번지 1층 7, 16호","category":"음식점업 - 치킨"},{"name":"호수유통","tel":"031-317-5289","addr":"경기도 시흥시 신천동 738-4번지 소망교회 B동 4호","category":"소매업 - 닭, 오리"}]},{"lat":"37.438074966","long":"126.78099428","items":[{"name":"고흥수산","tel":"031-318-8959","addr":"경기도 시흥시 신천동 380-10번지","category":"소매업 - 수산물"}]},{"lat":"37.440189214","long":"126.78416328","items":[{"name":"골드축산","tel":"031-311-8117","addr":"경기도 시흥시 신천동 737-14번지","category":"소매업 - 식육"},{"name":"명동떡집","tel":"031-312-2583","addr":"경기도 시흥시 신천동 737-14번지","category":"소매업 - 떡"},{"name":"비비닭강정","tel":"031-311-3579","addr":"경기도 시흥시 신천동 737-14번지","category":"음식점업 - 통닭, 닭강정"},{"name":"성한상회","tel":"031-311-6981","addr":"경기도 시흥시 신천동 737-14번지","category":"소매업 - 수산물"},{"name":"신천건어물","tel":"031-312-8774","addr":"경기도 시흥시 신천동 737-14번지","category":"소매업 - 건어물"},{"name":"양말나라","tel":"","addr":"경기도 시흥시 신천동 737-14번지","category":"소매업 - 양말"}]},{"lat":"37.440349276","long":"126.78302153","items":[{"name":"골든농산","tel":"031-311-0218","addr":"경기도 시흥시 신천동 739번지","category":"소매업 - 인삼, 벌꿀, 한약재"},{"name":"낙원종합커텐","tel":"031-311-4424","addr":"경기도 시흥시 신천동 739번지","category":"소매업 - 커튼,침대"},{"name":"넌짜장난짬뽕","tel":"031-404-2587","addr":"경기도 시흥시 신천동 739번지","category":"음식점업 - 중식"},{"name":"아이엔에스","tel":"031-315-2334","addr":"경기도 시흥시 신천동 739번지 1층 6호","category":"소매업 - 의류"},{"name":"횡성 한우축산물","tel":"031-311-5948","addr":"경기도 시흥시 신천동 739번지","category":"소매업 - 식육판매업"}]},{"lat":"37.439795932","long":"126.7810231","items":[{"name":"골목길우리식당","tel":"","addr":"경기도 시흥시 신천동 755-7번지","category":"음식점업 - 음식"},{"name":"여자가행복해지는시간","tel":"031-314-7793","addr":"경기도 시흥시 신천동 755-7번지 1층","category":"개인서비스업 - 피부미용업"}]},{"lat":"37.437932949","long":"126.7870173","items":[{"name":"광명생숯불갈비","tel":"","addr":"경기도 시흥시 신천동 772-18번지 오복빌딩 1층","category":"음식점업 - 한식, 식육"}]},{"lat":"37.441073839","long":"126.7850534","items":[{"name":"교동짬뽕","tel":"031-311-0597","addr":"경기도 시흥시 신천동 708-13번지","category":"음식점업 - 중화요리"},{"name":"산모월드","tel":"031-313-5665","addr":"경기도 시흥시 신천동 708-13번지 한양빌딩 5층","category":"보건업 - 산모도우미"}]},{"lat":"37.441464585","long":"126.78686026","items":[{"name":"구어조은닭","tel":"031-313-4502","addr":"경기도 시흥시 신천동 709-32번지 시흥5차푸르지오","category":"음식점업 - 치킨"},{"name":"대우세탁","tel":"031-314-7878","addr":"경기도 시흥시 신천동 709-32번지 신천동흥5차푸르지오 118호","category":"소매업 - 세탁업"},{"name":"스토리366","tel":"031-503-7997","addr":"경기도 시흥시 신천동 709-32번지 시흥5차푸르지오 1층 121호","category":"소매업 - 의류"},{"name":"양꼬치학교","tel":"031-316-0101","addr":"경기도 시흥시 신천동 709-32번지 시흥5차푸르지오 1층 105호","category":"음식점업 - 양고기"},{"name":"커피민(coffee min)","tel":"","addr":"경기도 시흥시 신천동 709-32번지 시흥5차푸르지오 1층 126호","category":"음식점업 - 커피"},{"name":"휘카페 신천점","tel":"070-7576-0931","addr":"경기도 시흥시 신천동 709-32번지 시흥5차푸르지오 1층 111호","category":"음식점업 - 비알콜 음료점업"}]},{"lat":"37.442438091","long":"126.78221311","items":[{"name":"굴세상","tel":"031-312-8900","addr":"경기도 시흥시 신천동 314-110번지","category":"음식점업 - 한식"}]},{"lat":"37.437157967","long":"126.77730212","items":[{"name":"권지헤어","tel":"","addr":"경기도 시흥시 신천동 821-1번지","category":"개인서비스업 - 미용실"}]},{"lat":"37.436407478","long":"126.79045664","items":[{"name":"그린공인중개사사무소","tel":"031-318-3600","addr":"경기도 시흥시 신천동 946번지 휴먼시아 106호","category":"개인서비스업 - 부동산"},{"name":"위드미아이스크림","tel":"","addr":"경기도 시흥시 신천동 946번지 휴먼시아 상가동 101호","category":"소매업 - 아이스크림"}]},{"lat":"37.442683023","long":"126.78310511","items":[{"name":"그린마트","tel":"031-404-2441","addr":"경기도 시흥시 신천동 705-33번지 1층","category":"소매업 - 슈퍼"}]},{"lat":"37.440713524","long":"126.78509964","items":[{"name":"글라스스토리 신천점","tel":"031-317-3322","addr":"경기도 시흥시 신천동 711-3번지","category":"소매업 - 안경"}]},{"lat":"37.435323291","long":"126.78388366","items":[{"name":"금메달문구서점","tel":"031-313-1330","addr":"경기도 시흥시 신천동 845-26번지","category":"소매업 - 문구, 서점"}]},{"lat":"37.437631544","long":"126.77996735","items":[{"name":"금산홍삼건강원","tel":"031-311-3203","addr":"경기도 시흥시 신천동 833-1번지","category":"제조업 - 건강원"}]},{"lat":"37.438711586","long":"126.77935397","items":[{"name":"금태령숯불구이","tel":"031-404-7566","addr":"경기도 시흥시 신천동 751-29번지 1층","category":"음식점업 - 한식"}]},{"lat":"37.441597186","long":"126.78546998","items":[{"name":"기라성","tel":"031-312-8212","addr":"경기도 시흥시 신천동 707-31번지","category":"음식점업 - 중식"}]},{"lat":"37.438265863","long":"126.78676776","items":[{"name":"김기현헤어센스","tel":"","addr":"경기도 시흥시 신천동 769-14번지","category":"개인서비스업 - 미용"}]},{"lat":"37.441296623","long":"126.78371936","items":[{"name":"김정은소아청소년과의원","tel":"031-362-6236","addr":"경기도 시흥시 신천동 712-3번지 반석프라자 7층","category":"보건업 - 소아청소년과"},{"name":"팜약국","tel":"031-313-7764","addr":"경기도 시흥시 신천동 712-3번지","category":"보건업 - 양약"}]},{"lat":"37.435989755","long":"126.77422096","items":[{"name":"까치카센타","tel":"031-312-4546","addr":"경기도 시흥시 신천동 551-1번지","category":"개인서비스업 - 카센타"}]},{"lat":"37.440994017","long":"126.78574292","items":[{"name":"꼬꼬씨숯불닭갈비","tel":"070-4137-6942","addr":"경기도 시흥시 신천동 708-16번지","category":"음식점업 - 한식"}]},{"lat":"37.437960332","long":"126.78232796","items":[{"name":"꼬끼오 숯불구이","tel":"031-311-9259","addr":"경기도 시흥시 신천동 839-9번지 1층","category":"음식점업 - 한식"}]},{"lat":"37.441208262","long":"126.77983244","items":[{"name":"꽃담은소&미소장어","tel":"031-318-4716","addr":"경기도 시흥시 신천동 747-1번지 1층","category":"음식점업 - 한식"}]},{"lat":"37.437433273","long":"126.78477016","items":[{"name":"꾼떡","tel":"031-318-5641","addr":"경기도 시흥시 신천동 763-7번지 3호","category":"음식점업 - 분식"},{"name":"만나떡집","tel":"031-313-1777","addr":"경기도 시흥시 신천동 763-7번지","category":"제조업 - 떡류"},{"name":"부용감자탕","tel":"031-313-3850","addr":"경기도 시흥시 신천동 763-7번지","category":"음식점업 - 한식"}]},{"lat":"37.439682645","long":"126.78307998","items":[{"name":"나래홈패션","tel":"031-311-8776","addr":"경기도 시흥시 신천동 740-7번지","category":"소매업 - 침구"},{"name":"장터치킨","tel":"031-314-9966","addr":"경기도 시흥시 신천동 740-7번지","category":"음식점업 - 치킨"},{"name":"클로라인","tel":"","addr":"경기도 시흥시 신천동 740-7번지","category":"소매업 - 의류"}]},{"lat":"37.439938001","long":"126.7847403","items":[{"name":"나만의 악세사리","tel":"","addr":"경기도 시흥시 신천동 737-7번지 10호","category":"소매업 - 액세서리"},{"name":"큰무리헤어샵","tel":"031-312-2646","addr":"경기도 시흥시 신천동 737-7번지","category":"개인서비스업 - 미용업"},{"name":"한양떡방","tel":"031-313-4445","addr":"경기도 시흥시 신천동 737-7번지 1층","category":"제조업 - 떡, 떡류"}]},{"lat":"37.431963404","long":"126.78927156","items":[{"name":"남경마트","tel":"031-317-7979","addr":"경기도 시흥시 신천동 874-2번지","category":"소매업 - 식품,잡화,슈퍼마켓"}]},{"lat":"37.437603011","long":"126.78890525","items":[{"name":"남도사철탕","tel":"031-404-1660","addr":"경기도 시흥시 신천동 781-1번지 만성빌라","category":"음식점업 - 한식"}]},{"lat":"37.439379592","long":"126.78485491","items":[{"name":"남원참추어탕","tel":"031-311-3678","addr":"경기도 시흥시 신천동 733-6번지","category":"음식점업 - 한식"}]},{"lat":"37.442243798","long":"126.7843268","items":[{"name":"남천","tel":"","addr":"경기도 시흥시 신천동 705-17번지 1층","category":"음식점업 - 한식"}]},{"lat":"37.442855492","long":"126.78379391","items":[{"name":"내친구피아노","tel":"031-311-1776","addr":"경기도 시흥시 신천동 705-5번지","category":"교육서비스업 - 피아노"}]},{"lat":"37.438048962","long":"126.7864068","items":[{"name":"네네치킨 신천점","tel":"031-315-9922","addr":"경기도 시흥시 신천동 771-1번지 대명타운 101호","category":"음식점업 - 치킨"},{"name":"유노윤호역전포차","tel":"","addr":"경기도 시흥시 신천동 771-1번지 1층","category":"음식점업 - 기타음식점"}]},{"lat":"37.438936663","long":"126.78407653","items":[{"name":"네이처 리퍼블릭 시흥신천점","tel":"031-316-3600","addr":"경기도 시흥시 신천동 734-6번지","category":"소매업 - 화장품"},{"name":"십구티 (19티)","tel":"031-315-1576","addr":"경기도 시흥시 신천동 734-6번지 1층","category":"음식점업 - 카페"}]},{"lat":"37.435932778","long":"126.78704564","items":[{"name":"네일그리다","tel":"","addr":"경기도 시흥시 신천동 851-1번지 금강프라임빌 B동 202-2호","category":"개인서비스업 - 네일아트"},{"name":"시맘수나눔공방오픈마켓","tel":"031-509-1515","addr":"경기도 시흥시 신천동 851-1번지 금강프라임빌 B동 202호","category":"소매업 - 공방"},{"name":"케이크 온 바이선애 (Cake on by sunae)","tel":"","addr":"경기도 시흥시 신천동 851-1번지 금강프라임빌 2층 202호","category":"소매업 - 떡, 케이크"},{"name":"프라임공인중개사","tel":"031-311-8200","addr":"경기도 시흥시 신천동 851-1번지 금강프라임빌","category":"개인서비스업 - 부동산"}]},{"lat":"37.441875871","long":"126.78513017","items":[{"name":"노가리앤비어","tel":"","addr":"경기도 시흥시 신천동 707-37번지","category":"음식점업 - 호프"}]},{"lat":"37.440797228","long":"126.78652318","items":[{"name":"노가리야소래산가자신천1호점","tel":"","addr":"경기도 시흥시 신천동 709-13번지 1층","category":"음식점업 - 기타음식"}]},{"lat":"37.440710137","long":"126.78326907","items":[{"name":"노수옥 돼지국밥","tel":"031-313-8450","addr":"경기도 시흥시 신천동 738번지","category":"음식점업 - 한식"},{"name":"돼지식당","tel":"031-311-8454","addr":"경기도 시흥시 신천동 738번지 C동 16,17,8호","category":"음식점업 - 한식"},{"name":"베리베리","tel":"031-314-1751","addr":"경기도 시흥시 신천동 738번지","category":"소매업 - 의류"},{"name":"별주가","tel":"031-404-0342","addr":"경기도 시흥시 신천동 738번지 종자교회 1층 9호","category":"음식점업 - 일반음식점"},{"name":"삼미계란빵","tel":"","addr":"경기도 시흥시 신천동 738번지","category":"음식점업 - 핫바"},{"name":"삼미전통찰옥수수","tel":"","addr":"경기도 시흥시 신천동 738번지","category":"음식점업 - 옥수수"},{"name":"초가집","tel":"031-315-8121","addr":"경기도 시흥시 신천동 738번지","category":"음식점업 - 한식"}]},{"lat":"37.439716514","long":"126.78191601","items":[{"name":"노아의 방주","tel":"","addr":"경기도 시흥시 신천동 756-15번지 해담은 103동 1층 101호","category":"소매업 - 의류"}]},{"lat":"37.431686192","long":"126.79043609","items":[{"name":"녹원유통","tel":"031-318-1135","addr":"경기도 시흥시 신천동 875-7번지","category":"소매업 - 슈퍼마켓"}]},{"lat":"37.437409214","long":"126.78638604","items":[{"name":"놀숲시흥신천점","tel":"031-318-3519","addr":"경기도 시흥시 신천동 771-10번지 2층","category":"개인서비스업 - 도서대여,휴게음식"},{"name":"장터통치킨","tel":"031-311-7033","addr":"경기도 시흥시 신천동 771-10번지 1층","category":"음식점업 - 치킨"},{"name":"활기찬 건강원","tel":"","addr":"경기도 시흥시 신천동 771-10번지","category":"음식점업 - 건강원"}]},{"lat":"37.438518232","long":"126.78194214","items":[{"name":"누누앤쥬","tel":"","addr":"경기도 시흥시 신천동 840-1번지","category":"소매업 - 의류"},{"name":"미소네일","tel":"","addr":"경기도 시흥시 신천동 840-1번지 2층 일부호","category":"개인서비스업 - 미용업, 화장품"},{"name":"송이네구제","tel":"","addr":"경기도 시흥시 신천동 840-1번지","category":"소매업 - 중고옷가게"}]},{"lat":"37.442070329","long":"126.77830437","items":[{"name":"뉴발란스 시흥점","tel":"031-318-8817","addr":"경기도 시흥시 신천동 411-12번지","category":"소매업 - 의류"},{"name":"주식회사 내셔널지오그래픽 시흥신천점","tel":"031-317-8817","addr":"경기도 시흥시 신천동 411-12번지","category":"소매업 - 의류, 스포츠의류"}]},{"lat":"37.439904518","long":"126.78127138","items":[{"name":"뉴위은영헤어클럽","tel":"031-314-3364","addr":"경기도 시흥시 신천동 756번지 신천씨티빌","category":"개인서비스업 - 미용"}]},{"lat":"37.438878148","long":"126.7865513","items":[{"name":"늘BEAUTY","tel":"","addr":"경기도 시흥시 신천동 770번지 신천메트로프라자 B동 2층 211-1호","category":"개인서비스업 - 기타 미용업"}]},{"lat":"37.435627963","long":"126.78788265","items":[{"name":"늘사랑꽃화원","tel":"031-404-4470","addr":"경기도 시흥시 신천동 860-2번지","category":"소매업 - 화초, 나무"}]},{"lat":"37.4373833","long":"126.78699628","items":[{"name":"다누리불쭈꾸미","tel":"031-315-1177","addr":"경기도 시흥시 신천동 772-3번지 대성빌딩","category":"음식점업 - 한식"}]},{"lat":"37.444572118","long":"126.78149492","items":[{"name":"다락골막두부","tel":"031-318-2545","addr":"경기도 시흥시 신천동 720-6번지","category":"음식점업 - 일반음식점"}]},{"lat":"37.442627679","long":"126.78241596","items":[{"name":"다래성","tel":"031-313-5802","addr":"경기도 시흥시 신천동 716-10번지","category":"음식점업 - 음식점"},{"name":"친구푸드(진사골곰탕)","tel":"031-316-1337","addr":"경기도 시흥시 신천동 716-10번지","category":"음식점업 - 음식점"}]},{"lat":"37.442848133","long":"126.78468665","items":[{"name":"다모아DC생활용품","tel":"031-311-0434","addr":"경기도 시흥시 신천동 704-34번지","category":"소매업 - 잡화"}]},{"lat":"37.439355366","long":"126.78638044","items":[{"name":"다비치안경 시흥신천사거리점","tel":"031-312-3579","addr":"경기도 시흥시 신천동 766번지 1층","category":"소매업 - 안경"},{"name":"천지연민물장어","tel":"031-314-3592","addr":"경기도 시흥시 신천동 766번지 2층","category":"음식점업 - 한식"}]},{"lat":"37.431265071","long":"126.7917479","items":[{"name":"다연헤어","tel":"","addr":"경기도 시흥시 신천동 887-9번지 1층","category":"개인서비스업 - 미용실"}]},{"lat":"37.439660128","long":"126.78552078","items":[{"name":"다온한방병원","tel":"031-365-5432","addr":"경기도 시흥시 신천동 733-1번지","category":"보건업 - 한방병원"},{"name":"독일치과의원","tel":"031-312-0028","addr":"경기도 시흥시 신천동 733-1번지 6층","category":"보건업 - 치과"}]},{"lat":"37.431128871","long":"126.79116076","items":[{"name":"달콤한 한입","tel":"","addr":"경기도 시흥시 신천동 887-17번지 지하1층","category":"음식점업 - 제과점"}]},{"lat":"37.437159267","long":"126.78277098","items":[{"name":"닭익는마당","tel":"031-311-4070","addr":"경기도 시흥시 신천동 843-1번지","category":"음식점업 - 한식"}]},{"lat":"37.442602395","long":"126.78335394","items":[{"name":"담은도예공방","tel":"031-8044-2252","addr":"경기도 시흥시 신천동 705-46번지 그랜드아파트 102호","category":"제조업 - 도자기, 그릇"}]},{"lat":"37.436434155","long":"126.78046807","items":[{"name":"대성슈퍼마켓","tel":"031-314-9113","addr":"경기도 시흥시 신천동 835-28번지","category":"소매업 - 슈퍼마켓"}]},{"lat":"37.440046495","long":"126.78494338","items":[{"name":"대성자동차정비공업사","tel":"031-313-3529","addr":"경기도 시흥시 신천동 737-4번지","category":"개인서비스업 - 자동차정비"},{"name":"마시마로베이비","tel":"031-312-7665","addr":"경기도 시흥시 신천동 737-4번지","category":"소매업 - 일반내의, 양말"},{"name":"지리산약국","tel":"031-314-0081","addr":"경기도 시흥시 신천동 737-4번지","category":"보건업 - 약국"}]},{"lat":"37.431217267","long":"126.79021144","items":[{"name":"대신TF","tel":"031-311-8980","addr":"경기도 시흥시 신천동 875-18번지","category":"제조업 - 트랜스, 전기부품"}]},{"lat":"37.444296581","long":"126.7835185","items":[{"name":"대우슈퍼","tel":"031-312-8960","addr":"경기도 시흥시 신천동 704-43번지 101호","category":"소매업 - 슈퍼"}]},{"lat":"37.441542294","long":"126.78501814","items":[{"name":"대작골감자탕","tel":"031-311-7722","addr":"경기도 시흥시 신천동 707-11번지","category":"음식점업 - 한식"}]},{"lat":"37.440324615","long":"126.78429848","items":[{"name":"대작스튜디오","tel":"031-312-6939","addr":"경기도 시흥시 신천동 737번지 시흥치과","category":"개인서비스업 - 사진촬영"},{"name":"시흥치과","tel":"031-314-2828","addr":"경기도 시흥시 신천동 737번지 2층","category":"보건업 - 치과의원"},{"name":"오빠네과일,야채가게","tel":"031-311-8006","addr":"경기도 시흥시 신천동 737번지","category":"소매업 - 야채/과일"}]},{"lat":"37.441354972","long":"126.781188","items":[{"name":"대하상사","tel":"031-313-3955","addr":"경기도 시흥시 신천동 744-4번지","category":"소매업 - 타월"}]},{"lat":"37.443045596","long":"126.7747419","items":[{"name":"대한꽃식물원","tel":"031-312-0120","addr":"경기도 시흥시 신천동 427-5번지","category":"소매업 - 생화"}]},{"lat":"37.4371577","long":"126.78680484","items":[{"name":"더블할인마트","tel":"031-404-1133","addr":"경기도 시흥시 신천동 855-1번지 태원탑스빌 101호","category":"소매업 - 슈퍼"}]},{"lat":"37.439349633","long":"126.78327305","items":[{"name":"더이뽀","tel":"","addr":"경기도 시흥시 신천동 760-12번지","category":"개인서비스업 - 피부미용업"}]},{"lat":"37.4417919","long":"126.77876851","items":[{"name":"데니스 골프","tel":"031-317-2678","addr":"경기도 시흥시 신천동 411-21번지","category":"소매업 - 스포츠용품"}]},{"lat":"37.438766073","long":"126.7795798","items":[{"name":"도원용인대체육관","tel":"031-313-1106","addr":"경기도 시흥시 신천동 751-26번지 2층","category":"교육서비스업 - 태권도"},{"name":"포차어때","tel":"","addr":"경기도 시흥시 신천동 751-26번지","category":"음식점업 - 일반음식점"}]},{"lat":"37.438431288","long":"126.78363732","items":[{"name":"돈기부여","tel":"","addr":"경기도 시흥시 신천동 761-9번지 1층","category":"음식점업 - 한식"}]},{"lat":"37.438937369","long":"126.77963579","items":[{"name":"돈덩어리주먹고기","tel":"","addr":"경기도 시흥시 신천동 751-25번지 1층 104호","category":"음식점업 - 한식"}]},{"lat":"37.442299609","long":"126.78527584","items":[{"name":"돈돼지","tel":"","addr":"경기도 시흥시 신천동 707-58번지 1층","category":"음식점업 - 한식"}]},{"lat":"37.436933492","long":"126.78248916","items":[{"name":"동경상회(동경슈퍼)","tel":"","addr":"경기도 시흥시 신천동 843-24번지","category":"소매업 - 슈퍼마켓"}]},{"lat":"37.439018003","long":"126.78421189","items":[{"name":"동대문곱창","tel":"031-311-9171","addr":"경기도 시흥시 신천동 734-9번지","category":"음식점업 - 한식"}]},{"lat":"37.441488444","long":"126.78029491","items":[{"name":"동림관","tel":"031-315-3377","addr":"경기도 시흥시 신천동 744번지","category":"음식점업 - 고급음식점"}]},{"lat":"37.437409415","long":"126.78162901","items":[{"name":"동방마트","tel":"","addr":"경기도 시흥시 신천동 838-22번지 우리건강원 103호","category":"소매업 - 잡화"}]},{"lat":"37.441073624","long":"126.78010404","items":[{"name":"동부카써비스","tel":"031-318-8373","addr":"경기도 시흥시 신천동 745-22번지","category":"개인서비스업 - 자동차전문정비"}]},{"lat":"37.440018527","long":"126.78443497","items":[{"name":"동우상회","tel":"031-314-3949","addr":"경기도 시흥시 신천동 737-8번지","category":"소매업 - 곡물, 수산물소매업"}]},{"lat":"37.437045726","long":"126.77987869","items":[{"name":"동진슈퍼","tel":"","addr":"경기도 시흥시 신천동 834-29번지 101호, 102호","category":"소매업 - 기타음식료품및일용잡화"}]},{"lat":"37.431043876","long":"126.78899171","items":[{"name":"듀엘모터스","tel":"","addr":"경기도 시흥시 신천동 872-5번지","category":"개인서비스업 - 자동차정비"}]},{"lat":"37.438521008","long":"126.77863137","items":[{"name":"드라이데이세탁소","tel":"031-313-9738","addr":"경기도 시흥시 신천동 452-5번지","category":"소매업 - 세탁업"}]},{"lat":"37.436967","long":"126.78599184","items":[{"name":"드림디포 시흥점","tel":"031-314-9173","addr":"경기도 시흥시 신천동 848-4번지","category":"소매업 - 사무용품"},{"name":"이안아카데미학원","tel":"031-506-3222","addr":"경기도 시흥시 신천동 848-4번지 2층","category":"교육서비스업 - 보습학원"}]},{"lat":"37.438686387","long":"126.78516201","items":[{"name":"들깨&바지락칼국수","tel":"031-312-8790","addr":"경기도 시흥시 신천동 765-7번지","category":"음식점업 - 칼국수"}]},{"lat":"37.437798521","long":"126.78741317","items":[{"name":"디렉터커피로스터스","tel":"","addr":"경기도 시흥시 신천동 775-5번지 1층","category":"음식점업 - 커피"},{"name":"하루네코","tel":"","addr":"경기도 시흥시 신천동 775-5번지 3층","category":"소매업 - 핸드메이드제품"}]},{"lat":"37.4416575","long":"126.77916441","items":[{"name":"디즈니골프 시흥신천점","tel":"031-316-0123","addr":"경기도 시흥시 신천동 410-6번지 1층 2호","category":"소매업 - 의류,골프웨어"},{"name":"컬럼비아 시흥신천점","tel":"031-312-2200","addr":"경기도 시흥시 신천동 410-6번지 1호","category":"소매업 - 등산장비, 운동용품"}]},{"lat":"37.435296112","long":"126.78871973","items":[{"name":"딜라잇","tel":"","addr":"경기도 시흥시 신천동 860-13번지","category":"음식점업 - 커피숍"}]},{"lat":"37.437404132","long":"126.78362901","items":[{"name":"딸기미용실","tel":"031-311-6188","addr":"경기도 시흥시 신천동 842-17번지","category":"개인서비스업 - 미용"},{"name":"인생커피","tel":"","addr":"경기도 시흥시 신천동 842-17번지 1층 일부","category":"음식점업 - 커피"}]},{"lat":"37.439570619","long":"126.78098987","items":[{"name":"때때쓰(TTAE TTAE'S)","tel":"","addr":"경기도 시흥시 신천동 755-9번지 1층","category":"소매업 - 의류"}]},{"lat":"37.438682119","long":"126.78285692","items":[{"name":"땡쓰마마","tel":"","addr":"경기도 시흥시 신천동 759-6번지 영광교회 1층 104호","category":"소매업 - 의류"}]},{"lat":"37.441046083","long":"126.77983292","items":[{"name":"떡갈비(체리부로)","tel":"","addr":"경기도 시흥시 신천동 747-2번지","category":"음식점업 - 떡갈비"}]},{"lat":"37.439296559","long":"126.78380429","items":[{"name":"떡광주리","tel":"031-316-9990","addr":"경기도 시흥시 신천동 735-6번지 1층","category":"제조업 - 떡"},{"name":"아리따움 시흥신천점","tel":"031-312-7781","addr":"경기도 시흥시 신천동 735-6번지","category":"소매업 - 화장품"},{"name":"은비","tel":"031-311-1886","addr":"경기도 시흥시 신천동 735-6번지","category":"소매업 - 잡화"}]},{"lat":"37.431910893","long":"126.79013039","items":[{"name":"떡이랑놀자","tel":"","addr":"경기도 시흥시 신천동 875-1번지 1층","category":"제조업 - 즉석식품제조업"},{"name":"벨라헤어","tel":"031-311-9567","addr":"경기도 시흥시 신천동 875-1번지 1층","category":"개인서비스업 - 미용업"}]},{"lat":"37.437911716","long":"126.7902151","items":[{"name":"띵스떡볶이","tel":"031-503-3781","addr":"경기도 시흥시 신천동 782번지 수정타워아파트","category":"음식점업 - 음식점"}]},{"lat":"37.431962791","long":"126.7889326","items":[{"name":"라벨르","tel":"","addr":"경기도 시흥시 신천동 874-1번지 105호","category":"소매업 - 의류"},{"name":"세모달 스튜디오","tel":"","addr":"경기도 시흥시 신천동 874-1번지 범진상가 1층 104호","category":"개인서비스업 - 디자인 등"},{"name":"신천헬스클럽","tel":"031-312-1058","addr":"경기도 시흥시 신천동 874-1번지 2층","category":"개인서비스업 - 헬스클럽"},{"name":"전주이발관","tel":"031-313-0786","addr":"경기도 시흥시 신천동 874-1번지 1층","category":"개인서비스업 - 이용원"},{"name":"천지체육관","tel":"031-312-9262","addr":"경기도 시흥시 신천동 874-1번지 3층","category":"교육서비스업 - 태권도"},{"name":"한신당구장","tel":"","addr":"경기도 시흥시 신천동 874-1번지","category":"스포츠및여가관련서비스업 - 당구장"}]},{"lat":"37.441938628","long":"126.78496049","items":[{"name":"런던베이직학생복","tel":"031-312-1805","addr":"경기도 시흥시 신천동 707-39번지","category":"소매업 - 의류"},{"name":"제주정제토속뚝배기","tel":"","addr":"경기도 시흥시 신천동 707-39번지","category":"음식점업 - 한식"}]},{"lat":"37.442713046","long":"126.78472094","items":[{"name":"레떼패션","tel":"031-311-9286","addr":"경기도 시흥시 신천동 704-36번지","category":"소매업 - 의류"},{"name":"피자에땅","tel":"031-318-9040","addr":"경기도 시흥시 신천동 704-36번지 1층","category":"음식점업 - 피자"}]},{"lat":"37.443407313","long":"126.78499013","items":[{"name":"레인보우","tel":"","addr":"경기도 시흥시 신천동 704-28번지 1층 우측","category":"소매업 - 의류"}]},{"lat":"37.442771733","long":"126.78235904","items":[{"name":"레자로","tel":"","addr":"경기도 시흥시 신천동 716-7번지","category":"소매업 - 구두"},{"name":"써니이모네","tel":"031-315-3646","addr":"경기도 시흥시 신천동 716-7번지","category":"음식점업 - 분식"}]},{"lat":"37.432545274","long":"126.79218495","items":[{"name":"로뎀음악학원","tel":"","addr":"경기도 시흥시 신천동 884-1번지 2층 일부","category":"교육서비스업 - 음악학원"}]},{"lat":"37.441933639","long":"126.7822711","items":[{"name":"로지라이스케이크","tel":"031-319-8880","addr":"경기도 시흥시 신천동 713-13번지 102호","category":"제조업 - 떡류"}]},{"lat":"37.440160025","long":"126.78299949","items":[{"name":"롯데할인마트","tel":"031-312-8612","addr":"경기도 시흥시 신천동 739-12번지 1층","category":"소매업 - 슈퍼마켓"}]},{"lat":"37.437460464","long":"126.7897983","items":[{"name":"루나(LUNA)","tel":"031-312-7703","addr":"경기도 시흥시 신천동 781-9번지 남영맨션","category":"음식점업 - 커피전문점"},{"name":"한우리마트 신천점","tel":"031-311-3173","addr":"경기도 시흥시 신천동 781-9번지 남영맨션","category":"소매업 - 슈퍼"}]},{"lat":"37.441963506","long":"126.78379651","items":[{"name":"루디아수입코너","tel":"031-315-9392","addr":"경기도 시흥시 신천동 706-10번지","category":"소매업 - 의류, 잡화"},{"name":"신천종합스포츠","tel":"031-311-1315","addr":"경기도 시흥시 신천동 706-10번지 104호","category":"소매업 - 의류, 산발, 용품"}]},{"lat":"37.437516152","long":"126.78574167","items":[{"name":"루스컬렉션","tel":"031-313-4900","addr":"경기도 시흥시 신천동 763-11번지","category":"소매업 - 의류"},{"name":"삼천리자전거","tel":"031-314-0390","addr":"경기도 시흥시 신천동 763-11번지 102호","category":"소매업 - 자전거판매"},{"name":"포도원로국수집","tel":"031-404-4646","addr":"경기도 시흥시 신천동 763-11번지 유성 상가 101호","category":"음식점업 - 음식"}]},{"lat":"37.43665827","long":"126.78469332","items":[{"name":"룬마카롱","tel":"","addr":"경기도 시흥시 신천동 846-15번지 1층","category":"제조업 - 마카롱"}]},{"lat":"37.441909564","long":"126.77905066","items":[{"name":"르까프 신천점","tel":"031-311-3078","addr":"경기도 시흥시 신천동 411-15번지","category":"소매업 - 스포츠의류 및 용품"},{"name":"인성 에프앤에스 신천점","tel":"031-311-3058","addr":"경기도 시흥시 신천동 411-15번지","category":"소매업 - 스포츠용품, 의류"}]},{"lat":"37.431104221","long":"126.79249404","items":[{"name":"리코코","tel":"","addr":"경기도 시흥시 신천동 888-12번지 1층","category":"소매업 - 의류, 신발, 잡화"},{"name":"홍시언니네","tel":"","addr":"경기도 시흥시 신천동 888-12번지 1층","category":"개인서비스업 - 미용, 피부"}]},{"lat":"37.44051954","long":"126.78252384","items":[{"name":"마늘곱창","tel":"031-311-8887","addr":"경기도 시흥시 신천동 742-2번지 104호","category":"음식점업 - 한식"},{"name":"비비 닭강정 (직영점)","tel":"031-313-9931","addr":"경기도 시흥시 신천동 742-2번지 1층","category":"음식점업 - 기타음식"}]},{"lat":"37.438683162","long":"126.78832589","items":[{"name":"마당발족발보쌈","tel":"031-314-8289","addr":"경기도 시흥시 신천동 776-3번지 1층","category":"음식점업 - 한식"}]},{"lat":"37.43873813","long":"126.78390761","items":[{"name":"마드모아젤","tel":"031-318-2599","addr":"경기도 시흥시 신천동 761-4번지","category":"소매업 - 의류"}]},{"lat":"37.443933025","long":"126.78182451","items":[{"name":"마싯골칼국수 신천2호점","tel":"031-404-1779","addr":"경기도 시흥시 신천동 719-13번지","category":"음식점업 - 칼국수&아구찜"}]},{"lat":"37.44151349","long":"126.77924394","items":[{"name":"마코 경기신천","tel":"031-312-2949","addr":"경기도 시흥시 신천동 410-11번지","category":"소매업 - 레저, 스포츠용품"}]},{"lat":"37.442181396","long":"126.78468858","items":[{"name":"막걸리나","tel":"031-313-8787","addr":"경기도 시흥시 신천동 707-66번지","category":"음식점업 - 일반음식점"}]},{"lat":"37.437986554","long":"126.78676856","items":[{"name":"막걸리나","tel":"031-311-6493","addr":"경기도 시흥시 신천동 772-25번지 신풍멘션","category":"음식점업 - 기타음식"}]},{"lat":"37.439187916","long":"126.78352211","items":[{"name":"만두데이","tel":"031-316-0999","addr":"경기도 시흥시 신천동 760-22번지","category":"음식점업 - 음식"}]},{"lat":"37.438931802","long":"126.78146634","items":[{"name":"만리향","tel":"031-3611-2480","addr":"경기도 시흥시 신천동 758-1번지","category":"음식점업 - 음식점"}]},{"lat":"37.441351812","long":"126.78432939","items":[{"name":"만복식당","tel":"","addr":"경기도 시흥시 신천동 707-3","category":"음식점업 - 한식"}]},{"lat":"37.43162686","long":"126.79252648","items":[{"name":"맛닭꼬","tel":"031-313-5592","addr":"경기도 시흥시 신천동 888-6번지 1층","category":"음식점업 - 일반음식점"},{"name":"악세서리귀금속타운","tel":"","addr":"경기도 시흥시 신천동 888-6번지","category":"소매업 - 악세서리,귀금속"},{"name":"인송미용실","tel":"031-404-1150","addr":"경기도 시흥시 신천동 888-6번지 1층","category":"개인서비스업 - 미용업"}]},{"lat":"37.441740055","long":"126.78476896","items":[{"name":"매화네양꼬치","tel":"031-404-0997","addr":"경기도 시흥시 신천동 707-26번지","category":"음식점업 - 중국음식"}]},{"lat":"37.431546554","long":"126.79296734","items":[{"name":"맨스커트클럽","tel":"031-313-0660","addr":"경기도 시흥시 신천동 104-2번지","category":"개인서비스업 - 미용업"},{"name":"이화포토갤러리","tel":"031-315-4711","addr":"경기도 시흥시 신천동 104-2번지 보현당한의원","category":"개인서비스업 - 사진,판촉물"}]},{"lat":"37.4374379","long":"126.77762896","items":[{"name":"멕시칸치킨","tel":"031-312-0240","addr":"경기도 시흥시 신천동 820-7번지 1층","category":"음식점업 - 기타 주점업"}]},{"lat":"37.439072898","long":"126.78466371","items":[{"name":"명동본가","tel":"031-8032-7060","addr":"경기도 시흥시 신천동 734-10번지 이레아트맨션","category":"음식점업 - 한식"}]},{"lat":"37.437655949","long":"126.78337969","items":[{"name":"명문자동차정비","tel":"031-313-5753","addr":"경기도 시흥시 신천동 842-2번지","category":"개인서비스업 - 자동차정비"}]},{"lat":"37.439908964","long":"126.78365561","items":[{"name":"명신상회(쌍방울)","tel":"031-311-7093","addr":"경기도 시흥시 신천동 739-5번지","category":"소매업 - 의류,잡화"},{"name":"블랙아트","tel":"031-311-9835","addr":"경기도 시흥시 신천동 739-5번지","category":"소매업 - 의류"},{"name":"삼미건어물","tel":"031-314-1237","addr":"경기도 시흥시 신천동 739-5번지","category":"소매업 - 건어물"},{"name":"삼미전통과자","tel":"","addr":"경기도 시흥시 신천동 739-5번지","category":"소매업 - 과자"},{"name":"신천아동복","tel":"031-311-5603","addr":"경기도 시흥시 신천동 739-5번지","category":"소매업 - 의류"},{"name":"할인매장","tel":"031-313-6397","addr":"경기도 시흥시 신천동 739-5번지","category":"소매업 - 화장품, 의류"}]},{"lat":"37.442405203","long":"126.78390823","items":[{"name":"명태어장","tel":"031-315-9218","addr":"경기도 시흥시 신천동 705-39번지","category":"음식점업 - 음식점"}]},{"lat":"37.438264069","long":"126.78093723","items":[{"name":"모닝글로리 문구서점","tel":"031-311-5297","addr":"경기도 시흥시 신천동 380번지","category":"소매업 - 문구, 서적"},{"name":"장수한방왕족발","tel":"031-311-8243","addr":"경기도 시흥시 신천동 380번지 한빛학원","category":"음식점업 - 음식"},{"name":"최보현 아뜰리에 플라워샵","tel":"","addr":"경기도 시흥시 신천동 380번지 1층 좌측끝","category":"소매업 - 꽃"}]},{"lat":"37.437350446","long":"126.78874777","items":[{"name":"모드니헤어샵","tel":"031-311-3188","addr":"경기도 시흥시 신천동 781-21번지","category":"개인서비스업 - 이용업"}]},{"lat":"37.441045411","long":"126.78429639","items":[{"name":"모아치과병원","tel":"031-314-2275","addr":"경기도 시흥시 신천동 712-9번지 신천프라자 10층","category":"보건업 - 치과병원"},{"name":"샤론안경","tel":"031-313-6861","addr":"경기도 시흥시 신천동 712-9번지 신천프라자 3층 다인안과내","category":"소매업 - 안경,보청기"},{"name":"신천프라자약국","tel":"031-404-9311","addr":"경기도 시흥시 신천동 712-9번지 신천프라자 102호","category":"보건업 - 약국"}]},{"lat":"37.4324923","long":"126.79279522","items":[{"name":"모아통오리","tel":"031-313-8237","addr":"경기도 시흥시 신천동 883-2번지 1층,2층","category":"음식점업 - 한식"},{"name":"친구사이포차","tel":"031-315-3789","addr":"경기도 시흥시 신천동 883-2번지","category":"음식점업 - 기타음식"}]},{"lat":"37.439431499","long":"126.7836909","items":[{"name":"몽땅다DC백화점","tel":"031-313-1566","addr":"경기도 시흥시 신천동 735-4번지 지하1층","category":"소매업 - 생활용품, 편의점"},{"name":"삼미빵집","tel":"031-313-1238","addr":"경기도 시흥시 신천동 735-4번지","category":"음식점업 - 제과점"},{"name":"삼미시장농산","tel":"031-315-1993","addr":"경기도 시흥시 신천동 735-4번지","category":"소매업 - 농산물"},{"name":"쌍둥이 정육","tel":"031-311-1334","addr":"경기도 시흥시 신천동 735-4번지","category":"소매업 - 정육"},{"name":"테마","tel":"031-314-7270","addr":"경기도 시흥시 신천동 735-4번지","category":"소매업 - 의류"}]},{"lat":"37.437518491","long":"126.78701849","items":[{"name":"무진장","tel":"","addr":"경기도 시흥시 신천동 772-13번지 1층","category":"음식점업 - 일반음식점"}]},{"lat":"37.437100613","long":"126.78515531","items":[{"name":"무학떡볶이","tel":"","addr":"경기도 시흥시 신천동 277-4번지","category":"음식점업 - 분식"},{"name":"미래헤어뷰","tel":"031-311-0150","addr":"경기도 시흥시 신천동 277-4번지","category":"개인서비스업 - 미용업"},{"name":"연희당","tel":"031-315-4943","addr":"경기도 시흥시 신천동 277-4번지 온누리교회 108호","category":"음식점업 - 카페"},{"name":"연희할인매장","tel":"031-313-3688","addr":"경기도 시흥시 신천동 277-6번지 연희아파트","category":"소매업 - 슈퍼마켓"}]},{"lat":"37.441435464","long":"126.78571905","items":[{"name":"문화과일야채","tel":"031-311-9139","addr":"경기도 시흥시 신천동 707-28번지","category":"소매업 - 농수산물"},{"name":"뱀내골 샤브나라","tel":"031-313-0680","addr":"경기도 시흥시 신천동 707-28번지","category":"음식점업 - 음식점업"}]},{"lat":"37.436932465","long":"126.79179977","items":[{"name":"뮤엠영어학원","tel":"031-311-0632","addr":"경기도 시흥시 신천동 949번지 시흥신천삼환나우빌 상가동 3층 302호","category":"교육서비스업 - 영어 교습소"},{"name":"뷰티플러스","tel":"031-404-5889","addr":"경기도 시흥시 신천동 949번지 시흥신천삼환나우빌","category":"개인서비스업 - 피부관리"},{"name":"해법수학 신천삼환교습소","tel":"031-314-0631","addr":"경기도 시흥시 신천동 949번지 시흥신천삼환나우빌 119동 3층 302호","category":"교육서비스업 - 수학 교습소"}]},{"lat":"37.437469576","long":"126.78985477","items":[{"name":"미락","tel":"","addr":"경기도 시흥시 신천동 781-9번지 남영맨션 나동 102호","category":"음식점업 - 중식"},{"name":"아이비헤어샵","tel":"031-311-9025","addr":"경기도 시흥시 신천동 781-9번지 아이비헤어샵 나동 101호","category":"개인서비스업 - 미용업"}]},{"lat":"37.439794966","long":"126.7853509","items":[{"name":"미소한방병원","tel":"031-365-4255","addr":"경기도 시흥시 신천동 733번지","category":"보건업 - 한방병원"}]},{"lat":"37.439715203","long":"126.78121544","items":[{"name":"미인본부","tel":"031-314-8369","addr":"경기도 시흥시 신천동 756-5번지","category":"개인서비스업 - 미용업"}]},{"lat":"37.438793722","long":"126.7799074","items":[{"name":"미자랑 봉이랑","tel":"031-314-0022","addr":"경기도 시흥시 신천동 752-21번지","category":"소매업 - 양곡, 농산물"},{"name":"헤어나올수없어","tel":"031-314-5255","addr":"경기도 시흥시 신천동 752-21번지","category":"개인서비스업 - 미용"}]},{"lat":"37.43104702","long":"126.77152438","items":[{"name":"미찬","tel":"031-314-1003","addr":"경기도 시흥시 신천동 506-2","category":"음식점업 - 음식점"}]},{"lat":"37.438737732","long":"126.78369292","items":[{"name":"바로굼터","tel":"031-315-4604","addr":"경기도 시흥시 신천동 761-2번지 1층","category":"음식점업 - 제과점"}]},{"lat":"37.438406918","long":"126.79002161","items":[{"name":"바우개참전복","tel":"1577-2398","addr":"경기도 시흥시 신천동 779-3번지","category":"소매업 - 수산물"}]},{"lat":"37.440158931","long":"126.7824119","items":[{"name":"발품 시흥박사 공인중개사사무소","tel":"031-312-7112","addr":"경기도 시흥시 신천동 741-11번지 1층","category":"개인서비스업 - 부동산중개및컨설팅"}]},{"lat":"37.43187924","long":"126.79258226","items":[{"name":"발해수산","tel":"031-311-8140","addr":"경기도 시흥시 신천동 883-9번지","category":"음식점업 - 수산물,한식"},{"name":"용구비어","tel":"","addr":"경기도 시흥시 신천동 883-9번지 2층","category":"음식점업 - 호프"}]},{"lat":"37.437797799","long":"126.78701769","items":[{"name":"밥이랑탕이랑소주한잔","tel":"","addr":"경기도 시흥시 신천동 772-16번지 1층","category":"음식점업 - 한식"}]},{"lat":"37.440243813","long":"126.77963191","items":[{"name":"방주생활건강","tel":"031-311-2073","addr":"경기도 시흥시 신천동 748-1번지 1층","category":"소매업 - 비데,정수기"}]},{"lat":"37.431825361","long":"126.7926841","items":[{"name":"백제당온누리약국","tel":"031-315-4848","addr":"경기도 시흥시 신천동 883-8번지","category":"보건업 - 약국"}]},{"lat":"37.440547915","long":"126.78324695","items":[{"name":"벌거숭이","tel":"","addr":"경기도 시흥시 신천동 738-3번지 구세군교회 1층 15호","category":"소매업 - 의류,잡화"},{"name":"보라식품","tel":"031-313-1045","addr":"경기도 시흥시 신천동 738-3번지","category":"소매업 - 도,소매 식자재"},{"name":"블링블링","tel":"","addr":"경기도 시흥시 신천동 738-3번지 구세군교회 12호","category":"소매업 - 옷"},{"name":"여기가좋아","tel":"","addr":"경기도 시흥시 신천동 738-3번지 구세군교회 D동 1층 17호","category":"음식점업 - 기타음식"},{"name":"영포차","tel":"","addr":"경기도 시흥시 신천동 738-3번지 구세군교회 1층 16호","category":"음식점업 - 음식"},{"name":"이대조 감자탕","tel":"031-314-3066","addr":"경기도 시흥시 신천동 738-3번지","category":"음식점업 - 한식"},{"name":"장미선물코너","tel":"031-312-9460","addr":"경기도 시흥시 신천동 738-3번지 삼미상가 D-1층 10호","category":"소매업 - 생활용품, 편의점"},{"name":"코리아 헬스","tel":"031-404-8520","addr":"경기도 시흥시 신천동 738-3번지 삼미상가 301호","category":"개인서비스업 - 체력단련장"}]},{"lat":"37.438792725","long":"126.77466441","items":[{"name":"베니어 베이커리카페 (디에스Food) ","tel":"031-313-7755","addr":"경기도 시흥시 신천동 565번지","category":"음식점업 - 빵"}]},{"lat":"37.440018521","long":"126.77960998","items":[{"name":"베리티샵","tel":"031-318-8076","addr":"경기도 시흥시 신천동 748-3번지","category":"소매업 - 의류"}]},{"lat":"37.44374064","long":"126.78496656","items":[{"name":"별미팥죽","tel":"031-311-8868","addr":"경기도 시흥시 신천동 704-26번지","category":"음식점업 - 음식점"},{"name":"위치커피 시흥신천점","tel":"031-312-6513","addr":"경기도 시흥시 신천동 704-26번지 1층 8-3, 8-4호","category":"음식점업 - 커피숍"},{"name":"주연테크컴퓨터","tel":"031-314-6161","addr":"경기도 시흥시 신천동 704-26번지","category":"소매업 - 컴퓨터 및 주변기기"}]},{"lat":"37.437656222","long":"126.78352658","items":[{"name":"보령건강원","tel":"","addr":"경기도 시흥시 신천동 842-3번지","category":"제조업 - 과일즙"}]},{"lat":"37.438266283","long":"126.79198812","items":[{"name":"보리네 생고깃간 (신천점)","tel":"031-312-6992","addr":"경기도 시흥시 신천동 83-81번지 1층","category":"음식점업 - 한식"},{"name":"오피스디포 시흥점","tel":"031-404-2199","addr":"경기도 시흥시 신천동 83-81번지","category":"소매업 - 문구류"},{"name":"크로스짐","tel":"031-318-9004","addr":"경기도 시흥시 신천동 83-81번지 주재원개발 2층 2호","category":"기타 - 온라인모바일,체조,크리스핏"}]},{"lat":"37.439376411","long":"126.78313738","items":[{"name":"보오Bo,o","tel":"","addr":"경기도 시흥시 신천동 760번지 1층","category":"소매업 - 의류"},{"name":"시흥건어물","tel":"","addr":"경기도 시흥시 신천동 760번지 1층","category":"소매업 - 잡곡,건어물"},{"name":"유진수입육직판장","tel":"031-313-5141","addr":"경기도 시흥시 신천동 760번지","category":"소매업 - 식육"}]},{"lat":"37.435049724","long":"126.79199714","items":[{"name":"본전갈비","tel":"031-311-8892","addr":"경기도 시흥시 신천동 83-59번지 1층","category":"음식점업 - 한식"},{"name":"해피로PC","tel":"","addr":"경기도 시흥시 신천동 83-59번지 3층","category":"개인서비스업 - pc방"}]},{"lat":"37.438014513","long":"126.78727695","items":[{"name":"부림 건강프라자","tel":"031-311-8781","addr":"경기도 시흥시 신천동 775-2번지 1층 102호","category":"제조업 - 건강원"},{"name":"아이스크림할인점 더달달(신천점)","tel":"","addr":"경기도 시흥시 신천동 775-2번지 홍산프라자 106호","category":"소매업 - 아이스크림,세계맥주 등"},{"name":"예쁜여우","tel":"031-520-5584","addr":"경기도 시흥시 신천동 775-2번지 302호","category":"개인서비스업 - 화장품"},{"name":"커피스토리","tel":"","addr":"경기도 시흥시 신천동 775-2번지 1층 109호","category":"음식점업 - 카페"}]},{"lat":"37.440625625","long":"126.78629768","items":[{"name":"부속고기","tel":"","addr":"경기도 시흥시 신천동 709-2번지 1층","category":"음식점업 - 한식"},{"name":"서천한우곱창","tel":"031-315-2386","addr":"경기도 시흥시 신천동 709-2번지","category":"음식점업 - 한식"}]},{"lat":"37.440076448","long":"126.78166636","items":[{"name":"부자네밥집","tel":"031-315-9174","addr":"경기도 시흥시 신천동 741-34번지","category":"음식점업 - 한식"}]},{"lat":"37.438569646","long":"126.79032624","items":[{"name":"부흥자동차공업사","tel":"031-313-2770","addr":"경기도 시흥시 신천동 1-15번지","category":"개인서비스업 - 자동차정비"}]},{"lat":"37.438462352","long":"126.78097054","items":[{"name":"붐비어","tel":"031-317-2346","addr":"경기도 시흥시 신천동 379-1번지 1층","category":"음식점업 - 호프전문점"},{"name":"아주특별한학원","tel":"031-311-6609","addr":"경기도 시흥시 신천동 379-1번지 2층","category":"교육서비스업 - 보습학원"}]},{"lat":"37.437182679","long":"126.78568614","items":[{"name":"붐비어호프","tel":"031-311-4258","addr":"경기도 시흥시 신천동 848-1번지 1층 5,6호","category":"음식점업 - 기타음식"}]},{"lat":"37.437375444","long":"126.78762907","items":[{"name":"블랙앤화이트","tel":"","addr":"경기도 시흥시 신천동 773-11번지 1층","category":"개인서비스업 - 미용"},{"name":"빨간통 피자치킨 신천점","tel":"031-317-3323","addr":"경기도 시흥시 신천동 773-11번지 1층","category":"음식점업 - 음식"}]},{"lat":"37.44148757","long":"126.77983161","items":[{"name":"블랙야크 시흥신천점","tel":"031-311-1030","addr":"경기도 시흥시 신천동 747번지","category":"소매업 - 스포츠의류"},{"name":"올포유 시흥신천점","tel":"031-312-5162","addr":"경기도 시흥시 신천동 747번지","category":"소매업 - 스포츠용품"},{"name":"웰메이드 시흥신천점","tel":"","addr":"경기도 시흥시 신천동 747번지 A동 3호","category":"소매업 - 스포츠용품"},{"name":"콜핑 시흥신천점","tel":"031-311-0825","addr":"경기도 시흥시 신천동 747번지 1층 1-7호","category":"소매업 - 의류,잡화,스포츠"}]},{"lat":"37.439575087","long":"126.77858302","items":[{"name":"쁘띠플레르 화원","tel":"070-4845-2304","addr":"경기도 시흥시 신천동 749-18번지 101호","category":"소매업 - 야생화, 분재, 관엽, 생"},{"name":"커피리치","tel":"031-311-7492","addr":"경기도 시흥시 신천동 749-18번지 101호","category":"음식점업 - 휴게음식점"}]},{"lat":"37.440130232","long":"126.78151931","items":[{"name":"사랑방","tel":"031-315-7702","addr":"경기도 시흥시 신천동 741-21번지 1층","category":"음식점업 - 기타음식"}]},{"lat":"37.439298856","long":"126.78504724","items":[{"name":"사랑해","tel":"031-311-7708","addr":"경기도 시흥시 신천동 733-5번지 1층","category":"음식점업 - 한식"}]},{"lat":"37.439515158","long":"126.78508051","items":[{"name":"삼겹싸롱","tel":"031-311-2892","addr":"경기도 시흥시 신천동 733-7번지","category":"음식점업 - 한식"}]},{"lat":"37.440076744","long":"126.78182456","items":[{"name":"삼미가전할인마트","tel":"031-314-9414","addr":"경기도 시흥시 신천동 741-30번지","category":"소매업 - 생활용품"}]},{"lat":"37.439962772","long":"126.78351985","items":[{"name":"삼미고추기름방앗간","tel":"031-313-2381","addr":"경기도 시흥시 신천동 739-6번지 삼미빌라","category":"제조업 - 고추, 기름, 잡곡"}]},{"lat":"37.4411815","long":"126.78480449","items":[{"name":"삼미안경할인마트","tel":"031-318-4223~4","addr":"경기도 시흥시 신천동 707-16번지","category":"소매업 - 안경"},{"name":"춘천숯불닭갈비","tel":"031-312-0988","addr":"경기도 시흥시 신천동 707-16번지 1층","category":"음식점업 - 한식"}]},{"lat":"37.439351476","long":"126.78426741","items":[{"name":"삼미축산","tel":"031-314-4652","addr":"경기도 시흥시 신천동 735-1번지","category":"소매업 - 식육도소매"},{"name":"원천축산","tel":"031-404-3401","addr":"경기도 시흥시 신천동 735-1번지 1층 좌측호","category":"소매업 - 축산물 판매업"}]},{"lat":"37.438295258","long":"126.78316314","items":[{"name":"삼미칼국수보리밥","tel":"031-312-4499","addr":"경기도 시흥시 신천동 761-15번지 대양쉐르빌","category":"음식점업 - 한식"}]},{"lat":"37.440713268","long":"126.78012771","items":[{"name":"삼성피복상사","tel":"031-314-2024","addr":"경기도 시흥시 신천동 746-25번지 정석아트빌 1층 101호","category":"소매업 - 작업복"}]},{"lat":"37.441487317","long":"126.7845211","items":[{"name":"삼순이 포차","tel":"031-520-9607","addr":"경기도 시흥시 신천동 707-18번지","category":"음식점업 - 포차"}]},{"lat":"37.439716916","long":"126.78213071","items":[{"name":"삼형제네명태","tel":"031-314-7346","addr":"경기도 시흥시 신천동 756-3번지","category":"음식점업 - 한식"},{"name":"항아리묵은지찜","tel":"031-313-5124","addr":"경기도 시흥시 신천동 756-3번지 1층","category":"음식점업 - 한식"}]},{"lat":"37.44068594","long":"126.77996959","items":[{"name":"삼화카센타","tel":"031-313-8166","addr":"경기도 시흥시 신천동 746번지","category":"개인서비스업 - 자동차정비업"}]},{"lat":"37.431634964","long":"126.79201802","items":[{"name":"새들약국","tel":"031-312-5760","addr":"경기도 시흥시 신천동 888-1번지","category":"보건업 - 약국"},{"name":"쵸이스 미용실","tel":"","addr":"경기도 시흥시 신천동 888-1번지","category":"개인서비스업 - 미용실"}]},{"lat":"37.438742275","long":"126.7812974","items":[{"name":"생활용품1000냥점","tel":"031-312-4554","addr":"경기도 시흥시 신천동 758-16번지","category":"소매업 - 철물"},{"name":"장군갈비","tel":"031-311-8870","addr":"경기도 시흥시 신천동 758-16번지 1층","category":"음식점업 - 한식"}]},{"lat":"37.441826972","long":"126.78305111","items":[{"name":"서영이네잔칫집","tel":"","addr":"경기도 시흥시 신천동 713-5번지","category":"음식점업 - 분식"}]},{"lat":"37.438324692","long":"126.77963761","items":[{"name":"서울열쇠설비","tel":"031-311-1155","addr":"경기도 시흥시 신천동 388-17번지","category":"소매업 - 열쇠, 철물, 설비"}]},{"lat":"37.431715671","long":"126.79180312","items":[{"name":"서전안경","tel":"031-404-1984","addr":"경기도 시흥시 신천동 886-30번지 1층","category":"소매업 - 안경"}]},{"lat":"37.43740655","long":"126.78010361","items":[{"name":"성민떡방앗간","tel":"031-314-6525","addr":"경기도 시흥시 신천동 833-5번지 1층","category":"소매업 - 방앗간"}]},{"lat":"37.440044323","long":"126.78376821","items":[{"name":"성민청과","tel":"031-311-7030","addr":"경기도 시흥시 신천동 739-14번지","category":"소매업 - 과일"},{"name":"왕발","tel":"031-311-6118","addr":"경기도 시흥시 신천동 739-14번지","category":"소매업 - 신발"},{"name":"정자네건어물","tel":"031-313-7781","addr":"경기도 시흥시 신천동 739-14번지","category":"소매업 - 건어물"}]},{"lat":"37.439432169","long":"126.78405249","items":[{"name":"성은비닐포장","tel":"031-314-0724","addr":"경기도 시흥시 신천동 735-5번지","category":"소매업 - 가정잡화"},{"name":"유명무한리필","tel":"","addr":"경기도 시흥시 신천동 735-5번지 1층 일부호","category":"음식점업 - 한식"}]},{"lat":"37.441546956","long":"126.77788784","items":[{"name":"세방통상","tel":"","addr":"경기도 시흥시 신천동 431-7번지","category":"소매업 - 스포츠의류"},{"name":"엘르골프","tel":"031-315-4300","addr":"경기도 시흥시 신천동 431-7번지 1층","category":"소매업 - 스포츠의류 및 용품외"}]},{"lat":"37.431937373","long":"126.78982526","items":[{"name":"세븐나잇","tel":"031-317-2456","addr":"경기도 시흥시 신천동 874-5번지 롯데주택 101호","category":"음식점업 - 치킨"}]},{"lat":"37.441854569","long":"126.78335613","items":[{"name":"셀렉토커피 신천역점","tel":"031-312-0399","addr":"경기도 시흥시 신천동 706-12번지 아도니스의 꿈 1층 107호","category":"음식점업 - 카페"}]},{"lat":"37.437157183","long":"126.78652236","items":[{"name":"셀프레소 신천점","tel":"031-314-4753","addr":"경기도 시흥시 신천동 853-3번지","category":"음식점업 - 커피숍"}]},{"lat":"37.439493015","long":"126.78285454","items":[{"name":"소랑돼지랑","tel":"031-316-1318","addr":"경기도 시흥시 신천동 759-1번지 1층","category":"음식점업 - 식육판매업,"},{"name":"오로지 가정식 백반","tel":"031-311-3359","addr":"경기도 시흥시 신천동 759-1번지","category":"음식점업 - 한식"}]},{"lat":"37.442014728","long":"126.78227086","items":[{"name":"소래산정육점","tel":"031-313-2380","addr":"경기도 시흥시 신천동 713-12번지","category":"소매업 - 식육"},{"name":"소래산정육점식당","tel":"031-313-2380","addr":"경기도 시흥시 신천동 713-12번지","category":"음식점업 - 한식"}]},{"lat":"37.439097921","long":"126.78357887","items":[{"name":"소래야채건어물","tel":"031-318-9935","addr":"경기도 시흥시 신천동 760-21번지","category":"소매업 - 야채,건어물"}]},{"lat":"37.439799101","long":"126.78271805","items":[{"name":"소앤소시흥신천점","tel":"031-314-0606","addr":"경기도 시흥시 신천동 740-9번지 2층","category":"음식점업 - 한식"},{"name":"씨티안경","tel":"031-313-9200","addr":"경기도 시흥시 신천동 740-9번지","category":"소매업 - 안경"},{"name":"초밥마루","tel":"031-313-0776","addr":"경기도 시흥시 신천동 740-9번지 대성빌딩 1층 104호","category":"음식점업 - 초밥"},{"name":"한우명가","tel":"031-311-9228","addr":"경기도 시흥시 신천동 740-9번지 대성빌딩 106호","category":"소매업 - 식육즉석판매가공업"}]},{"lat":"37.43940844","long":"126.78099035","items":[{"name":"소중대포차","tel":"","addr":"경기도 시흥시 신천동 753-4번지 1층","category":"음식점업 - 기타음식"}]},{"lat":"37.43957591","long":"126.78382607","items":[{"name":"솔로몬신발","tel":"","addr":"경기도 시흥시 신천동 735번지","category":"소매업 - 신발"},{"name":"신천농수산물","tel":"031-314-3777","addr":"경기도 시흥시 신천동 735번지","category":"소매업 - 야채, 수산물"},{"name":"이모네밥상","tel":"031-312-4777","addr":"경기도 시흥시 신천동 735번지","category":"음식점업 - 한식"}]},{"lat":"37.438736812","long":"126.78809975","items":[{"name":"송월타월시흥세영대리점","tel":"031-315-5100","addr":"경기도 시흥시 신천동 776-2번지 우주쉐르빌9차 1층","category":"제조업 - 타월, 우산, 판촉물, 잡"}]},{"lat":"37.437185122","long":"126.78701945","items":[{"name":"수다방커피","tel":"","addr":"경기도 시흥시 신천동 855-2번지","category":"음식점업 - 커피숍"}]},{"lat":"37.439819702","long":"126.78410786","items":[{"name":"수연야채","tel":"","addr":"경기도 시흥시 신천동 736번지","category":"소매업 - 야채,나물,젖갈"}]},{"lat":"37.43996576","long":"126.78513571","items":[{"name":"순우리인삼","tel":"031-311-6315","addr":"경기도 시흥시 신천동 737-5번지 성은빌딩 2층","category":"소매업 - 인삼,홍삼,기계"}]},{"lat":"37.440099324","long":"126.78427654","items":[{"name":"순이네닭강정","tel":"031-313-4300","addr":"경기도 시흥시 신천동 737-13번지 1층","category":"음식점업 - 한식, 닭강정"}]},{"lat":"37.44115796","long":"126.78183268","items":[{"name":"숲속동물병원","tel":"031-317-8275","addr":"경기도 시흥시 신천동 743번지 리앤신빌딩 1층","category":"보건업 - 수의업"}]},{"lat":"37.431848331","long":"126.79041303","items":[{"name":"스카이수학영어과학학원","tel":"031-312-3181","addr":"경기도 시흥시 신천동 875-3번지 2층","category":"교육서비스업 - 학원"},{"name":"한국 공인중개사사무소","tel":"031-316-8100","addr":"경기도 시흥시 신천동 875-3번지","category":"개인서비스업 - 부동산중개업"},{"name":"한잔하세","tel":"","addr":"경기도 시흥시 신천동 875-3번지 1층","category":"음식점업 - 일반음식"}]},{"lat":"37.434800952","long":"126.78893582","items":[{"name":"스피드메이트신천점열린카","tel":"031-314-9684","addr":"경기도 시흥시 신천동 865-6번지","category":"개인서비스업 - 카센타"}]},{"lat":"37.438712632","long":"126.77990765","items":[{"name":"시골빵","tel":"031-312-0090","addr":"경기도 시흥시 신천동 752-20번지 1층","category":"음식점업 - 제과점"}]},{"lat":"37.431128628","long":"126.79102518","items":[{"name":"시누이올케식당","tel":"031-313-9834","addr":"경기도 시흥시 신천동 887-21번지 1층","category":"음식점업 - 분식"}]},{"lat":"37.431190501","long":"126.7903584","items":[{"name":"시흥모터스","tel":"031-312-9324","addr":"경기도 시흥시 신천동 875-17번지","category":"개인서비스업 - 자동차전문수리업"}]},{"lat":"37.440569989","long":"126.78543905","items":[{"name":"시흥센트럴이비인후과의원","tel":"031-364-8225","addr":"경기도 시흥시 신천동 711-2번지 5층","category":"보건업 - 이비인후과"}]},{"lat":"37.442792694","long":"126.783941","items":[{"name":"시흥시제일태권도","tel":"031-311-7959","addr":"경기도 시흥시 신천동 705-6번지 2층","category":"스포츠및여가관련서비스업 - 체육업"}]},{"lat":"37.441493709","long":"126.78310858","items":[{"name":"시흥주방","tel":"031-404-1656","addr":"경기도 시흥시 신천동 712번지","category":"소매업 - 그릇"}]},{"lat":"37.438072313","long":"126.78440673","items":[{"name":"시흥컴퓨터","tel":"031-314-3800","addr":"경기도 시흥시 신천동 762-4번지 1층","category":"소매업 - 컴퓨터 및 주변기기"}]},{"lat":"37.439577652","long":"126.77993898","items":[{"name":"신세계 태권도장","tel":"031-312-1833","addr":"경기도 시흥시 신천동 754-6번지 2층","category":"교육서비스업 - 태권도장"}]},{"lat":"37.435296664","long":"126.7890248","items":[{"name":"신이가네 순대국","tel":"031-314-4466","addr":"경기도 시흥시 신천동 859-8번지 1층","category":"음식점업 - 한식"},{"name":"신흥이용원","tel":"","addr":"경기도 시흥시 신천동 859-8번지","category":"개인서비스업 - 이발소"}]},{"lat":"37.441682299","long":"126.77798913","items":[{"name":"신천 스포츠","tel":"031-311-5335","addr":"경기도 시흥시 신천동 431-3번지","category":"소매업 - 스포츠용품"},{"name":"와이드앵글 시흥신천점","tel":"031-312-7068","addr":"경기도 시흥시 신천동 431-3번지","category":"소매업 - 등산아웃도어"}]},{"lat":"37.436105249","long":"126.78285316","items":[{"name":"신천공부방","tel":"","addr":"경기도 시흥시 신천동 264-2번지 동경아파트","category":"교육서비스업 - 교육서비스업"}]},{"lat":"37.435463581","long":"126.78180423","items":[{"name":"신천동주민자치회","tel":"031-310-4357","addr":"경기도 시흥시 신천동 265-2번지","category":"교육서비스업 - 교육"}]},{"lat":"37.431686598","long":"126.79066206","items":[{"name":"신천떡집","tel":"031-404-4124","addr":"경기도 시흥시 신천동 886-7번지","category":"제조업 - 떡방앗간"},{"name":"해미축산","tel":"","addr":"경기도 시흥시 신천동 886-7번지","category":"소매업 - 정육"}]},{"lat":"37.43746029","long":"126.77993396","items":[{"name":"신천아이기수주짓수","tel":"031-311-1227","addr":"경기도 시흥시 신천동 833-2번지 2층","category":"교육서비스업 - 합기도도장"},{"name":"신천정육백화점","tel":"031-312-9293","addr":"경기도 시흥시 신천동 833-2번지","category":"소매업 - 식육"},{"name":"우리학원","tel":"031-318-2278","addr":"경기도 시흥시 신천동 833-2번지 예다솜어린이집 2층 2호","category":"교육서비스업 - 보습학원"}]},{"lat":"37.433932318","long":"126.7869158","items":[{"name":"신천점 기아오토규","tel":"031-311-5104","addr":"경기도 시흥시 신천동 862-11번지","category":"개인서비스업 - 카센타"}]},{"lat":"37.4361845","long":"126.78673984","items":[{"name":"신천정육마트","tel":"","addr":"경기도 시흥시 신천동 849-4번지 가일빌딩 1호","category":"소매업 - 정육"},{"name":"신천정육식당","tel":"","addr":"경기도 시흥시 신천동 849-4번지 1층","category":"음식점업 - 정육식당"},{"name":"이선생왕코다리","tel":"031-312-9955","addr":"경기도 시흥시 신천동 849-4번지 1층","category":"음식점업 - 한식"}]},{"lat":"37.442854135","long":"126.77357856","items":[{"name":"신천지종합카센타","tel":"031-311-3630","addr":"경기도 시흥시 신천동 586-6번지","category":"개인서비스업 - 자동차부분정비"}]},{"lat":"37.433435889","long":"126.79141414","items":[{"name":"신천하이퍼","tel":"","addr":"경기도 시흥시 신천동 879-15번지 101호","category":"소매업 - 슈퍼"}]},{"lat":"37.441153071","long":"126.78404747","items":[{"name":"신천한의원","tel":"031-404-9075","addr":"경기도 시흥시 신천동 712-7번지","category":"보건업 - 한의원"},{"name":"해마상업기획","tel":"","addr":"경기도 시흥시 신천동 712-7번지","category":"제조업 - 제작"}]},{"lat":"37.438518633","long":"126.78215683","items":[{"name":"신천함흥냉면신천점","tel":"031-311-0195","addr":"경기도 시흥시 신천동 840-3번지","category":"음식점업 - 일반한식"},{"name":"정갈비","tel":"","addr":"경기도 시흥시 신천동 840-3번지","category":"음식점업 - 음식점"}]},{"lat":"37.443292218","long":"126.78123879","items":[{"name":"싱싱야채","tel":"","addr":"경기도 시흥시 신천동 314-40번지 성도스카이빌","category":"소매업 - 야채"}]},{"lat":"37.438048673","long":"126.78624861","items":[{"name":"써니","tel":"031-504-4436","addr":"경기도 시흥시 신천동 771-11번지 디오쉐르빌 좌측 상가","category":"소매업 - 여성의류"}]},{"lat":"37.442521513","long":"126.77866463","items":[{"name":"아레나 시흥점","tel":"031-314-1517","addr":"경기도 시흥시 신천동 411-1번지","category":"소매업 - 스포츠의류, 수영복"}]},{"lat":"37.437883716","long":"126.7799101","items":[{"name":"아모르커피","tel":"031-314-9676","addr":"경기도 시흥시 신천동 458-2번지 1층 일부","category":"음식점업 - 커피"},{"name":"엔젤미용실","tel":"031-311-6430","addr":"경기도 시흥시 신천동 458-2번지","category":"개인서비스업 - 미용업"}]},{"lat":"37.440097523","long":"126.78330476","items":[{"name":"아시아DC마트","tel":"031-404-6989","addr":"경기도 시흥시 신천동 739-10번지 1층","category":"소매업 - 슈퍼마켓"}]},{"lat":"37.44145791","long":"126.7784418","items":[{"name":"아식스 스포츠 신천점","tel":"031-404-2225","addr":"경기도 시흥시 신천동 410-1번지","category":"소매업 - 스포츠의류"}]},{"lat":"37.442185543","long":"126.77729832","items":[{"name":"아이더 시흥점","tel":"031-311-6433","addr":"경기도 시흥시 신천동 430-16번지","category":"소매업 - 등산장비"}]},{"lat":"37.439126514","long":"126.77960133","items":[{"name":"아이러브펫(I LOVE PET)","tel":"031-503-2779","addr":"경기도 시흥시 신천동 750-5번지 1층 코너","category":"소매업 - 애완용품"}]},{"lat":"37.437132027","long":"126.78265807","items":[{"name":"아틀라스","tel":"","addr":"경기도 시흥시 신천동 843-27번지","category":"음식점업 - 커피 휴게"}]},{"lat":"37.444101038","long":"126.78496552","items":[{"name":"악기몰","tel":"031-313-0983","addr":"경기도 시흥시 신천동 704-10번지","category":"소매업 - 악기도소매"},{"name":"육고간(세찬축산)","tel":"031-311-6071","addr":"경기도 시흥시 신천동 704-10번지","category":"소매업 - 육류소매업"}]},{"lat":"37.440629572","long":"126.78355181","items":[{"name":"안경창고 싸군 시흥점","tel":"031-404-4979","addr":"경기도 시흥시 신천동 738-1번지","category":"소매업 - 안경"},{"name":"육해공 새마을회관","tel":"031-311-8590","addr":"경기도 시흥시 신천동 738-1번지","category":"음식점업 - 한식"}]},{"lat":"37.437961811","long":"126.77832795","items":[{"name":"안녕마카롱","tel":"","addr":"경기도 시흥시 신천동 819-8번지 1층","category":"소매업 - 마카롱"}]},{"lat":"37.441378554","long":"126.77935734","items":[{"name":"안면도바지락칼국수","tel":"031-311-2368","addr":"경기도 시흥시 신천동 410-2번지","category":"음식점업 - 칼국수"}]},{"lat":"37.431884107","long":"126.79026605","items":[{"name":"안심고기곡간","tel":"031-435-5517","addr":"경기도 시흥시 신천동 875-2번지 1층","category":"소매업 - 식육"}]},{"lat":"37.437517307","long":"126.77674737","items":[{"name":"알곡유통","tel":"031-404-5834","addr":"경기도 시흥시 신천동 815-21번지 가산빌라 102호","category":"소매업 - 쌀,잡곡외"}]},{"lat":"37.438687325","long":"126.78082298","items":[{"name":"압구정봉구비어","tel":"","addr":"경기도 시흥시 신천동 752-25번지","category":"음식점업 - 음식점업"}]},{"lat":"37.438494463","long":"126.78369363","items":[{"name":"애견나라백화점","tel":"031-404-1474","addr":"경기도 시흥시 신천동 761-8번지","category":"소매업 - 애견용품"}]},{"lat":"37.441263818","long":"126.78547094","items":[{"name":"야시숙녀복","tel":"031-404-3617","addr":"경기도 시흥시 신천동 708-3번지","category":"소매업 - 의류"},{"name":"홍가네 고려삼계탕","tel":"031-313-3055","addr":"경기도 시흥시 신천동 708-3번지","category":"음식점업 - 음식"}]},{"lat":"37.438716774","long":"126.78699245","items":[{"name":"얌얌브레드","tel":"031-318-0095","addr":"경기도 시흥시 신천동 769번지 1층 1호","category":"음식점업 - 제과점"},{"name":"어바웃타임","tel":"","addr":"경기도 시흥시 신천동 769번지 1층 2호","category":"음식점업 - 카페"}]},{"lat":"37.437515217","long":"126.7852332","items":[{"name":"양군헤어","tel":"","addr":"경기도 시흥시 신천동 763-13번지 프라임빌","category":"개인서비스업 - 미용업"}]},{"lat":"37.43893357","long":"126.78729692","items":[{"name":"어영차 한우야","tel":"031-311-6780","addr":"경기도 시흥시 신천동 768-2번지 1층","category":"음식점업 - 음식"},{"name":"헤이데이커피(HEYDAY COFFE)","tel":"031-312-4040","addr":"경기도 시흥시 신천동 768-2번지 (주)티엔에프 1층 2호","category":"음식점업 - 커피, 카페"}]},{"lat":"37.438493994","long":"126.78834903","items":[{"name":"에스민헤어라인","tel":"","addr":"경기도 시흥시 신천동 776-8번지 1층","category":"개인서비스업 - 미용업"}]},{"lat":"37.442324741","long":"126.78424746","items":[{"name":"엔젤꽃집","tel":"","addr":"경기도 시흥시 신천동 705-18번지","category":"소매업 - 생화,관엽,란"}]},{"lat":"37.439409224","long":"126.78140843","items":[{"name":"여우손톱","tel":"","addr":"경기도 시흥시 신천동 757-1번지 1층 좌","category":"개인서비스업 - 네일"}]},{"lat":"37.437631451","long":"126.78474699","items":[{"name":"연희호프","tel":"","addr":"경기도 시흥시 신천동 763번지 1층","category":"음식점업 - 호프"}]},{"lat":"37.436212458","long":"126.78724823","items":[{"name":"영스타사진관","tel":"031-318-0919","addr":"경기도 시흥시 신천동 852-13번지","category":"개인서비스업 - 사진관"}]},{"lat":"37.43007819","long":"126.78810189","items":[{"name":"영주산업","tel":"031-435-0934","addr":"경기도 시흥시 신천동 158-3번지","category":"제조업 - 전자부품가공"}]},{"lat":"37.442541648","long":"126.78460844","items":[{"name":"예그리나","tel":"031-314-9752","addr":"경기도 시흥시 신천동 705-14번지","category":"제조업 - 초상화액자"}]},{"lat":"37.439410936","long":"126.7823237","items":[{"name":"예술광고디자인","tel":"031-311-0001","addr":"경기도 시흥시 신천동 757-12번지","category":"제조업 - 간판"}]},{"lat":"37.436883827","long":"126.78979994","items":[{"name":"예은농원","tel":"031-317-9394","addr":"경기도 시흥시 신천동 856-14번지 1층","category":"소매업 - 관엽류,난,생화.화환 등"}]},{"lat":"37.444653631","long":"126.78172069","items":[{"name":"옛고을","tel":"031-312-5960","addr":"경기도 시흥시 신천동 701번지 1층","category":"음식점업 - 일반음식"}]},{"lat":"37.437991985","long":"126.77998888","items":[{"name":"옛날통닭","tel":"031-313-9293","addr":"경기도 시흥시 신천동 388-15번지 1층","category":"음식점업 - 기타음식"},{"name":"정통중화요리 황룡","tel":"031-312-6622","addr":"경기도 시흥시 신천동 388-15번지","category":"음식점업 - 중식"},{"name":"진로마트","tel":"031-314-0550","addr":"경기도 시흥시 신천동 388-15번지","category":"소매업 - 슈퍼마켓"}]},{"lat":"37.440626985","long":"126.78216193","items":[{"name":"옥돌정","tel":"031-315-8595","addr":"경기도 시흥시 신천동 742-12번지","category":"음식점업 - 한식"}]},{"lat":"37.431795913","long":"126.79132836","items":[{"name":"온나","tel":"031-506-8258","addr":"경기도 시흥시 신천동 886-18번지","category":"소매업 - 의류, 잡화"}]},{"lat":"37.440932026","long":"126.78633069","items":[{"name":"와규본가한점승부","tel":"031-312-9287","addr":"경기도 시흥시 신천동 709-15번지 1층","category":"음식점업 - 한식"},{"name":"참치오일리","tel":"031-313-9599","addr":"경기도 시흥시 신천동 709-15번지","category":"음식점업 - 한식"}]},{"lat":"37.441660089","long":"126.7853794","items":[{"name":"왕돈까스왕냉면","tel":"031-315-5614","addr":"경기도 시흥시 신천동 707-32번지","category":"음식점업 - 음식"},{"name":"호떡당디저트카페","tel":"031-314-3500","addr":"경기도 시흥시 신천동 707-32번지 1층","category":"음식점업 - 호떡"}]},{"lat":"37.437653601","long":"126.77734583","items":[{"name":"요술램프","tel":"","addr":"경기도 시흥시 신천동 816-10번지 두리마을 B동 B1호","category":"소매업 - 의류,내의,학용품 등"}]},{"lat":"37.442272017","long":"126.78497082","items":[{"name":"우럭의전당","tel":"031-313-4709","addr":"경기도 시흥시 신천동 707-70번지","category":"음식점업 - 한식"}]},{"lat":"37.437324764","long":"126.7894936","items":[{"name":"우리동네미용실","tel":"031-312-1416","addr":"경기도 시흥시 신천동 781-27번지","category":"개인서비스업 - 미용,서비스"}]},{"lat":"37.441237597","long":"126.78591172","items":[{"name":"우리상회","tel":"031-314-9983","addr":"경기도 시흥시 신천동 709-19번지 1층","category":"소매업 - 건어물, 식품, 청과물"}]},{"lat":"37.439572651","long":"126.78207463","items":[{"name":"우리집쉐프","tel":"031-311-8500","addr":"경기도 시흥시 신천동 756-8번지 1층 일부호","category":"음식점업 - 양식"}]},{"lat":"37.43346411","long":"126.79208068","items":[{"name":"우미반점","tel":"031-314-9322","addr":"경기도 시흥시 신천동 879-9번지 1층","category":"음식점업 - 중식"}]},{"lat":"37.440127153","long":"126.77988085","items":[{"name":"우정시스템","tel":"031-313-4101","addr":"경기도 시흥시 신천동 754-12번지","category":"소매업 - 컴퓨터 및 주변기기"}]},{"lat":"37.441771312","long":"126.78219247","items":[{"name":"우창자동차정비","tel":"031-314-3737","addr":"경기도 시흥시 신천동 713-15번지","category":"기타 - 자동차정비"},{"name":"파크랜드 경기시흥점","tel":"031-317-8687","addr":"경기도 시흥시 신천동 713-15번지","category":"소매업 - 의류수탁판매"}]},{"lat":"37.438938839","long":"126.78041546","items":[{"name":"원미용실","tel":"","addr":"경기도 시흥시 신천동 752-28번지 1층","category":"개인서비스업 - 미용업"}]},{"lat":"37.437573066","long":"126.78730082","items":[{"name":"원조닭탕","tel":"031-311-3701","addr":"경기도 시흥시 신천동 773번지","category":"음식점업 - 음식"}]},{"lat":"37.43765364","long":"126.7870181","items":[{"name":"원주아줌마","tel":"031-313-0306","addr":"경기도 시흥시 신천동 772-15번지","category":"음식점업 - 기타음식"}]},{"lat":"37.43354245","long":"126.79054383","items":[{"name":"월드슈퍼","tel":"031-311-5697","addr":"경기도 시흥시 신천동 869-2번지 뉴월드아파트","category":"소매업 - 슈퍼"}]},{"lat":"37.441407603","long":"126.78526713","items":[{"name":"윙글치킨경인직영점","tel":"031-314-9585","addr":"경기도 시흥시 신천동 708-1번지 1층","category":"음식점업 - 치킨,호프"}]},{"lat":"37.438486764","long":"126.77958063","items":[{"name":"윙글치킨비어 시흥2호","tel":"031-315-9585","addr":"경기도 시흥시 신천동 388-3번지 1층","category":"음식점업 - 기타음식"},{"name":"종근당약국","tel":"031-311-1619","addr":"경기도 시흥시 신천동 388-3번지","category":"보건업 - 양약"},{"name":"한신당구장","tel":"","addr":"경기도 시흥시 신천동 388-3번지 3층","category":"스포츠및여가관련서비스업 - 당구장"}]},{"lat":"37.442994381","long":"126.78096846","items":[{"name":"유니헤어","tel":"070-4140-2755","addr":"경기도 시흥시 신천동 314-84번지","category":"개인서비스업 - 미용업"}]},{"lat":"37.438548711","long":"126.78379517","items":[{"name":"으뜸국수","tel":"031-506-0033","addr":"경기도 시흥시 신천동 761-7번지","category":"음식점업 - 국수"}]},{"lat":"37.431490058","long":"126.79160038","items":[{"name":"으뜸노인복지센터","tel":"031-319-4303","addr":"경기도 시흥시 신천동 886-33번지","category":"기타 - 복지센터"}]},{"lat":"37.435882609","long":"126.77944148","items":[{"name":"은별문구","tel":"031-314-1847","addr":"경기도 시흥시 신천동 827-8번지","category":"소매업 - 문구"}]},{"lat":"37.439627175","long":"126.78232306","items":[{"name":"은실네순대국","tel":"031-507-3257","addr":"경기도 시흥시 신천동 756-6번지 1층 104호","category":"음식점업 - 한식"}]},{"lat":"37.437856074","long":"126.78440736","items":[{"name":"이남이발관","tel":"","addr":"경기도 시흥시 신천동 762-9번지","category":"개인서비스업 - 이용업"},{"name":"후라이드참잘하는집 시흥점","tel":"031-312-5582","addr":"경기도 시흥시 신천동 762-9번지 1층 2호","category":"음식점업 - 치킨"}]},{"lat":"37.431320561","long":"126.79254993","items":[{"name":"이디야커피시흥신일점","tel":"031-313-2794","addr":"경기도 시흥시 신천동 888-10번지 1층","category":"음식점업 - 커피전문점"}]},{"lat":"37.43723829","long":"126.78166342","items":[{"name":"이레자동차공업사","tel":"031-312-1475","addr":"경기도 시흥시 신천동 837-3번지","category":"개인서비스업 - 카센터, 타이어"}]},{"lat":"37.436599123","long":"126.78682905","items":[{"name":"이유준신천생고기","tel":"031-311-9292","addr":"경기도 시흥시 신천동 853-7번지","category":"음식점업 - 한식"}]},{"lat":"37.437486104","long":"126.77928982","items":[{"name":"이젠","tel":"","addr":"경기도 시흥시 신천동 830-3번지 동진아파트 5동 508호","category":"소매업 - 소형가전"}]},{"lat":"37.436158171","long":"126.78224285","items":[{"name":"이지투 공부방","tel":"","addr":"경기도 시흥시 신천동 844-10번지 한미금강아파트","category":"교육서비스업 - 개인과외"}]},{"lat":"37.441272557","long":"126.78532402","items":[{"name":"이페스제화","tel":"031-311-6343","addr":"경기도 시흥시 신천동 708-2번지","category":"소매업 - 구두"}]},{"lat":"37.443100011","long":"126.77030075","items":[{"name":"인견사랑","tel":"031-315-5885","addr":"경기도 시흥시 신천동 595-9번지 더스타일아울렛 1층","category":"소매업 - 의류"}]},{"lat":"37.437494605","long":"126.78874736","items":[{"name":"인생주먹고기","tel":"","addr":"경기도 시흥시 신천동 781-19번지","category":"음식점업 - 음식점"}]},{"lat":"37.435769829","long":"126.77698991","items":[{"name":"일진제과","tel":"031-313-7388","addr":"경기도 시흥시 신천동 825-24번지","category":"제조업 - 뻥과자"}]},{"lat":"37.437180982","long":"126.77993479","items":[{"name":"임플카센타","tel":"031-312-7967","addr":"경기도 시흥시 신천동 834-1번지","category":"개인서비스업 - 자동차수리"}]},{"lat":"37.432713593","long":"126.79058007","items":[{"name":"잉글리쉬원오원학원","tel":"070-8286-6943","addr":"경기도 시흥시 신천동 877-7번지 2층","category":"교육서비스업 - 영어"}]},{"lat":"37.437217341","long":"126.78010417","items":[{"name":"자고패션","tel":"070-7789-8310","addr":"경기도 시흥시 신천동 834-2번지","category":"제조업 - 의류임가공"}]},{"lat":"37.43843523","long":"126.78577291","items":[{"name":"자매밥상","tel":"031-311-1341","addr":"경기도 시흥시 신천동 765-2번지","category":"음식점업 - 한식"},{"name":"탕가네시흥신천점","tel":"031-317-0606","addr":"경기도 시흥시 신천동 765-2번지 성원빌딩 1층 103호","category":"음식점업 - 한식"}]},{"lat":"37.436545389","long":"126.78212872","items":[{"name":"장수생고기쌈밥","tel":"031-317-5057","addr":"경기도 시흥시 신천동 844-1번지 신성빌리지","category":"음식점업 - 한식"}]},{"lat":"37.437716433","long":"126.77722134","items":[{"name":"장헤어샵","tel":"031-404-1012","addr":"경기도 시흥시 신천동 816-9번지","category":"개인서비스업 - 미용"}]},{"lat":"37.441215743","long":"126.78383259","items":[{"name":"정관장신천점","tel":"031-311-2304","addr":"경기도 시흥시 신천동 712-6번지 1층","category":"소매업 - 건강기능식품"},{"name":"펫츠나라동물병원","tel":"031-314-0706","addr":"경기도 시흥시 신천동 712-6번지 1호","category":"보건업 - 동물병원"}]},{"lat":"37.444353212","long":"126.78490828","items":[{"name":"정성한의원","tel":"031-313-1275","addr":"경기도 시흥시 신천동 704-5번지 2층","category":"보건업 - 한의원"}]},{"lat":"37.438545998","long":"126.78721893","items":[{"name":"제시카헤어","tel":"","addr":"경기도 시흥시 신천동 769-2번지 호경주상복합아파트 101호 102호","category":"개인서비스업 - 미용업"}]},{"lat":"37.437214314","long":"126.78330189","items":[{"name":"제이디와이 디자인","tel":"031-311-7600","addr":"경기도 시흥시 신천동 843-5번지","category":"기타 - 인테리어"}]},{"lat":"37.438683037","long":"126.77855179","items":[{"name":"제이씨미트","tel":"","addr":"경기도 시흥시 신천동 751-9번지 1층","category":"소매업 - 정육점"},{"name":"탕이랑구이랑","tel":"","addr":"경기도 시흥시 신천동 751-9번지 1층","category":"음식점업 - 한식"}]},{"lat":"37.440105082","long":"126.78252506","items":[{"name":"제이에스커피숍","tel":"031-316-3949","addr":"경기도 시흥시 신천동 741-12번지","category":"음식점업 - 휴게음식"}]},{"lat":"37.443326119","long":"126.78493386","items":[{"name":"제이헤어","tel":"031-313-6213","addr":"경기도 시흥시 신천동 704-29번지","category":"개인서비스업 - 미용업"}]},{"lat":"37.43432793","long":"126.78646271","items":[{"name":"제일자동차공업사","tel":"031-314-7771","addr":"경기도 시흥시 신천동 862-14번지","category":"개인서비스업 - 자동차수리"}]},{"lat":"37.439632578","long":"126.78523837","items":[{"name":"제일축산","tel":"031-435-5559","addr":"경기도 시흥시 신천동 733-8번지","category":"소매업 - 식육판매업"}]},{"lat":"37.439327351","long":"126.78099059","items":[{"name":"제주갈비1호점","tel":"031-313-8885","addr":"경기도 시흥시 신천동 753-11번지 1층","category":"음식점업 - 한식"}]},{"lat":"37.439603964","long":"126.78437968","items":[{"name":"제주본가","tel":"031-318-0202","addr":"경기도 시흥시 신천동 736-5번지","category":"음식점업 - 한식"}]},{"lat":"37.431212341","long":"126.79249374","items":[{"name":"조선포차","tel":"031-318-9297","addr":"경기도 시흥시 신천동 888-11번지 1층","category":"음식점업 - 한식"}]},{"lat":"37.441603276","long":"126.78388796","items":[{"name":"조이너스 경기시흥점","tel":"031-311-9327","addr":"경기도 시흥시 신천동 707-1번지","category":"소매업 - 여성의류"}]},{"lat":"37.439216954","long":"126.78460679","items":[{"name":"종로회관","tel":"031-311-5946","addr":"경기도 시흥시 신천동 734번지","category":"음식점업 - 한식"}]},{"lat":"37.443965888","long":"126.78496591","items":[{"name":"좋은빵만들기","tel":"031-312-1188","addr":"경기도 시흥시 신천동 704-16번지","category":"음식점업 - 제과"},{"name":"짬뽕상회","tel":"031-312-3307","addr":"경기도 시흥시 신천동 704-16번지 1층 일부호","category":"음식점업 - 중식"}]},{"lat":"37.436825136","long":"126.78724647","items":[{"name":"주가네다오리한방삼계탕","tel":"031-314-3145","addr":"경기도 시흥시 신천동 855-4번지","category":"음식점업 - 기타음식점"}]},{"lat":"37.441631058","long":"126.78429468","items":[{"name":"주주총회","tel":"","addr":"경기도 시흥시 신천동 707-5번지","category":"음식점업 - 음식점"},{"name":"콩이랑굴이랑","tel":"031-435-9433","addr":"경기도 시흥시 신천동 707-5번지 뱀내장터1길 17 101호","category":"음식점업 - 간이음식"},{"name":"할매해장국","tel":"031-314-8694","addr":"경기도 시흥시 신천동 707-5번지","category":"음식점업 - 한식"}]},{"lat":"37.43213176","long":"126.79271714","items":[{"name":"지개골아구찜","tel":"031-313-4200","addr":"경기도 시흥시 신천동 883-5번지","category":"음식점업 - 중식"},{"name":"투명통슬라임카페","tel":"031-311-0506","addr":"경기도 시흥시 신천동 883-5번지 2층","category":"음식점업 - 카페, 문구"},{"name":"특별한하루타로카페","tel":"","addr":"경기도 시흥시 신천동 883-5번지 1층","category":"개인서비스업 - 카페"},{"name":"피자스쿨시흥신천신일초","tel":"031-317-3223","addr":"경기도 시흥시 신천동 883-5번지 1층 일부호","category":"음식점업 - 피자"}]},{"lat":"37.438050432","long":"126.78232769","items":[{"name":"지게골동태찜탕","tel":"031-311-3294","addr":"경기도 시흥시 신천동 839-8번지 1층","category":"음식점업 - 한식"}]},{"lat":"37.438326488","long":"126.78543424","items":[{"name":"진갈비","tel":"031-315-3893","addr":"경기도 시흥시 신천동 765-10번지 레브앙타워 1층 110호","category":"음식점업 - 한식"},{"name":"컵오브커피 신천동점","tel":"031-318-8420","addr":"경기도 시흥시 신천동 765-10번지 레브앙타워 1층 106호","category":"음식점업 - 서양식"},{"name":"팡프레스코","tel":"031-315-0595","addr":"경기도 시흥시 신천동 765-10번지 레브앙타워 1층 103호","category":"음식점업 - 커피,빵"}]},{"lat":"37.44226674","long":"126.77735458","items":[{"name":"진게스","tel":"031-316-6789","addr":"경기도 시흥시 신천동 430-2번지","category":"소매업 - 의류잡화, 스포츠용품"},{"name":"프로스펙스 소래","tel":"031-311-3703","addr":"경기도 시흥시 신천동 430-2번지","category":"소매업 - 신발외 스포츠용품"}]},{"lat":"37.440268544","long":"126.78321387","items":[{"name":"진영의류","tel":"031-311-7588","addr":"경기도 시흥시 신천동 739-1번지","category":"소매업 - 의류"}]},{"lat":"37.438077005","long":"126.78696039","items":[{"name":"진짜사나이포차","tel":"","addr":"경기도 시흥시 신천동 772-1번지 1층","category":"음식점업 - 일반음식점"}]},{"lat":"37.439992067","long":"126.77991515","items":[{"name":"짱구모터스","tel":"031-315-0951","addr":"경기도 시흥시 신천동 754-10번지","category":"개인서비스업 - 오토바이판매미수리"}]},{"lat":"37.438160045","long":"126.78312963","items":[{"name":"쭈홍","tel":"031-314-3339","addr":"경기도 시흥시 신천동 761-14번지","category":"음식점업 - 중화요리"}]},{"lat":"37.434881899","long":"126.7888565","items":[{"name":"차사랑공업사","tel":"031-435-5678","addr":"경기도 시흥시 신천동 865-7번지","category":"개인서비스업 - 자동차수리"}]},{"lat":"37.432488242","long":"126.79052421","items":[{"name":"참솔갈비","tel":"031-314-9946","addr":"경기도 시흥시 신천동 877-9번지 1층","category":"음식점업 - 한식"}]},{"lat":"37.440877095","long":"126.78585626","items":[{"name":"청송얼음골막걸리","tel":"","addr":"경기도 시흥시 신천동 708-6번지","category":"음식점업 - 기타음식점"}]},{"lat":"37.43826416","long":"126.79080168","items":[{"name":"초원한우숯불갈비","tel":"031-315-9292","addr":"경기도 시흥시 신천동 83-18번지 1,2,3층","category":"음식점업 - 한식"},{"name":"초원한우정육점","tel":"031-315-9292","addr":"경기도 시흥시 신천동 83-18번지 2층","category":"소매업 - 육류소매업"}]},{"lat":"37.438515987","long":"126.78074439","items":[{"name":"최씨네국수방","tel":"","addr":"경기도 시흥시 신천동 379-7번지 1층","category":"음식점업 - 칼국수"}]},{"lat":"37.438772218","long":"126.78285665","items":[{"name":"최지설헤어코디","tel":"031-311-2774","addr":"경기도 시흥시 신천동 759-5번지","category":"개인서비스업 - 미용업"}]},{"lat":"37.441793509","long":"126.78444111","items":[{"name":"춘천명동닭갈비","tel":"031-313-5647","addr":"경기도 시흥시 신천동 707-7번지","category":"음식점업 - 한식"}]},{"lat":"37.44035189","long":"126.77960899","items":[{"name":"충남모터스","tel":"031-311-3253","addr":"경기도 시흥시 신천동 748번지","category":"기타 - 자동차수리"}]},{"lat":"37.442018591","long":"126.78435005","items":[{"name":"치킨멤버","tel":"031-318-8999","addr":"경기도 시흥시 신천동 706-7번지 1층","category":"음식점업 - 치킨"}]},{"lat":"37.440716345","long":"126.78663641","items":[{"name":"카페 알베로","tel":"032-315-1544","addr":"경기도 시흥시 신천동 709-12번지 1층","category":"음식점업 - 커피&맥주"}]},{"lat":"37.44279969","long":"126.78285616","items":[{"name":"카페치치 신천점","tel":"","addr":"경기도 시흥시 신천동 705-32번지 주은혜교회 106호","category":"음식점업 - 휴게음식점"}]},{"lat":"37.44204203","long":"126.77763776","items":[{"name":"캘빈클라인진 시흥점","tel":"031-435-8989","addr":"경기도 시흥시 신천동 430-9번지 1호","category":"소매업 - 스포츠의류"},{"name":"퀵실버록시 시흥점","tel":"031-318-3124","addr":"경기도 시흥시 신천동 430-9번지 2호","category":"소매업 - 신발외 스포츠용품"}]},{"lat":"37.438547642","long":"126.7832189","items":[{"name":"커피데이","tel":"","addr":"경기도 시흥시 신천동 761번지 수환빌딩","category":"음식점업 - 카페"},{"name":"커피베이","tel":"","addr":"경기도 시흥시 신천동 761번지 1층","category":"음식점업 - 커피숍"}]},{"lat":"37.43843628","long":"126.776722","items":[{"name":"커피랑 caf'e","tel":"070-7534-3717","addr":"경기도 시흥시 신천동 816-2번지 1층","category":"음식점업 - 커피, 휴게음식"}]},{"lat":"37.431795508","long":"126.79110239","items":[{"name":"커피트리","tel":"031-520-1469","addr":"경기도 시흥시 신천동 886-10번지 1층 일부호","category":"음식점업 - 커피전문점"}]},{"lat":"37.443154826","long":"126.78487786","items":[{"name":"쿠쿠시흥점","tel":"031-313-1166","addr":"경기도 시흥시 신천동 704-32번지 1층 101호 한솔빌라","category":"소매업 - 전기전자제품"}]},{"lat":"37.442433466","long":"126.78457485","items":[{"name":"크린토피아 시흥신천점","tel":"031-311-5557","addr":"경기도 시흥시 신천동 705-15번지 1층왼쪽","category":"개인서비스업 - 세탁편의점"}]},{"lat":"37.438490208","long":"126.78141114","items":[{"name":"크린토피아코인워시신천역점","tel":"031-435-1515","addr":"경기도 시흥시 신천동 378-5번지","category":"개인서비스업 - 세탁중개업"}]},{"lat":"37.437986348","long":"126.78665557","items":[{"name":"클라우드","tel":"","addr":"경기도 시흥시 신천동 772번지 신풍맨션 1층 101호","category":"음식점업 - 커피"}]},{"lat":"37.440241724","long":"126.78332694","items":[{"name":"킹할인마트","tel":"031-314-7037","addr":"경기도 시흥시 신천동 739-2번지","category":"소매업 - 슈퍼마켓"}]},{"lat":"37.438377061","long":"126.78354708","items":[{"name":"타로향","tel":"","addr":"경기도 시흥시 신천동 761-10번지 1층","category":"음식점업 - 카페"}]},{"lat":"37.43521154","long":"126.79179331","items":[{"name":"타이어륜","tel":"031-312-0529","addr":"경기도 시흥시 신천동 83-92번지","category":"소매업 - 자동차용품"}]},{"lat":"37.439295888","long":"126.7834427","items":[{"name":"태광약국","tel":"031-311-7781","addr":"경기도 시흥시 신천동 760-14번지","category":"보건업 - 양약"}]},{"lat":"37.439578121","long":"126.78018757","items":[{"name":"태신공인중개사사무소","tel":"031-314-5375","addr":"경기도 시흥시 신천동 754-5번지","category":"개인서비스업 - 부동산중개업"},{"name":"힐스킨","tel":"","addr":"경기도 시흥시 신천동 754-5번지 닥터몬테소리어린이집 1층 101호","category":"소매업 - 화장품"}]},{"lat":"37.441434487","long":"126.78518795","items":[{"name":"털보지물상사","tel":"031-313-8141","addr":"경기도 시흥시 신천동 708번지 1층","category":"소매업 - 벽지,장판,바닥재"}]},{"lat":"37.43888143","long":"126.78344391","items":[{"name":"토마토김밥","tel":"031-314-1277","addr":"경기도 시흥시 신천동 760-18번지","category":"음식점업 - 분식"}]},{"lat":"37.438769983","long":"126.78165891","items":[{"name":"토종흑돼지","tel":"031-311-1717","addr":"경기도 시흥시 신천동 758-13번지 1층","category":"음식점업 - 한식"}]},{"lat":"37.439878123","long":"126.78161045","items":[{"name":"통돼지주먹고기김치두루치기","tel":"031-315-6300","addr":"경기도 시흥시 신천동 756-11번지","category":"음식점업 - 한식"}]},{"lat":"37.439183658","long":"126.7812396","items":[{"name":"팔도밥집","tel":"031-313-3355","addr":"경기도 시흥시 신천동 757-26번지","category":"음식점업 - 한식"}]},{"lat":"37.437350691","long":"126.78888337","items":[{"name":"페리카나","tel":"031-311-7748","addr":"경기도 시흥시 신천동 781-22번지 1층","category":"음식점업 - 기타"}]},{"lat":"37.441740971","long":"126.78526616","items":[{"name":"편의점사랑","tel":"031-317-0624","addr":"경기도 시흥시 신천동 707-35번지 101호","category":"소매업 - 편의점"}]},{"lat":"37.43765662","long":"126.78374127","items":[{"name":"푸른말글보습학원","tel":"031-311-9515","addr":"경기도 시흥시 신천동 842-5번지 4층","category":"교육서비스업 - 보습학원"}]},{"lat":"37.439240841","long":"126.78291178","items":[{"name":"푸른별여우","tel":"031-503-0303","addr":"경기도 시흥시 신천동 759-3번지","category":"소매업 - 의류"}]},{"lat":"37.440291585","long":"126.78107814","items":[{"name":"푸른한방흑염소전문식당","tel":"031-313-3556","addr":"경기도 시흥시 신천동 746-23번지 하나빌딩 1층","category":"음식점업 - 한식"}]},{"lat":"37.439766415","long":"126.7845261","items":[{"name":"프라임마트","tel":"031-317-7111","addr":"경기도 시흥시 신천동 736-1번지","category":"소매업 - 슈퍼마켓"}]},{"lat":"37.441826845","long":"126.7781921","items":[{"name":"핑골프 시흥신천점","tel":"031-315-3013","addr":"경기도 시흥시 신천동 411-4번지","category":"소매업 - 의류"}]},{"lat":"37.438410085","long":"126.78680124","items":[{"name":"하늘채식품","tel":"","addr":"경기도 시흥시 신천동 769-15번지 1층","category":"음식점업 - 식품유통"}]},{"lat":"37.439737271","long":"126.78338491","items":[{"name":"한국당건강마트","tel":"031-314-1229","addr":"경기도 시흥시 신천동 740-3번지 1층","category":"소매업 - 건강기능식품,건강즙"}]},{"lat":"37.437602725","long":"126.78874706","items":[{"name":"한국설비인테리어","tel":"031-311-1379","addr":"경기도 시흥시 신천동 781번지 101호","category":"소매업 - 전기재료"},{"name":"헤어앤찬","tel":"031-312-5679","addr":"경기도 시흥시 신천동 781번지","category":"개인서비스업 - 미용실"}]},{"lat":"37.435493224","long":"126.78810902","items":[{"name":"한방전주콩나물국밥","tel":"031-312-8181","addr":"경기도 시흥시 신천동 860-19번지 토담마을공동주택","category":"음식점업 - 음식"}]},{"lat":"37.442485979","long":"126.78373849","items":[{"name":"해나루 감자탕","tel":"031-311-3576","addr":"경기도 시흥시 신천동 705-38번지 성도스카이빌","category":"음식점업 - 일반음식점"}]},{"lat":"37.440769432","long":"126.78610517","items":[{"name":"해남포차","tel":"031-313-7929","addr":"경기도 시흥시 신천동 709번지","category":"음식점업 - 기타음식"}]},{"lat":"37.439078031","long":"126.78257327","items":[{"name":"해든 홍태기 공인중개사","tel":"031-312-1313","addr":"경기도 시흥시 신천동 759-8번지 1층","category":"개인서비스업 - 공인중개사"}]},{"lat":"37.436437192","long":"126.7869651","items":[{"name":"해성상사","tel":"031-314-7512","addr":"경기도 시흥시 신천동 852-1번지","category":"소매업 - 자동차용품"}]},{"lat":"37.438100885","long":"126.7852428","items":[{"name":"행순화원","tel":"","addr":"경기도 시흥시 신천동 764-1번지","category":"소매업 - 생화외"}]},{"lat":"37.441793968","long":"126.78468971","items":[{"name":"행텐시흥신천점","tel":"031-312-8217","addr":"경기도 시흥시 신천동 707-9번지","category":"소매업 - 의류, 스포츠용품"}]},{"lat":"37.435631624","long":"126.78990518","items":[{"name":"향경효소 다락방","tel":"031-509-7339","addr":"경기도 시흥시 신천동 866-2번지 2층","category":"개인서비스업 - 서비스업"}]},{"lat":"37.43555029","long":"126.78976982","items":[{"name":"헤어사랑","tel":"031-315-5777","addr":"경기도 시흥시 신천동 866-1번지 1층","category":"개인서비스업 - 미용실"}]},{"lat":"37.436376535","long":"126.78338343","items":[{"name":"현대마트","tel":"031-313-1149","addr":"경기도 시흥시 신천동 846-29번지","category":"소매업 - 슈퍼마켓"}]},{"lat":"37.443852506","long":"126.78212986","items":[{"name":"현대썬마트","tel":"031-404-4656","addr":"경기도 시흥시 신천동 703번지 현대홈타운","category":"소매업 - 슈퍼마켓"}]},{"lat":"37.438772707","long":"126.77832553","items":[{"name":"현대유통","tel":"031-312-7740","addr":"경기도 시흥시 신천동 817-5번지","category":"소매업 - 슈퍼마켓"}]},{"lat":"37.440604382","long":"126.77972124","items":[{"name":"현대철물","tel":"031-313-9397","addr":"경기도 시흥시 신천동 747-7번지","category":"소매업 - 철물"}]},{"lat":"37.443771015","long":"126.78191539","items":[{"name":"현미마을 시흥점","tel":"031-311-7705","addr":"경기도 시흥시 신천동 718-2번지","category":"소매업 - 재료,유통,현미누룽지"},{"name":"홍꽁주네","tel":"","addr":"경기도 시흥시 신천동 718-2번지","category":"소매업 - 아동복,여성복"}]},{"lat":"37.440160991","long":"126.78351927","items":[{"name":"형제상회","tel":"031-315-9724","addr":"경기도 시흥시 신천동 739-4번지","category":"소매업 - 식타및주방용품"}]},{"lat":"37.431160248","long":"126.78857334","items":[{"name":"호건식품","tel":"031-482-8983","addr":"경기도 시흥시 신천동 872-1번지","category":"소매업 - 도소매"}]},{"lat":"37.437209331","long":"126.78063526","items":[{"name":"홈런이사서비스","tel":"1670-7124","addr":"경기도 시흥시 신천동 834-9번지 삼성그린빌 1층","category":"기타 - 개별화물,이사화물"}]},{"lat":"37.43321173","long":"126.7920249","items":[{"name":"화끈한닭발","tel":"031-317-6255","addr":"경기도 시흥시 신천동 879-25번지","category":"음식점업 - 음식점"}]},{"lat":"37.438601477","long":"126.78799844","items":[{"name":"황금식당","tel":"031-314-5460","addr":"경기도 시흥시 신천동 776-12번지 1층","category":"음식점업 - 한식"}]},{"lat":"37.439378793","long":"126.77960058","items":[{"name":"황토농산","tel":"","addr":"경기도 시흥시 신천동 750-3번지 대한빌딩 1층","category":"소매업 - 농산물"}]},{"lat":"37.443489971","long":"126.7809896","items":[{"name":"훼미리슈퍼","tel":"031-311-8322","addr":"경기도 시흥시 신천동 314-38번지","category":"소매업 - 슈퍼"}]},{"lat":"37.438271565","long":"126.789909","items":[{"name":"휴","tel":"","addr":"경기도 시흥시 신천동 779-14번지 1층","category":"소매업 - 화장품"}]},{"lat":"37.441129831","long":"126.78610413","items":[{"name":"힐링놀이터퓨전포차","tel":"031-316-7474","addr":"경기도 시흥시 신천동 709-17번지 1층","category":"음식점업 - 기타음식"}]},{"lat":"37.439105692","long":"126.78291218","items":[{"name":"힐스템생활건강 신천지점","tel":"031-317-8471","addr":"경기도 시흥시 신천동 759-20번지","category":"소매업 - 온열매트,생필품"}]},{"lat":"37.439407392","long":"126.78527292","items":[{"name":"힘찬장어 좋은만남","tel":"031-311-9931","addr":"경기도 시흥시 신천동 733-4번지 1,2층","category":"음식점업 - 한식"}]}]