[{"lat":"37.040904286","long":"127.09050051","items":[{"name":"(주)한국정보시스템","tel":"031-667-3901","addr":"경기도 평택시 가재동 75-4번지 2층","category":"사무통신 - 통신기기"}]},{"lat":"37.039520214","long":"127.08553078","items":[{"name":"C.S태권도장","tel":"031-611-9385","addr":"경기도 평택시 가재동 138-6번지 3층","category":"학원 - 예·체능계학원"},{"name":"나래음악학원","tel":"031-667-7204","addr":"경기도 평택시 가재동 138-6번지 외3필지 2층","category":"학원 - 예·체능계학원"},{"name":"드림식당","tel":"031-667-1142","addr":"경기도 평택시 가재동 138-6번지 동원빌딩","category":"일반휴게음식 - 일반한식"},{"name":"봄날o'da","tel":"","addr":"경기도 평택시 가재동 138-6번지 동원빌딩 108호","category":"일반휴게음식 - 서양음식"},{"name":"샵헤어","tel":"070-4806-6789","addr":"경기도 평택시 가재동 138-6번지 동원빌딩","category":"보건위생 - 미용원"},{"name":"양지뜸구이","tel":"031-611-4386","addr":"경기도 평택시 가재동 138-6번지","category":"일반휴게음식 - 일반한식"},{"name":"양지뜸구이","tel":"1577-1569","addr":"경기도 평택시 가재동 138-6번지","category":"음식점 - 한식"},{"name":"에이스우림당구상사","tel":"031-666-1440","addr":"경기도 평택시 가재동 138-6번지 동원빌딩 201호","category":"레져용품 - 스포츠·레져용품"},{"name":"우림할인마트","tel":"031-666-6046","addr":"경기도 평택시 가재동 138-6번지 동원빌딩 104호","category":"유통업 영리 - 슈퍼마켓"},{"name":"위즈덤 학원","tel":"031-663-7204","addr":"경기도 평택시 가재동 138-6번지","category":"회원제형태 - 학원"},{"name":"이보영의토킹클럽가재어학원","tel":"031-664-2510","addr":"경기도 평택시 가재동 138-6번지 202,203호","category":"학원 - 외국어학원"},{"name":"이산전기","tel":"031-668-2821","addr":"경기도 평택시 가재동 138-6번지","category":"전기제품 - 기타전기제품"},{"name":"해법영어교습소","tel":"031-616-2948","addr":"경기도 평택시 가재동 138-6번지","category":"회원제형태 - 기타3"}]},{"lat":"37.040770327","long":"127.08885927","items":[{"name":"K(1급)자동차공업사","tel":"031-611-1633","addr":"경기도 평택시 가재동 99번지","category":"자동차정비 유지 - 자동차정비"},{"name":"K(1급)자동차공업사","tel":"031-666-4242","addr":"경기도 평택시 가재동 99번지","category":"서비스업 - 자동차정비"}]},{"lat":"37.049484906","long":"127.07319829","items":[{"name":"㈜담쟁이","tel":"031-611-8831","addr":"경기도 평택시 가재동 378-2번지","category":"음식점 - 커피"}]},{"lat":"37.037826231","long":"127.08550646","items":[{"name":"㈜미래상사","tel":"031-668-1872","addr":"경기도 평택시 가재동 140-8번지","category":"소매업 - 공구"}]},{"lat":"37.038763282","long":"127.08558616","items":[{"name":"가우디헤어","tel":"031-667-1555","addr":"경기도 평택시 가재동 141-1가재동상가108","category":"보건위생 - 미용원"},{"name":"동구공인중개사사무소","tel":"031-664-6336","addr":"경기도 평택시 가재동 141-1번지 101호","category":"서비스업 - 부동산"},{"name":"또또와","tel":"031-611-1514","addr":"경기도 평택시 가재동 141-1번지","category":"일반휴게음식 - 일반한식"},{"name":"얼큰뼈해장국","tel":"031-666-2166","addr":"경기도 평택시 가재동 141-1번지 102호","category":"일반휴게음식 - 일반한식"},{"name":"우림가마솥보리밥","tel":"031-663-3692","addr":"경기도 평택시 가재동 141-1 외1필지","category":"일반휴게음식 - 일반한식"},{"name":"크린에이드 가재점","tel":"031-662-7809","addr":"경기도 평택시 가재동 141-1번지 상가동 107호","category":"수리서비스 - 세탁소"}]},{"lat":"37.042655131","long":"127.086647","items":[{"name":"가재슈퍼","tel":"031-611-8130","addr":"경기도 평택시 가재동 200-10번지","category":"유통업 영리 - 슈퍼마켓"}]},{"lat":"37.050154321","long":"127.083249","items":[{"name":"거성오토모빌","tel":"031-667-7144","addr":"경기도 평택시 가재동 323-15번지","category":"자동차정비 유지 - 자동차부품"},{"name":"통진자동차공업사","tel":"031-663-7222","addr":"경기도 평택시 가재동 323-15번지","category":"자동차정비 유지 - 자동차정비"}]},{"lat":"37.040735318","long":"127.08742047","items":[{"name":"고기쟁이정육식당","tel":"031-666-7959","addr":"경기도 평택시 가재동 104-2번지 1층","category":"일반휴게음식 - 일반한식"},{"name":"고기쟁이정육식당","tel":"031-666-7959","addr":"경기도 평택시 가재동 104-2번지","category":"음료식품 - 정육점"},{"name":"돈화 카 서비스센타","tel":"031-611-7293","addr":"경기도 평택시 가재동 104-2번지","category":"자동차정비 유지 - 자동차정비"},{"name":"돈화카서비스센터","tel":"031-652-9921","addr":"경기도 평택시 가재동 104-2번지","category":"서비스업 - 자동차정비"},{"name":"별난돼지김치찌개","tel":"031-611-7293","addr":"경기도 평택시 가재동 104-2번지","category":"음식점 - 한식"},{"name":"별난돼지김치찌개","tel":"031-662-2437","addr":"경기도 평택시 가재동 104-2번지 주건축물제 1동 1층","category":"일반휴게음식 - 일반한식"}]},{"lat":"37.040905119","long":"127.08936524","items":[{"name":"골드카3급","tel":"031-666-7001","addr":"경기도 평택시 가재동 214-1번지","category":"자동차정비 유지 - 자동차정비"}]},{"lat":"37.045764563","long":"127.09761045","items":[{"name":"글라스틴트 평택점","tel":"031-653-8906","addr":"경기도 평택시 가재동 11-1번지","category":"자동차정비 유지 - 카인테리어"},{"name":"전주김가네콩나물국밥","tel":"031-611-9589","addr":"경기도 평택시 가재동 11-1번지 외1필지","category":"일반휴게음식 - 일반한식"},{"name":"진로마트","tel":"031-611-9589","addr":"경기도 평택시 가재동 11-1번지","category":"유통업 영리 - 슈퍼마켓"}]},{"lat":"37.038240256","long":"127.08617007","items":[{"name":"금강자동차공업사","tel":"031-651-9222","addr":"경기도 평택시 가재동 208번지","category":"자동차정비 유지 - 자동차정비"},{"name":"뉴서울카케어","tel":"031-611-2362","addr":"경기도 평택시 가재동 208번지","category":"자동차정비 유지 - 카인테리어"}]},{"lat":"37.040068548","long":"127.08739725","items":[{"name":"농민마트","tel":"","addr":"경기도 평택시 가재동 125번지","category":"도소매업 - 슈퍼"},{"name":"힐튼노래연습장","tel":"031-664-5771","addr":"경기도 평택시 가재동 125번지 1층","category":"레저업소 - 노 래 방"}]},{"lat":"37.041601299","long":"127.08606134","items":[{"name":"농업회사법인 도란도란 주식회사","tel":"031-611-2606","addr":"경기도 평택시 가재동 175-3번지","category":"음료식품 - 농·축·수산품"},{"name":"주식회사 비엠케이","tel":"031-664-6322","addr":"경기도 평택시 가재동 175-3번지","category":"의류 - 아동의류"}]},{"lat":"37.050462838","long":"127.08000046","items":[{"name":"다온스틸","tel":"031-668-8820","addr":"경기도 평택시 가재동 347-6번지","category":"건축자재 - 기타건축자재"}]},{"lat":"37.038879893","long":"127.08633937","items":[{"name":"대오공구","tel":"031-664-0982","addr":"경기도 평택시 가재동 126-2번지","category":"기타 - 기계공구"}]},{"lat":"37.040851964","long":"127.07447173","items":[{"name":"대한상사","tel":"031-667-3070","addr":"경기도 평택시 가재동 526-2번지","category":"기타 - 기계공구"}]},{"lat":"37.041212148","long":"127.08844388","items":[{"name":"동명자동차공업사","tel":"031-662-7958","addr":"경기도 평택시 가재동 100번지","category":"자동차정비 유지 - 자동차정비"}]},{"lat":"37.049901833","long":"127.08352977","items":[{"name":"동부모타","tel":"031-668-8809","addr":"경기도 평택시 가재동 323-4번지 1층","category":"기타 - 기계공구"},{"name":"진명특장","tel":"031-611-1244","addr":"경기도 평택시 가재동 323-4번지 2층","category":"자동차정비 유지 - 자동차부품"}]},{"lat":"37.044158796","long":"127.07458724","items":[{"name":"동삭야차","tel":"041-544-3315","addr":"경기도 평택시 가재동 432-2번지","category":"음료식품 - 농·축·수산품"}]},{"lat":"37.04946016","long":"127.08375414","items":[{"name":"동양냉동","tel":"02-418-6997","addr":"경기도 평택시 가재동 323-7번지 1층","category":"수리서비스 - 기타수리서비스"}]},{"lat":"37.042182487","long":"127.09225551","items":[{"name":"드림시스템","tel":"031-665-7520","addr":"경기도 평택시 가재동 82번지","category":"수리서비스 - 기타수리서비스"}]},{"lat":"37.037294877","long":"127.0851125","items":[{"name":"마당집","tel":"031-664-3363","addr":"경기도 평택시 가재동 145번지 A동 1층","category":"일반휴게음식 - 일반한식"}]},{"lat":"37.041655889","long":"127.08530829","items":[{"name":"매직 시스템","tel":"031-651-8247","addr":"경기도 평택시 가재동 171-3번지","category":"신변잡화 - 기타잡화"}]},{"lat":"37.042929637","long":"127.09322308","items":[{"name":"맨투맨","tel":"031-666-2785","addr":"경기도 평택시 가재동 84번지","category":"자동차정비 유지 - 자동차부품"},{"name":"정다운밥상","tel":"031-666-5536","addr":"경기도 평택시 가재동 84번지","category":"일반휴게음식 - 일반한식"}]},{"lat":"37.042183094","long":"127.09144619","items":[{"name":"메이저웍스주식회사","tel":"070-8680-3038","addr":"경기도 평택시 가재동 72-8번지","category":"사무통신 - 기타 사무용품"}]},{"lat":"37.039825596","long":"127.08692489","items":[{"name":"무봉리토종순대국","tel":"031-655-1825","addr":"경기도 평택시 가재동 187-1번지","category":"음식점 - 한식"},{"name":"무봉리토종순대국(공단점)","tel":"031-611-8554","addr":"경기도 평택시 가재동 187-1번지","category":"일반휴게음식 - 일반한식"}]},{"lat":"37.03843006","long":"127.08533852","items":[{"name":"봉산칼국수","tel":"031-665-6777","addr":"경기도 평택시 가재동 143번지","category":"일반휴게음식 - 일반한식"},{"name":"열매떡143","tel":"031-651-7002","addr":"경기도 평택시 가재동 143번지","category":"일반휴게음식 - 스넥"}]},{"lat":"37.039069408","long":"127.08592369","items":[{"name":"사쿠사쿠치킨가재우림점","tel":"031-667-8293","addr":"경기도 평택시 가재동 138-23번지","category":"일반휴게음식 - 주점"}]},{"lat":"37.042461485","long":"127.09269421","items":[{"name":"새말해장국","tel":"031-665-5929","addr":"경기도 평택시 가재동 82-6번지","category":"일반휴게음식 - 일반한식"}]},{"lat":"37.041435871","long":"127.09055733","items":[{"name":"성실카센타","tel":"031-618-3666","addr":"경기도 평택시 가재동 76번지","category":"자동차정비 유지 - 자동차정비"}]},{"lat":"37.041069166","long":"127.08678014","items":[{"name":"세븐일레븐평택가재점","tel":"031-1577-0711","addr":"경기도 평택시 가재동 194-1번지","category":"유통업 영리 - 편 의 점"}]},{"lat":"37.042849939","long":"127.09136828","items":[{"name":"소사벌번호판제작(주)","tel":"031-668-1704","addr":"경기도 평택시 가재동 70-1번지","category":"자동차정비 유지 - 자동차부품"},{"name":"신우공조","tel":"031-664-2188","addr":"경기도 평택시 가재동 70-1번지 1동","category":"전기제품 - 냉열기기"},{"name":"창원상사","tel":"031-611-1597","addr":"경기도 평택시 가재동 70-1번지","category":"자동차정비 유지 - 자동차부품"}]},{"lat":"37.040045236","long":"127.08200192","items":[{"name":"솔마루","tel":"","addr":"경기도 평택시 가재동 152번지","category":"서비스업 - 부동산"},{"name":"포석정","tel":"031-668-6787","addr":"경기도 평택시 가재동 152번지","category":"일반휴게음식 - 일반한식"}]},{"lat":"37.042321524","long":"127.08695013","items":[{"name":"송탄초등학교","tel":"031-665-9093","addr":"경기도 평택시 가재동 200-3번지 송탄초등학교 1층","category":"학원 - 초중고교육기관"},{"name":"송탄초등학교병설유치원[아이행복]","tel":"031-664-9096","addr":"경기도 평택시 가재동 200-3번지 송탄초등학교","category":"학원 - 유치원"}]},{"lat":"37.040735789","long":"127.08675729","items":[{"name":"송현전기","tel":"031-668-7756","addr":"경기도 평택시 가재동 194-6번지 1층","category":"전기제품 - 기타전기제품"}]},{"lat":"37.041318899","long":"127.09033238","items":[{"name":"양평해장국","tel":"","addr":"경기도 평택시 가재동 75-1번지 1층","category":"일반휴게음식 - 일반한식"}]},{"lat":"37.04460186","long":"127.08603089","items":[{"name":"엄마손맛집","tel":"031-611-8892","addr":"경기도 평택시 가재동 283-1번지","category":"일반휴게음식 - 일반한식"}]},{"lat":"37.041373368","long":"127.08978167","items":[{"name":"에이스브이티엔씨","tel":"031-665-2537","addr":"경기도 평택시 가재동 220-2번지","category":"음료식품 - 기타음료식품"},{"name":"영주네","tel":"031-666-1002","addr":"경기도 평택시 가재동 220-2번지","category":"음식점 - 한식"},{"name":"영주네","tel":"031-667-5665","addr":"경기도 평택시 가재동 220-2번지 가동,나동","category":"일반휴게음식 - 일반한식"},{"name":"월드휘트니스메니지먼트","tel":"031-666-0790","addr":"경기도 평택시 가재동 220-2번지","category":"회원제형태 - 레져업소"},{"name":"쫑구항아리짬뽕","tel":"031-611-8554","addr":"경기도 평택시 가재동 220-2번지","category":"음식점 - 중식"},{"name":"쫑구항아리짬뽕-평택점","tel":"031-666-8758","addr":"경기도 평택시 가재동 220-2번지 가동","category":"일반휴게음식 - 중국식"}]},{"lat":"37.044123601","long":"127.07317087","items":[{"name":"영업용화물","tel":"031-664-0921","addr":"경기도 평택시 가재동 411번지","category":"서비스업 - 개별화물"}]},{"lat":"37.047655579","long":"127.08728201","items":[{"name":"옛날김치찌개","tel":"031-667-8955","addr":"경기도 평택시 가재동 314번지","category":"일반휴게음식 - 일반한식"},{"name":"옛날김치찌개","tel":"031-662-2437","addr":"경기도 평택시 가재동 314번지","category":"음식점 - 한식"}]},{"lat":"37.040401289","long":"127.08830808","items":[{"name":"온달해물국","tel":"031-662-8030","addr":"경기도 평택시 가재동 106번지","category":"일반휴게음식 - 일반한식"}]},{"lat":"37.045404111","long":"127.09764372","items":[{"name":"용궁손짜장","tel":"031-666-7575","addr":"경기도 평택시 가재동 11번지","category":"일반휴게음식 - 중국식"},{"name":"용궁손짜장","tel":"031-663-9102","addr":"경기도 평택시 가재동 11번지","category":"음식점 - 중식"}]},{"lat":"37.047402225","long":"127.08875434","items":[{"name":"우각정원","tel":"031-611-7861","addr":"경기도 평택시 가재동 308-5번지","category":"음식점 - 한식"},{"name":"우각정원","tel":"031-664-3303","addr":"경기도 평택시 가재동 308-5번지 1,2층","category":"음료식품 - 정육점"}]},{"lat":"37.039041949","long":"127.08653063","items":[{"name":"우림자동차공업사","tel":"031-666-0441","addr":"경기도 평택시 가재동 126-7번지","category":"자동차정비 유지 - 자동차정비"}]},{"lat":"37.043323026","long":"127.08506279","items":[{"name":"정네트워크","tel":"031-662-4727","addr":"경기도 평택시 가재동 159-2번지","category":"사무통신 - 컴퓨터"}]},{"lat":"37.04624276","long":"127.09681292","items":[{"name":"제주식당","tel":"031-665-6114","addr":"경기도 평택시 가재동 4-2번지 외2필지","category":"일반휴게음식 - 일반한식"}]},{"lat":"37.046464104","long":"127.09014718","items":[{"name":"주식회사 가센","tel":"031-662-5040","addr":"경기도 평택시 가재동 242-1번지","category":"기타 - 기계공구"}]},{"lat":"37.049323855","long":"127.08541775","items":[{"name":"주식회사 시온코리아","tel":"031-373-4624","addr":"경기도 평택시 가재동 322-8번지","category":"레져용품 - 스포츠·레져용품"},{"name":"컴빌런","tel":"","addr":"경기도 평택시 가재동 322-8번지 1층","category":"수리서비스 - 사무·통신기기수리"}]},{"lat":"37.042047682","long":"127.09178325","items":[{"name":"주식회사 지에스렌트리스","tel":"031-666-4982","addr":"경기도 평택시 가재동 79번지 1층","category":"여행 - 렌터카"}]},{"lat":"37.047015865","long":"127.08722509","items":[{"name":"주식회사 최강냉동특장","tel":"031-667-7337","addr":"경기도 평택시 가재동 306번지","category":"자동차판매 - 기타운송"}]},{"lat":"37.039214009","long":"127.08530565","items":[{"name":"치킨사랑","tel":"031-666-9279","addr":"경기도 평택시 가재동 138-35번지","category":"일반휴게음식 - 스넥"}]},{"lat":"37.041512901","long":"127.08358834","items":[{"name":"카페래요","tel":"031-000-0000","addr":"경기도 평택시 가재동 181-42번지 101호","category":"일반휴게음식 - 서양음식"}]},{"lat":"37.040214971","long":"127.08417146","items":[{"name":"필아트미술학원","tel":"031-662-1216","addr":"경기도 평택시 가재동 639번지 우림필유 상가 202호","category":"학원 - 예·체능계학원"}]},{"lat":"37.043542504","long":"127.09303271","items":[{"name":"하트원사운드","tel":"031-665-6442","addr":"경기도 평택시 가재동 40번지","category":"전기제품 - 가전제품"}]},{"lat":"37.038655963","long":"127.08441708","items":[{"name":"해찬솔어린이집[아이행복]","tel":"031-666-7015","addr":"경기도 평택시 가재동 142-1번지","category":"학원 - 유아원"}]},{"lat":"37.051373267","long":"127.07945053","items":[{"name":"현대하이모터스","tel":"031-665-0050","addr":"경기도 평택시 가재동 349-1번지","category":"자동차정비 유지 - 자동차정비"}]},{"lat":"37.045964981","long":"127.09483415","items":[{"name":"효성공사","tel":"031-664-8085","addr":"경기도 평택시 가재동 20-2번지","category":"용역 서비스 - 기타용역서비스"}]}]