[{"lat":"37.28440817","long":"127.329414","items":[{"name":"(주)그린종합가스","tel":"031-798-0023","addr":"경기도 광주시 도척면 방도리 305-1","category":"연료판매점 - 기타연료"}]},{"lat":"37.27952306","long":"127.3427771","items":[{"name":"(주)범스","tel":"070-4201-4060","addr":"경기도 광주시 도척면 방도리 226-5번지","category":"자동차정비 유지 - 자동차정비"}]},{"lat":"37.28471084","long":"127.3307459","items":[{"name":"(주)중앙종합가스","tel":"031-762-4411","addr":"경기도 광주시 도척면 방도리 315-5번지","category":"연료판매점 - LPG 취급점"},{"name":"(주)중앙종합가스","tel":"031-762-4411","addr":"경기도 광주시 도척면 방도리 315-5","category":"연료판매점 - LPG 취급점"}]},{"lat":"37.28337867","long":"127.3335028","items":[{"name":"(주)탐나","tel":"031-762-9728","addr":"경기도 광주시 도척면 방도리 269-5번지","category":"가구 - 일반가구"}]},{"lat":"37.28657426","long":"127.3345881","items":[{"name":"GS25광주방도점","tel":"","addr":"경기도 광주시 도척면 방도리 249-1번지 1층","category":"유통업 영리 - 상품권전문판매"},{"name":"GS25광주방도점","tel":"","addr":"경기도 광주시 도척면 방도리 249-1번지 1층","category":"유통업 영리 - 편 의 점"},{"name":"메리트우드","tel":"031-761-6164","addr":"경기도 광주시 도척면 방도리 249-1","category":"건축자재 - 건축용 요업제품"},{"name":"주식회사 레이밸리","tel":"031-769-0538","addr":"경기도 광주시 도척면 방도리 249-1번지 2층","category":"음료식품 - 정육점"}]},{"lat":"37.28049082","long":"127.341496","items":[{"name":"경원","tel":"031-764-8253","addr":"경기도 광주시 도척면 방도리 229-3번지","category":"일반휴게음식 - 일반한식"}]},{"lat":"37.28276626","long":"127.3366124","items":[{"name":"경원자동차공업사","tel":"031-762-6187","addr":"경기도 광주시 도척면 방도리 277-15번지","category":"자동차정비 유지 - 자동차정비"}]},{"lat":"37.27979711","long":"127.344605","items":[{"name":"골든하우스","tel":"","addr":"경기도 광주시 도척면 방도리 11-1번지","category":"문화.취미 - 애완동물"}]},{"lat":"37.27807795","long":"127.3246735","items":[{"name":"광주승마클럽","tel":"031-766-0760","addr":"경기도 광주시 도척면 방도리 432-2번지","category":"회원제형태 - 기타4"},{"name":"광주싸이클럽","tel":"031-766-0760","addr":"경기도 광주시 도척면 방도리 432-2번지","category":"음료식품 - 농·축·수산품"}]},{"lat":"37.27924281","long":"127.3203937","items":[{"name":"그린리버협동조합","tel":"031-797-4688","addr":"경기도 광주시 도척면 방도리 512-2번지","category":"음료식품 - 농·축·수산품"}]},{"lat":"37.28159959","long":"127.3251734","items":[{"name":"금오실업","tel":"031-764-5152","addr":"경기도 광주시 도척면 방도리 399-3","category":"회원제형태 - 기타4"}]},{"lat":"37.2804049","long":"127.3400298","items":[{"name":"나리유통","tel":"031-797-6858","addr":"경기도 광주시 도척면 방도리 231-2번지","category":"신변잡화 - 기타잡화"}]},{"lat":"37.27988514","long":"127.3421924","items":[{"name":"낙원한식잔치","tel":"031-763-3729","addr":"경기도 광주시 도척면 방도리 226-3번지 1층","category":"일반휴게음식 - 일반한식"}]},{"lat":"37.27974447","long":"127.3214783","items":[{"name":"대성인테리어쇼파","tel":"031-769-5041","addr":"경기도 광주시 도척면 방도리 416-7번지","category":"가구 - 일반가구"}]},{"lat":"37.27996245","long":"127.3208365","items":[{"name":"브리지데이켄넬","tel":"","addr":"경기도 광주시 도척면 방도리 415-1번지","category":"문화.취미 - 애완동물"}]},{"lat":"37.28307121","long":"127.3207481","items":[{"name":"비앤씨","tel":"031-764-2916","addr":"경기도 광주시 도척면 방도리 365","category":"서적문구 - 완구점"}]},{"lat":"37.28362638","long":"127.3152814","items":[{"name":"성산케미칼","tel":"031-763-5411","addr":"경기도 광주시 도척면 방도리 608번지","category":"서적문구 - 출판 및 인쇄물"}]},{"lat":"37.27307666","long":"127.3410569","items":[{"name":"성창산업","tel":"031-797-0076","addr":"경기도 광주시 도척면 방도리 36-9번지","category":"건축자재 - 기타건축자재"}]},{"lat":"37.28007603","long":"127.3416069","items":[{"name":"세븐일레븐경기광주방도리점","tel":"031-1577-0711","addr":"경기도 광주시 도척면 방도리 226-2번지","category":"유통업 영리 - 편 의 점"},{"name":"재경건설","tel":"031-765-1562","addr":"경기도 광주시 도척면 방도리 226-2번지","category":"용역 서비스 - 기타용역서비스"}]},{"lat":"37.28196264","long":"127.3372177","items":[{"name":"신용산업개발","tel":"031-761-3050","addr":"경기도 광주시 도척면 방도리 280-2","category":"건축자재 - 기타건축자재"}]},{"lat":"37.28218326","long":"127.3356626","items":[{"name":"신현철도예연구소","tel":"031-762-2525","addr":"경기도 광주시 도척면 방도리 272번지","category":"문화.취미 - 골동품점"}]},{"lat":"37.27413249","long":"127.3373071","items":[{"name":"약사사","tel":"031-797-6991","addr":"경기도 광주시 도척면 방도리 116-2번지","category":"신변잡화 - 기념품점"}]},{"lat":"37.2800211","long":"127.3419111","items":[{"name":"유진종합상사","tel":"031-765-7070","addr":"경기도 광주시 도척면 방도리 226-10번지","category":"건축자재 - 목재·석재·철물"}]},{"lat":"37.28421421","long":"127.3343635","items":[{"name":"자리","tel":"031-797-7411","addr":"경기도 광주시 도척면 방도리 269-12번지","category":"건축자재 - 목재·석재·철물"}]},{"lat":"37.28049414","long":"127.3403346","items":[{"name":"주식회사 나노시스템","tel":"031-797-1260","addr":"경기도 광주시 도척면 방도리 230-5번지","category":"전기제품 - 가전제품"}]},{"lat":"37.28124397","long":"127.329998","items":[{"name":"주식회사 정일에어텍","tel":"031-765-9663","addr":"경기도 광주시 도척면 방도리 283-3번지","category":"건축자재 - 보일러·펌프·샷시"}]},{"lat":"37.27482758","long":"127.3400275","items":[{"name":"주식회사 지티지","tel":"031-564-3688","addr":"경기도 광주시 도척면 방도리 44-2번지","category":"건축자재 - 기타건축자재"}]},{"lat":"37.2825492","long":"127.3205317","items":[{"name":"주식회사 펫토피아","tel":"031-764-0046","addr":"경기도 광주시 도척면 방도리 576-2번지","category":"문화.취미 - 애완동물"}]},{"lat":"37.28568311","long":"127.3342797","items":[{"name":"주식회사 폴레드","tel":"","addr":"경기도 광주시 도척면 방도리 265-2번지","category":"자동차정비 유지 - 자동차부품"}]},{"lat":"37.28390397","long":"127.3357491","items":[{"name":"주식회사 하이레이저","tel":"031-769-0015","addr":"경기도 광주시 도척면 방도리 256-8번지","category":"기타 - 기계공구"}]},{"lat":"37.28359934","long":"127.3351389","items":[{"name":"주식회사대양창호","tel":"031-769-8448","addr":"경기도 광주시 도척면 방도리 256-6번지","category":"건축자재 - 기타건축자재"}]},{"lat":"37.2765222","long":"127.346056","items":[{"name":"주식회사씨투엘","tel":"02-735-3033","addr":"경기도 광주시 도척면 방도리 산 34","category":"용역 서비스 - 사무서비스"}]},{"lat":"37.28621183","long":"127.3320831","items":[{"name":"참맛식당","tel":"031-763-7737","addr":"경기도 광주시 도척면 방도리 266번지","category":"일반휴게음식 - 일반한식"}]},{"lat":"37.28607203","long":"127.3337514","items":[{"name":"한양프라스틱","tel":"031-797-0954","addr":"경기도 광주시 도척면 방도리 249-5번지","category":"건축자재 - 기타건축자재"}]},{"lat":"37.28054528","long":"127.3381925","items":[{"name":"현대자동차공업사","tel":"031-767-0280","addr":"경기도 광주시 도척면 방도리 232-8번지","category":"자동차정비 유지 - 자동차정비"}]}]