[{"lat":"37.826859913","long":"126.97265696","items":[{"name":"(주)대한건설재료시험원","tel":"031-836-7201","addr":"경기도 양주시 광적면 광석리 401-2","category":"용역 서비스 - 사무서비스"}]},{"lat":"37.818812981","long":"126.96726554","items":[{"name":"GNS벽지","tel":"031-837-1020","addr":"경기도 양주시 광적면 광석리 200-4","category":"직물 - 카페트,커튼,천막,지물"}]},{"lat":"37.82550124","long":"126.98049473","items":[{"name":"JY테크","tel":"031-855-6706","addr":"경기도 양주시 광적면 광석리 7-6번지 1층 1호","category":"주방용구 - 주방용구"}]},{"lat":"37.831588238","long":"126.96688455","items":[{"name":"MS산업","tel":"031-868-9663","addr":"경기도 양주시 광적면 광석리 377번지 가동","category":"직물 - 카페트,커튼,천막,지물"}]},{"lat":"37.82597867","long":"126.98013112","items":[{"name":"Pink Road","tel":"070-4124-0428","addr":"경기도 양주시 광적면 광석리 6-11번지 3호","category":"의류 - 정장"},{"name":"광적충효태권도장","tel":"031-836-0009","addr":"경기도 양주시 광적면 광석리 6-11번지","category":"학원 - 예·체능계학원"},{"name":"땡기네(광적)","tel":"031-836-9254","addr":"경기도 양주시 광적면 광석리 6-11번지","category":"일반휴게음식 - 일반한식"},{"name":"범골떡방앗간","tel":"031-837-4300","addr":"경기도 양주시 광적면 광석리 6-11","category":"음료식품 - 제과점"},{"name":"웰빙세탁빨래방","tel":"031-836-4262","addr":"경기도 양주시 광적면 광석리 6-11번지 용빌딩 1층 상가","category":"수리서비스 - 세탁소"}]},{"lat":"37.818446804","long":"126.980247","items":[{"name":"광명산전","tel":"031-855-6939","addr":"경기도 양주시 광적면 광석리 50-6번지","category":"기타 - 기계공구"}]},{"lat":"37.813003178","long":"126.97182224","items":[{"name":"극단 즐거운사람들","tel":"02-972-1072","addr":"경기도 양주시 광적면 광석리 132번지 양주문화예술회관 2층","category":"문화.취미 - 티켓"},{"name":"양주시시설관리공단","tel":"031-828-9774","addr":"경기도 양주시 광적면 광석리 132번지","category":"학원 - 기타 교육기관"}]},{"lat":"37.822004274","long":"126.97444211","items":[{"name":"나리공원/양주시농업기술센터","tel":"031-8082-7240","addr":"경기도 양주시 광적면 광석리 278번지","category":"문화.취미 - 티켓"},{"name":"양주시농업기술센터","tel":"031-8082-7241","addr":"경기도 양주시 광적면 광석리 278번지","category":"레저업소 - 기타레져업소"}]},{"lat":"37.823506671","long":"126.96652502","items":[{"name":"대림엔지니어링","tel":"031-878-1826","addr":"경기도 양주시 광적면 광석리 502","category":"기타 - 기계공구"}]},{"lat":"37.82988696","long":"126.97219001","items":[{"name":"섬김요양원","tel":"031-874-9993","addr":"경기도 양주시 광적면 광석리 376번지","category":"기타의료기관 - 기타의료기관 및 기타"}]},{"lat":"37.825276015","long":"126.98055159","items":[{"name":"아라상사","tel":"031-871-4886","addr":"경기도 양주시 광적면 광석리 7-10번지 2-5호","category":"건축자재 - 건축용 요업제품"}]},{"lat":"37.825390426","long":"126.96915921","items":[{"name":"엄지식당","tel":"031-836-3395","addr":"경기도 양주시 광적면 광석리 430-9번지","category":"일반휴게음식 - 일반한식"}]},{"lat":"37.825751797","long":"126.97282779","items":[{"name":"예인디자인","tel":"031-1111-1111","addr":"경기도 양주시 광적면 광석리 342번지 1층","category":"가구 - 기타가구"}]},{"lat":"37.813923349","long":"126.97679601","items":[{"name":"오가네","tel":"031-855-5715","addr":"경기도 양주시 광적면 광석리 103-2번지","category":"음료식품 - 기타음료식품"}]},{"lat":"37.818861228","long":"126.98019009","items":[{"name":"조양상회","tel":"031-836-7286","addr":"경기도 양주시 광적면 광석리 47-8","category":"음료식품 - 기타음료식품"}]},{"lat":"37.828499039","long":"126.97044134","items":[{"name":"주식회사원테크","tel":"031-864-8911","addr":"경기도 양주시 광적면 광석리 393-1번지","category":"전기제품 - 기타전기제품"}]},{"lat":"37.81533537","long":"126.96738078","items":[{"name":"클래식롱보드","tel":"070-7633-6335","addr":"경기도 양주시 광적면 광석리 192-2번지 1층","category":"레져용품 - 스포츠·레져용품"}]}]