[{"lat":"37.15627465","long":"126.92743486","items":[{"name":"(주)울트라산업","tel":"031-366-4037","addr":"경기도 화성시 팔탄면 가재리 298-1번지 1동","category":"건축자재 - 기타건축자재"}]},{"lat":"37.157162016","long":"126.93459377","items":[{"name":"(주)월드베스트굿펫푸드","tel":"031-354-8069","addr":"경기도 화성시 팔탄면 가재리 7번지","category":"문화.취미 - 애완동물"}]},{"lat":"37.152614178","long":"126.92401642","items":[{"name":"GS25광주선동점","tel":"02-2006-2485","addr":"경기도 화성시 팔탄면 가재리 385-2번지","category":"유통업 영리 - 편 의 점"}]},{"lat":"37.157446798","long":"126.92868329","items":[{"name":"가재울농원","tel":"031-359-9992","addr":"경기도 화성시 팔탄면 가재리 282-5번지","category":"일반휴게음식 - 일반한식"}]},{"lat":"37.158582459","long":"126.92923381","items":[{"name":"가현침장","tel":"031-366-1184","addr":"경기도 화성시 팔탄면 가재리 267-19번지","category":"직물 - 침구·수예점"},{"name":"네비윤 (Navi Yun)","tel":"031-353-1849","addr":"경기도 화성시 팔탄면 가재리 267-19번지","category":"자동차정비 유지 - 자동차부품"},{"name":"모든타이어","tel":"031-366-1188","addr":"경기도 화성시 팔탄면 가재리 267-19","category":"자동차정비 유지 - 자동차시트·타이어"}]},{"lat":"37.160250422","long":"126.93090963","items":[{"name":"거래처노래연습장","tel":"031-352-1228","addr":"경기도 화성시 팔탄면 가재리 692-1번지 2층","category":"레저업소 - 노 래 방"},{"name":"별밤포차","tel":"031-352-1228","addr":"경기도 화성시 팔탄면 가재리 692-1번지 진우@상가2층 205호, 206호","category":"일반휴게음식 - 일반한식"},{"name":"샬롬하우스","tel":"031-352-5322","addr":"경기도 화성시 팔탄면 가재리 692-1번지 106호 (진우A상가)","category":"건축자재 - 인테리어전문"}]},{"lat":"37.154915414","long":"126.92957508","items":[{"name":"국일가설재","tel":"031-366-5891","addr":"경기도 화성시 팔탄면 가재리 239-2번지","category":"건축자재 - 기타건축자재"}]},{"lat":"37.140865434","long":"126.91266095","items":[{"name":"국제하우징","tel":"","addr":"경기도 화성시 팔탄면 가재리 553-5번지","category":"건축자재 - 기타건축자재"}]},{"lat":"37.156833904","long":"126.92839119","items":[{"name":"기사의집","tel":"031-8059-8195","addr":"경기도 화성시 팔탄면 가재리 286번지 2동","category":"일반휴게음식 - 일반한식"}]},{"lat":"37.158392634","long":"126.92826583","items":[{"name":"김덴트","tel":"031-354-0426","addr":"경기도 화성시 팔탄면 가재리 279-3번지 1층 102호","category":"자동차정비 유지 - 카인테리어"}]},{"lat":"37.143221598","long":"126.91867982","items":[{"name":"노하우유리제경화성점","tel":"031-353-6257","addr":"경기도 화성시 팔탄면 가재리 531번지 1층 101호","category":"건축자재 - 유리"},{"name":"대성자동차번호판제작소","tel":"031-366-0190","addr":"경기도 화성시 팔탄면 가재리 531번지","category":"자동차정비 유지 - 가타자동차서비스"},{"name":"부경전기","tel":"031-366-3320","addr":"경기도 화성시 팔탄면 가재리 531","category":"전기제품 - 기타전기제품"},{"name":"삼봉유통","tel":"031-8059-517","addr":"경기도 화성시 팔탄면 가재리 531","category":"신변잡화 - 기타잡화"},{"name":"아이모터스","tel":"02-111-1111","addr":"경기도 화성시 팔탄면 가재리 531번지 301호","category":"자동차정비 유지 - 자동차부품"},{"name":"황금장식","tel":"031-354-9677","addr":"경기도 화성시 팔탄면 가재리 531","category":"직물 - 카페트,커튼,천막,지물"}]},{"lat":"37.16063698","long":"126.92945698","items":[{"name":"다모아 전자.냉동","tel":"031-298-7443","addr":"경기도 화성시 팔탄면 가재리 268-7번지 가동","category":"전기제품 - 가전제품"},{"name":"마님중고가전센타","tel":"031-298-7443","addr":"경기도 화성시 팔탄면 가재리 268-7번지","category":"전기제품 - 가전제품"}]},{"lat":"37.155140808","long":"126.92978875","items":[{"name":"대성시스템","tel":"031-506-5694","addr":"경기도 화성시 팔탄면 가재리 252번지","category":"전기제품 - 냉열기기"}]},{"lat":"37.158113224","long":"126.92813101","items":[{"name":"대성캐미칼","tel":"031-354-1178","addr":"경기도 화성시 팔탄면 가재리 279번지","category":"기타 - 기타 전문점"}]},{"lat":"37.154611674","long":"126.9339319","items":[{"name":"대영물류","tel":"031-227-1588","addr":"경기도 화성시 팔탄면 가재리 25-6번지","category":"가구 - 일반가구"}]},{"lat":"37.144112284","long":"126.91679915","items":[{"name":"동명자동차정비","tel":"031-352-4706","addr":"경기도 화성시 팔탄면 가재리 546-108","category":"자동차정비 유지 - 자동차정비"},{"name":"발안자동차정비","tel":"031-352-4706","addr":"경기도 화성시 팔탄면 가재리 546-108번지 1층","category":"자동차정비 유지 - 자동차정비"}]},{"lat":"37.141192342","long":"126.91604836","items":[{"name":"동원목재","tel":"031-366-0982","addr":"경기도 화성시 팔탄면 가재리 538-4번지","category":"건축자재 - 목재·석재·철물"},{"name":"몬스터펫샵 화성향남점","tel":"070-8849-4286","addr":"경기도 화성시 팔탄면 가재리 538-4번지","category":"문화.취미 - 애완동물"}]},{"lat":"37.153556603","long":"126.93249196","items":[{"name":"두꺼비한식뷔페","tel":"031-352-4922","addr":"경기도 화성시 팔탄면 가재리 46-6번지","category":"일반휴게음식 - 일반한식"}]},{"lat":"37.15561227","long":"126.93468523","items":[{"name":"디센트 농구교실(DECENT BASKETBALL CLUB)","tel":"031-359-8259","addr":"경기도 화성시 팔탄면 가재리 9-12번지 9-13","category":"학원 - 예·체능계학원"}]},{"lat":"37.142752837","long":"126.91837645","items":[{"name":"딘쇼파","tel":"031-352-7810","addr":"경기도 화성시 팔탄면 가재리 532","category":"가구 - 일반가구"}]},{"lat":"37.151748708","long":"126.9233194","items":[{"name":"마젤란","tel":"031-354-3007","addr":"경기도 화성시 팔탄면 가재리 427-2번지","category":"일반휴게음식 - 서양음식"}]},{"lat":"37.15427742","long":"126.93245752","items":[{"name":"맛자랑 한식부페","tel":"031-366-2322","addr":"경기도 화성시 팔탄면 가재리 20-1번지 1층","category":"일반휴게음식 - 일반한식"},{"name":"푸른마트유통","tel":"031-353-1607","addr":"경기도 화성시 팔탄면 가재리 20-1번지","category":"유통업 영리 - 슈퍼마켓"}]},{"lat":"37.159087134","long":"126.92937967","items":[{"name":"명성타이어","tel":"031-354-1118","addr":"경기도 화성시 팔탄면 가재리 267","category":"자동차정비 유지 - 자동차시트·타이어"},{"name":"빨강코끼리세차장","tel":"031-352-0797","addr":"경기도 화성시 팔탄면 가재리 267번지","category":"자동차정비 유지 - 세차장"},{"name":"클라우드랩","tel":"031-352-1673","addr":"경기도 화성시 팔탄면 가재리 267번지","category":"용역 서비스 - 종합용역"}]},{"lat":"37.143581567","long":"126.91804911","items":[{"name":"명품손세차장","tel":"031-353-5033","addr":"경기도 화성시 팔탄면 가재리 533-2번지","category":"자동차정비 유지 - 세차장"},{"name":"소미원","tel":"031-352-6298","addr":"경기도 화성시 팔탄면 가재리 533-2번지","category":"일반휴게음식 - 일반한식"},{"name":"향남한우","tel":"031-354-0501","addr":"경기도 화성시 팔탄면 가재리 533-2번지 1동","category":"음료식품 - 정육점"}]},{"lat":"37.158447232","long":"126.92912136","items":[{"name":"미니스톱 화성가재점","tel":"031-1577-9621","addr":"경기도 화성시 팔탄면 가재리 267-8번지","category":"유통업 영리 - 편 의 점"}]},{"lat":"37.153524985","long":"126.92515243","items":[{"name":"미리네","tel":"070-8117-3535","addr":"경기도 화성시 팔탄면 가재리 378-8번지 1동 210호","category":"보건위생 - 미용재료"}]},{"lat":"37.14555641","long":"126.92024179","items":[{"name":"미성엘이디","tel":"031-8059-2336","addr":"경기도 화성시 팔탄면 가재리 501-1번지","category":"건축자재 - 조명기구"}]},{"lat":"37.141192152","long":"126.91578949","items":[{"name":"발안모타","tel":"031-354-7676","addr":"경기도 화성시 팔탄면 가재리 546-95번지","category":"기타 - 기계공구"}]},{"lat":"37.16014185","long":"126.93017797","items":[{"name":"베라원","tel":"031-353-5504","addr":"경기도 화성시 팔탄면 가재리 267-3번지","category":"음료식품 - 농·축·수산품"},{"name":"왕가면옥","tel":"031-353-5334","addr":"경기도 화성시 팔탄면 가재리 267-3번지","category":"일반휴게음식 - 일반한식"},{"name":"월수금화성점","tel":"031-353-4756","addr":"경기도 화성시 팔탄면 가재리 267-3번지 1층 102호","category":"일반휴게음식 - 일반한식"},{"name":"주식회사 세인시큐리티","tel":"031-8047-0300","addr":"경기도 화성시 팔탄면 가재리 267-3번지 2동 2-2호","category":"용역 서비스 - 기타용역서비스"}]},{"lat":"37.154944896","long":"126.93365016","items":[{"name":"보텍 인터내셔널","tel":"031-8059-5184","addr":"경기도 화성시 팔탄면 가재리 15","category":"서적문구 - 문구용품"}]},{"lat":"37.159581771","long":"126.92788189","items":[{"name":"사회복지법인경덕원발안어린이집[아이행복]","tel":"031-352-9922","addr":"경기도 화성시 팔탄면 가재리 272번지","category":"학원 - 유아원"}]},{"lat":"37.146394053","long":"126.91976813","items":[{"name":"산마루 국밥집","tel":"031-354-3110","addr":"경기도 화성시 팔탄면 가재리 515번지","category":"일반휴게음식 - 일반한식"},{"name":"향남티업스크린골프","tel":"031-353-3338","addr":"경기도 화성시 팔탄면 가재리 515번지","category":"레저업소 - 스크린골프"}]},{"lat":"37.157691734","long":"126.93137362","items":[{"name":"삼원종합가스","tel":"031-353-0083","addr":"경기도 화성시 팔탄면 가재리 265-9번지","category":"연료판매점 - LPG 취급점"}]},{"lat":"37.154111069","long":"126.92577097","items":[{"name":"서정가구","tel":"031-8059-1122","addr":"경기도 화성시 팔탄면 가재리 318-1번지 2층","category":"가구 - 일반가구"}]},{"lat":"37.141778425","long":"126.9165992","items":[{"name":"성지상사","tel":"031-353-5329","addr":"경기도 화성시 팔탄면 가재리 536-6번지","category":"농업 - 비료,사료,종자"}]},{"lat":"37.15891536","long":"126.9284567","items":[{"name":"세진유치원[아이행복]","tel":"031-353-2233","addr":"경기도 화성시 팔탄면 가재리 276-5","category":"학원 - 유치원"}]},{"lat":"37.142031004","long":"126.91699285","items":[{"name":"수경어닝","tel":"031-354-0283","addr":"경기도 화성시 팔탄면 가재리 536-16번지","category":"직물 - 카페트,커튼,천막,지물"}]},{"lat":"37.151642664","long":"126.92648265","items":[{"name":"신갈(S.G)모터스","tel":"031-233-2011","addr":"경기도 화성시 팔탄면 가재리 223-7번지","category":"자동차판매 - 기타운송"}]},{"lat":"37.149502189","long":"126.932991","items":[{"name":"신양슈퍼","tel":"031-353-8212","addr":"경기도 화성시 팔탄면 가재리 83-1번지","category":"유통업 영리 - 슈퍼마켓"}]},{"lat":"37.158023049","long":"126.92801853","items":[{"name":"신화성ENG","tel":"031-366-4066","addr":"경기도 화성시 팔탄면 가재리 278-2 외1필지2층1호","category":"용역 서비스 - 사무서비스"}]},{"lat":"37.152027903","long":"126.92312774","items":[{"name":"심석진의황소야","tel":"031-353-7531","addr":"경기도 화성시 팔탄면 가재리 405번지","category":"일반휴게음식 - 일반한식"}]},{"lat":"37.154886897","long":"126.9272111","items":[{"name":"쌍용자동차화성서비스프라자","tel":"031-354-7002","addr":"경기도 화성시 팔탄면 가재리 303-3번지","category":"자동차정비 유지 - 자동차정비"}]},{"lat":"37.149472986","long":"126.92940023","items":[{"name":"씨엔에스 캠핑카","tel":"031-1111-1111","addr":"경기도 화성시 팔탄면 가재리 116-4번지","category":"레져용품 - 스포츠·레져용품"}]},{"lat":"37.154697019","long":"126.92618689","items":[{"name":"씨유화성가재교차로점","tel":"080-080-3663","addr":"경기도 화성시 팔탄면 가재리 323-17번지 1층","category":"유통업 영리 - 편 의 점"}]},{"lat":"37.142580985","long":"126.91746495","items":[{"name":"씨유화성가재리점","tel":"031-353-6567","addr":"경기도 화성시 팔탄면 가재리 534-2번지","category":"유통업 영리 - 편 의 점"},{"name":"원바이크","tel":"031-692-1586","addr":"경기도 화성시 팔탄면 가재리 534-2번지","category":"자동차판매 - 이륜차판매"},{"name":"타이어친구","tel":"031-366-1616","addr":"경기도 화성시 팔탄면 가재리 534-2번지","category":"자동차정비 유지 - 자동차시트·타이어"},{"name":"향남원오토바이","tel":"031-366-1596","addr":"경기도 화성시 팔탄면 가재리 534-2번지","category":"자동차판매 - 이륜차판매"}]},{"lat":"37.156419239","long":"126.92809891","items":[{"name":"안녕 커피야","tel":"031-353-2084","addr":"경기도 화성시 팔탄면 가재리 294-1번지","category":"일반휴게음식 - 서양음식"}]},{"lat":"37.160187219","long":"126.93069579","items":[{"name":"우리식당","tel":"031-353-7645","addr":"경기도 화성시 팔탄면 가재리 692-1번지 진우아파트 상가 A동 106호","category":"일반휴게음식 - 일반한식"}]},{"lat":"37.146169411","long":"126.92065759","items":[{"name":"우수가구, 도도부엌가구","tel":"031-353-5755","addr":"경기도 화성시 팔탄면 가재리 503-5","category":"가구 - 일반가구"}]},{"lat":"37.160502316","long":"126.93025643","items":[{"name":"월수금화성본점","tel":"031-353-4756","addr":"경기도 화성시 팔탄면 가재리 267-3번지 2동","category":"일반휴게음식 - 일반한식"}]},{"lat":"37.154025948","long":"126.93385363","items":[{"name":"유한피앤에스(P&S)","tel":"031-353-3048","addr":"경기도 화성시 팔탄면 가재리 25-3번지 1층","category":"유통업 영리 - 기타유통업"}]},{"lat":"37.15233048","long":"126.93132239","items":[{"name":"이금주 니트아카데미","tel":"","addr":"경기도 화성시 팔탄면 가재리 60-1번지","category":"문화.취미 - 문화취미기타"}]},{"lat":"37.14174791","long":"126.91193956","items":[{"name":"이레","tel":"","addr":"경기도 화성시 팔탄면 가재리 555-2번지 202호","category":"신변잡화 - 기타잡화"}]},{"lat":"37.146862573","long":"126.91973385","items":[{"name":"자연샘","tel":"031-354-6098","addr":"경기도 화성시 팔탄면 가재리 516-2번지 외4필지","category":"일반휴게음식 - 일반한식"}]},{"lat":"37.152996864","long":"126.93068011","items":[{"name":"자연숲","tel":"031-366-1166","addr":"경기도 화성시 팔탄면 가재리 54번지 2층","category":"일반휴게음식 - 일반한식"}]},{"lat":"37.15573465","long":"126.92842605","items":[{"name":"장수흑염소 전문점","tel":"031-353-5326","addr":"경기도 화성시 팔탄면 가재리 293번지 2동 1층","category":"일반휴게음식 - 일반한식"}]},{"lat":"37.140921697","long":"126.91559847","items":[{"name":"장어궁","tel":"031-351-7890","addr":"경기도 화성시 팔탄면 가재리 546-6번지","category":"일반휴게음식 - 일반한식"}]},{"lat":"37.14255335","long":"126.91663209","items":[{"name":"장충화성족발","tel":"","addr":"경기도 화성시 팔탄면 가재리 546-44번지 102호","category":"음료식품 - 기타음료식품"}]},{"lat":"37.159835259","long":"126.92979549","items":[{"name":"전주식당","tel":"031-366-3421","addr":"경기도 화성시 팔탄면 가재리 267-18번지","category":"일반휴게음식 - 일반한식"}]},{"lat":"37.145560919","long":"126.92698402","items":[{"name":"주식회사 도도플러스","tel":"031-366-3445","addr":"경기도 화성시 팔탄면 가재리 129-35번지","category":"건축자재 - 기타건축자재"}]},{"lat":"37.143724891","long":"126.91687838","items":[{"name":"진성시큐리티","tel":"031-8059-9929","addr":"경기도 화성시 팔탄면 가재리 546-106번지","category":"용역 서비스 - 사무서비스"}]},{"lat":"37.145059813","long":"126.91879034","items":[{"name":"칠갑산","tel":"031-353-9419","addr":"경기도 화성시 팔탄면 가재리 522-3번지 1층","category":"일반휴게음식 - 일반한식"},{"name":"태강","tel":"","addr":"경기도 화성시 팔탄면 가재리 522-3번지 302호","category":"자동차정비 유지 - 자동차부품"}]},{"lat":"37.152893187","long":"126.92354334","items":[{"name":"티제이섬유","tel":"070-7718-2887","addr":"경기도 화성시 팔탄면 가재리 385-3번지","category":"유통업 영리 - 기타유통업"}]},{"lat":"37.147025037","long":"126.92012763","items":[{"name":"한 타일","tel":"031-352-1409","addr":"경기도 화성시 팔탄면 가재리 514-7번지","category":"건축자재 - 건축용 요업제품"}]},{"lat":"37.157942647","long":"126.92912185","items":[{"name":"한국낚시유통","tel":"031-747-8874","addr":"경기도 화성시 팔탄면 가재리 280번지 103호","category":"레져용품 - 스포츠·레져용품"}]},{"lat":"37.155637304","long":"126.93129675","items":[{"name":"한백화훼","tel":"031-395-9007","addr":"경기도 화성시 팔탄면 가재리 729번지","category":"문화.취미 - 화원"}]},{"lat":"37.160609203","long":"126.92826365","items":[{"name":"행복플러스보호작업장","tel":"031-239-7369","addr":"경기도 화성시 팔탄면 가재리 679번지","category":"신변잡화 - 기타잡화"}]},{"lat":"37.155275364","long":"126.9288205","items":[{"name":"현진중기물류","tel":"070-9977-2232","addr":"경기도 화성시 팔탄면 가재리 234-3번지","category":"기타 - 기계공구"}]},{"lat":"37.146943279","long":"126.91918222","items":[{"name":"화성열매협동조합","tel":"","addr":"경기도 화성시 팔탄면 가재리 516-4번지","category":"음료식품 - 기타음료식품"}]},{"lat":"37.158735165","long":"126.92847939","items":[{"name":"화성종합타일","tel":"031-366-2042","addr":"경기도 화성시 팔탄면 가재리 277번지 C동 102호","category":"건축자재 - 기타건축자재"}]}]