[{"lat":"37.381617917","long":"127.53750877","items":[{"name":"늘봄농장","tel":"031-882-9347","addr":"경기도 여주시 흥천면 계신리 559-31번지","category":"음료식품 - 농·축·수산품"}]},{"lat":"37.376622008","long":"127.52025587","items":[{"name":"세븐일레븐여주계신점","tel":"031-1577-0711","addr":"경기도 여주시 흥천면 계신리 488-16번지","category":"유통업 영리 - 편 의 점"}]},{"lat":"37.372682358","long":"127.53698248","items":[{"name":"신명엘피지","tel":"031-664-4038","addr":"경기도 여주시 흥천면 계신리 234-2번지","category":"연료판매점 - LPG 취급점"}]},{"lat":"37.381397081","long":"127.53050688","items":[{"name":"여주금흥영농조합법인","tel":"031-000-0000","addr":"경기도 여주시 흥천면 계신리 119번지","category":"음료식품 - 농·축·수산품"}]},{"lat":"37.375123987","long":"127.51873273","items":[{"name":"위드미 북여주IC점","tel":"031-883-8484","addr":"경기도 여주시 흥천면 계신리 475-4번지","category":"유통업 영리 - 편 의 점"}]},{"lat":"37.376349264","long":"127.51875241","items":[{"name":"이포고등학교","tel":"031-882-9314","addr":"경기도 여주시 흥천면 계신리 468번지 이포고등학교 (1층,0번지","category":"학원 - 초중고교육기관"},{"name":"이포고등학교_수업료","tel":"031-882-9314","addr":"경기도 여주시 흥천면 계신리 468번지 이포고등학교 1층","category":"학원 - 초중고교육기관"},{"name":"이포중학교","tel":"031-882-9314","addr":"경기도 여주시 흥천면 계신리 468번지","category":"학원 - 초중고교육기관"},{"name":"이포중학교_수업료","tel":"031-882-9314","addr":"경기도 여주시 흥천면 계신리 468번지","category":"학원 - 초중고교육기관"}]},{"lat":"37.371289397","long":"127.53217465","items":[{"name":"이포금사종합가스","tel":"031-882-7200","addr":"경기도 여주시 흥천면 계신리 356번지","category":"연료판매점 - LPG 취급점"}]},{"lat":"37.379202226","long":"127.53373188","items":[{"name":"청림 엔터테인먼트","tel":"031-407-6485","addr":"경기도 여주시 흥천면 계신리 150-2번지 외1필지 5동","category":"전기제품 - 가전제품"}]},{"lat":"37.377317092","long":"127.51995581","items":[{"name":"태양청과","tel":"031-882-8986","addr":"경기도 여주시 흥천면 계신리 468-8번지 6층","category":"음료식품 - 농·축·수산품"}]},{"lat":"37.373426208","long":"127.51755827","items":[{"name":"한일자동차공업사","tel":"031-881-5486","addr":"경기도 여주시 흥천면 계신리 551번지","category":"자동차정비 유지 - 자동차정비"}]},{"lat":"37.37470373","long":"127.53828386","items":[{"name":"홍가네농장","tel":"","addr":"경기도 여주시 흥천면 계신리 224-1번지 1층","category":"음료식품 - 농·축·수산품"}]}]