[{"lat":"37.186049848","long":"126.79041657","items":[{"name":"(주)대륙스틸","tel":"031-356-2168","addr":"경기도 화성시 마도면 쌍송리 662번지","category":"건축자재 - 기타건축자재"},{"name":"(주)에어로아시아","tel":"070-7836-6481","addr":"경기도 화성시 마도면 쌍송리 662번지 마도유통상가 가동 145호","category":"광학제품 - 기타광학제품"},{"name":"24시볼트","tel":"070-7836-6481","addr":"경기도 화성시 마도면 쌍송리 662번지 가동 124호","category":"기타 - 기계공구"},{"name":"거미종합광고기획","tel":"031-355-1724","addr":"경기도 화성시 마도면 쌍송리 662 마도유통공구상가자동107호,108호","category":"건축자재 - 인테리어전문"},{"name":"경도특수고무상사","tel":"031-479-3882","addr":"경기도 화성시 마도면 쌍송리 662번지 마도공구유통상가 다동 104호","category":"신변잡화 - 기타잡화"},{"name":"골드살롱","tel":"031-357-7754","addr":"경기도 화성시 마도면 쌍송리 662번지 가동 102,135-2호","category":"보건위생 - 미용원"},{"name":"공단시장약국","tel":"031-357-0183","addr":"경기도 화성시 마도면 쌍송리 662번지 가동 근생102호","category":"약국 - 약국"},{"name":"광성풍력닥트","tel":"031-355-6321","addr":"경기도 화성시 마도면 쌍송리 662번지 마도유통공구상가가 102동 호가 135-2호","category":"건축자재 - 목재·석재·철물"},{"name":"누리시스","tel":"031-358-6187","addr":"경기도 화성시 마도면 쌍송리 662번지 가동 108호","category":"기타 - 기계공구"},{"name":"대박아이스크림","tel":"","addr":"경기도 화성시 마도면 쌍송리 662번지 마도지구 유통업무 및 지원시설 가동 131호(149호 일부)","category":"음료식품 - 기타음료식품"},{"name":"대영모터펌프","tel":"031-355-8345","addr":"경기도 화성시 마도면 쌍송리 662번지 마동 118호","category":"기타 - 기계공구"},{"name":"대용건업","tel":"031-356-3964","addr":"경기도 화성시 마도면 쌍송리 662번지 바동 115호","category":"용역 서비스 - 기타용역서비스"},{"name":"대원정밀","tel":"031-356-2996","addr":"경기도 화성시 마도면 쌍송리 662번지 (마도공구백화점및오피스텔109호사동108호)","category":"기타 - 기계공구"},{"name":"도경테크","tel":"031-357-9973","addr":"경기도 화성시 마도면 쌍송리 662번지 마도공구유통상가 차동 101~102호","category":"기타 - 기계공구"},{"name":"동성기어","tel":"031-356-7185","addr":"경기도 화성시 마도면 쌍송리 662번지 마도유통상가 라동 110호","category":"기타 - 기계공구"},{"name":"두리아바베큐치킨","tel":"031-356-9285","addr":"경기도 화성시 마도면 쌍송리 662번지 마도공구상가 가동 307호","category":"일반휴게음식 - 주점"},{"name":"마도PVC","tel":"031-355-8603","addr":"경기도 화성시 마도면 쌍송리 662번지 자동 125,126호","category":"직물 - 기타직물"},{"name":"마도고시텔","tel":"031-355-8100","addr":"경기도 화성시 마도면 쌍송리 662번지 가동 근생301호","category":"학원 - 독서실"},{"name":"마도인쇄열쇠","tel":"031-357-4640","addr":"경기도 화성시 마도면 쌍송리 662번지 바동 1층 102호","category":"서적문구 - 출판 및 인쇄물"},{"name":"마도풍력닥트","tel":"031-366-7682","addr":"경기도 화성시 마도면 쌍송리 662번지 가동 119호, 143-2호","category":"건축자재 - 기타건축자재"},{"name":"미니스톱 마도공단점","tel":"031-1577-9621","addr":"경기도 화성시 마도면 쌍송리 662번지 가동 134호","category":"유통업 영리 - 편 의 점"},{"name":"삼성스프링(마도점)","tel":"031-355-3711","addr":"경기도 화성시 마도면 쌍송리 662번지 (마도공구유통상가 가동129호,148-2호)","category":"자동차정비 유지 - 자동차부품"},{"name":"신우톱공구","tel":"031-355-0759","addr":"경기도 화성시 마도면 쌍송리 662번지 다-105호 (마도유통공구상가다동105호~106호)","category":"기타 - 기계공구"},{"name":"씨유화성마도점","tel":"031-366-7214","addr":"경기도 화성시 마도면 쌍송리 662번지 마도유통상가 가동 101호","category":"유통업 영리 - 편 의 점"},{"name":"에이스산업","tel":"031-291-3388","addr":"경기도 화성시 마도면 쌍송리 662번지 마동 108호","category":"신변잡화 - 기타잡화"},{"name":"에이플","tel":"031-747-8874","addr":"경기도 화성시 마도면 쌍송리 662번지 마도유통공구상가 사동 105호","category":"보건위생 - 화장품"},{"name":"우주노래연습장","tel":"031-357-0575","addr":"경기도 화성시 마도면 쌍송리 662번지 마도지구유통업무및지원시설 317호","category":"레저업소 - 노 래 방"},{"name":"우진종합상사","tel":"031-855-8540","addr":"경기도 화성시 마도면 쌍송리 662번지 마도지구유통업무및지원시설 가동 1층 105,106,137호","category":"의류 - 기타의류"},{"name":"유창유공암","tel":"031-111-1111","addr":"경기도 화성시 마도면 쌍송리 662번지 마도유통상가 128호","category":"건축자재 - 기타건축자재"},{"name":"일신공사","tel":"031-355-9377","addr":"경기도 화성시 마도면 쌍송리 662번지 마도공구상가 다동 11호","category":"건축자재 - 페인트"},{"name":"입질낚시","tel":"031-355-1740","addr":"경기도 화성시 마도면 쌍송리 662번지 유통공구상가 아동 110호","category":"레져용품 - 스포츠·레져용품"},{"name":"정원컴퓨터","tel":"031-355-6682","addr":"경기도 화성시 마도면 쌍송리 662번지","category":"수리서비스 - 사무·통신기기수리"},{"name":"주식회사 레드코리아","tel":"031-355-9460","addr":"경기도 화성시 마도면 쌍송리 662번지 마도공구상가 자동 18호","category":"의류 - 정장"},{"name":"주식회사베이스나인화성점","tel":"031-456-3773","addr":"경기도 화성시 마도면 쌍송리 662번지 아동 105호 (마도지구유통업무및지원시설)","category":"레저업소 - 기타레져업소"},{"name":"지성상사","tel":"031-355-3153","addr":"경기도 화성시 마도면 쌍송리 662번지 마도유통상가 자동 107호 108호","category":"유통업 영리 - 기타유통업"},{"name":"진영모터체인","tel":"031-357-8742","addr":"경기도 화성시 마도면 쌍송리 662번지 마도유통공구상가 사동 118호","category":"기타 - 기계공구"},{"name":"진영베아링","tel":"031-357-6810","addr":"경기도 화성시 마도면 쌍송리 662번지 103호,104호,136호","category":"기타 - 기계공구"},{"name":"태진산업","tel":"","addr":"경기도 화성시 마도면 쌍송리 662번지 가동 132호","category":"건축자재 - 기타건축자재"},{"name":"태훈상사","tel":"031-356-8497","addr":"경기도 화성시 마도면 쌍송리 662번지 가동 127호","category":"기타 - 기계공구"},{"name":"트리즈커뮤니케이션즈","tel":"031-357-5105","addr":"경기도 화성시 마도면 쌍송리 662번지 가동 150호","category":"건축자재 - 인테리어전문"},{"name":"평화식당","tel":"031-355-1811","addr":"경기도 화성시 마도면 쌍송리 662번지 지동 103호 마도공구유통 상가 ,104,105,106호","category":"일반휴게음식 - 일반한식"},{"name":"한울오에이테크","tel":"031-355-8402","addr":"경기도 화성시 마도면 쌍송리 662번지 자동 122호","category":"사무통신 - 컴퓨터"},{"name":"현진명판","tel":"031-356-6322","addr":"경기도 화성시 마도면 쌍송리 662번지 바동 101호","category":"건축자재 - 목재·석재·철물"},{"name":"화성노래연습장","tel":"031-357-0579","addr":"경기도 화성시 마도면 쌍송리 662번지 마도지구유통업무및지원시설 318호","category":"레저업소 - 노 래 방"},{"name":"황금포차","tel":"031-355-0335","addr":"경기도 화성시 마도면 쌍송리 662번지 마도지구유통업무및지원시설 316호","category":"일반휴게음식 - 주점"},{"name":"황제","tel":"031-355-5684","addr":"경기도 화성시 마도면 쌍송리 662번지 3층 309,310호","category":"보건위생 - 화장품"}]},{"lat":"37.184157118","long":"126.77555667","items":[{"name":"(주)대한산업가스","tel":"031-355-1241","addr":"경기도 화성시 마도면 쌍송리 395번지","category":"연료판매점 - 기타연료"}]},{"lat":"37.185217549","long":"126.78856073","items":[{"name":"(주)한국미트팜","tel":"031-355-4792","addr":"경기도 화성시 마도면 쌍송리 669-2번지","category":"음료식품 - 기타음료식품"},{"name":"마도식당정육점","tel":"031-355-1360","addr":"경기도 화성시 마도면 쌍송리 669-2번지 2동","category":"음료식품 - 정육점"},{"name":"마도정육점식당","tel":"031-355-2549","addr":"경기도 화성시 마도면 쌍송리 669-2번지 2동","category":"일반휴게음식 - 일반한식"},{"name":"안동장터소고기국밥(화성마도점)","tel":"031-357-1602","addr":"경기도 화성시 마도면 쌍송리 669-2번지 4동 1층","category":"일반휴게음식 - 일반한식"}]},{"lat":"37.189830698","long":"126.79350313","items":[{"name":"(주)홍일산업","tel":"02-2699-2421","addr":"경기도 화성시 마도면 쌍송리 141-17번지","category":"건축자재 - 기타건축자재"},{"name":"주식회사 홍일이피에스","tel":"031-355-2323","addr":"경기도 화성시 마도면 쌍송리 141-17번지","category":"유통업 영리 - 기타유통업"}]},{"lat":"37.187103675","long":"126.79019964","items":[{"name":"W당구클럽","tel":"031-356-7239","addr":"경기도 화성시 마도면 쌍송리 187-4번지 202호","category":"레저업소 - 당 구 장"},{"name":"마도종합공구","tel":"031-356-7709","addr":"경기도 화성시 마도면 쌍송리 187-4번지 102호","category":"기타 - 기계공구"},{"name":"마도종합베어링","tel":"031-366-9806","addr":"경기도 화성시 마도면 쌍송리 187-4번지 효람빌딩 1층 1호","category":"기타 - 기계공구"},{"name":"삼성테크윈","tel":"031-355-1178","addr":"경기도 화성시 마도면 쌍송리 187-4번지 효람빌딩 103호","category":"의류 - 기타의류"},{"name":"요거프레소 마도산단점","tel":"031-355-1603","addr":"경기도 화성시 마도면 쌍송리 187-4번지","category":"일반휴게음식 - 서양음식"},{"name":"캐리어에어컨 송산점","tel":"031-357-4463","addr":"경기도 화성시 마도면 쌍송리 187-4번지 106호","category":"수리서비스 - 가정용품수리"}]},{"lat":"37.183466596","long":"126.78694403","items":[{"name":"공단집","tel":"","addr":"경기도 화성시 마도면 쌍송리 670-29번지 1층","category":"일반휴게음식 - 일반한식"}]},{"lat":"37.186634125","long":"126.78963787","items":[{"name":"광성금속","tel":"031-356-9751","addr":"경기도 화성시 마도면 쌍송리 661-5번지","category":"건축자재 - 기타건축자재"},{"name":"타이어유통","tel":"031-355-4949","addr":"경기도 화성시 마도면 쌍송리 661-5번지","category":"자동차정비 유지 - 자동차시트·타이어"}]},{"lat":"37.185993842","long":"126.7893356","items":[{"name":"구일관광(주)","tel":"031-366-9675","addr":"경기도 화성시 마도면 쌍송리 661-1번지 2층 202호","category":"여행 - 관광여행"},{"name":"오토프라임","tel":"031-355-8425","addr":"경기도 화성시 마도면 쌍송리 661-1번지 1층","category":"자동차정비 유지 - 자동차정비"}]},{"lat":"37.197357343","long":"126.79011456","items":[{"name":"군포에너지","tel":"031-391-0019","addr":"경기도 화성시 마도면 쌍송리 13-2번지","category":"연료판매점 - LPG 취급점"}]},{"lat":"37.192411092","long":"126.79036496","items":[{"name":"굿마트마도점","tel":"031-356-5989","addr":"경기도 화성시 마도면 쌍송리 93번지 굿마트","category":"유통업 영리 - 편 의 점"}]},{"lat":"37.196882174","long":"126.79144498","items":[{"name":"그린한식뷔페","tel":"031-356-9650","addr":"경기도 화성시 마도면 쌍송리 13-13번지 1층 101호","category":"일반휴게음식 - 일반한식"}]},{"lat":"37.192905586","long":"126.79483492","items":[{"name":"기선종합상사","tel":"031-356-7553","addr":"경기도 화성시 마도면 쌍송리 128-2","category":"기타 - 기계공구"}]},{"lat":"37.184414751","long":"126.78807875","items":[{"name":"꿈에본닭","tel":"031-357-9171","addr":"경기도 화성시 마도면 쌍송리 669-20번지","category":"일반휴게음식 - 스넥"},{"name":"해양마루한식부페","tel":"031-8995-7341","addr":"경기도 화성시 마도면 쌍송리 669-20번지","category":"일반휴게음식 - 일반한식"}]},{"lat":"37.195238292","long":"126.78921946","items":[{"name":"남양종합가스","tel":"031-357-8111","addr":"경기도 화성시 마도면 쌍송리 33","category":"연료판매점 - LPG 취급점"}]},{"lat":"37.176968524","long":"126.78608421","items":[{"name":"누리지오코리아 주식회사","tel":"031-493-9022","addr":"경기도 화성시 마도면 쌍송리 691-2번지 2층","category":"자동차정비 유지 - 윤활유 전문 판매"}]},{"lat":"37.181744409","long":"126.79127322","items":[{"name":"대덕식당","tel":"031-355-0805","addr":"경기도 화성시 마도면 쌍송리 674-3","category":"음료식품 - 기타음료식품"}]},{"lat":"37.185463184","long":"126.78986639","items":[{"name":"대명기계","tel":"031-366-7263","addr":"경기도 화성시 마도면 쌍송리 662번지 마도유통공구상가 나동 107호","category":"기타 - 기계공구"},{"name":"맨투맨","tel":"031-357-0440","addr":"경기도 화성시 마도면 쌍송리 662번지 나동 101호","category":"보건위생 - 이용원"},{"name":"수헤어","tel":"","addr":"경기도 화성시 마도면 쌍송리 662번지 나동 1층 107호","category":"보건위생 - 미용원"},{"name":"예진분식","tel":"031-366-7853","addr":"경기도 화성시 마도면 쌍송리 662번지 나동 107호","category":"일반휴게음식 - 스넥"},{"name":"토일렛하우스 화성점","tel":"031-357-1086","addr":"경기도 화성시 마도면 쌍송리 662번지 마도지구유통업무및지원시설 나동 102호","category":"신변잡화 - 기타잡화"}]},{"lat":"37.184436562","long":"126.78521825","items":[{"name":"대성매스텍","tel":"031-501-4314","addr":"경기도 화성시 마도면 쌍송리 464-4 1","category":"건축자재 - 기타건축자재"}]},{"lat":"37.182664326","long":"126.78675487","items":[{"name":"대장금한식뷔페","tel":"031-356-5922","addr":"경기도 화성시 마도면 쌍송리 670-25번지 110호","category":"일반휴게음식 - 일반한식"},{"name":"씨유화성마도산단점","tel":"070-4195-1018","addr":"경기도 화성시 마도면 쌍송리 670-25번지","category":"유통업 영리 - 편 의 점"},{"name":"화룡각","tel":"031-356-8928","addr":"경기도 화성시 마도면 쌍송리 670-25번지 1층","category":"일반휴게음식 - 중국식"}]},{"lat":"37.198050146","long":"126.78956071","items":[{"name":"동성 특수 용접","tel":"031-356-7025","addr":"경기도 화성시 마도면 쌍송리 7-7번지 외3필지","category":"기타 - 기계공구"}]},{"lat":"37.190551187","long":"126.79330968","items":[{"name":"두손세차","tel":"031-000-0000","addr":"경기도 화성시 마도면 쌍송리 141번지 1층","category":"자동차정비 유지 - 세차장"},{"name":"애니세차장","tel":"","addr":"경기도 화성시 마도면 쌍송리 141번지 1층 1호","category":"자동차정비 유지 - 세차장"},{"name":"애니카랜드마도점","tel":"031-356-1311","addr":"경기도 화성시 마도면 쌍송리 141","category":"자동차정비 유지 - 세차장"}]},{"lat":"37.192469512","long":"126.79280882","items":[{"name":"마도냉동","tel":"031-356-8680","addr":"경기도 화성시 마도면 쌍송리 80-6번지","category":"수리서비스 - 가정용품수리"}]},{"lat":"37.184577202","long":"126.78822469","items":[{"name":"마도토종순대국","tel":"031-357-1197","addr":"경기도 화성시 마도면 쌍송리 669-19번지","category":"일반휴게음식 - 일반한식"},{"name":"통큰집생선구이&탕","tel":"031-355-9892","addr":"경기도 화성시 마도면 쌍송리 669-19번지","category":"일반휴게음식 - 일반한식"}]},{"lat":"37.192743726","long":"126.78994731","items":[{"name":"명품구제창고형매장","tel":"031-356-0324","addr":"경기도 화성시 마도면 쌍송리 85-5번지","category":"의류 - 기타의류"}]},{"lat":"37.18283025","long":"126.79386029","items":[{"name":"미소진한식뷔페","tel":"031-355-3640","addr":"경기도 화성시 마도면 쌍송리 665-4번지","category":"일반휴게음식 - 위탁급식업"}]},{"lat":"37.188188848","long":"126.77769565","items":[{"name":"민지한식뷔페","tel":"031-355-8073","addr":"경기도 화성시 마도면 쌍송리 410-4번지 1층","category":"일반휴게음식 - 일반한식"}]},{"lat":"37.184242614","long":"126.78756121","items":[{"name":"백두산 양꼬치","tel":"031-355-1809","addr":"경기도 화성시 마도면 쌍송리 669-24번지","category":"일반휴게음식 - 일반한식"}]},{"lat":"37.192329635","long":"126.79016246","items":[{"name":"붕붕철거,폐기물","tel":"031-355-9261","addr":"경기도 화성시 마도면 쌍송리 92-5번지 1층","category":"용역 서비스 - 종합용역"}]},{"lat":"37.189467266","long":"126.79180352","items":[{"name":"서현상사","tel":"031-355-8121","addr":"경기도 화성시 마도면 쌍송리 141-58번지 1층 110호,111호","category":"건축자재 - 페인트"},{"name":"유컴즈솔루션","tel":"031-356-6820","addr":"경기도 화성시 마도면 쌍송리 141-58번지 102호","category":"사무통신 - 컴퓨터"},{"name":"주식회사 서현피앤씨","tel":"031-355-8121","addr":"경기도 화성시 마도면 쌍송리 141-58번지 110호","category":"건축자재 - 페인트"},{"name":"카센타TM","tel":"031-357-5233","addr":"경기도 화성시 마도면 쌍송리 141-58번지 105호~107호","category":"자동차정비 유지 - 자동차정비"}]},{"lat":"37.180440673","long":"126.78780848","items":[{"name":"선옥이네푸드매점","tel":"031-355-6265","addr":"경기도 화성시 마도면 쌍송리 678-5번지","category":"음료식품 - 기타음료식품"}]},{"lat":"37.188799516","long":"126.79125354","items":[{"name":"성화에스티","tel":"031-356-7130","addr":"경기도 화성시 마도면 쌍송리 141-59번지","category":"기타 - 기계공구"},{"name":"악어토스트커피","tel":"031-357-8732","addr":"경기도 화성시 마도면 쌍송리 141-59번지 1층","category":"일반휴게음식 - 서양음식"}]},{"lat":"37.1840253","long":"126.78697622","items":[{"name":"술친구","tel":"031-356-3587","addr":"경기도 화성시 마도면 쌍송리 670-9번지 104~106호","category":"일반휴게음식 - 스넥"},{"name":"주식회사 가온산업","tel":"031-356-0507","addr":"경기도 화성시 마도면 쌍송리 670-9번지 아인스프라자 1층","category":"사무통신 - 기타 사무용품"},{"name":"착한수제 전자담배","tel":"070-8705-2382","addr":"경기도 화성시 마도면 쌍송리 670-9번지 107호","category":"음료식품 - 기타음료식품"},{"name":"피치족포차","tel":"031-357-4385","addr":"경기도 화성시 마도면 쌍송리 670-9번지 101호","category":"일반휴게음식 - 서양음식"},{"name":"헤어클럽","tel":"","addr":"경기도 화성시 마도면 쌍송리 670-9번지 103호","category":"보건위생 - 미용원"}]},{"lat":"37.184080979","long":"126.78786572","items":[{"name":"쉐프 강정열의 차이나","tel":"031-358-5222","addr":"경기도 화성시 마도면 쌍송리 669-22번지 1동 1층","category":"일반휴게음식 - 중국식"},{"name":"황실당구클럽","tel":"031-357-9734","addr":"경기도 화성시 마도면 쌍송리 669-22번지 1층","category":"레저업소 - 당 구 장"}]},{"lat":"37.175248799","long":"126.786776","items":[{"name":"신성푸드스토리","tel":"02-830-2205","addr":"경기도 화성시 마도면 쌍송리 691-8번지","category":"일반휴게음식 - 일반한식"}]},{"lat":"37.185044924","long":"126.7877729","items":[{"name":"아가페스크린골프","tel":"031-366-8898","addr":"경기도 화성시 마도면 쌍송리 669-9번지","category":"레저업소 - 스크린골프"}]},{"lat":"37.184216278","long":"126.78794417","items":[{"name":"아이조아라","tel":"031-357-9732","addr":"경기도 화성시 마도면 쌍송리 669-21번지","category":"일반휴게음식 - 일반한식"},{"name":"오케이할인마트","tel":"031-355-4101","addr":"경기도 화성시 마도면 쌍송리 669-21번지","category":"유통업 영리 - 슈퍼마켓"}]},{"lat":"37.188936021","long":"126.77733304","items":[{"name":"옵틱아이","tel":"031-355-9439","addr":"경기도 화성시 마도면 쌍송리 334-4번지","category":"광학제품 - 기타광학제품"}]},{"lat":"37.192435919","long":"126.79419423","items":[{"name":"우양천막사","tel":"031-356-7737","addr":"경기도 화성시 마도면 쌍송리 127번지","category":"직물 - 카페트,커튼,천막,지물"},{"name":"유원포장","tel":"031-356-8850","addr":"경기도 화성시 마도면 쌍송리 127번지","category":"유통업 영리 - 기타유통업"},{"name":"토탈루브리칸트","tel":"031-357-5145","addr":"경기도 화성시 마도면 쌍송리 127번지 101호 상가","category":"자동차정비 유지 - 윤활유 전문 판매"},{"name":"효성모터","tel":"031-354-4860","addr":"경기도 화성시 마도면 쌍송리 127번지 103호104동","category":"기타 - 기계공구"}]},{"lat":"37.190413659","long":"126.7820814","items":[{"name":"윤가네한식부페","tel":"031-355-3185","addr":"경기도 화성시 마도면 쌍송리 290-3번지","category":"일반휴게음식 - 일반한식"}]},{"lat":"37.193600315","long":"126.79028279","items":[{"name":"은장농원","tel":"031-357-4082","addr":"경기도 화성시 마도면 쌍송리 63-4번지 1층","category":"일반휴게음식 - 일반한식"}]},{"lat":"37.197295805","long":"126.79097076","items":[{"name":"이레산업","tel":"031-241-9533","addr":"경기도 화성시 마도면 쌍송리 13-7번지 1층","category":"농업 - 기타농업관련"}]},{"lat":"37.198050288","long":"126.78963955","items":[{"name":"인디매니아","tel":"031-356-0970","addr":"경기도 화성시 마도면 쌍송리 6-2","category":"자동차정비 유지 - 자동차부품"}]},{"lat":"37.192075907","long":"126.78936352","items":[{"name":"일류한식뷔페","tel":"","addr":"경기도 화성시 마도면 쌍송리 90번지","category":"일반휴게음식 - 일반한식"}]},{"lat":"37.190299446","long":"126.77883815","items":[{"name":"정원테크윈","tel":"031-355-0864","addr":"경기도 화성시 마도면 쌍송리 324번지","category":"기타 - 기계공구"}]},{"lat":"37.180573906","long":"126.79174945","items":[{"name":"주식회사 삼성종합메탈","tel":"031-831-5768","addr":"경기도 화성시 마도면 쌍송리 675-11번지","category":"기타 - 기계공구"}]},{"lat":"37.181212416","long":"126.79106074","items":[{"name":"주식회사 윤성금속","tel":"031-434-9706","addr":"경기도 화성시 마도면 쌍송리 674-2번지 2층","category":"기타 - 기계공구"}]},{"lat":"37.189996065","long":"126.78041578","items":[{"name":"주식회사 진성앤푸드원","tel":"031-355-4607","addr":"경기도 화성시 마도면 쌍송리 309-2번지","category":"음료식품 - 기타음료식품"}]},{"lat":"37.19293802","long":"126.78286244","items":[{"name":"주식회사 현우엔지니어링","tel":"031-905-5352","addr":"경기도 화성시 마도면 쌍송리 266-11","category":"기타 - 기계공구"}]},{"lat":"37.180443281","long":"126.78924987","items":[{"name":"지현테크","tel":"031-356-4267","addr":"경기도 화성시 마도면 쌍송리 677-3번지","category":"전기제품 - 냉열기기"}]},{"lat":"37.198410701","long":"126.78963854","items":[{"name":"진흥상사","tel":"031-356-5812","addr":"경기도 화성시 마도면 쌍송리 5-5","category":"자동차정비 유지 - 자동차부품"}]},{"lat":"37.18429686","long":"126.78766241","items":[{"name":"참나무능이버섯백숙","tel":"031-356-5187","addr":"경기도 화성시 마도면 쌍송리 669-14번지","category":"일반휴게음식 - 일반한식"}]},{"lat":"37.192771344","long":"126.79027385","items":[{"name":"케이에스 테크","tel":"031-355-8513","addr":"경기도 화성시 마도면 쌍송리 85-6번지","category":"기타 - 기계공구"}]},{"lat":"37.191020852","long":"126.7744211","items":[{"name":"큐마트","tel":"031-356-5066","addr":"경기도 화성시 마도면 쌍송리 340-4번지","category":"유통업 영리 - 슈퍼마켓"}]},{"lat":"37.198328715","long":"126.78914317","items":[{"name":"큰손셀프밥상","tel":"031-355-4626","addr":"경기도 화성시 마도면 쌍송리 7-3번지 1층","category":"일반휴게음식 - 일반한식"}]},{"lat":"37.192047879","long":"126.79385741","items":[{"name":"타이어명가","tel":"031-355-0150","addr":"경기도 화성시 마도면 쌍송리 124,124-1","category":"자동차정비 유지 - 자동차시트·타이어"}]},{"lat":"37.184970197","long":"126.79130927","items":[{"name":"태성철강","tel":"031-355-5955","addr":"경기도 화성시 마도면 쌍송리 663-2번지","category":"건축자재 - 기타건축자재"},{"name":"풍성한식당","tel":"031-355-4476","addr":"경기도 화성시 마도면 쌍송리 663-2번지","category":"일반휴게음식 - 위탁급식업"}]},{"lat":"37.190857447","long":"126.78330772","items":[{"name":"평화모터스","tel":"031-366-8041","addr":"경기도 화성시 마도면 쌍송리 268-20번지","category":"자동차정비 유지 - 자동차부품"}]},{"lat":"37.195321431","long":"126.7903568","items":[{"name":"하나스틸","tel":"031-355-1504","addr":"경기도 화성시 마도면 쌍송리 27-2번지","category":"건축자재 - 기타건축자재"}]},{"lat":"37.189493755","long":"126.79149937","items":[{"name":"한남가설산업","tel":"031-355-1893","addr":"경기도 화성시 마도면 쌍송리 141-18","category":"건축자재 - 기타건축자재"}]},{"lat":"37.183295953","long":"126.78724857","items":[{"name":"한식부페다정","tel":"031-357-1584","addr":"경기도 화성시 마도면 쌍송리 670-19번지 1층","category":"일반휴게음식 - 일반한식"}]},{"lat":"37.180581328","long":"126.79085981","items":[{"name":"핫플매점","tel":"02-1111-1111","addr":"경기도 화성시 마도면 쌍송리 674-1번지","category":"음료식품 - 기타음료식품"}]},{"lat":"37.192662228","long":"126.78972228","items":[{"name":"헌옷,수거,중고,옷,업체,팔기,매입,파는곳","tel":"031-355-3985","addr":"경기도 화성시 마도면 쌍송리 85-3번지","category":"의류 - 정장"}]}]