[{"lat":"37.669183629","long":"126.81032154","items":[{"name":"금강사무용가구","tel":"031-967-3278","addr":"경기도 고양시 일산동구 고양대로","category":"가구 - 기타가구"}]},{"lat":"37.681429686","long":"126.79046276","items":[{"name":"베베위즈","tel":"031-974-5999","addr":"경기도 고양시 일산동구 고양대로","category":"의류 - 아동의류"}]},{"lat":"37.671799112","long":"126.80648362","items":[{"name":"수라예찬(식사점)","tel":"031-966-7258","addr":"경기도 고양시 일산동구 고양대로","category":"일반휴게음식 - 일반한식"}]},{"lat":"37.66576716","long":"126.81478458","items":[{"name":"인쇄나라","tel":"031-906-4817","addr":"경기도 고양시 일산동구 고양대로","category":"서적문구 - 출판 및 인쇄물"}]},{"lat":"37.677076016","long":"126.79954366","items":[{"name":"정민상사","tel":"02-2643-9188","addr":"경기도 고양시 일산동구 고양대로 941","category":""}]},{"lat":"37.671682684","long":"126.80690331","items":[{"name":"크린토피아 일산은행마을점","tel":"031-969-0012","addr":"경기도 고양시 일산동구 고양대로","category":"수리서비스 - 세탁소"}]},{"lat":"37.682572848","long":"126.78012067","items":[{"name":"하이W스토어","tel":"031-977-6617","addr":"경기도 고양시 일산동구 고양대로","category":"보건위생 - 화장품"},{"name":"하이약국","tel":"031-977-6617","addr":"경기도 고양시 일산동구 고양대로","category":"약국 - 약국"}]},{"lat":"37.682268882","long":"126.7911859","items":[{"name":"한국냉열","tel":"031-906-2345","addr":"경기도 고양시 일산동구 고양대로","category":"전기제품 - 가전제품"}]}]