[{"lat":"37.439286608","long":"127.75509452","items":[{"name":"농업회사법인 글로바이오 (주)","tel":"031-1544-2596","addr":"경기도 양평군 양동면 석곡리 15-2번지","category":"농업 - 비료,사료,종자"}]},{"lat":"37.455975726","long":"127.75179195","items":[{"name":"대한불교유점사","tel":"031-771-6282","addr":"경기도 양평군 양동면 석곡리 699","category":"기타 - 비영리/대상"}]},{"lat":"37.424540227","long":"127.75040551","items":[{"name":"양동대일카센타","tel":"031-772-7558","addr":"경기도 양평군 양동면 석곡리 154-1번지","category":"자동차정비 유지 - 자동차정비"}]},{"lat":"37.430290287","long":"127.75012374","items":[{"name":"양동초등학교","tel":"031-774-6146","addr":"경기도 양평군 양동면 석곡리 190번지 양동초등학교","category":"학원 - 초중고교육기관"},{"name":"양동초등학교병설유치원[아이행복]","tel":"031-774-6146","addr":"경기도 양평군 양동면 석곡리 190번지 양동초등학교","category":"학원 - 유치원"}]},{"lat":"37.427539444","long":"127.7491474","items":[{"name":"양평부추영농조합법인","tel":"031-775-7780","addr":"경기도 양평군 양동면 석곡리 261-3번지 양평부추영농조합법인","category":"음료식품 - 농·축·수산품"}]},{"lat":"37.437672812","long":"127.743847","items":[{"name":"영진주유소","tel":"031-771-8866","addr":"경기도 양평군 양동면 석곡리 406-3번지","category":"연료판매점 - 주유소"}]},{"lat":"37.436091271","long":"127.75459929","items":[{"name":"청딸블루베리","tel":"","addr":"경기도 양평군 양동면 석곡리 871-10번지","category":"음료식품 - 농·축·수산품"}]},{"lat":"37.433735044","long":"127.74679101","items":[{"name":"확붕이네","tel":"031-773-1247","addr":"경기도 양평군 양동면 석곡리 271-5번지","category":"일반휴게음식 - 일반한식"}]}]