[{"lat":"37.603540588","long":"127.35182181","items":[{"name":"(주)노다지장어","tel":"031-771-9939","addr":"경기도 양평군 서종면 문호리 779-22번지 1층","category":"일반휴게음식 - 일반한식"},{"name":"노다지","tel":"031-771-9939","addr":"경기도 양평군 서종면 문호리 779-22번지","category":"일반휴게음식 - 일반한식"}]},{"lat":"37.602290359","long":"127.35110254","items":[{"name":"(주)산","tel":"031-772-6128","addr":"경기도 양평군 서종면 문호리 780-6","category":"건축자재 - 부동산 분양"}]},{"lat":"37.624613162","long":"127.35523926","items":[{"name":"(주)셀라비","tel":"031-771-7048","addr":"경기도 양평군 서종면 문호리 623번지 충 2","category":"음료식품 - 기타음료식품"},{"name":"(주)학산서종지점","tel":"070-7749-2760","addr":"경기도 양평군 서종면 문호리 623번지","category":"일반휴게음식 - 서양음식"},{"name":"리아네이처(주)","tel":"031-771-2832","addr":"경기도 양평군 서종면 문호리 623번지","category":"보건위생 - 화장품"},{"name":"리어소시에이트 주식회사","tel":"031-771-2832","addr":"경기도 양평군 서종면 문호리 623번지","category":"보건위생 - 화장품"},{"name":"백미당 서종점","tel":"031-774-5751","addr":"경기도 양평군 서종면 문호리 623번지 주 3동 1층","category":"일반휴게음식 - 일반한식"},{"name":"빈트(vint)","tel":"070-8880-8245","addr":"경기도 양평군 서종면 문호리 623번지","category":"회원제형태 - 기타4"},{"name":"주식회사 서종옥","tel":"031-774-8848","addr":"경기도 양평군 서종면 문호리 623번지","category":"일반휴게음식 - 일반한식"}]},{"lat":"37.603511984","long":"127.35235392","items":[{"name":"CAFE MUCCA","tel":"031-773-6161","addr":"경기도 양평군 서종면 문호리 390-1번지 1층","category":"일반휴게음식 - 서양음식"},{"name":"GS25양평문호리점","tel":"","addr":"경기도 양평군 서종면 문호리 390-1번지 1호","category":"유통업 영리 - 편 의 점"},{"name":"서종당구클럽","tel":"031-772-2422","addr":"경기도 양평군 서종면 문호리 390-1번지","category":"레저업소 - 당 구 장"},{"name":"안동애찜닭","tel":"031-771-1293","addr":"경기도 양평군 서종면 문호리 390-1번지","category":"일반휴게음식 - 일반한식"}]},{"lat":"37.625760114","long":"127.35432713","items":[{"name":"COZY","tel":"031-774-8523","addr":"경기도 양평군 서종면 문호리 600-7번지","category":"숙박업 - 여관/기타숙박업"}]},{"lat":"37.632973008","long":"127.36160024","items":[{"name":"Her","tel":"070-2722-7322","addr":"경기도 양평군 서종면 문호리 589-8번지 1층","category":"일반휴게음식 - 일반한식"}]},{"lat":"37.622925198","long":"127.35327167","items":[{"name":"MAKERS","tel":"031-111-1111","addr":"경기도 양평군 서종면 문호리 641-41번지 명일부동산 나동 1층","category":"일반휴게음식 - 서양음식"},{"name":"브레드숍코린","tel":"","addr":"경기도 양평군 서종면 문호리 641-41번지 명일부동산 나동 1층","category":"일반휴게음식 - 서양음식"}]},{"lat":"37.60453462","long":"127.35081856","items":[{"name":"NaDa의 갤러리","tel":"031-775-3950","addr":"경기도 양평군 서종면 문호리 784-8번지","category":"문화.취미 - 민예·공예품"},{"name":"데미오에르고스","tel":"031-774-6465","addr":"경기도 양평군 서종면 문호리 784-8번지","category":"기타 - 기타 전문점"}]},{"lat":"37.616310295","long":"127.35082812","items":[{"name":"SK성원주유소","tel":"031-774-6415","addr":"경기도 양평군 서종면 문호리 666-5번지","category":"연료판매점 - SK주유소"},{"name":"왕차이","tel":"031-771-6990","addr":"경기도 양평군 서종면 문호리 666-5번지 1층","category":"일반휴게음식 - 중국식"}]},{"lat":"37.608477409","long":"127.3489343","items":[{"name":"가마봉한우 정육점","tel":"031-773-6640","addr":"경기도 양평군 서종면 문호리 739-1번지","category":"음료식품 - 정육점"},{"name":"가마봉한우집","tel":"031-773-6640","addr":"경기도 양평군 서종면 문호리 739-1번지 외1필지","category":"일반휴게음식 - 일반한식"}]},{"lat":"37.621424057","long":"127.35209793","items":[{"name":"강가에 어부의집","tel":"031-771-0255","addr":"경기도 양평군 서종면 문호리 655-4번지 1층","category":"음료식품 - 농·축·수산품"}]},{"lat":"37.595427636","long":"127.35018736","items":[{"name":"강여울맥주양주전문점","tel":"","addr":"경기도 양평군 서종면 문호리 952-5번지 2층","category":"일반휴게음식 - 주점"},{"name":"문호리자연건강마을","tel":"031-774-5969","addr":"경기도 양평군 서종면 문호리 952-5번지","category":"건강식품 - 기타건강식품"},{"name":"문호리팥죽","tel":"031-774-5969","addr":"경기도 양평군 서종면 문호리 952-5번지 1층","category":"일반휴게음식 - 일반한식"}]},{"lat":"37.603920883","long":"127.35723667","items":[{"name":"갤러리서종","tel":"031-774-5530","addr":"경기도 양평군 서종면 문호리 370-6번지","category":"문화.취미 - 화방·표구점"},{"name":"나인블럭 서종점","tel":"031-761-5012","addr":"경기도 양평군 서종면 문호리 370-6번지","category":"일반휴게음식 - 일반한식"}]},{"lat":"37.603369137","long":"127.3519116","items":[{"name":"경백","tel":"031-771-6469","addr":"경기도 양평군 서종면 문호리 392번지","category":"일반휴게음식 - 일반한식"},{"name":"아르떼헤어","tel":"031-773-5552","addr":"경기도 양평군 서종면 문호리 392번지 1층","category":"보건위생 - 미용원"},{"name":"어라운드테이블(a round table)","tel":"031-774-5009","addr":"경기도 양평군 서종면 문호리 392번지 1층","category":"일반휴게음식 - 서양음식"}]},{"lat":"37.607282447","long":"127.34779627","items":[{"name":"공방카페","tel":"031-111-1111","addr":"경기도 양평군 서종면 문호리 749-3번지 1층","category":"일반휴게음식 - 서양음식"}]},{"lat":"37.604869443","long":"127.35032184","items":[{"name":"김군네맛있는고기집","tel":"031-717-8907","addr":"경기도 양평군 서종면 문호리 772-1번지 1층","category":"일반휴게음식 - 일반한식"},{"name":"김군네맛있는고기집","tel":"","addr":"경기도 양평군 서종면 문호리 772-1번지 1층","category":"일반휴게음식 - 일반한식"}]},{"lat":"37.6243966","long":"127.35835332","items":[{"name":"꽃대울종가집","tel":"031-773-6263","addr":"경기도 양평군 서종면 문호리 560-2번지","category":"일반휴게음식 - 일반한식"}]},{"lat":"37.616060412","long":"127.3794032","items":[{"name":"꽃이피운정원과마루","tel":"","addr":"경기도 양평군 서종면 문호리 6-21번지","category":"문화.취미 - 화원"}]},{"lat":"37.588041709","long":"127.34329187","items":[{"name":"꽃피던 그해 달빛","tel":"031-775-8381","addr":"경기도 양평군 서종면 문호리 1029번지","category":"숙박업 - 여관/기타숙박업"}]},{"lat":"37.594401172","long":"127.34996745","items":[{"name":"나무와숲","tel":"031-775-7316","addr":"경기도 양평군 서종면 문호리 911-2번지","category":"문화.취미 - 화원"}]},{"lat":"37.602591931","long":"127.35271199","items":[{"name":"남촌집","tel":"031-771-6647","addr":"경기도 양평군 서종면 문호리 352-4번지","category":"일반휴게음식 - 일반한식"}]},{"lat":"37.603675229","long":"127.3519923","items":[{"name":"노다지유통","tel":"031-771-9939","addr":"경기도 양평군 서종면 문호리 390-6번지 1층","category":"음료식품 - 농·축·수산품"}]},{"lat":"37.614093529","long":"127.36882613","items":[{"name":"농업회사법인별빛하늘(주)","tel":"031-772-9974","addr":"경기도 양평군 서종면 문호리 16-11번지","category":"음료식품 - 기타음료식품"}]},{"lat":"37.622060111","long":"127.35332424","items":[{"name":"느린정원","tel":"031-772-7979","addr":"경기도 양평군 서종면 문호리 640-1번지 1층","category":"일반휴게음식 - 서양음식"}]},{"lat":"37.595957336","long":"127.35082392","items":[{"name":"다담갤러리","tel":"031-539-6625","addr":"경기도 양평군 서종면 문호리 962-1번지","category":"문화.취미 - 민예·공예품"},{"name":"황태국밥","tel":"031-774-0733","addr":"경기도 양평군 서종면 문호리 962-1번지","category":"일반휴게음식 - 일반한식"}]},{"lat":"37.632085359","long":"127.36017988","items":[{"name":"다미아","tel":"031-771-9842","addr":"경기도 양평군 서종면 문호리 592-2,3","category":"일반휴게음식 - 일반한식"}]},{"lat":"37.630813113","long":"127.35781745","items":[{"name":"다석","tel":"031-774-6689","addr":"경기도 양평군 서종면 문호리 572-1","category":"유통업 영리 - 편 의 점"},{"name":"블뤼테(Blute)","tel":"070-7786-1061","addr":"경기도 양평군 서종면 문호리 572-1번지 3,4층","category":"음료식품 - 기타음료식품"}]},{"lat":"37.619894438","long":"127.35141116","items":[{"name":"달뫼골 유기농농원","tel":"031-774-0594","addr":"경기도 양평군 서종면 문호리 657-2번지, 657-4, 657-8, 660-1","category":"레저업소 - 기타레져업소"}]},{"lat":"37.609035606","long":"127.34907279","items":[{"name":"달봉이","tel":"031-773-2149","addr":"경기도 양평군 서종면 문호리 730-2번지","category":"일반휴게음식 - 일반한식"},{"name":"문호반점","tel":"031-772-7949","addr":"경기도 양평군 서종면 문호리 730-2번지 1층","category":"일반휴게음식 - 중국식"},{"name":"문호반점","tel":"031-773-6096","addr":"경기도 양평군 서종면 문호리 730-2번지 1층","category":"일반휴게음식 - 중국식"},{"name":"서종쑥뜸","tel":"031-773-8878","addr":"경기도 양평군 서종면 문호리 730-2번지 2동","category":"보건위생 - 피부미용실"},{"name":"신전떡볶이","tel":"031-773-4477","addr":"경기도 양평군 서종면 문호리 730-2번지","category":"일반휴게음식 - 일반한식"}]},{"lat":"37.619730819","long":"127.35493305","items":[{"name":"달빛","tel":"031-771-3404","addr":"경기도 양평군 서종면 문호리 507번지","category":"일반휴게음식 - 일반한식"}]},{"lat":"37.603787688","long":"127.35356692","items":[{"name":"담은이야기","tel":"","addr":"경기도 양평군 서종면 문호리 395-3번지 2층 202호","category":"음료식품 - 기타음료식품"},{"name":"현대철물 종합건재","tel":"031-771-6833","addr":"경기도 양평군 서종면 문호리 395-3번지","category":"건축자재 - 목재·석재·철물"}]},{"lat":"37.624590858","long":"127.3536533","items":[{"name":"대선불교조계종서종예봉사","tel":"031-773-7899","addr":"경기도 양평군 서종면 문호리 618-5","category":"기타 - 비영리/대상"}]},{"lat":"37.605477013","long":"127.34898835","items":[{"name":"대호공인중개사사무소","tel":"031-774-5288","addr":"경기도 양평군 서종면 문호리 768-20","category":"용역 서비스 - 부동산 중개·임대"},{"name":"유일피아노","tel":"031-775-9569","addr":"경기도 양평군 서종면 문호리 768-20번지","category":"학원 - 예·체능계학원"}]},{"lat":"37.61017035","long":"127.34923661","items":[{"name":"더 테이블","tel":"031-775-1626","addr":"경기도 양평군 서종면 문호리 700-7번지","category":"의류 - 정장"},{"name":"문앤위치 스타일러스","tel":"070-8818-8230","addr":"경기도 양평군 서종면 문호리 700-7번지 2층","category":"의류 - 정장"},{"name":"미즈앨리스","tel":"070-4252-2209","addr":"경기도 양평군 서종면 문호리 700-7번지","category":"신변잡화 - 액세서리"},{"name":"쉐즈롤","tel":"031-775-8911","addr":"경기도 양평군 서종면 문호리 700-7번지 1층","category":"일반휴게음식 - 서양음식"},{"name":"슬로우 베이지(Slow Beige)","tel":"","addr":"경기도 양평군 서종면 문호리 700-7번지","category":"신변잡화 - 기타잡화"}]},{"lat":"37.60379088","long":"127.35249112","items":[{"name":"더좋은 학원","tel":"031-771-2534","addr":"경기도 양평군 서종면 문호리 394-1번지 3,4층","category":"학원 - 보습학원"},{"name":"돌담길실내포장","tel":"031-774-7783","addr":"경기도 양평군 서종면 문호리 394-1","category":"일반휴게음식 - 일반한식"},{"name":"메리해피쫑","tel":"031-774-4401","addr":"경기도 양평군 서종면 문호리 394-1 1층6호","category":"문화.취미 - 애완동물"},{"name":"문호정육점","tel":"031-771-3663","addr":"경기도 양평군 서종면 문호리 394-1번지","category":"음료식품 - 정육점"},{"name":"미스터클럽","tel":"031-774-6232","addr":"경기도 양평군 서종면 문호리 394-1번지","category":"보건위생 - 미용원"},{"name":"서종3급자동차공업사","tel":"031-773-5985","addr":"경기도 양평군 서종면 문호리 394-1번지","category":"자동차정비 유지 - 자동차정비"},{"name":"소이공방","tel":"031-773-5584","addr":"경기도 양평군 서종면 문호리 394-1","category":"문화.취미 - 문화취미기타"},{"name":"씨유양평문호점","tel":"031-772-4978","addr":"경기도 양평군 서종면 문호리 394-1 B동1층3호","category":"유통업 영리 - 편 의 점"},{"name":"찬앤탁","tel":"","addr":"경기도 양평군 서종면 문호리 394-1번지 1층","category":"일반휴게음식 - 일반한식"},{"name":"찰흙미술학원","tel":"031-771-1583","addr":"경기도 양평군 서종면 문호리 394-1번지 3층","category":"문화.취미 - 민예·공예품"},{"name":"찰흙미술학원","tel":"031-771-1583","addr":"경기도 양평군 서종면 문호리 394-1번지","category":"학원 - 예·체능계학원"},{"name":"초이영수학원","tel":"031-772-1231","addr":"경기도 양평군 서종면 문호리 394-1번지 2층1호,2호","category":"회원제형태 - 학원"}]},{"lat":"37.624509311","long":"127.35682464","items":[{"name":"더케이 611 (THE K611)","tel":"031-774-8337","addr":"경기도 양평군 서종면 문호리 611번지","category":"일반휴게음식 - 일반한식"}]},{"lat":"37.603591863","long":"127.35276197","items":[{"name":"동충하초 백숙","tel":"031-774-4533","addr":"경기도 양평군 서종면 문호리 395번지 벧엘빌딩 1층 2호","category":"일반휴게음식 - 일반한식"},{"name":"유연","tel":"031-771-6216","addr":"경기도 양평군 서종면 문호리 395번지","category":"일반휴게음식 - 일반한식"}]},{"lat":"37.601283498","long":"127.35940971","items":[{"name":"들꽃어린이집[아이행복]","tel":"031-771-3731","addr":"경기도 양평군 서종면 문호리 275-4번지","category":"학원 - 유아원"}]},{"lat":"37.608646897","long":"127.34951267","items":[{"name":"디어미스테이크","tel":"070-8832-7782","addr":"경기도 양평군 서종면 문호리 727-1번지","category":"문화.취미 - 화랑"},{"name":"위메이크 테크","tel":"070-7017-1059","addr":"경기도 양평군 서종면 문호리 727-1번지","category":"기타 - 기계공구"}]},{"lat":"37.603286342","long":"127.35248876","items":[{"name":"뚜레쥬르 양평서종","tel":"031-772-7830","addr":"경기도 양평군 서종면 문호리 388번지","category":"음료식품 - 제과점"},{"name":"보성","tel":"031-771-0110","addr":"경기도 양평군 서종면 문호리 388번지","category":"용역 서비스 - 부동산 중개·임대"},{"name":"보성골프존","tel":"031-771-0110","addr":"경기도 양평군 서종면 문호리 388번지 2층","category":"레저업소 - 스크린골프"}]},{"lat":"37.625200204","long":"127.35476627","items":[{"name":"뜰안에","tel":"031-774-7785","addr":"경기도 양평군 서종면 문호리 616-2번지","category":"일반휴게음식 - 일반한식"}]},{"lat":"37.61031467","long":"127.34918065","items":[{"name":"라나 클리닉","tel":"031-775-8192","addr":"경기도 양평군 서종면 문호리 700-5번지 2층","category":"의원 - 의원"},{"name":"주식회사 이오앤파트너스","tel":"","addr":"경기도 양평군 서종면 문호리 700-5번지 B1동 2층","category":"의류 - 정장"},{"name":"프란로칼","tel":"031-773-7576","addr":"경기도 양평군 서종면 문호리 700-5번지 1층","category":"일반휴게음식 - 서양음식"}]},{"lat":"37.604178234","long":"127.34945796","items":[{"name":"라보떼","tel":"031-214-0861","addr":"경기도 양평군 서종면 문호리 790-2번지 103호","category":"의류 - 정장"},{"name":"서종태권도장","tel":"031-771-4626","addr":"경기도 양평군 서종면 문호리 790-2번지","category":"학원 - 예·체능계학원"}]},{"lat":"37.623561441","long":"127.35443005","items":[{"name":"라이브카페몽마르뜨","tel":"031-771-7905","addr":"경기도 양평군 서종면 문호리 636번지","category":"일반휴게음식 - 주점"}]},{"lat":"37.604649438","long":"127.35160049","items":[{"name":"롬앤에프(ROM&F)","tel":"031-111-1111","addr":"경기도 양평군 서종면 문호리 398-3번지","category":"의류 - 정장"},{"name":"폴의골목동물병원","tel":"031-774-9115","addr":"경기도 양평군 서종면 문호리 398-3번지","category":"기타의료기관 - 동물병원"},{"name":"푸른물고기","tel":"031-774-7188","addr":"경기도 양평군 서종면 문호리 398-3번지","category":"의류 - 정장"}]},{"lat":"37.617644662","long":"127.35657689","items":[{"name":"리버레전드","tel":"031-111-1111","addr":"경기도 양평군 서종면 문호리 490-29번지","category":"숙박업 - 여관/기타숙박업"}]},{"lat":"37.61761882","long":"127.35618034","items":[{"name":"리버레전드1","tel":"","addr":"경기도 양평군 서종면 문호리 490-22번지","category":"숙박업 - 여관/기타숙박업"}]},{"lat":"37.617753862","long":"127.35621496","items":[{"name":"리버레전드2","tel":"","addr":"경기도 양평군 서종면 문호리 490-28번지","category":"숙박업 - 여관/기타숙박업"}]},{"lat":"37.587677365","long":"127.34466018","items":[{"name":"리버텔","tel":"031-774-7412","addr":"경기도 양평군 서종면 문호리 1036-1번지","category":"숙박업 - 여관/기타숙박업"}]},{"lat":"37.626363046","long":"127.35456785","items":[{"name":"리베리온호텔","tel":"031-774-7705","addr":"경기도 양평군 서종면 문호리 599-4번지","category":"숙박업 - 여관/기타숙박업"}]},{"lat":"37.598401657","long":"127.35296414","items":[{"name":"리아네이처주식회사","tel":"070-4140-6838","addr":"경기도 양평군 서종면 문호리 338-1번지 1층","category":"보건위생 - 화장품"},{"name":"하우스가든(Haus garden)","tel":"031-772-8333","addr":"경기도 양평군 서종면 문호리 338-1번지","category":"광학제품 - 사진관"}]},{"lat":"37.604567448","long":"127.35190587","items":[{"name":"마니커치킨","tel":"031-771-7828","addr":"경기도 양평군 서종면 문호리 398-5번지","category":"일반휴게음식 - 스넥"},{"name":"밥","tel":"031-771-0019","addr":"경기도 양평군 서종면 문호리 398-5번지 1층","category":"일반휴게음식 - 일반한식"},{"name":"서종철물","tel":"031-773-6019","addr":"경기도 양평군 서종면 문호리 398-5번지","category":"건축자재 - 목재·석재·철물"},{"name":"옛추억의집","tel":"031-771-9018","addr":"경기도 양평군 서종면 문호리 398-5번지","category":"일반휴게음식 - 일반한식"},{"name":"허브마리미용비누","tel":"","addr":"경기도 양평군 서종면 문호리 398-5번지 1층 3호","category":"신변잡화 - 기타잡화"}]},{"lat":"37.602672062","long":"127.37368491","items":[{"name":"마니피끄","tel":"031-775-9240","addr":"경기도 양평군 서종면 문호리 167-3번지 가동 1층","category":"일반휴게음식 - 일반한식"}]},{"lat":"37.631176347","long":"127.36282642","items":[{"name":"마리마찌","tel":"031-775-0520","addr":"경기도 양평군 서종면 문호리 582-3번지 1층","category":"신변잡화 - 액세서리"}]},{"lat":"37.624589207","long":"127.35420834","items":[{"name":"마리마찌988","tel":"031-775-0520","addr":"경기도 양평군 서종면 문호리 620-1번지","category":"신변잡화 - 액세서리"},{"name":"반투 (Bhan tugh)","tel":"031-775-0216","addr":"경기도 양평군 서종면 문호리 620-1번지 106호","category":"의류 - 정장"},{"name":"뱀피쉬(Vampishe)","tel":"070-4116-8977","addr":"경기도 양평군 서종면 문호리 620-1번지 102호","category":"의류 - 기타의류"},{"name":"서종 the김밥","tel":"031-775-7574","addr":"경기도 양평군 서종면 문호리 620-1번지","category":"일반휴게음식 - 일반한식"},{"name":"탱크(TANK)","tel":"","addr":"경기도 양평군 서종면 문호리 620-1번지 1층 103호","category":"의류 - 정장"}]},{"lat":"37.597952083","long":"127.3526563","items":[{"name":"마실","tel":"031-772-6010","addr":"경기도 양평군 서종면 문호리 853번지 1층","category":"일반휴게음식 - 일반한식"}]},{"lat":"37.603456311","long":"127.37067651","items":[{"name":"마진배농장","tel":"031-773-6241","addr":"경기도 양평군 서종면 문호리 174번지 1층","category":"음료식품 - 농·축·수산품"}]},{"lat":"37.609927091","long":"127.34923548","items":[{"name":"마쵸무쵸","tel":"031-774-6333","addr":"경기도 양평군 서종면 문호리 702번지 지하일층","category":"일반휴게음식 - 일반한식"}]},{"lat":"37.60384023","long":"127.35407677","items":[{"name":"멕시카나 (문호점)","tel":"031-774-9912","addr":"경기도 양평군 서종면 문호리 379-5번지 104호 103호,104호","category":"일반휴게음식 - 스넥"}]},{"lat":"37.595652077","long":"127.35046016","items":[{"name":"명선다원","tel":"031-775-1933","addr":"경기도 양평군 서종면 문호리 952-4번지","category":"일반휴게음식 - 일반한식"}]},{"lat":"37.61603371","long":"127.35295617","items":[{"name":"목가","tel":"031-771-0224","addr":"경기도 양평군 서종면 문호리 466-1번지","category":"일반휴게음식 - 일반한식"}]},{"lat":"37.609286246","long":"127.34962889","items":[{"name":"무너미참냉면","tel":"","addr":"경기도 양평군 서종면 문호리 728번지 1층","category":"일반휴게음식 - 일반한식"},{"name":"파랑 비 부티크(Boutique)","tel":"031-775-4298","addr":"경기도 양평군 서종면 문호리 728번지 1층","category":"의류 - 정장"}]},{"lat":"37.603592501","long":"127.35254681","items":[{"name":"무카(MUCCA)","tel":"031-773-6161","addr":"경기도 양평군 서종면 문호리 394-5번지 1층","category":"일반휴게음식 - 일반한식"}]},{"lat":"37.603343514","long":"127.35143586","items":[{"name":"문리버펫","tel":"031-773-6046","addr":"경기도 양평군 서종면 문호리 779-36번지 102호","category":"일반휴게음식 - 일반한식"}]},{"lat":"37.605339056","long":"127.35602034","items":[{"name":"문호리레고카페","tel":"031-774-7704","addr":"경기도 양평군 서종면 문호리 433-4번지 1층","category":"일반휴게음식 - 서양음식"},{"name":"어바웃타임","tel":"070-4821-4810","addr":"경기도 양평군 서종면 문호리 433-4번지","category":"일반휴게음식 - 서양음식"}]},{"lat":"37.607477742","long":"127.34879377","items":[{"name":"문호리만두이야기","tel":"031-771-5689","addr":"경기도 양평군 서종면 문호리 761-4번지","category":"일반휴게음식 - 일반한식"},{"name":"서종건강기능식품","tel":"031-773-1356","addr":"경기도 양평군 서종면 문호리 761-4번지 2층 201호","category":"건강식품 - 기타건강식품"},{"name":"서종바른치과의원","tel":"031-773-2228","addr":"경기도 양평군 서종면 문호리 761-4번지","category":"의원 - 치과의원"},{"name":"서종약국","tel":"031-771-0403","addr":"경기도 양평군 서종면 문호리 761-4번지","category":"약국 - 약국"},{"name":"서종의원","tel":"031-773-1354","addr":"경기도 양평군 서종면 문호리 761-4번지 201호","category":"의원 - 의원"},{"name":"서종초등학교","tel":"031-774-3707","addr":"경기도 양평군 서종면 문호리 761-4번지","category":"학원 - 초중고교육기관"},{"name":"서종초등학교병설유치원[아이행복]","tel":"031-774-3707","addr":"경기도 양평군 서종면 문호리 761-4번지","category":"학원 - 유치원"},{"name":"전주시골밥상","tel":"031-774-5960","addr":"경기도 양평군 서종면 문호리 761-4번지 1층","category":"일반휴게음식 - 일반한식"}]},{"lat":"37.608844443","long":"127.34974009","items":[{"name":"문호리쌀국수","tel":"031-5176-9898","addr":"경기도 양평군 서종면 문호리 704-2번지","category":"일반휴게음식 - 스넥"}]},{"lat":"37.604701688","long":"127.35221227","items":[{"name":"문호모텔","tel":"031-771-1073","addr":"경기도 양평군 서종면 문호리 399-2번지","category":"숙박업 - 여관/기타숙박업"}]},{"lat":"37.60447956","long":"127.35115804","items":[{"name":"문호세탁","tel":"031-774-6485","addr":"경기도 양평군 서종면 문호리 784-1번지","category":"수리서비스 - 세탁소"}]},{"lat":"37.604841673","long":"127.36846371","items":[{"name":"미갈루 스포츠","tel":"031-772-6540","addr":"경기도 양평군 서종면 문호리 113-1번지 마진배위드빌1차 가동 102호","category":"학원 - 기타 교육기관"}]},{"lat":"37.609093611","long":"127.3507945","items":[{"name":"미술관H","tel":"031-773-5910","addr":"경기도 양평군 서종면 문호리 720-19","category":"문화.취미 - 화랑"}]},{"lat":"37.607144121","long":"127.34888283","items":[{"name":"미진메밀마을","tel":"031-773-9960","addr":"경기도 양평군 서종면 문호리 761-8번지","category":"일반휴게음식 - 일반한식"}]},{"lat":"37.606261114","long":"127.34890139","items":[{"name":"민들레밥집","tel":"031-774-8006","addr":"경기도 양평군 서종면 문호리 768-16번지","category":"일반휴게음식 - 일반한식"},{"name":"북한강매운탕","tel":"031-771-4864","addr":"경기도 양평군 서종면 문호리 768-16","category":"일반휴게음식 - 일반한식"}]},{"lat":"37.604093577","long":"127.35371558","items":[{"name":"바우네집","tel":"031-775-2169","addr":"경기도 양평군 서종면 문호리 397-4번지","category":"일반휴게음식 - 일반한식"}]},{"lat":"37.602150069","long":"127.36479283","items":[{"name":"복오리","tel":"031-774-3835","addr":"경기도 양평군 서종면 문호리 98-2번지","category":"일반휴게음식 - 일반한식"}]},{"lat":"37.605258322","long":"127.34982536","items":[{"name":"부동산오즈공인중개사사무소","tel":"031-771-4950","addr":"경기도 양평군 서종면 문호리 725-8번지","category":"용역 서비스 - 부동산 중개·임대"}]},{"lat":"37.624061846","long":"127.35881616","items":[{"name":"블랙밤부","tel":"031-774-5657","addr":"경기도 양평군 서종면 문호리 556-2번지","category":"일반휴게음식 - 서양음식"}]},{"lat":"37.605783173","long":"127.3490464","items":[{"name":"비비큐펀앤정서종점","tel":"031-774-0123","addr":"경기도 양평군 서종면 문호리 770-2번지 1층","category":"일반휴게음식 - 스넥"}]},{"lat":"37.619200361","long":"127.35756969","items":[{"name":"사각하늘","tel":"031-774-3670","addr":"경기도 양평군 서종면 문호리 512-3번지","category":"일반휴게음식 - 일반한식"}]},{"lat":"37.604812347","long":"127.35135211","items":[{"name":"사고루","tel":"","addr":"경기도 양평군 서종면 문호리 773-1번지","category":"일반휴게음식 - 일식·회집"},{"name":"서종전기조명","tel":"031-772-1270","addr":"경기도 양평군 서종면 문호리 773-1번지","category":"건축자재 - 조명기구"},{"name":"서종텔레콤773","tel":"070-8152-3924","addr":"경기도 양평군 서종면 문호리 773-1번지 진영빌딩 1층 103호","category":"사무통신 - 통신기기"},{"name":"세븐일레븐양평서종점","tel":"031-1577-0711","addr":"경기도 양평군 서종면 문호리 773-1번지","category":"유통업 영리 - 편 의 점"},{"name":"춘천닭갈비","tel":"031-773-8253","addr":"경기도 양평군 서종면 문호리 773-1","category":"일반휴게음식 - 일반한식"},{"name":"클랑클랑 음악학원","tel":"031-775-8270","addr":"경기도 양평군 서종면 문호리 773-1번지 201호","category":"학원 - 예·체능계학원"}]},{"lat":"37.604032158","long":"127.35316039","items":[{"name":"사부로(SABURO)","tel":"070-4652-4048","addr":"경기도 양평군 서종면 문호리 397-5번지 1층","category":"일반휴게음식 - 일반한식"},{"name":"제이엠넷(JMNET)","tel":"070-4100-8301","addr":"경기도 양평군 서종면 문호리 397-5번지 401호","category":"사무통신 - 컴퓨터"},{"name":"좋은천사영어교습소","tel":"031-595-9858","addr":"경기도 양평군 서종면 문호리 397-5번지 2층 202호","category":"회원제형태 - 학원"}]},{"lat":"37.616566429","long":"127.34951545","items":[{"name":"산골푸드","tel":"070-0000-0000","addr":"경기도 양평군 서종면 문호리 658-3번지","category":"음료식품 - 정육점"},{"name":"산골푸드","tel":"02-2772-8274","addr":"경기도 양평군 서종면 문호리 658-3번지 산골푸드","category":"음료식품 - 정육점"}]},{"lat":"37.632810009","long":"127.36187134","items":[{"name":"산여울에늘봄","tel":"031-772-1263","addr":"경기도 양평군 서종면 문호리 589-1번지","category":"일반휴게음식 - 일반한식"},{"name":"소근리막국수","tel":"031-773-7072","addr":"경기도 양평군 서종면 문호리 589-1번지 1층","category":"일반휴게음식 - 일반한식"}]},{"lat":"37.601921607","long":"127.37165416","items":[{"name":"색채심리노리터","tel":"031-774-9109","addr":"경기도 양평군 서종면 문호리 219-3번지","category":"일반휴게음식 - 일반한식"},{"name":"색채심리노리터/국제컬러한국색채심리전문","tel":"031-774-9109","addr":"경기도 양평군 서종면 문호리 219-3번지","category":"일반휴게음식 - 일반한식"}]},{"lat":"37.602229712","long":"127.35934628","items":[{"name":"샛별 어린이집[아이행복]","tel":"031-774-6330","addr":"경기도 양평군 서종면 문호리 90-30번지","category":"학원 - 유아원"}]},{"lat":"37.605179465","long":"127.3521239","items":[{"name":"서유와망고","tel":"031-774-6538","addr":"경기도 양평군 서종면 문호리 776-5번지 1층","category":"일반휴게음식 - 일반한식"}]},{"lat":"37.604840612","long":"127.35093324","items":[{"name":"서종가든","tel":"031-773-6035","addr":"경기도 양평군 서종면 문호리 773-3번지","category":"일반휴게음식 - 일반한식"}]},{"lat":"37.60361864","long":"127.3497951","items":[{"name":"서종건재","tel":"031-774-0412","addr":"경기도 양평군 서종면 문호리 785-7","category":"건축자재 - 기타건축자재"}]},{"lat":"37.601340166","long":"127.35251362","items":[{"name":"서종농민후계자회영농조합법인","tel":"031-773-9838","addr":"경기도 양평군 서종면 문호리 326-1번지","category":"유통업 영리 - 슈퍼마켓"},{"name":"서종스크린골프","tel":"031-773-9838","addr":"경기도 양평군 서종면 문호리 326-1번지","category":"회원제형태 - 레져업소"}]},{"lat":"37.606785462","long":"127.34829227","items":[{"name":"서종면주민자치위원회","tel":"031-771-0763","addr":"경기도 양평군 서종면 문호리 766-5번지","category":"문화.취미 - 문화취미기타"}]},{"lat":"37.604704232","long":"127.35135161","items":[{"name":"서종부동산중개인사무소","tel":"031-772-0477","addr":"경기도 양평군 서종면 문호리 774번지","category":"용역 서비스 - 부동산 중개·임대"}]},{"lat":"37.602484487","long":"127.352485","items":[{"name":"서종세탁소","tel":"031-772-5789","addr":"경기도 양평군 서종면 문호리 352-1번지","category":"수리서비스 - 세탁소"},{"name":"지아축산","tel":"031-774-8903","addr":"경기도 양평군 서종면 문호리 352-1번지","category":"음료식품 - 정육점"}]},{"lat":"37.620615873","long":"127.35118799","items":[{"name":"서종수상레저","tel":"031-774-5277","addr":"경기도 양평군 서종면 문호리 656-2","category":"레저업소 - 기타레져업소"}]},{"lat":"37.631672667","long":"127.36256825","items":[{"name":"서종어린이집[아이행복]","tel":"031-775-7370","addr":"경기도 양평군 서종면 문호리 592-120번지","category":"학원 - 유아원"}]},{"lat":"37.607091391","long":"127.34842959","items":[{"name":"서종족발","tel":"070-4100-8889","addr":"경기도 양평군 서종면 문호리 767-1번지 1층","category":"일반휴게음식 - 일반한식"},{"name":"휘 영어교습소","tel":"031-000-0000","addr":"경기도 양평군 서종면 문호리 767-1번지","category":"학원 - 외국어학원"}]},{"lat":"37.613256845","long":"127.35054207","items":[{"name":"서종중학교","tel":"031-773-6032","addr":"경기도 양평군 서종면 문호리 687-2번지 서종중학교","category":"학원 - 초중고교육기관"}]},{"lat":"37.607929052","long":"127.34851274","items":[{"name":"서종타워","tel":"031-775-0033","addr":"경기도 양평군 서종면 문호리 740-3번지 서종타워","category":"일반휴게음식 - 서양음식"}]},{"lat":"37.598150127","long":"127.35271384","items":[{"name":"서종페인트","tel":"031-774-7744","addr":"경기도 양평군 서종면 문호리 854-1번지","category":"건축자재 - 페인트"}]},{"lat":"37.603978843","long":"127.35593463","items":[{"name":"서종해장국","tel":"031-774-2623","addr":"경기도 양평군 서종면 문호리 370-2번지","category":"일반휴게음식 - 일반한식"},{"name":"우리솥뚜껑삼겹살","tel":"031-774-0833","addr":"경기도 양평군 서종면 문호리 370-2번지","category":"일반휴게음식 - 일반한식"},{"name":"우리솥뚜껑삼겹살","tel":"031-774-0833","addr":"경기도 양평군 서종면 문호리 370-2번지","category":"일반휴게음식 - 일반한식"},{"name":"우리식당야식","tel":"031-774-0833","addr":"경기도 양평군 서종면 문호리 370-2번지","category":"일반휴게음식 - 일반한식"}]},{"lat":"37.602867956","long":"127.35982494","items":[{"name":"서호건축자재","tel":"031-771-7300","addr":"경기도 양평군 서종면 문호리 77-1번지","category":"건축자재 - 기타건축자재"}]},{"lat":"37.604342878","long":"127.35167834","items":[{"name":"성원식당","tel":"031-773-6020","addr":"경기도 양평군 서종면 문호리 778-1번지","category":"일반휴게음식 - 일반한식"},{"name":"성원식육점","tel":"031-773-6020","addr":"경기도 양평군 서종면 문호리 778-1번지","category":"음료식품 - 정육점"}]},{"lat":"37.587951188","long":"127.34343865","items":[{"name":"세림ENG","tel":"031-2625-2535","addr":"경기도 양평군 서종면 문호리 1029-2번지","category":"건축자재 - 보일러·펌프·샷시"},{"name":"올리브","tel":"031-772-9294","addr":"경기도 양평군 서종면 문호리 1029-2번지","category":"일반휴게음식 - 일반한식"}]},{"lat":"37.623141461","long":"127.35326136","items":[{"name":"세븐일레븐양평문호리점","tel":"","addr":"경기도 양평군 서종면 문호리 641-40번지","category":"유통업 영리 - 편 의 점"}]},{"lat":"37.62264617","long":"127.35317974","items":[{"name":"소먹어도 돼지","tel":"031-774-8592","addr":"경기도 양평군 서종면 문호리 641-6번지 랜드부동산 나동 1층","category":"일반휴게음식 - 일반한식"},{"name":"시나브로","tel":"031-777-1601","addr":"경기도 양평군 서종면 문호리 641-6번지 2층","category":"일반휴게음식 - 일반한식"},{"name":"시나브로","tel":"031-771-1601","addr":"경기도 양평군 서종면 문호리 641-6번지 2층","category":"일반휴게음식 - 일반한식"}]},{"lat":"37.605031949","long":"127.35020935","items":[{"name":"송(SONG)뷰티","tel":"031-772-4462","addr":"경기도 양평군 서종면 문호리 772-5번지 1층","category":"보건위생 - 화장품"},{"name":"페니네 (Penny's)","tel":"031-773-2828","addr":"경기도 양평군 서종면 문호리 772-5번지 1층","category":"일반휴게음식 - 일반한식"}]},{"lat":"37.603865539","long":"127.35465444","items":[{"name":"수스케익(SUS CAKE)","tel":"","addr":"경기도 양평군 서종면 문호리 379-11번지 101호","category":"일반휴게음식 - 일반한식"},{"name":"우노치안또(서종)","tel":"031-774-6286","addr":"경기도 양평군 서종면 문호리 379-11번지 103호","category":"의류 - 정장"}]},{"lat":"37.62037131","long":"127.3516286","items":[{"name":"시너스랩(XINUSLAB)","tel":"070-8031-4038","addr":"경기도 양평군 서종면 문호리 656-3번지","category":"건축자재 - 기타건축자재"}]},{"lat":"37.612899293","long":"127.34957771","items":[{"name":"신성철물건재","tel":"031-771-8592","addr":"경기도 양평군 서종면 문호리 693-8번지","category":"건축자재 - 목재·석재·철물"}]},{"lat":"37.626003136","long":"127.35440757","items":[{"name":"썬모텔","tel":"031-775-6779","addr":"경기도 양평군 서종면 문호리 600-6","category":"숙박업 - 여관/기타숙박업"}]},{"lat":"37.606227029","long":"127.36623951","items":[{"name":"아리의 숲","tel":"070-4230-6780","addr":"경기도 양평군 서종면 문호리 140번지","category":"문화.취미 - 문화취미기타"}]},{"lat":"37.624092939","long":"127.35445521","items":[{"name":"알프스모텔","tel":"031-771-3123","addr":"경기도 양평군 서종면 문호리 626-2번지","category":"숙박업 - 여관/기타숙박업"}]},{"lat":"37.604067288","long":"127.35346632","items":[{"name":"앤니팅","tel":"070-8680-0177","addr":"경기도 양평군 서종면 문호리 397-1번지 1층","category":"직물 - 침구·수예점"}]},{"lat":"37.631889992","long":"127.35923866","items":[{"name":"앤드 유(AND YOU)","tel":"031-775-5250","addr":"경기도 양평군 서종면 문호리 592-99번지","category":"일반휴게음식 - 서양음식"},{"name":"앤드유 (AND YOU)","tel":"031-775-5250","addr":"경기도 양평군 서종면 문호리 592-99번지","category":"일반휴게음식 - 서양음식"}]},{"lat":"37.603678159","long":"127.35404204","items":[{"name":"양수건재","tel":"070-7012-1308","addr":"경기도 양평군 서종면 문호리 379-9 외1","category":"건축자재 - 기타건축자재"}]},{"lat":"37.602123803","long":"127.36454357","items":[{"name":"양식당6279","tel":"","addr":"경기도 양평군 서종면 문호리 98번지 전원헤어빌 1층 101호","category":"일반휴게음식 - 서양음식"}]},{"lat":"37.607036272","long":"127.34879173","items":[{"name":"양평서종키즈엔리딩","tel":"","addr":"경기도 양평군 서종면 문호리 763번지 3층","category":"학원 - 외국어학원"},{"name":"정샘수학원","tel":"031-774-3140","addr":"경기도 양평군 서종면 문호리 763번지 2층 원흥빌딩","category":"회원제형태 - 학원"}]},{"lat":"37.585037248","long":"127.35996623","items":[{"name":"양평프로방스","tel":"031-773-8228","addr":"경기도 양평군 서종면 문호리 1057번지","category":"일반휴게음식 - 일반한식"},{"name":"히든벨리","tel":"031-771-1002","addr":"경기도 양평군 서종면 문호리 1057번지","category":"일반휴게음식 - 일반한식"}]},{"lat":"37.61867402","long":"127.35882445","items":[{"name":"어바웃","tel":"02-779-2112","addr":"경기도 양평군 서종면 문호리 515-5번지","category":"의류 - 정장"}]},{"lat":"37.623618531","long":"127.35341085","items":[{"name":"에스엠(SM)","tel":"031-728-7715","addr":"경기도 양평군 서종면 문호리 637-1번지 B동","category":"숙박업 - 여관/기타숙박업"}]},{"lat":"37.598788302","long":"127.34710029","items":[{"name":"에이엔디 클라우드","tel":"070-8771-9668","addr":"경기도 양평군 서종면 문호리 828번지","category":"숙박업 - 여관/기타숙박업"}]},{"lat":"37.620781961","long":"127.35291047","items":[{"name":"엔(N)모텔","tel":"031-774-4635","addr":"경기도 양평군 서종면 문호리 652-1번지","category":"숙박업 - 여관/기타숙박업"},{"name":"엔모텔","tel":"031-774-4635","addr":"경기도 양평군 서종면 문호리 652-1번지 1층","category":"숙박업 - 여관/기타숙박업"}]},{"lat":"37.611008409","long":"127.34918387","items":[{"name":"연컬렉션","tel":"031-774-6043","addr":"경기도 양평군 서종면 문호리 699-21번지","category":"문화.취미 - 화원"}]},{"lat":"37.60111901","long":"127.35113106","items":[{"name":"영농조합법인 휴앤숲","tel":"031-774-2441","addr":"경기도 양평군 서종면 문호리 841-4번지","category":"음료식품 - 농·축·수산품"}]},{"lat":"37.603837498","long":"127.35499404","items":[{"name":"예작","tel":"031-771-0178","addr":"경기도 양평군 서종면 문호리 378-2번지","category":"직물 - 카페트,커튼,천막,지물"},{"name":"파울리","tel":"","addr":"경기도 양평군 서종면 문호리 378-2번지","category":"일반휴게음식 - 서양음식"}]},{"lat":"37.617039203","long":"127.351126","items":[{"name":"예향","tel":"070-8278-6488","addr":"경기도 양평군 서종면 문호리 665-1,663-25","category":"주방용구 - 주방용구"}]},{"lat":"37.603616459","long":"127.35660106","items":[{"name":"오늘페이지","tel":"","addr":"경기도 양평군 서종면 문호리 368-4번지 1층 103호","category":"음료식품 - 기타음료식품"}]},{"lat":"37.600123768","long":"127.3525419","items":[{"name":"오복식당","tel":"070-7456-4989","addr":"경기도 양평군 서종면 문호리 330-1번지","category":"일반휴게음식 - 일반한식"}]},{"lat":"37.604673995","long":"127.34938099","items":[{"name":"올드스케치북","tel":"","addr":"경기도 양평군 서종면 문호리 791-3번지","category":"의류 - 정장"}]},{"lat":"37.602143998","long":"127.35184926","items":[{"name":"우리공구철물","tel":"031-773-4774","addr":"경기도 양평군 서종면 문호리 350번지","category":"건축자재 - 건축용 요업제품"}]},{"lat":"37.624502542","long":"127.35607698","items":[{"name":"위드풋살펜션(펜션)","tel":"","addr":"경기도 양평군 서종면 문호리 627-1번지","category":"숙박업 - 여관/기타숙박업"}]},{"lat":"37.605144667","long":"127.35473973","items":[{"name":"유레카","tel":"031-772-3014","addr":"경기도 양평군 서종면 문호리 415번지","category":"학원 - 보습학원"}]},{"lat":"37.624837488","long":"127.35554617","items":[{"name":"유앤테이블","tel":"031-775-7030","addr":"경기도 양평군 서종면 문호리 614-2번지","category":"일반휴게음식 - 서양음식"}]},{"lat":"37.603896972","long":"127.3501248","items":[{"name":"이가네칼국수","tel":"031-775-8388","addr":"경기도 양평군 서종면 문호리 785-2번지 2호","category":"일반휴게음식 - 일반한식"}]},{"lat":"37.583620929","long":"127.35757065","items":[{"name":"일공육칠(1067)","tel":"","addr":"경기도 양평군 서종면 문호리 1067-5번지 1067,1067-6","category":"음료식품 - 기타음료식품"}]},{"lat":"37.617949739","long":"127.3509377","items":[{"name":"일상작업실 수","tel":"","addr":"경기도 양평군 서종면 문호리 657-14번지 1동 1층 101호","category":"의류 - 정장"}]},{"lat":"37.609620898","long":"127.34918876","items":[{"name":"작은갤러리&","tel":"031-775-8004","addr":"경기도 양평군 서종면 문호리 699-2","category":"문화.취미 - 화랑"},{"name":"태영당한의원","tel":"031-775-9700","addr":"경기도 양평군 서종면 문호리 699-2","category":"의원 - 한의원"}]},{"lat":"37.596563931","long":"127.35287627","items":[{"name":"잔아메종","tel":"031-771-0075","addr":"경기도 양평군 서종면 문호리 870-2번지","category":"일반휴게음식 - 서양음식"}]},{"lat":"37.606062869","long":"127.34891179","items":[{"name":"정원가든","tel":"031-773-6076","addr":"경기도 양평군 서종면 문호리 768-3번지","category":"일반휴게음식 - 일반한식"},{"name":"현대카공업사","tel":"031-774-6669","addr":"경기도 양평군 서종면 문호리 768-3번지","category":"자동차정비 유지 - 자동차정비"}]},{"lat":"37.618391642","long":"127.35079251","items":[{"name":"좋은나무","tel":"031-773-4285","addr":"경기도 양평군 서종면 문호리 657-18번지","category":"건축자재 - 목재·석재·철물"}]},{"lat":"37.603318936","long":"127.37426566","items":[{"name":"좋은날또오리","tel":"031-771-5998","addr":"경기도 양평군 서종면 문호리 160-9번지 1층","category":"일반휴게음식 - 일반한식"},{"name":"퇴촌전통순대","tel":"031-771-5998","addr":"경기도 양평군 서종면 문호리 160-9번지","category":"일반휴게음식 - 일반한식"}]},{"lat":"37.6050895","long":"127.34902053","items":[{"name":"주식회사 남한강마트서종점","tel":"031-775-2860","addr":"경기도 양평군 서종면 문호리 800-4번지","category":"유통업 영리 - 슈퍼마켓"}]},{"lat":"37.606033979","long":"127.34954585","items":[{"name":"주식회사 주인공","tel":"031-773-9227","addr":"경기도 양평군 서종면 문호리 725-11번지","category":"용역 서비스 - 기타용역서비스"}]},{"lat":"37.625031654","long":"127.35388192","items":[{"name":"청담갈비","tel":"031-774-1041","addr":"경기도 양평군 서종면 문호리 618-10","category":"일반휴게음식 - 일반한식"}]},{"lat":"37.624259284","long":"127.35607583","items":[{"name":"청암","tel":"031-774-0220","addr":"경기도 양평군 서종면 문호리 627-6번지","category":"숙박업 - 여관/기타숙박업"}]},{"lat":"37.603979521","long":"127.35570815","items":[{"name":"춘자네맛집","tel":"031-772-3034","addr":"경기도 양평군 서종면 문호리 370-8번지","category":"일반휴게음식 - 일반한식"}]},{"lat":"37.625669208","long":"127.35459857","items":[{"name":"칠오닭갈비","tel":"","addr":"경기도 양평군 서종면 문호리 601번지 1층","category":"일반휴게음식 - 일반한식"}]},{"lat":"37.600755681","long":"127.35212587","items":[{"name":"카앤피플 경기양평점","tel":"","addr":"경기도 양평군 서종면 문호리 346번지","category":"자동차정비 유지 - 세차장"}]},{"lat":"37.580876852","long":"127.3592671","items":[{"name":"카페대추","tel":"","addr":"경기도 양평군 서종면 문호리 1084-3번지","category":"음료식품 - 기타음료식품"}]},{"lat":"37.613172317","long":"127.35170824","items":[{"name":"커스텀 유니온","tel":"","addr":"경기도 양평군 서종면 문호리 446번지 제2동 제2층","category":"의류 - 정장"}]},{"lat":"37.602144686","long":"127.37234604","items":[{"name":"커피하루","tel":"031-774-1736","addr":"경기도 양평군 서종면 문호리 217-8번지 1층","category":"일반휴게음식 - 서양음식"},{"name":"홍어랑보쌈이랑","tel":"031-774-1736","addr":"경기도 양평군 서종면 문호리 217-8번지","category":"일반휴게음식 - 일반한식"}]},{"lat":"37.601089609","long":"127.36684867","items":[{"name":"콜베마을백야초","tel":"031-771-6133","addr":"경기도 양평군 서종면 문호리 226번지","category":"음료식품 - 기타음료식품"},{"name":"콜베엔자임","tel":"031-771-6133","addr":"경기도 양평군 서종면 문호리 226번지","category":"음료식품 - 기타음료식품"}]},{"lat":"37.62484117","long":"127.35732462","items":[{"name":"큰댁","tel":"031-773-6265","addr":"경기도 양평군 서종면 문호리 609","category":"일반휴게음식 - 일반한식"}]},{"lat":"37.624752795","long":"127.35373335","items":[{"name":"토담골","tel":"031-771-2656","addr":"경기도 양평군 서종면 문호리 618-6번지","category":"일반휴게음식 - 일반한식"},{"name":"토담골","tel":"031-771-2656","addr":"경기도 양평군 서종면 문호리 618-6번지 1층","category":"일반휴게음식 - 일반한식"}]},{"lat":"37.616731422","long":"127.38087901","items":[{"name":"펜션피오레","tel":"031-775-0106","addr":"경기도 양평군 서종면 문호리 2번지","category":"숙박업 - 여관/기타숙박업"}]},{"lat":"37.624981641","long":"127.35554685","items":[{"name":"포마더(For my daughter)/(주) 포브라더스","tel":"","addr":"경기도 양평군 서종면 문호리 614-1번지","category":"일반휴게음식 - 서양음식"}]},{"lat":"37.614310839","long":"127.37137555","items":[{"name":"포포","tel":"031-000-0000","addr":"경기도 양평군 서종면 문호리 20번지","category":"서적문구 - 문구용품"}]},{"lat":"37.603895198","long":"127.35377127","items":[{"name":"푸짐한집밥","tel":"031-771-4695","addr":"경기도 양평군 서종면 문호리 396-5번지","category":"일반휴게음식 - 일반한식"}]},{"lat":"37.603923973","long":"127.35620616","items":[{"name":"풍년방앗간","tel":"031-775-2275","addr":"경기도 양평군 서종면 문호리 370-7번지 1층","category":"음료식품 - 제과점"}]},{"lat":"37.606344091","long":"127.35737274","items":[{"name":"플라리","tel":"","addr":"경기도 양평군 서종면 문호리 431-1번지 별관","category":"가구 - 일반가구"}]},{"lat":"37.60472968","long":"127.34882635","items":[{"name":"하나비","tel":"031-773-9920","addr":"경기도 양평군 서종면 문호리 795-2번지 1층 101호","category":"일반휴게음식 - 일반한식"}]},{"lat":"37.593478958","long":"127.34799298","items":[{"name":"하니쿡문화예술원","tel":"031-774-3303","addr":"경기도 양평군 서종면 문호리 932-3번지","category":"학원 - 예·체능계학원"}]},{"lat":"37.629285366","long":"127.35651876","items":[{"name":"하버 (harbor)","tel":"031-773-5317","addr":"경기도 양평군 서종면 문호리 593-2번지","category":"음료식품 - 기타음료식품"},{"name":"하버커피","tel":"03-111-1111","addr":"경기도 양평군 서종면 문호리 593-2번지 3층","category":"음료식품 - 기타음료식품"}]},{"lat":"37.598680048","long":"127.35327118","items":[{"name":"하우스(HAUS)","tel":"031-772-8333","addr":"경기도 양평군 서종면 문호리 338-1번지","category":"일반휴게음식 - 서양음식"}]},{"lat":"37.622898102","long":"127.3532942","items":[{"name":"헬라의댄스스튜디오","tel":"031-6280-0037","addr":"경기도 양평군 서종면 문호리 641-41번지","category":"학원 - 예·체능계학원"}]},{"lat":"37.607865955","long":"127.34543203","items":[{"name":"현대스키장","tel":"031-774-8482","addr":"경기도 양평군 서종면 문호리 1090번지","category":"레저업소 - 스 키 장"}]},{"lat":"37.602231197","long":"127.37349021","items":[{"name":"호리식당","tel":"031-774-1771","addr":"경기도 양평군 서종면 문호리 167-1번지","category":"일반휴게음식 - 일반한식"}]},{"lat":"37.604591089","long":"127.35304977","items":[{"name":"호반","tel":"031-773-8388","addr":"경기도 양평군 서종면 문호리 400번지","category":"일반휴게음식 - 중국식"}]},{"lat":"37.609981714","long":"127.3490432","items":[{"name":"힐링민박","tel":"031-775-1850","addr":"경기도 양평군 서종면 문호리 699-15번지 2층","category":"숙박업 - 여관/기타숙박업"}]}]