[{"lat":"37.496578943","long":"127.49309452","items":[{"name":"(주)바른이엔씨","tel":"031-775-1616","addr":"경기도 양평군 양평읍 공흥리 731-8","category":"용역 서비스 - 기타용역서비스"},{"name":"33헤어","tel":"031-1111-1111","addr":"경기도 양평군 양평읍 공흥리 731-8번지 102호","category":"보건위생 - 미용원"},{"name":"공간디자인","tel":"031-774-6528","addr":"경기도 양평군 양평읍 공흥리 731-8번지 2층 동","category":"건축자재 - 인테리어전문"},{"name":"수반쭈꾸미","tel":"031-773-8586","addr":"경기도 양평군 양평읍 공흥리 731-8번지","category":"일반휴게음식 - 일반한식"},{"name":"튼튼영어양평교육본부","tel":"031-775-0507","addr":"경기도 양평군 양평읍 공흥리 731-8번지","category":"학원 - 학습지 교육"},{"name":"포쉬네일양평점","tel":"031-774-8723","addr":"경기도 양평군 양평읍 공흥리 731-8번지 1층","category":"보건위생 - 피부미용실"}]},{"lat":"37.504797627","long":"127.51186533","items":[{"name":"(주)양평현대모비스","tel":"031-774-0016","addr":"경기도 양평군 양평읍 공흥리 28-1","category":"자동차정비 유지 - 자동차부품"}]},{"lat":"37.492803225","long":"127.50184455","items":[{"name":"(주)에이엠씨쎄미켐","tel":"02-6909-7952","addr":"경기도 양평군 양평읍 공흥리 518-7번지","category":"레져용품 - 스포츠·레져용품"},{"name":"(주)에이엠씨쎄미켐","tel":"02-6909-7955","addr":"경기도 양평군 양평읍 공흥리 518-7번지","category":"레져용품 - 스포츠·레져용품"},{"name":"루이까스텔","tel":"031-771-2545","addr":"경기도 양평군 양평읍 공흥리 518-7번지 11,11호~13호","category":"의류 - 스포츠의류"},{"name":"커피나무","tel":"031-775-8750","addr":"경기도 양평군 양평읍 공흥리 518-7번지","category":"일반휴게음식 - 서양음식"}]},{"lat":"37.496277822","long":"127.49400851","items":[{"name":"(주)예스푸드시스템 양평점","tel":"031-773-6212","addr":"경기도 양평군 양평읍 공흥리 731-5번지 (가동4.5호)","category":"음료식품 - 기타음료식품"},{"name":"마운티아양평점","tel":"031-773-1002","addr":"경기도 양평군 양평읍 공흥리 731-5번지","category":"레져용품 - 스포츠·레져용품"},{"name":"아울렛","tel":"031-771-5066","addr":"경기도 양평군 양평읍 공흥리 731-5번지","category":"가구 - 일반가구"},{"name":"양평가구공단전시장","tel":"031-771-5066","addr":"경기도 양평군 양평읍 공흥리 731-5번지","category":"가구 - 일반가구"},{"name":"이브자리","tel":"031-772-3032","addr":"경기도 양평군 양평읍 공흥리 731-5번지","category":"직물 - 침구·수예점"},{"name":"커피베이 양평읍점","tel":"031-773-2187","addr":"경기도 양평군 양평읍 공흥리 731-5번지","category":"일반휴게음식 - 서양음식"}]},{"lat":"37.489611771","long":"127.50230952","items":[{"name":"(주)한국전자담배 루옌 양평점","tel":"031-408-2488","addr":"경기도 양평군 양평읍 공흥리 468-13번지 103호","category":"기타 - 기타 전문점"}]},{"lat":"37.49357977","long":"127.50569434","items":[{"name":"(주)한솔전기조명","tel":"031-775-8033","addr":"경기도 양평군 양평읍 공흥리 294번지 2층","category":"전기제품 - 기타전기제품"},{"name":"아름다운 갤러리","tel":"","addr":"경기도 양평군 양평읍 공흥리 294번지","category":"의류 - 정장"},{"name":"한솔공구팜","tel":"031-775-8031","addr":"경기도 양평군 양평읍 공흥리 294번지","category":"건축자재 - 목재·석재·철물"}]},{"lat":"37.493081282","long":"127.50000325","items":[{"name":"(주)형제공구사","tel":"031-771-3949","addr":"경기도 양평군 양평읍 공흥리 528-5번지","category":"기타 - 기계공구"},{"name":"HJ형제공구","tel":"02-1599-0949","addr":"경기도 양평군 양평읍 공흥리 528-5번지","category":"기타 - 기계공구"}]},{"lat":"37.492330015","long":"127.49436712","items":[{"name":"59쌀피자","tel":"031-772-5933","addr":"경기도 양평군 양평읍 공흥리 799번지","category":"일반휴게음식 - 서양음식"},{"name":"아이랑놀이랑","tel":"031-771-4311","addr":"경기도 양평군 양평읍 공흥리 799번지","category":"레저업소 - 기타레져업소"},{"name":"윤드럼 교습소","tel":"","addr":"경기도 양평군 양평읍 공흥리 799번지 101호","category":"학원 - 예·체능계학원"},{"name":"일진모바일","tel":"031-773-5257","addr":"경기도 양평군 양평읍 공흥리 799번지","category":"사무통신 - 통신기기"},{"name":"해법중국어 하오빵교습소","tel":"031-775-1515","addr":"경기도 양평군 양평읍 공흥리 799번지","category":"학원 - 외국어학원"}]},{"lat":"37.490529346","long":"127.4983694","items":[{"name":"AT코스메틱","tel":"","addr":"경기도 양평군 양평읍 공흥리 456-72번지","category":"보건위생 - 화장품"}]},{"lat":"37.493270277","long":"127.49575282","items":[{"name":"BOM학원","tel":"031-772-8211","addr":"경기도 양평군 양평읍 공흥리 788-1번지","category":"학원 - 보습학원"},{"name":"서울우유양평고객센터","tel":"031-771-3302","addr":"경기도 양평군 양평읍 공흥리 788-1번지","category":"음료식품 - 기타음료식품"},{"name":"서울우유양평대리점","tel":"031-771-3302","addr":"경기도 양평군 양평읍 공흥리 788-1","category":"음료식품 - 기타음료식품"},{"name":"이서방양념치킨양평분점","tel":"031-771-8991","addr":"경기도 양평군 양평읍 공흥리 788-1번지","category":"일반휴게음식 - 주점"},{"name":"찰스헤어","tel":"070-4095-6908","addr":"경기도 양평군 양평읍 공흥리 788-1번지","category":"보건위생 - 미용원"}]},{"lat":"37.491584229","long":"127.49819545","items":[{"name":"ENT관영","tel":"031-774-3426","addr":"경기도 양평군 양평읍 공흥리 525번지","category":"용역 서비스 - 사무서비스"},{"name":"착한농장","tel":"","addr":"경기도 양평군 양평읍 공흥리 525번지","category":"음료식품 - 농·축·수산품"},{"name":"태능참숯불돼지갈비","tel":"031-771-9258","addr":"경기도 양평군 양평읍 공흥리 525","category":"일반휴게음식 - 일반한식"}]},{"lat":"37.489883827","long":"127.50189297","items":[{"name":"EZ컴퓨터아이리텍양평아이폰수리센터","tel":"031-774-9823","addr":"경기도 양평군 양평읍 공흥리 468-45번지","category":"사무통신 - 컴퓨터"},{"name":"경아두마리치킨","tel":"031-771-7175","addr":"경기도 양평군 양평읍 공흥리 468-45번지","category":"일반휴게음식 - 일반한식"},{"name":"경아두마리치킨","tel":"031-771-7175","addr":"경기도 양평군 양평읍 공흥리 468-45번지","category":"일반휴게음식 - 스넥"}]},{"lat":"37.49333178","long":"127.50256045","items":[{"name":"GS25양평길병원점","tel":"","addr":"경기도 양평군 양평읍 공흥리 533-4번지","category":"유통업 영리 - 편 의 점"},{"name":"델리퀸양평점","tel":"031-771-5201","addr":"경기도 양평군 양평읍 공흥리 533-4번지 1층","category":"음료식품 - 정육점"},{"name":"양평새길약국","tel":"031-774-3988","addr":"경기도 양평군 양평읍 공흥리 533-4번지","category":"약국 - 약국"}]},{"lat":"37.496133538","long":"127.49620134","items":[{"name":"HOUSE FACTORY","tel":"031-774-1389","addr":"경기도 양평군 양평읍 공흥리 725번지 샤인빌 207호","category":"용역 서비스 - 기타용역서비스"}]},{"lat":"37.493361951","long":"127.50606603","items":[{"name":"HY Kids cook","tel":"031-774-1986","addr":"경기도 양평군 양평읍 공흥리 293-1번지 103호","category":"음료식품 - 기타음료식품"},{"name":"꾸밈헤어","tel":"031-771-5665","addr":"경기도 양평군 양평읍 공흥리 293-1번지","category":"보건위생 - 미용원"},{"name":"민에스테틱","tel":"031-771-6440","addr":"경기도 양평군 양평읍 공흥리 293-1번지 1층","category":"보건위생 - 피부미용실"}]},{"lat":"37.493305042","long":"127.49605835","items":[{"name":"Hola 올라,꽃","tel":"","addr":"경기도 양평군 양평읍 공흥리 783-3번지","category":"문화.취미 - 문화취미기타"}]},{"lat":"37.489748778","long":"127.50186946","items":[{"name":"KES미용실","tel":"031-773-2110","addr":"경기도 양평군 양평읍 공흥리 468-1번지","category":"보건위생 - 미용원"},{"name":"마가스킨케어","tel":"031-000-0000","addr":"경기도 양평군 양평읍 공흥리 468-1번지 1층 1호","category":"보건위생 - 피부미용실"},{"name":"수제도시락 메이드","tel":"031-772-5630","addr":"경기도 양평군 양평읍 공흥리 468-1번지 1층","category":"일반휴게음식 - 일반한식"},{"name":"유앤오(U&O) 유통","tel":"070-9931-1756","addr":"경기도 양평군 양평읍 공흥리 468-1번지","category":"신변잡화 - 기타잡화"}]},{"lat":"37.493584434","long":"127.49603757","items":[{"name":"SKY-IT","tel":"031-771-3231","addr":"경기도 양평군 양평읍 공흥리 747-5번지","category":"사무통신 - 사무용 OA기기"}]},{"lat":"37.493916721","long":"127.49844831","items":[{"name":"가야주유소","tel":"031-772-0066","addr":"경기도 양평군 양평읍 공흥리 599-1번지","category":"연료판매점 - SK주유소"}]},{"lat":"37.494492704","long":"127.49645063","items":[{"name":"가야컨벤션뷔페","tel":"031-771-7475","addr":"경기도 양평군 양평읍 공흥리 749","category":"일반휴게음식 - 일반한식"},{"name":"수연헤어갤러리","tel":"031-772-0050","addr":"경기도 양평군 양평읍 공흥리 749번지","category":"보건위생 - 미용원"},{"name":"지니에듀학원","tel":"031-775-3678","addr":"경기도 양평군 양평읍 공흥리 749번지 백순빌딩 1층","category":"학원 - 보습학원"},{"name":"힐스템 양평 공흥점","tel":"","addr":"경기도 양평군 양평읍 공흥리 749번지","category":"보건위생 - 의료용품"}]},{"lat":"37.490611476","long":"127.49812118","items":[{"name":"강물노래연습장","tel":"031-773-5503","addr":"경기도 양평군 양평읍 공흥리 456-67번지","category":"레저업소 - 노 래 방"},{"name":"놀부보쌈부대찌개","tel":"031-775-5382","addr":"경기도 양평군 양평읍 공흥리 456-67번지","category":"일반휴게음식 - 일반한식"}]},{"lat":"37.49068758","long":"127.49930895","items":[{"name":"강원방앗간","tel":"031-773-2200","addr":"경기도 양평군 양평읍 공흥리 463-12번지","category":"음료식품 - 기타음료식품"},{"name":"양평용문양수열쇠박사","tel":"031-775-3733","addr":"경기도 양평군 양평읍 공흥리 463-12번지","category":"기타 - 기계공구"}]},{"lat":"37.49013266","long":"127.50694894","items":[{"name":"경기기계공구","tel":"031-774-0988","addr":"경기도 양평군 양평읍 공흥리 411-6,10","category":"기타 - 기계공구"}]},{"lat":"37.500276782","long":"127.50717545","items":[{"name":"경기도청(양평소방서현장지휘과)","tel":"031-770-0223","addr":"경기도 양평군 양평읍 공흥리 159-1번지","category":"용역 서비스 - 사무서비스"},{"name":"삼육산업","tel":"031-775-0036","addr":"경기도 양평군 양평읍 공흥리 159-1번지","category":"건축자재 - 기타건축자재"}]},{"lat":"37.494298489","long":"127.49764798","items":[{"name":"곱돌횟집","tel":"031-774-0987","addr":"경기도 양평군 양평읍 공흥리 755-5번지 1층","category":"일반휴게음식 - 일식·회집"},{"name":"썬휘트니스클럽","tel":"031-775-2538","addr":"경기도 양평군 양평읍 공흥리 755-5번지","category":"회원제형태 - 레져업소"}]},{"lat":"37.493466924","long":"127.50256135","items":[{"name":"공명광고건설","tel":"031-772-7841","addr":"경기도 양평군 양평읍 공흥리 533번지 1층","category":"용역 서비스 - 종합용역"},{"name":"테이아미용실","tel":"031-774-0315","addr":"경기도 양평군 양평읍 공흥리 533번지","category":"보건위생 - 미용원"},{"name":"황궁약손테라피","tel":"031-771-6686","addr":"경기도 양평군 양평읍 공흥리 533번지 2층","category":"보건위생 - 피부미용실"}]},{"lat":"37.494326034","long":"127.49967226","items":[{"name":"과일장터 양평점","tel":"031-775-3777","addr":"경기도 양평군 양평읍 공흥리 585-1번지 주건축물제 1동","category":"음료식품 - 농·축·수산품"}]},{"lat":"37.490659838","long":"127.49947837","items":[{"name":"교촌치킨","tel":"031-775-1481","addr":"경기도 양평군 양평읍 공흥리 464-6번지","category":"일반휴게음식 - 스넥"}]},{"lat":"37.494135179","long":"127.49791829","items":[{"name":"국쌤수학","tel":"070-4806-7591","addr":"경기도 양평군 양평읍 공흥리 755-43번지 3층 1호","category":"회원제형태 - 학원"},{"name":"그램그램 양평점","tel":"031-773-9211","addr":"경기도 양평군 양평읍 공흥리 755-43번지","category":"일반휴게음식 - 일반한식"},{"name":"오휘컨설턴트","tel":"031-771-5251","addr":"경기도 양평군 양평읍 공흥리 755-43번지 2층","category":"보건위생 - 화장품"},{"name":"오휘컨설턴트","tel":"031-771-5251","addr":"경기도 양평군 양평읍 공흥리 755-43번지 2층","category":"보건위생 - 화장품"},{"name":"오휘컨설턴트","tel":"031-771-5251","addr":"경기도 양평군 양평읍 공흥리 755-43번지 2층","category":"보건위생 - 화장품"},{"name":"오휘컨설턴트","tel":"031-771-5251","addr":"경기도 양평군 양평읍 공흥리 755-43번지 2층","category":"보건위생 - 화장품"},{"name":"오휘컨설턴트","tel":"031-771-5251","addr":"경기도 양평군 양평읍 공흥리 755-43번지 2층","category":"보건위생 - 화장품"},{"name":"오휘컨설턴트","tel":"031-441-5251","addr":"경기도 양평군 양평읍 공흥리 755-43번지 2층 LG오휘화장품","category":"보건위생 - 화장품"}]},{"lat":"37.497055232","long":"127.49339165","items":[{"name":"국영건축","tel":"031-775-2880","addr":"경기도 양평군 양평읍 공흥리 731-4번지 8호","category":"건축자재 - 기타건축자재"},{"name":"녹즙사랑","tel":"031-771-8483","addr":"경기도 양평군 양평읍 공흥리 731-4번지 3호","category":"건강식품 - 기타건강식품"}]},{"lat":"37.49522226","long":"127.50717538","items":[{"name":"국제종합기계 신양평대리점","tel":"031-772-7061","addr":"경기도 양평군 양평읍 공흥리 269-2번지","category":"농업 - 농기계"}]},{"lat":"37.488585346","long":"127.50000738","items":[{"name":"금강토목조경공사","tel":"031-774-7890","addr":"경기도 양평군 양평읍 공흥리 444-7번지 금강토목조경공사","category":"건축자재 - 인테리어전문"}]},{"lat":"37.491329114","long":"127.49887221","items":[{"name":"금호타이어경인영업소","tel":"031-774-4807","addr":"경기도 양평군 양평읍 공흥리 504번지","category":"자동차정비 유지 - 자동차시트·타이어"}]},{"lat":"37.493522273","long":"127.50225641","items":[{"name":"김명자낙지마당","tel":"031-774-9989","addr":"경기도 양평군 양평읍 공흥리 534-3번지","category":"일반휴게음식 - 일반한식"}]},{"lat":"37.493692455","long":"127.4960609","items":[{"name":"김민정음악학원","tel":"031-774-5858","addr":"경기도 양평군 양평읍 공흥리 747-2번지","category":"학원 - 예·체능계학원"}]},{"lat":"37.493299014","long":"127.50814622","items":[{"name":"김수연헤어","tel":"031-775-5680","addr":"경기도 양평군 양평읍 공흥리 885번지 한신휴플러스 1층","category":"보건위생 - 미용원"},{"name":"달콤한 하루","tel":"031-1111-1111","addr":"경기도 양평군 양평읍 공흥리 885번지 한신휴플러스 지하층 103호","category":"일반휴게음식 - 일반한식"},{"name":"세븐일레븐양평휴플러스점","tel":"","addr":"경기도 양평군 양평읍 공흥리 885번지 한신휴플러스 상업시설 B-101,102호","category":"유통업 영리 - 편 의 점"},{"name":"아론수학교습소","tel":"031-772-1615","addr":"경기도 양평군 양평읍 공흥리 885번지 양평한신휴플러스 1층 4호 상가","category":"학원 - 보습학원"},{"name":"한신사임당어린이집[아이행복]","tel":"031-772-3347","addr":"경기도 양평군 양평읍 공흥리 885번지 한신휴플러스 104동 1층","category":"학원 - 유아원"},{"name":"해법 중국어 햇살교실교습소","tel":"070-7725-0406","addr":"경기도 양평군 양평읍 공흥리 885번지 양평한신휴플러스 상가 103호","category":"학원 - 외국어학원"}]},{"lat":"37.495999574","long":"127.49591776","items":[{"name":"김영희강남동태찜&코다리냉면","tel":"031-772-0015","addr":"경기도 양평군 양평읍 공흥리 724번지","category":"일반휴게음식 - 일반한식"},{"name":"능동아구찜해물탕","tel":"031-772-0015","addr":"경기도 양평군 양평읍 공흥리 724번지 1층","category":"일반휴게음식 - 일반한식"},{"name":"송담추어탕","tel":"031-775-3030","addr":"경기도 양평군 양평읍 공흥리 724번지","category":"일반휴게음식 - 일반한식"}]},{"lat":"37.490188006","long":"127.50452957","items":[{"name":"김유연피아노어드벤쳐","tel":"031-775-7111","addr":"경기도 양평군 양평읍 공흥리 402-9번지 2층 3층","category":"학원 - 예·체능계학원"},{"name":"크린업24 경기양평점","tel":"","addr":"경기도 양평군 양평읍 공흥리 402-9번지 1층","category":"수리서비스 - 세탁소"},{"name":"현대동물병원","tel":"031-771-9533","addr":"경기도 양평군 양평읍 공흥리 402-9번지","category":"기타의료기관 - 동물병원"}]},{"lat":"37.497412837","long":"127.50478145","items":[{"name":"김종원","tel":"031-772-0949","addr":"경기도 양평군 양평읍 공흥리 141-1","category":"용역 서비스 - 가례서비스업"}]},{"lat":"37.490548882","long":"127.4980077","items":[{"name":"김종원 경희한의원","tel":"031-771-1125","addr":"경기도 양평군 양평읍 공흥리 456-3번지 2층 2층전체 ((주)교원아카데미)","category":"의원 - 한의원"},{"name":"라엘 필라테스 댄스스쿨","tel":"031-773-5827","addr":"경기도 양평군 양평읍 공흥리 456-3번지","category":"레저업소 - 헬스클럽"},{"name":"치어스","tel":"031-774-6555","addr":"경기도 양평군 양평읍 공흥리 456-3번지","category":"일반휴게음식 - 주점"}]},{"lat":"37.494720093","long":"127.49809177","items":[{"name":"꽃을든남자","tel":"031-771-8123","addr":"경기도 양평군 양평읍 공흥리 600","category":"문화.취미 - 화원"},{"name":"황금어장","tel":"031-771-3017","addr":"경기도 양평군 양평읍 공흥리 600번지","category":"음료식품 - 농·축·수산품"}]},{"lat":"37.496411038","long":"127.49447302","items":[{"name":"꿈터어린이집","tel":"031-775-1645","addr":"경기도 양평군 양평읍 공흥리 730-1번지","category":"기타 - 비영리/비대상"}]},{"lat":"37.492021381","long":"127.49922732","items":[{"name":"나인건기","tel":"031-774-9610","addr":"경기도 양평군 양평읍 공흥리 523번지","category":"기타 - 기계공구"},{"name":"나인건기(문호지게차)","tel":"031-775-2004","addr":"경기도 양평군 양평읍 공흥리 523번지","category":"기타 - 기계공구"},{"name":"서종 청춘 삼단지게차(나인건기)","tel":"031-773-5225","addr":"경기도 양평군 양평읍 공흥리 523번지 1층","category":"기타 - 기계공구"},{"name":"하나펌프카 (나인건기)","tel":"031-771-9111","addr":"경기도 양평군 양평읍 공흥리 523번지","category":"기타 - 기계공구"}]},{"lat":"37.491048771","long":"127.49911911","items":[{"name":"남양카오디오","tel":"031-771-8396","addr":"경기도 양평군 양평읍 공흥리 499-9번지","category":"자동차정비 유지 - 카인테리어"},{"name":"서강주식회사","tel":"031-771-4442","addr":"경기도 양평군 양평읍 공흥리 499-9번지","category":"사무통신 - 통신기기"}]},{"lat":"37.489970636","long":"127.50053669","items":[{"name":"남춘천닭갈비","tel":"031-771-2103","addr":"경기도 양평군 양평읍 공흥리 441-11번지","category":"일반휴게음식 - 일반한식"}]},{"lat":"37.494356284","long":"127.49675504","items":[{"name":"네일 그리다","tel":"031-1111-1111","addr":"경기도 양평군 양평읍 공흥리 749-2번지 1층","category":"보건위생 - 피부미용실"},{"name":"애프터스쿨","tel":"031-773-9954","addr":"경기도 양평군 양평읍 공흥리 749-2번지","category":"일반휴게음식 - 스넥"}]},{"lat":"37.491888666","long":"127.50292398","items":[{"name":"녹우촌","tel":"031-775-0069","addr":"경기도 양평군 양평읍 공흥리 509-2번지","category":"음료식품 - 정육점"}]},{"lat":"37.494132714","long":"127.49850628","items":[{"name":"농업회사법인 (주) 자연속으로","tel":"031-775-3777","addr":"경기도 양평군 양평읍 공흥리 599-8번지","category":"음료식품 - 농·축·수산품"}]},{"lat":"37.49416153","long":"127.50022526","items":[{"name":"단비애견","tel":"031-775-0135","addr":"경기도 양평군 양평읍 공흥리 588번지","category":"문화.취미 - 애완동물"},{"name":"동민하우징","tel":"031-772-9954","addr":"경기도 양평군 양평읍 공흥리 588번지","category":"건축자재 - 기타건축자재"}]},{"lat":"37.496777859","long":"127.50366899","items":[{"name":"담소","tel":"031-773-9868","addr":"경기도 양평군 양평읍 공흥리 310-4번지","category":"일반휴게음식 - 서양음식"},{"name":"양평군장애인복지관","tel":"031-773-9080","addr":"경기도 양평군 양평읍 공흥리 310-4번지 양평장애인복지관","category":"기타의료기관 - 기타의료기관 및 기타"}]},{"lat":"37.490329047","long":"127.50313973","items":[{"name":"대건천막","tel":"031-774-4630","addr":"경기도 양평군 양평읍 공흥리 473-5번지","category":"건축자재 - 기타건축자재"},{"name":"대일광고","tel":"031-771-9040","addr":"경기도 양평군 양평읍 공흥리 473-5번지","category":"용역 서비스 - 종합용역"}]},{"lat":"37.491359777","long":"127.50228724","items":[{"name":"대경유통","tel":"031-774-9942","addr":"경기도 양평군 양평읍 공흥리 484-4번지 102호","category":"음료식품 - 정육점"},{"name":"동네식당","tel":"031-774-7845","addr":"경기도 양평군 양평읍 공흥리 484-4","category":"일반휴게음식 - 일반한식"},{"name":"양평푸드","tel":"031-774-4611","addr":"경기도 양평군 양평읍 공흥리 484-4번지 104호","category":"용역 서비스 - 사무서비스"},{"name":"영준기계","tel":"","addr":"경기도 양평군 양평읍 공흥리 484-4번지 202호","category":"수리서비스 - 기타수리서비스"},{"name":"우람동물병원","tel":"031-772-8275","addr":"경기도 양평군 양평읍 공흥리 484-4번지","category":"기타의료기관 - 동물병원"},{"name":"우리종묘","tel":"031-772-9827","addr":"경기도 양평군 양평읍 공흥리 484-4번지 101호","category":"농업 - 비료,사료,종자"},{"name":"이모네 밥하우스","tel":"031-771-4564","addr":"경기도 양평군 양평읍 공흥리 484-4번지","category":"일반휴게음식 - 일반한식"},{"name":"이모네밥하우스","tel":"031-771-4564","addr":"경기도 양평군 양평읍 공흥리 484-4번지","category":"일반휴게음식 - 일반한식"},{"name":"이석민피자","tel":"031-773-3678","addr":"경기도 양평군 양평읍 공흥리 484-4번지 103호","category":"일반휴게음식 - 서양음식"},{"name":"족발야시장양평점","tel":"031-775-4969","addr":"경기도 양평군 양평읍 공흥리 484-4번지 113,114호","category":"일반휴게음식 - 일반한식"}]},{"lat":"37.490666375","long":"127.50855816","items":[{"name":"대박짬뽕회관","tel":"031-775-8816","addr":"경기도 양평군 양평읍 공흥리 367-5번지","category":"일반휴게음식 - 중국식"}]},{"lat":"37.490662972","long":"127.49873211","items":[{"name":"대성철물","tel":"031-773-5229","addr":"경기도 양평군 양평읍 공흥리 462-4번지 1층","category":"건축자재 - 목재·석재·철물"},{"name":"미도미용실","tel":"031-772-0222","addr":"경기도 양평군 양평읍 공흥리 462-4번지","category":"보건위생 - 미용원"},{"name":"빅타임","tel":"031-771-8359","addr":"경기도 양평군 양평읍 공흥리 462-4","category":"일반휴게음식 - 일반한식"}]},{"lat":"37.489832496","long":"127.50761405","items":[{"name":"대한건축자재","tel":"031-771-0154","addr":"경기도 양평군 양평읍 공흥리 산 85-2","category":"건축자재 - 기타건축자재"}]},{"lat":"37.50743894","long":"127.51153266","items":[{"name":"대한불교조계종선연사","tel":"031-774-6656","addr":"경기도 양평군 양평읍 공흥리 4-3번지","category":"기타 - 비영리/대상"}]},{"lat":"37.493604607","long":"127.49767733","items":[{"name":"대흥양봉원","tel":"031-771-3906","addr":"경기도 양평군 양평읍 공흥리 763-1 태은빌리지 301 21/4","category":"회원제형태 - 건강식품"}]},{"lat":"37.490501059","long":"127.50081158","items":[{"name":"더 좋은여행","tel":"070-4849-3522","addr":"경기도 양평군 양평읍 공흥리 467-6번지","category":"여행 - 관광여행"},{"name":"투썸플레이스양평터미널점","tel":"031-775-2388","addr":"경기도 양평군 양평읍 공흥리 467-6","category":"일반휴게음식 - 서양음식"}]},{"lat":"37.492993376","long":"127.50587133","items":[{"name":"더솔림 (THE SOLLIM)","tel":"031-772-2826","addr":"경기도 양평군 양평읍 공흥리 355번지 2층 203호","category":"보건위생 - 피부미용실"},{"name":"얀 스토리","tel":"031-774-4104","addr":"경기도 양평군 양평읍 공흥리 355번지","category":"문화.취미 - 문화취미기타"},{"name":"오휘양평지사","tel":"031-771-5251","addr":"경기도 양평군 양평읍 공흥리 355번지 3층","category":"보건위생 - 화장품"}]},{"lat":"37.490499439","long":"127.50119602","items":[{"name":"돔한의원","tel":"031-772-0055","addr":"경기도 양평군 양평읍 공흥리 467-9번지 항양빌딩 2층","category":"의원 - 한의원"}]},{"lat":"37.490108716","long":"127.50622512","items":[{"name":"동남종합기계공구","tel":"031-773-4093","addr":"경기도 양평군 양평읍 공흥리 408-5번지","category":"기타 - 기계공구"},{"name":"윌마트건축자재","tel":"","addr":"경기도 양평군 양평읍 공흥리 408-5번지 윌마트건축자재","category":"건축자재 - 기타건축자재"}]},{"lat":"37.490388747","long":"127.50180587","items":[{"name":"동민유리공사","tel":"031-772-3803","addr":"경기도 양평군 양평읍 공흥리 468번지","category":"건축자재 - 유리"}]},{"lat":"37.493554136","long":"127.50536624","items":[{"name":"두꺼비맛집가든","tel":"031-775-8583","addr":"경기도 양평군 양평읍 공흥리 295","category":"일반휴게음식 - 일반한식"}]},{"lat":"37.50658135","long":"127.51400366","items":[{"name":"듀크(Duke).오픈에이(A)키친","tel":"031-774-2066","addr":"경기도 양평군 양평읍 공흥리 21-8번지 1층","category":"일반휴게음식 - 일반한식"}]},{"lat":"37.491832275","long":"127.49920345","items":[{"name":"디자인센","tel":"070-8283-3738","addr":"경기도 양평군 양평읍 공흥리 522번지 3층 303호","category":"용역 서비스 - 종합용역"},{"name":"삼화페인트건자재","tel":"031-773-2165","addr":"경기도 양평군 양평읍 공흥리 522번지","category":"용역 서비스 - 기타용역서비스"},{"name":"안경공간","tel":"031-771-7890","addr":"경기도 양평군 양평읍 공흥리 522번지","category":"보건위생 - 안경"},{"name":"양평지물리바트","tel":"031-773-7487","addr":"경기도 양평군 양평읍 공흥리 522번지","category":"직물 - 카페트,커튼,천막,지물"}]},{"lat":"37.490417732","long":"127.50134247","items":[{"name":"딸바보아이스크림/듀피에 (딸바보트럭)","tel":"","addr":"경기도 양평군 양평읍 공흥리 468-23번지 3층","category":"일반휴게음식 - 일반한식"},{"name":"참 좋은 동물병원","tel":"031-772-0075","addr":"경기도 양평군 양평읍 공흥리 468-23번지 90호","category":"기타의료기관 - 동물병원"},{"name":"참 좋은동물병원","tel":"031-772-0075","addr":"경기도 양평군 양평읍 공흥리 468-23번지","category":"기타의료기관 - 동물병원"},{"name":"홍테이블","tel":"031-773-0807","addr":"경기도 양평군 양평읍 공흥리 468-23번지","category":"일반휴게음식 - 서양음식"}]},{"lat":"37.490688245","long":"127.49915065","items":[{"name":"뚜레쥬르 양평공흥","tel":"031-771-0425","addr":"경기도 양평군 양평읍 공흥리 463-8번지 1층","category":"음료식품 - 제과점"},{"name":"포메인 (양평점)","tel":"031-773-7772","addr":"경기도 양평군 양평읍 공흥리 463-8번지 2층","category":"일반휴게음식 - 서양음식"}]},{"lat":"37.490499785","long":"127.50748285","items":[{"name":"라온전기","tel":"031-775-2240","addr":"경기도 양평군 양평읍 공흥리 374-3번지","category":"전기제품 - 기타전기제품"},{"name":"프라임조명","tel":"031-772-5802","addr":"경기도 양평군 양평읍 공흥리 374-3번지","category":"건축자재 - 조명기구"}]},{"lat":"37.493639105","long":"127.49589093","items":[{"name":"라이겐 차일드 어린이집[아이행복]","tel":"031-775-7585","addr":"경기도 양평군 양평읍 공흥리 745번지","category":"학원 - 유아원"}]},{"lat":"37.493247415","long":"127.50120296","items":[{"name":"라인천막","tel":"031-775-3216","addr":"경기도 양평군 양평읍 공흥리 529-3번지","category":"직물 - 카페트,커튼,천막,지물"}]},{"lat":"37.503408935","long":"127.51213863","items":[{"name":"럭키","tel":"031-771-3408","addr":"경기도 양평군 양평읍 공흥리 45-30번지 골든팰리스 1동 301호","category":"자동차정비 유지 - 세차장"}]},{"lat":"37.494554102","long":"127.50751013","items":[{"name":"롤시스템커튼 Seyni","tel":"031-773-9887","addr":"경기도 양평군 양평읍 공흥리 288-1번지","category":"직물 - 카페트,커튼,천막,지물"},{"name":"올가드림뷰티","tel":"","addr":"경기도 양평군 양평읍 공흥리 288-1번지 1층","category":"보건위생 - 화장품"}]},{"lat":"37.49447089","long":"127.50800711","items":[{"name":"마니커","tel":"","addr":"경기도 양평군 양평읍 공흥리 255-1번지","category":"음료식품 - 정육점"}]},{"lat":"37.490135101","long":"127.50425785","items":[{"name":"마음쿠킹클래스학원","tel":"031-773-4979","addr":"경기도 양평군 양평읍 공흥리 402-8번지 3층","category":"학원 - 기능학원"},{"name":"몰리네감자탕","tel":"031-773-8558","addr":"경기도 양평군 양평읍 공흥리 402-8번지","category":"일반휴게음식 - 일반한식"},{"name":"현대가축병원","tel":"031-771-9533","addr":"경기도 양평군 양평읍 공흥리 402-8번지 1층","category":"기타의료기관 - 동물병원"}]},{"lat":"37.497027141","long":"127.49581143","items":[{"name":"멋진 바보","tel":"","addr":"경기도 양평군 양평읍 공흥리 725-13번지 그랜드타운 106동 401호","category":"보건위생 - 화장품"}]},{"lat":"37.504079685","long":"127.51120451","items":[{"name":"메이드","tel":"","addr":"경기도 양평군 양평읍 공흥리 31번지 105동 301호","category":"용역 서비스 - 종합용역"}]},{"lat":"37.492966465","long":"127.5037227","items":[{"name":"물맑은양평개군한우영농조합법인","tel":"031-772-0369","addr":"경기도 양평군 양평읍 공흥리 513-1","category":"음료식품 - 정육점"}]},{"lat":"37.500716134","long":"127.50556124","items":[{"name":"미군까페","tel":"031-772-1814","addr":"경기도 양평군 양평읍 공흥리 118","category":"신변잡화 - 기타잡화"}]},{"lat":"37.490333162","long":"127.50003027","items":[{"name":"미돈","tel":"031-771-8889","addr":"경기도 양평군 양평읍 공흥리 467-2번지 1층","category":"일반휴게음식 - 일반한식"},{"name":"예목가구전시장","tel":"031-772-4141","addr":"경기도 양평군 양평읍 공흥리 467-2번지","category":"가구 - 일반가구"},{"name":"오륙도횟집","tel":"031-774-3073","addr":"경기도 양평군 양평읍 공흥리 467-2번지","category":"일반휴게음식 - 일식·회집"}]},{"lat":"37.490385998","long":"127.49817623","items":[{"name":"미래앤그린","tel":"031-775-2501","addr":"경기도 양평군 양평읍 공흥리 456-47번지","category":"전기제품 - 냉열기기"},{"name":"은성광고","tel":"031-771-0617","addr":"경기도 양평군 양평읍 공흥리 456-47번지","category":"용역 서비스 - 종합용역"}]},{"lat":"37.490164384","long":"127.5037266","items":[{"name":"미래파워","tel":"031-774-6879","addr":"경기도 양평군 양평읍 공흥리 401-6번지","category":"보건위생 - 미용재료"},{"name":"양평 모터펌프","tel":"031-774-9497","addr":"경기도 양평군 양평읍 공흥리 401-6번지 112호","category":"수리서비스 - 기타수리서비스"},{"name":"하은이네옹심이","tel":"","addr":"경기도 양평군 양평읍 공흥리 401-6번지","category":"일반휴게음식 - 일반한식"},{"name":"헤어씨티","tel":"031-774-0573","addr":"경기도 양평군 양평읍 공흥리 401-6번지","category":"보건위생 - 미용원"}]},{"lat":"37.489718034","long":"127.50061416","items":[{"name":"미소헤어","tel":"","addr":"경기도 양평군 양평읍 공흥리 441-28번지 1층","category":"보건위생 - 미용원"},{"name":"올리브","tel":"031-773-2855","addr":"경기도 양평군 양평읍 공흥리 441-28번지 102호","category":"일반휴게음식 - 일반한식"}]},{"lat":"37.498666885","long":"127.51488831","items":[{"name":"미카도참치스시","tel":"031-775-5019","addr":"경기도 양평군 양평읍 공흥리 225-8번지 2층","category":"일반휴게음식 - 일반한식"},{"name":"이마트24 양평 교차로점","tel":"","addr":"경기도 양평군 양평읍 공흥리 225-8번지","category":"유통업 영리 - 편 의 점"},{"name":"이마트24 양평교차로점","tel":"","addr":"경기도 양평군 양평읍 공흥리 225-8번지","category":"유통업 영리 - 편 의 점"}]},{"lat":"37.494390005","long":"127.49730935","items":[{"name":"바디앤","tel":"031-775-5775","addr":"경기도 양평군 양평읍 공흥리 755-48번지 2층","category":"보건위생 - 피부미용실"},{"name":"세빈정","tel":"031-775-2255","addr":"경기도 양평군 양평읍 공흥리 755-48번지","category":"일반휴게음식 - 일반한식"},{"name":"영어의 정석","tel":"031-774-4566","addr":"경기도 양평군 양평읍 공흥리 755-48번지 2층","category":"학원 - 외국어학원"},{"name":"커피리얼리스트","tel":"031-771-1406","addr":"경기도 양평군 양평읍 공흥리 755-48번지 나동 1층","category":"일반휴게음식 - 서양음식"}]},{"lat":"37.49216563","long":"127.49920566","items":[{"name":"바바","tel":"031-774-7330","addr":"경기도 양평군 양평읍 공흥리 524번지","category":"일반휴게음식 - 서양음식"},{"name":"선진전기모터","tel":"031-771-4481","addr":"경기도 양평군 양평읍 공흥리 524","category":"수리서비스 - 가정용품수리"},{"name":"한마음상조","tel":"031-774-4446","addr":"경기도 양평군 양평읍 공흥리 524번지","category":"용역 서비스 - 가례서비스업"}]},{"lat":"37.490718757","long":"127.50472535","items":[{"name":"박자방요가명상센터","tel":"031-772-7055","addr":"경기도 양평군 양평읍 공흥리 393-6번지","category":"레저업소 - 헬스클럽"},{"name":"스마트공인중개사 사무소","tel":"031-775-8824","addr":"경기도 양평군 양평읍 공흥리 393-6번지","category":"용역 서비스 - 부동산 중개·임대"},{"name":"신성헤어","tel":"031-775-5078","addr":"경기도 양평군 양평읍 공흥리 393-6번지","category":"보건위생 - 미용원"},{"name":"키즈랜드어린이집[아이행복]","tel":"031-775-1159","addr":"경기도 양평군 양평읍 공흥리 393-6번지","category":"학원 - 유아원"},{"name":"효자의료기","tel":"031-775-7842","addr":"경기도 양평군 양평읍 공흥리 393-6번지","category":"보건위생 - 의료용품"}]},{"lat":"37.490468878","long":"127.50203255","items":[{"name":"박치과의원","tel":"031-775-7528","addr":"경기도 양평군 양평읍 공흥리 470-4번지","category":"의원 - 치과의원"},{"name":"변호사백영엽법률사무소","tel":"031-775-0041","addr":"경기도 양평군 양평읍 공흥리 470-4번지 2층","category":"용역 서비스 - 법률회계서비스(개인)"},{"name":"피자헛 양평점","tel":"031-699-5555","addr":"경기도 양평군 양평읍 공흥리 470-4번지 1층","category":"일반휴게음식 - 서양음식"}]},{"lat":"37.489524731","long":"127.50158529","items":[{"name":"방아소리","tel":"031-774-0830","addr":"경기도 양평군 양평읍 공흥리 441-34번지 1층","category":"음료식품 - 제과점"},{"name":"빠짐","tel":"031-775-9898","addr":"경기도 양평군 양평읍 공흥리 441-34번지 2층","category":"레저업소 - 헬스클럽"},{"name":"아모레","tel":"031-771-2451","addr":"경기도 양평군 양평읍 공흥리 441-34번지","category":"보건위생 - 화장품"},{"name":"아모레","tel":"031-771-2451","addr":"경기도 양평군 양평읍 공흥리 441-34번지","category":"보건위생 - 화장품"},{"name":"아모레","tel":"031-771-2452","addr":"경기도 양평군 양평읍 공흥리 441-34번지 3층","category":"보건위생 - 화장품"},{"name":"아모레카운셀러","tel":"031-771-2451","addr":"경기도 양평군 양평읍 공흥리 441-34번지","category":"보건위생 - 화장품"},{"name":"아모레카운셀러","tel":"031-771-2451","addr":"경기도 양평군 양평읍 공흥리 441-34번지","category":"보건위생 - 화장품"},{"name":"아모레카운셀러","tel":"031-771-2451","addr":"경기도 양평군 양평읍 공흥리 441-34번지","category":"보건위생 - 화장품"},{"name":"아모레카운셀러","tel":"031-771-2451","addr":"경기도 양평군 양평읍 공흥리 441-34번지","category":"보건위생 - 화장품"},{"name":"아모레카운셀러","tel":"031-771-2451","addr":"경기도 양평군 양평읍 공흥리 441-34번지","category":"보건위생 - 화장품"},{"name":"아모레카운셀러","tel":"031-771-2451","addr":"경기도 양평군 양평읍 공흥리 441-34번지","category":"보건위생 - 화장품"},{"name":"아모레카운셀러","tel":"031-771-2451","addr":"경기도 양평군 양평읍 공흥리 441-34번지","category":"보건위생 - 화장품"},{"name":"아모레카운셀러","tel":"031-771-2451","addr":"경기도 양평군 양평읍 공흥리 441-34번지","category":"보건위생 - 화장품"},{"name":"아모레카운셀러","tel":"031-771-2451","addr":"경기도 양평군 양평읍 공흥리 441-34번지","category":"보건위생 - 화장품"},{"name":"아모레카운셀러","tel":"031-771-2451","addr":"경기도 양평군 양평읍 공흥리 441-34번지","category":"보건위생 - 화장품"},{"name":"아모레카운셀러","tel":"031-771-2451","addr":"경기도 양평군 양평읍 공흥리 441-34번지","category":"보건위생 - 화장품"},{"name":"아모레카운셀러","tel":"031-771-2451","addr":"경기도 양평군 양평읍 공흥리 441-34번지","category":"보건위생 - 화장품"},{"name":"아모레카운셀러","tel":"031-771-2451","addr":"경기도 양평군 양평읍 공흥리 441-34번지","category":"보건위생 - 화장품"},{"name":"아모레카운셀러","tel":"031-771-2451","addr":"경기도 양평군 양평읍 공흥리 441-34번지","category":"보건위생 - 화장품"},{"name":"아모레카운셀러","tel":"031-771-2451","addr":"경기도 양평군 양평읍 공흥리 441-34번지","category":"보건위생 - 화장품"},{"name":"아모레카운셀러","tel":"031-771-2451","addr":"경기도 양평군 양평읍 공흥리 441-34번지","category":"보건위생 - 화장품"},{"name":"아모레카운셀러","tel":"031-771-2451","addr":"경기도 양평군 양평읍 공흥리 441-34번지","category":"보건위생 - 화장품"},{"name":"아모레카운셀러","tel":"031-771-2451","addr":"경기도 양평군 양평읍 공흥리 441-34번지","category":"보건위생 - 화장품"},{"name":"아모레카운셀러","tel":"031-771-2451","addr":"경기도 양평군 양평읍 공흥리 441-34번지","category":"보건위생 - 화장품"},{"name":"아모레카운셀러","tel":"031-771-2451","addr":"경기도 양평군 양평읍 공흥리 441-34번지","category":"보건위생 - 화장품"},{"name":"아모레카운셀러","tel":"031-771-2451","addr":"경기도 양평군 양평읍 공흥리 441-34번지","category":"보건위생 - 화장품"},{"name":"아모레카운셀러","tel":"031-771-2451","addr":"경기도 양평군 양평읍 공흥리 441-34번지","category":"보건위생 - 화장품"},{"name":"아모레카운셀러","tel":"031-771-2451","addr":"경기도 양평군 양평읍 공흥리 441-34번지","category":"보건위생 - 화장품"},{"name":"아모레카운셀러","tel":"031-771-2451","addr":"경기도 양평군 양평읍 공흥리 441-34번지","category":"보건위생 - 화장품"},{"name":"아모레화장품","tel":"031-771-2451","addr":"경기도 양평군 양평읍 공흥리 441-34번지","category":"보건위생 - 화장품"},{"name":"포세븐학원","tel":"031-774-1247","addr":"경기도 양평군 양평읍 공흥리 441-34번지 4층","category":"학원 - 보습학원"}]},{"lat":"37.493886892","long":"127.49911528","items":[{"name":"베네지오","tel":"070-7502-9006","addr":"경기도 양평군 양평읍 공흥리 597-2번지","category":"일반휴게음식 - 일반한식"},{"name":"씨유양평공흥점","tel":"031-775-5512","addr":"경기도 양평군 양평읍 공흥리 597-2번지","category":"유통업 영리 - 편 의 점"},{"name":"아랑","tel":"031-775-5551","addr":"경기도 양평군 양평읍 공흥리 597-2번지 2층 1호","category":"의류 - 맞춤복점"},{"name":"양평스크린골프연습장","tel":"031-771-2345","addr":"경기도 양평군 양평읍 공흥리 597-2번지","category":"회원제형태 - 레져업소"},{"name":"양평스크린골프카페","tel":"031-771-2345","addr":"경기도 양평군 양평읍 공흥리 597-2번지 2층","category":"일반휴게음식 - 일반한식"},{"name":"양평준검관","tel":"031-775-5989","addr":"경기도 양평군 양평읍 공흥리 597-2번지 2층","category":"학원 - 예·체능계학원"}]},{"lat":"37.490160314","long":"127.50042487","items":[{"name":"복춘루","tel":"031-771-3119","addr":"경기도 양평군 양평읍 공흥리 467-3번지","category":"일반휴게음식 - 중국식"},{"name":"안터코다리찜","tel":"031-771-9981","addr":"경기도 양평군 양평읍 공흥리 467-3번지 1층","category":"일반휴게음식 - 일반한식"},{"name":"원아구해물찜","tel":"031-771-8833","addr":"경기도 양평군 양평읍 공흥리 467-3번지","category":"일반휴게음식 - 일반한식"}]},{"lat":"37.492830392","long":"127.49967367","items":[{"name":"부뚜막","tel":"031-771-6659","addr":"경기도 양평군 양평읍 공흥리 518-13번지","category":"일반휴게음식 - 일반한식"}]},{"lat":"37.494191496","long":"127.50802785","items":[{"name":"블룸인셉템버(BloominSeptember)","tel":"031-1111-1111","addr":"경기도 양평군 양평읍 공흥리 256-2번지 104호","category":"문화.취미 - 화원"},{"name":"썸원(SOMEONE)","tel":"","addr":"경기도 양평군 양평읍 공흥리 256-2번지 201호","category":"일반휴게음식 - 서양음식"}]},{"lat":"37.490496623","long":"127.50186313","items":[{"name":"비엔헤어","tel":"031-774-0791","addr":"경기도 양평군 양평읍 공흥리 469-2번지 외1필지","category":"보건위생 - 미용원"},{"name":"전주감자탕","tel":"031-775-4477","addr":"경기도 양평군 양평읍 공흥리 469-2번지","category":"일반휴게음식 - 일반한식"},{"name":"콜 당구장","tel":"031-775-7171","addr":"경기도 양평군 양평읍 공흥리 469-2번지","category":"레저업소 - 당 구 장"}]},{"lat":"37.499832658","long":"127.50989785","items":[{"name":"빈스타일","tel":"031-771-9689","addr":"경기도 양평군 양평읍 공흥리 192번지","category":"의류 - 기타의류"}]},{"lat":"37.489968046","long":"127.4990102","items":[{"name":"빨간리본","tel":"","addr":"경기도 양평군 양평읍 공흥리 455번지","category":"신변잡화 - 기타잡화"}]},{"lat":"37.510104431","long":"127.51394851","items":[{"name":"사단법인물맑은양평농촌나드리","tel":"031-774-5427","addr":"경기도 양평군 양평읍 공흥리 1-1번지 문화체육센터","category":"회원제형태 - 기타4"},{"name":"생활개선양평군연합회","tel":"031-770-3601","addr":"경기도 양평군 양평읍 공흥리 1-1번지","category":"음료식품 - 기타음료식품"},{"name":"양평군농업기술센터","tel":"031-770-3603","addr":"경기도 양평군 양평읍 공흥리 1-1","category":"기타 - 비영리/대상"}]},{"lat":"37.491248285","long":"127.50095223","items":[{"name":"삼성전자판매(주)양평모바일","tel":"031-772-7887","addr":"경기도 양평군 양평읍 공흥리 490-3번지 삼성디지털프라자","category":"전기제품 - 가전제품"}]},{"lat":"37.492605723","long":"127.49953649","items":[{"name":"삼양문짝","tel":"031-771-0404","addr":"경기도 양평군 양평읍 공흥리 524-2번지","category":"건축자재 - 기타건축자재"},{"name":"양평군산림조합","tel":"031-772-2144","addr":"경기도 양평군 양평읍 공흥리 524-2번지","category":"연료판매점 - 기타연료"}]},{"lat":"37.493973168","long":"127.49572351","items":[{"name":"새론국어","tel":"031-783-2793","addr":"경기도 양평군 양평읍 공흥리 738-3번지 1층","category":"학원 - 보습학원"},{"name":"양평유도체육관","tel":"031-772-1907","addr":"경기도 양평군 양평읍 공흥리 738-3번지","category":"학원 - 예·체능계학원"},{"name":"청람학원","tel":"031-774-7722","addr":"경기도 양평군 양평읍 공흥리 738-3번지","category":"학원 - 보습학원"},{"name":"토리규방공예","tel":"031-775-3963","addr":"경기도 양평군 양평읍 공흥리 738-3번지 1층 2호","category":"문화.취미 - 민예·공예품"}]},{"lat":"37.500638613","long":"127.50683862","items":[{"name":"새봄어린이집[아이행복]","tel":"031-5369-1688","addr":"경기도 양평군 양평읍 공흥리 88-3번지","category":"학원 - 유아원"}]},{"lat":"37.493996785","long":"127.50083479","items":[{"name":"샤레나 바디라인","tel":"031-774-5309","addr":"경기도 양평군 양평읍 공흥리 589-1번지 303호","category":"레저업소 - 헬스클럽"},{"name":"제일벽지","tel":"031-773-4007","addr":"경기도 양평군 양평읍 공흥리 589-1번지 1층","category":"직물 - 카페트,커튼,천막,지물"}]},{"lat":"37.489385479","long":"127.50255677","items":[{"name":"서울치과의원","tel":"031-771-0903","addr":"경기도 양평군 양평읍 공흥리 468-33번지 3층","category":"의원 - 치과의원"},{"name":"양평사랑온누리약국","tel":"031-774-0380","addr":"경기도 양평군 양평읍 공흥리 468-33번지 1층 롯데마트 내","category":"약국 - 약국"},{"name":"팜스토리약국","tel":"031-773-9412","addr":"경기도 양평군 양평읍 공흥리 468-33번지 1층","category":"약국 - 약국"}]},{"lat":"37.493135793","long":"127.49559363","items":[{"name":"성림유치원[아이행복]","tel":"031-771-4262","addr":"경기도 양평군 양평읍 공흥리 788-2번지","category":"학원 - 유치원"},{"name":"한빛체육관","tel":"031-774-9566","addr":"경기도 양평군 양평읍 공흥리 788-2번지","category":"학원 - 예·체능계학원"}]},{"lat":"37.490611984","long":"127.50014519","items":[{"name":"성우인테리어","tel":"031-771-2359","addr":"경기도 양평군 양평읍 공흥리 464-7번지","category":"건축자재 - 인테리어전문"},{"name":"스타키보청기","tel":"031-773-0042","addr":"경기도 양평군 양평읍 공흥리 464-7번지","category":"보건위생 - 의료용품"}]},{"lat":"37.487859767","long":"127.50114456","items":[{"name":"세븐일레븐양평행복마을점","tel":"031-1577-0711","addr":"경기도 양평군 양평읍 공흥리 883-1번지 1층 103호","category":"유통업 영리 - 편 의 점"}]},{"lat":"37.496325876","long":"127.49328511","items":[{"name":"세탁나라","tel":"031-774-8752","addr":"경기도 양평군 양평읍 공흥리 731","category":"수리서비스 - 세탁소"},{"name":"주식회사영원정보통신","tel":"031-774-8204","addr":"경기도 양평군 양평읍 공흥리 731 731-8","category":"사무통신 - 통신기기"}]},{"lat":"37.505997294","long":"127.51363777","items":[{"name":"세화씽크","tel":"031-775-8186","addr":"경기도 양평군 양평읍 공흥리 22-22","category":"주방용구 - 주방용구"}]},{"lat":"37.505471102","long":"127.51239014","items":[{"name":"손가네가마솥쌈밥","tel":"031-771-8807","addr":"경기도 양평군 양평읍 공흥리 23-1번지","category":"일반휴게음식 - 일반한식"}]},{"lat":"37.490167207","long":"127.49878537","items":[{"name":"수청골영양탕","tel":"031-771-6663","addr":"경기도 양평군 양평읍 공흥리 456-30번지","category":"일반휴게음식 - 일반한식"}]},{"lat":"37.493381737","long":"127.49925893","items":[{"name":"신세계로또","tel":"031-774-3755","addr":"경기도 양평군 양평읍 공흥리 595-4번지","category":"음료식품 - 기타음료식품"},{"name":"어비정","tel":"031-774-4992","addr":"경기도 양평군 양평읍 공흥리 595-4번지","category":"일반휴게음식 - 일반한식"},{"name":"원세차장","tel":"031-774-4540","addr":"경기도 양평군 양평읍 공흥리 595-4번지","category":"자동차정비 유지 - 세차장"},{"name":"자성화맛집코다리네 경기양평점","tel":"031-771-5203","addr":"경기도 양평군 양평읍 공흥리 595-4번지","category":"일반휴게음식 - 일반한식"}]},{"lat":"37.492133984","long":"127.5045652","items":[{"name":"썬가드양평점","tel":"031-774-2772","addr":"경기도 양평군 양평읍 공흥리 330-1","category":"자동차정비 유지 - 자동차부품"}]},{"lat":"37.495526848","long":"127.50758452","items":[{"name":"쏘쏘(SoSo)","tel":"031-1111-1111","addr":"경기도 양평군 양평읍 공흥리 268번지 102호","category":"의류 - 정장"}]},{"lat":"37.489970386","long":"127.50273028","items":[{"name":"씨유양평터미널점","tel":"031-771-6430","addr":"경기도 양평군 양평읍 공흥리 474-2번지","category":"유통업 영리 - 편 의 점"},{"name":"축산11번가","tel":"031-775-3480","addr":"경기도 양평군 양평읍 공흥리 474-2","category":"음료식품 - 정육점"}]},{"lat":"37.489390017","long":"127.50148263","items":[{"name":"아모레 카운셀러","tel":"031-771-2451","addr":"경기도 양평군 양평읍 공흥리 441-9번지","category":"보건위생 - 화장품"},{"name":"아모레양평특약점","tel":"031-772-2451","addr":"경기도 양평군 양평읍 공흥리 441-9번지","category":"보건위생 - 화장품"},{"name":"아모레카운셀러","tel":"031-771-2451","addr":"경기도 양평군 양평읍 공흥리 441-9번지","category":"보건위생 - 화장품"},{"name":"아모레카운셀러","tel":"031-771-2451","addr":"경기도 양평군 양평읍 공흥리 441-9번지","category":"보건위생 - 화장품"},{"name":"아모레카운셀러","tel":"031-771-2451","addr":"경기도 양평군 양평읍 공흥리 441-9번지","category":"보건위생 - 화장품"},{"name":"아모레카운셀러","tel":"031-771-2451","addr":"경기도 양평군 양평읍 공흥리 441-9번지","category":"보건위생 - 화장품"},{"name":"아모레카운셀러","tel":"031-771-2451","addr":"경기도 양평군 양평읍 공흥리 441-9번지","category":"보건위생 - 화장품"},{"name":"아모레카운셀러","tel":"031-771-2451","addr":"경기도 양평군 양평읍 공흥리 441-9번지","category":"보건위생 - 화장품"},{"name":"아모레카운셀러","tel":"031-771-2451","addr":"경기도 양평군 양평읍 공흥리 441-9번지","category":"보건위생 - 화장품"},{"name":"아모레카운셀러","tel":"031-771-2451","addr":"경기도 양평군 양평읍 공흥리 441-9번지","category":"보건위생 - 화장품"},{"name":"아모레카운셀러","tel":"031-771-2451","addr":"경기도 양평군 양평읍 공흥리 441-9번지","category":"보건위생 - 화장품"},{"name":"아모레카운셀러","tel":"031-771-2451","addr":"경기도 양평군 양평읍 공흥리 441-9번지","category":"보건위생 - 화장품"},{"name":"아모레카운셀러","tel":"031-771-2451","addr":"경기도 양평군 양평읍 공흥리 441-9번지","category":"보건위생 - 화장품"},{"name":"아모레카운셀러","tel":"031-771-2451","addr":"경기도 양평군 양평읍 공흥리 441-9번지","category":"보건위생 - 화장품"},{"name":"아모레퍼시픽","tel":"031-771-2451","addr":"경기도 양평군 양평읍 공흥리 441-9번지 하이마트","category":"보건위생 - 화장품"},{"name":"주식회사 라이프렌터카 양평점","tel":"031-774-1206","addr":"경기도 양평군 양평읍 공흥리 441-9번지 304호","category":"여행 - 렌터카"}]},{"lat":"37.496022307","long":"127.4947871","items":[{"name":"아이더양평점","tel":"031-773-0300","addr":"경기도 양평군 양평읍 공흥리 731-6번지","category":"의류 - 스포츠의류"},{"name":"영원아웃도어 양평점","tel":"031-775-0331","addr":"경기도 양평군 양평읍 공흥리 731-6","category":"레져용품 - 스포츠·레져용품"},{"name":"피에이티 엘르골프 양평점","tel":"031-775-0331","addr":"경기도 양평군 양평읍 공흥리 731-6번지","category":"레져용품 - 스포츠·레져용품"}]},{"lat":"37.490993574","long":"127.49939013","items":[{"name":"아이아울렛안경원","tel":"031-774-2442","addr":"경기도 양평군 양평읍 공흥리 499-8번지","category":"보건위생 - 안경"}]},{"lat":"37.495385741","long":"127.49619642","items":[{"name":"아이지에이마트제이마트점","tel":"031-768-0708","addr":"경기도 양평군 양평읍 공흥리 722번지","category":"유통업 영리 - 슈퍼마켓"}]},{"lat":"37.490632096","long":"127.4996478","items":[{"name":"아쿠아프로","tel":"031-775-5302","addr":"경기도 양평군 양평읍 공흥리 464-10번지","category":"문화.취미 - 수족관"}]},{"lat":"37.49461134","long":"127.49608956","items":[{"name":"알리오 광고기획","tel":"031-774-4485","addr":"경기도 양평군 양평읍 공흥리 750-8번지","category":"서적문구 - 출판 및 인쇄물"}]},{"lat":"37.493913113","long":"127.49930768","items":[{"name":"알천지 양평점","tel":"031-774-8801","addr":"경기도 양평군 양평읍 공흥리 596-2번지 1층","category":"일반휴게음식 - 일반한식"},{"name":"오르다 샘앤클래스 교습소","tel":"031-274-7945","addr":"경기도 양평군 양평읍 공흥리 596-2번지","category":"학원 - 보습학원"}]},{"lat":"37.490082134","long":"127.50187168","items":[{"name":"알파양평점","tel":"031-775-7762","addr":"경기도 양평군 양평읍 공흥리 468-7외3필지","category":"서적문구 - 문구용품"}]},{"lat":"37.503801264","long":"127.51099906","items":[{"name":"양지농원","tel":"031-771-2145","addr":"경기도 양평군 양평읍 공흥리 67번지","category":"농업 - 비료,사료,종자"},{"name":"주식회사 근영바이오농업회사법인","tel":"031-771-2145","addr":"경기도 양평군 양평읍 공흥리 67번지","category":"농업 - 기타농업관련"}]},{"lat":"37.492359174","long":"127.5024522","items":[{"name":"양평 오토씨앤씨","tel":"031-774-7111","addr":"경기도 양평군 양평읍 공흥리 518-16번지","category":"전기제품 - 가전제품"},{"name":"양평천막","tel":"031-772-2425","addr":"경기도 양평군 양평읍 공흥리 518-16번지","category":"직물 - 카페트,커튼,천막,지물"},{"name":"양평천막","tel":"031-772-2425","addr":"경기도 양평군 양평읍 공흥리 518-16번지 1호","category":"직물 - 카페트,커튼,천막,지물"},{"name":"준꼬치","tel":"031-773-5755","addr":"경기도 양평군 양평읍 공흥리 518-16번지","category":"일반휴게음식 - 일반한식"}]},{"lat":"37.496526657","long":"127.49914405","items":[{"name":"양평OA시스템","tel":"031-773-0105","addr":"경기도 양평군 양평읍 공흥리 560번지","category":"사무통신 - 사무용 OA기기"}]},{"lat":"37.501609034","long":"127.50108889","items":[{"name":"양평가스충전소","tel":"031-774-6121","addr":"경기도 양평군 양평읍 공흥리 산25-11번지","category":"연료판매점 - 쌍용S-OIL 가스충전"}]},{"lat":"37.493306046","long":"127.50011782","items":[{"name":"양평갈비","tel":"031-775-2112","addr":"경기도 양평군 양평읍 공흥리 528-2번지","category":"일반휴게음식 - 일반한식"}]},{"lat":"37.492889693","long":"127.50694486","items":[{"name":"양평개발","tel":"031-000-0000","addr":"경기도 양평군 양평읍 공흥리 350-1번지","category":"용역 서비스 - 사무서비스"},{"name":"우리추어탕","tel":"031-775-9125","addr":"경기도 양평군 양평읍 공흥리 350-1번지 한울채 101호","category":"일반휴게음식 - 일반한식"}]},{"lat":"37.496359964","long":"127.50448039","items":[{"name":"양평군 노인요양원","tel":"031-772-3640","addr":"경기도 양평군 양평읍 공흥리 310-1번지","category":"기타의료기관 - 기타의료기관 및 기타"}]},{"lat":"37.49330006","long":"127.50366839","items":[{"name":"양평군청/건설교통과","tel":"031-770-3753","addr":"경기도 양평군 양평읍 공흥리 316-10번지 차량등록팀","category":"용역 서비스 - 조세서비스"}]},{"lat":"37.493914341","long":"127.50328802","items":[{"name":"양평길병원장례식장","tel":"031-775-4444","addr":"경기도 양평군 양평읍 공흥리 316-2번지","category":"일반휴게음식 - 일반한식"},{"name":"양평의료재단","tel":"031-770-5000","addr":"경기도 양평군 양평읍 공흥리 316-2번지","category":"병원 - 병원"}]},{"lat":"37.502105616","long":"127.51141731","items":[{"name":"양평꼬마숲어린이집[아이행복]","tel":"031-774-3883","addr":"경기도 양평군 양평읍 공흥리 35-1번지 (꼬마숲어린이집)","category":"학원 - 유아원"}]},{"lat":"37.490439278","long":"127.50050587","items":[{"name":"양평농업협동조합","tel":"031-772-2830","addr":"경기도 양평군 양평읍 공흥리 467-1번지","category":"유통업 비영리 - 농,축협 직영매장"},{"name":"양평농협 경제 사업부","tel":"031-772-4011","addr":"경기도 양평군 양평읍 공흥리 467-1번지 양평농협경제사업부","category":"유통업 비영리 - 농,축협 직영매장"},{"name":"양평농협 경제 사업부","tel":"031-772-2830","addr":"경기도 양평군 양평읍 공흥리 467-1번지","category":"유통업 비영리 - 농,축협 직영매장"}]},{"lat":"37.491222542","long":"127.50064676","items":[{"name":"양평농업협동조합","tel":"031-772-2830","addr":"경기도 양평군 양평읍 공흥리 490-6번지","category":"자동차정비 유지 - 주차장"}]},{"lat":"37.49113821","long":"127.50778114","items":[{"name":"양평농업협동조합주유소","tel":"031-774-5194","addr":"경기도 양평군 양평읍 공흥리 371-2","category":"연료판매점 - 주유소"}]},{"lat":"37.490721981","long":"127.50819671","items":[{"name":"양평농협 농기계 센타","tel":"031-774-8994","addr":"경기도 양평군 양평읍 공흥리 370-2번지","category":"유통업 비영리 - 농,축협 직영매장"},{"name":"양평농협 농기계 센타","tel":"031-772-2830","addr":"경기도 양평군 양평읍 공흥리 370-2번지","category":"유통업 비영리 - 농,축협 직영매장"}]},{"lat":"37.491077562","long":"127.50297511","items":[{"name":"양평농협하나로마트사업소","tel":"031-775-0411","addr":"경기도 양평군 양평읍 공흥리 481번지 하나로마트공흥지점","category":"유통업 비영리 - 농,축협 직영매장"}]},{"lat":"37.505719757","long":"127.51322873","items":[{"name":"양평로타리클럽","tel":"031-773-6700","addr":"경기도 양평군 양평읍 공흥리 22-7번지","category":"기타 - 비영리/비대상"}]},{"lat":"37.494718006","long":"127.4985893","items":[{"name":"양평셀프세차장","tel":"031-771-3313","addr":"경기도 양평군 양평읍 공흥리 601번지","category":"자동차정비 유지 - 세차장"},{"name":"평강막국수","tel":"031-775-6161","addr":"경기도 양평군 양평읍 공흥리 601번지","category":"일반휴게음식 - 일반한식"}]},{"lat":"37.491027711","long":"127.49984264","items":[{"name":"양평수도사","tel":"031-771-2010","addr":"경기도 양평군 양평읍 공흥리 494번지","category":"건축자재 - 보일러·펌프·샷시"}]},{"lat":"37.491941467","long":"127.50534413","items":[{"name":"양평스팀세차","tel":"031-774-8879","addr":"경기도 양평군 양평읍 공흥리 330-4번지","category":"자동차정비 유지 - 세차장"},{"name":"중앙페인트","tel":"031-771-2627","addr":"경기도 양평군 양평읍 공흥리 330-4번지","category":"건축자재 - 페인트"}]},{"lat":"37.494151473","long":"127.496177","items":[{"name":"양평스포츠","tel":"031-775-3769","addr":"경기도 양평군 양평읍 공흥리 748-5번지 대림빌라 B동 205호","category":"레져용품 - 스포츠·레져용품"}]},{"lat":"37.492132155","long":"127.49859483","items":[{"name":"양평앵글총판","tel":"031-775-2626","addr":"경기도 양평군 양평읍 공흥리 526-16번지","category":"건축자재 - 기타건축자재"},{"name":"양평타일도기","tel":"031-775-0102","addr":"경기도 양평군 양평읍 공흥리 526-16번지","category":"건축자재 - 건축용 요업제품"}]},{"lat":"37.493329932","long":"127.50086428","items":[{"name":"양평왕십리곱창","tel":"031-774-6875","addr":"경기도 양평군 양평읍 공흥리 530-3번지","category":"일반휴게음식 - 일반한식"}]},{"lat":"37.492300442","long":"127.4992857","items":[{"name":"양평원조뒷고기전문점","tel":"031-771-8292","addr":"경기도 양평군 양평읍 공흥리 524-6","category":"일반휴게음식 - 일반한식"},{"name":"조은광고기획","tel":"031-774-1478","addr":"경기도 양평군 양평읍 공흥리 524-6번지","category":"건축자재 - 인테리어전문"}]},{"lat":"37.490609531","long":"127.49858477","items":[{"name":"양평유가네감자탕","tel":"031-772-4545","addr":"경기도 양평군 양평읍 공흥리 456-41번지","category":"일반휴게음식 - 일반한식"}]},{"lat":"37.49027527","long":"127.50731173","items":[{"name":"양평인쇄광고","tel":"031-771-2577","addr":"경기도 양평군 양평읍 공흥리 378-2번지","category":"서적문구 - 출판 및 인쇄물"}]},{"lat":"37.497441883","long":"127.50430669","items":[{"name":"양평장례식장","tel":"031-772-1024","addr":"경기도 양평군 양평읍 공흥리 141-2 670번지","category":"용역 서비스 - 가례서비스업"}]},{"lat":"37.497134212","long":"127.50462126","items":[{"name":"양평장례식장 식당","tel":"031-775-1024","addr":"경기도 양평군 양평읍 공흥리 142","category":"일반휴게음식 - 일반한식"}]},{"lat":"37.49813904","long":"127.49708528","items":[{"name":"양평중학교","tel":"031-772-2746","addr":"경기도 양평군 양평읍 공흥리 714-7번지 양평중학교","category":"학원 - 초중고교육기관"}]},{"lat":"37.492965061","long":"127.49978763","items":[{"name":"양평창호공사","tel":"031-771-2001","addr":"경기도 양평군 양평읍 공흥리 528-4","category":"용역 서비스 - 기타용역서비스"}]},{"lat":"37.490604164","long":"127.49986245","items":[{"name":"양평터미널 부대찌개","tel":"031-771-2646","addr":"경기도 양평군 양평읍 공흥리 464-5번지","category":"일반휴게음식 - 일반한식"},{"name":"접시골","tel":"031-771-7455","addr":"경기도 양평군 양평읍 공흥리 464-5번지 1층","category":"일반휴게음식 - 일반한식"}]},{"lat":"37.493667239","long":"127.50206514","items":[{"name":"엄마손칼국수,보쌈","tel":"031-773-3314","addr":"경기도 양평군 양평읍 공흥리 534-1번지","category":"일반휴게음식 - 일반한식"},{"name":"조은꽃방","tel":"031-771-3070","addr":"경기도 양평군 양평읍 공흥리 534-1번지 1층","category":"문화.취미 - 화원"}]},{"lat":"37.494386525","long":"127.50242047","items":[{"name":"에스앤제이스포츠","tel":"031-771-8879","addr":"경기도 양평군 양평읍 공흥리 537번지","category":"레저업소 - 골프연습장"}]},{"lat":"37.493915948","long":"127.49648076","items":[{"name":"에피소드1318학생복(대리점)","tel":"031-775-1377","addr":"경기도 양평군 양평읍 공흥리 748-10번지 1층 102호","category":"의류 - 맞춤복점"},{"name":"이가네장충동왕족발보쌈앤치킨","tel":"031-773-3002","addr":"경기도 양평군 양평읍 공흥리 748-10번지 1층 101호","category":"일반휴게음식 - 일반한식"}]},{"lat":"37.490273313","long":"127.50353511","items":[{"name":"엠씨인터내셔널","tel":"031-772-8699","addr":"경기도 양평군 양평읍 공흥리 475-3번지","category":"기타 - 기타 전문점"},{"name":"영이네식당","tel":"031-771-4929","addr":"경기도 양평군 양평읍 공흥리 475-3번지","category":"일반휴게음식 - 일반한식"},{"name":"유민환경","tel":"031-773-6537","addr":"경기도 양평군 양평읍 공흥리 475-3번지","category":"회원제형태 - 기타4"}]},{"lat":"37.491191174","long":"127.50167552","items":[{"name":"영구스피자","tel":"031-1577-0982","addr":"경기도 양평군 양평읍 공흥리 484-2번지","category":"일반휴게음식 - 서양음식"},{"name":"피자박사","tel":"031-771-6188","addr":"경기도 양평군 양평읍 공흥리 484-2","category":"일반휴게음식 - 서양음식"}]},{"lat":"37.491466938","long":"127.50463989","items":[{"name":"영상판넬","tel":"031-775-5596","addr":"경기도 양평군 양평읍 공흥리 399","category":"건축자재 - 기타건축자재"}]},{"lat":"37.49505487","long":"127.49775474","items":[{"name":"오빠쭈꾸미","tel":"031-774-5869","addr":"경기도 양평군 양평읍 공흥리 755-14번지","category":"일반휴게음식 - 일반한식"},{"name":"코뚜레왕갈비탕","tel":"031-774-3485","addr":"경기도 양평군 양평읍 공흥리 755-14번지","category":"일반휴게음식 - 일반한식"},{"name":"한살림경기동부소비자생협 양평매장","tel":"031-771-9048","addr":"경기도 양평군 양평읍 공흥리 755-14번지","category":"유통업 영리 - 슈퍼마켓"}]},{"lat":"37.502825972","long":"127.50942048","items":[{"name":"오휘컨설턴트","tel":"031-771-5251","addr":"경기도 양평군 양평읍 공흥리 75-43번지 2층 오휘화장품","category":"보건위생 - 화장품"}]},{"lat":"37.492417091","long":"127.49939955","items":[{"name":"우동가게","tel":"031-775-9255","addr":"경기도 양평군 양평읍 공흥리 524-3번지","category":"일반휴게음식 - 일반한식"}]},{"lat":"37.496304974","long":"127.50892411","items":[{"name":"우리광고기획","tel":"031-772-2365","addr":"경기도 양평군 양평읍 공흥리 277-3번지 101호","category":"건축자재 - 인테리어전문"}]},{"lat":"37.491862104","long":"127.49853651","items":[{"name":"우선미용실","tel":"031-773-8195","addr":"경기도 양평군 양평읍 공흥리 525-4 21/1","category":"보건위생 - 미용원"}]},{"lat":"37.494248983","long":"127.50722538","items":[{"name":"우창갈비","tel":"031-771-1315","addr":"경기도 양평군 양평읍 공흥리 264-1번지 1층","category":"일반휴게음식 - 일반한식"}]},{"lat":"37.492607807","long":"127.49473078","items":[{"name":"위즈덤 수학 교습소","tel":"","addr":"경기도 양평군 양평읍 공흥리 797-1번지 3층 301-A호","category":"학원 - 보습학원"},{"name":"위즈덤 영어교습소","tel":"070-4118-0800","addr":"경기도 양평군 양평읍 공흥리 797-1번지","category":"학원 - 보습학원"},{"name":"위즈덤 플러스 영어교습소","tel":"070-4118-0800","addr":"경기도 양평군 양평읍 공흥리 797-1번지","category":"학원 - 외국어학원"},{"name":"참맛깔곱창","tel":"031-773-4374","addr":"경기도 양평군 양평읍 공흥리 797-1번지 1층","category":"일반휴게음식 - 일반한식"},{"name":"최강영어교습소","tel":"02-1111-1111","addr":"경기도 양평군 양평읍 공흥리 797-1번지 302호","category":"학원 - 외국어학원"},{"name":"크리스탈헤어","tel":"031-772-7929","addr":"경기도 양평군 양평읍 공흥리 797-1번지 외3필지 1층","category":"보건위생 - 미용원"}]},{"lat":"37.490688957","long":"127.49898105","items":[{"name":"유스라이프","tel":"02-775-5669","addr":"경기도 양평군 양평읍 공흥리 463-9번지 2층","category":"기타 - 기타 전문점"},{"name":"한끼한잔","tel":"031-771-4589","addr":"경기도 양평군 양평읍 공흥리 463-9번지","category":"일반휴게음식 - 일반한식"}]},{"lat":"37.495610981","long":"127.4961979","items":[{"name":"으뜸카서비스","tel":"031-774-6116","addr":"경기도 양평군 양평읍 공흥리 721번지","category":"자동차정비 유지 - 자동차정비"}]},{"lat":"37.504551492","long":"127.51253091","items":[{"name":"은행나무어린이집[아이행복]","tel":"031-775-5518","addr":"경기도 양평군 양평읍 공흥리 45-22번지","category":"학원 - 유아원"}]},{"lat":"37.489913201","long":"127.50559061","items":[{"name":"의료법인 온지 의료재단","tel":"031-772-7119","addr":"경기도 양평군 양평읍 공흥리 405-5번지","category":"병원 - 한방병원"}]},{"lat":"37.503745845","long":"127.51131534","items":[{"name":"이마트24 양평백운길점","tel":"","addr":"경기도 양평군 양평읍 공흥리 47번지 1층","category":"유통업 영리 - 편 의 점"},{"name":"이마트24 양평백운길점","tel":"","addr":"경기도 양평군 양평읍 공흥리 47번지 2층","category":"유통업 영리 - 편 의 점"}]},{"lat":"37.493715008","long":"127.50142092","items":[{"name":"일등특수렉카","tel":"","addr":"경기도 양평군 양평읍 공흥리 535-1번지","category":"자동차정비 유지 - 견인서비스"},{"name":"일신 손 세차장","tel":"","addr":"경기도 양평군 양평읍 공흥리 535-1번지 1층","category":"자동차정비 유지 - 세차장"},{"name":"카카오토","tel":"031-773-4887","addr":"경기도 양평군 양평읍 공흥리 535-1번지 1층","category":"자동차정비 유지 - 자동차정비"}]},{"lat":"37.489827906","long":"127.50233358","items":[{"name":"제이(J) 블리","tel":"031-772-5607","addr":"경기도 양평군 양평읍 공흥리 468-16번지","category":"의류 - 정장"}]},{"lat":"37.491104728","long":"127.49866719","items":[{"name":"제일건재삼화페인트","tel":"","addr":"경기도 양평군 양평읍 공흥리 502번지","category":"건축자재 - 기타건축자재"}]},{"lat":"37.490361355","long":"127.50825081","items":[{"name":"제일펌프","tel":"031-772-3791","addr":"경기도 양평군 양평읍 공흥리 369-1번지","category":"건축자재 - 보일러·펌프·샷시"}]},{"lat":"37.4962434","long":"127.49578366","items":[{"name":"젬스(GEMS)","tel":"070-8777-6982","addr":"경기도 양평군 양평읍 공흥리 726번지 2동 1층","category":"일반휴게음식 - 일반한식"}]},{"lat":"37.495075681","long":"127.49708771","items":[{"name":"중앙동물병원","tel":"031-772-1261","addr":"경기도 양평군 양평읍 공흥리 751-1번지","category":"기타의료기관 - 동물병원"},{"name":"중앙동물병원","tel":"031-772-1261","addr":"경기도 양평군 양평읍 공흥리 751-1번지","category":"기타의료기관 - 동물병원"},{"name":"중앙애견미용","tel":"031-772-1261","addr":"경기도 양평군 양평읍 공흥리 751-1번지","category":"문화.취미 - 애완동물"}]},{"lat":"37.490112455","long":"127.50109168","items":[{"name":"진양","tel":"031-773-9578","addr":"경기도 양평군 양평읍 공흥리 467-12번지","category":"일반휴게음식 - 일반한식"}]},{"lat":"37.494134945","long":"127.50650091","items":[{"name":"초석학원","tel":"031-773-0094","addr":"경기도 양평군 양평읍 공흥리 290-6번지 2층","category":"학원 - 보습학원"},{"name":"허니290 (HONEY290)","tel":"031-773-8954","addr":"경기도 양평군 양평읍 공흥리 290-6번지 1층","category":"일반휴게음식 - 서양음식"}]},{"lat":"37.49352047","long":"127.496252","items":[{"name":"치킨플러스","tel":"031-775-4355","addr":"경기도 양평군 양평읍 공흥리 747-6번지","category":"일반휴게음식 - 스넥"}]},{"lat":"37.504437829","long":"127.51172717","items":[{"name":"카페로라(CAFE LAURA)","tel":"","addr":"경기도 양평군 양평읍 공흥리 29-1번지","category":"일반휴게음식 - 서양음식"}]},{"lat":"37.494021135","long":"127.50783447","items":[{"name":"카페베라카","tel":"031-774-3928","addr":"경기도 양평군 양평읍 공흥리 261-7번지","category":"일반휴게음식 - 서양음식"}]},{"lat":"37.494332771","long":"127.5065927","items":[{"name":"태창할인마트","tel":"031-771-0078","addr":"경기도 양평군 양평읍 공흥리 290-1번지","category":"유통업 영리 - 슈퍼마켓"}]},{"lat":"37.492550269","long":"127.50625281","items":[{"name":"터미널화원","tel":"031-772-9803","addr":"경기도 양평군 양평읍 공흥리 365번지","category":"문화.취미 - 화원"}]},{"lat":"37.497245159","long":"127.50395482","items":[{"name":"특수여객","tel":"070-8851-2025","addr":"경기도 양평군 양평읍 공흥리 670번지","category":"용역 서비스 - 가례서비스업"}]},{"lat":"37.493771936","long":"127.49644589","items":[{"name":"페퍼","tel":"031-774-3561","addr":"경기도 양평군 양평읍 공흥리 747-10번지","category":"일반휴게음식 - 일반한식"}]},{"lat":"37.495803614","long":"127.49753352","items":[{"name":"포르테피아노","tel":"00-0000-0000","addr":"경기도 양평군 양평읍 공흥리 753-8번지 2동 301호","category":"학원 - 기타 교육기관"}]},{"lat":"37.494194678","long":"127.49661828","items":[{"name":"폴라베어","tel":"031-775-5757","addr":"경기도 양평군 양평읍 공흥리 748-2번지 신우빌라 다동 101호","category":"일반휴게음식 - 서양음식"},{"name":"피부이야기","tel":"031-775-7673","addr":"경기도 양평군 양평읍 공흥리 748-2번지 다동 101호","category":"회원제형태 - 기타4"}]},{"lat":"37.490080387","long":"127.50653023","items":[{"name":"피자나라 치킨공주","tel":"031-774-3659","addr":"경기도 양평군 양평읍 공흥리 409-5번지","category":"일반휴게음식 - 일반한식"},{"name":"현대상사","tel":"031-773-2010","addr":"경기도 양평군 양평읍 공흥리 409-5번지","category":"건축자재 - 기타건축자재"}]},{"lat":"37.491969457","long":"127.50511817","items":[{"name":"필순이네자동차공업사","tel":"031-771-3141","addr":"경기도 양평군 양평읍 공흥리 330-3","category":"자동차정비 유지 - 자동차정비"}]},{"lat":"37.490028786","long":"127.50595321","items":[{"name":"한국지엠양평지정서비스","tel":"031-774-1982","addr":"경기도 양평군 양평읍 공흥리 406-5","category":"자동차정비 유지 - 자동차정비"}]},{"lat":"37.49169318","long":"127.50227815","items":[{"name":"한국타이어양평대리점","tel":"031-773-2767","addr":"경기도 양평군 양평읍 공흥리 484번지","category":"자동차정비 유지 - 자동차시트·타이어"}]},{"lat":"37.493831558","long":"127.5058091","items":[{"name":"한솔전기","tel":"031-775-8033","addr":"경기도 양평군 양평읍 공흥리 294-3번지","category":"전기제품 - 기타전기제품"}]},{"lat":"37.496133478","long":"127.50264696","items":[{"name":"한승사무기","tel":"031-773-2711","addr":"경기도 양평군 양평읍 공흥리 606번지","category":"사무통신 - 사무용 OA기기"}]},{"lat":"37.494551386","long":"127.49534284","items":[{"name":"해물오짬뽕","tel":"031-772-6262","addr":"경기도 양평군 양평읍 공흥리 733-11번지","category":"일반휴게음식 - 중국식"},{"name":"현대장칼국수","tel":"031-773-9955","addr":"경기도 양평군 양평읍 공흥리 733-11번지","category":"일반휴게음식 - 일반한식"}]},{"lat":"37.490580604","long":"127.49903687","items":[{"name":"현대기계","tel":"031-771-2111","addr":"경기도 양평군 양평읍 공흥리 461번지","category":"기타 - 기계공구"}]},{"lat":"37.498827512","long":"127.50897506","items":[{"name":"현대자동차동부모터스","tel":"031-774-4974","addr":"경기도 양평군 양평읍 공흥리 174-2번지","category":"자동차정비 유지 - 자동차부품"}]},{"lat":"37.49044336","long":"127.50803653","items":[{"name":"현대자동차양평동부점","tel":"031-771-8246","addr":"경기도 양평군 양평읍 공흥리 370번지","category":"자동차정비 유지 - 자동차정비"}]},{"lat":"37.490330531","long":"127.50278921","items":[{"name":"홍음사","tel":"031-771-2425","addr":"경기도 양평군 양평읍 공흥리 472-5번지","category":"용역 서비스 - 기타용역서비스"}]},{"lat":"37.493442591","long":"127.49548256","items":[{"name":"흥청골매운갈비찜","tel":"031-772-4973","addr":"경기도 양평군 양평읍 공흥리 790","category":"일반휴게음식 - 일반한식"}]}]