[{"lat":"37.337863045","long":"126.93306509","items":[{"name":"(EM)학원","tel":"070-7755-9637","addr":"경기도 군포시 부곡동 1211-1번지 101호","category":"학원 - 외국어학원"}]},{"lat":"37.324705346","long":"126.94448385","items":[{"name":"(주)28솔루션덴탈랩","tel":"031-394-2830","addr":"경기도 군포시 부곡동 1120-1번지 거성프라자 402호","category":"보건위생 - 의료용품"},{"name":"(주)만경","tel":"031-502-5021","addr":"경기도 군포시 부곡동 1120-1번지 거성프라자1 304호","category":"용역 서비스 - 기타용역서비스"},{"name":"정성치과기공소","tel":"03-124-1280","addr":"경기도 군포시 부곡동 1120-1번지 거성프라자1 402호","category":"보건위생 - 의료용품"}]},{"lat":"37.33088252","long":"126.93720128","items":[{"name":"(주)까메코리아(CAME KOREA)","tel":"032-224-0707","addr":"경기도 군포시 부곡동 451번지 4층 한국복합물류(주)","category":"보건위생 - 미용재료"},{"name":"(주)성우자동차정비","tel":"031-460-2751","addr":"경기도 군포시 부곡동 451번지","category":"자동차정비 유지 - 자동차정비"},{"name":"길림성","tel":"031-460-2127","addr":"경기도 군포시 부곡동 451번지 18동 지하층 B11호","category":"일반휴게음식 - 중국식"},{"name":"나마스떼","tel":"031-460-2840","addr":"경기도 군포시 부곡동 451번지 군포확장터미널세차장","category":"유통업 영리 - 편 의 점"},{"name":"놀러와 당구장","tel":"","addr":"경기도 군포시 부곡동 451번지 2층 205호 한국복합물류(주)","category":"레저업소 - 당 구 장"},{"name":"다온세무회계","tel":"031-460-7256","addr":"경기도 군포시 부곡동 451번지 한국복합물류관리동 313호","category":"용역 서비스 - 법률회계서비스(개인)"},{"name":"당구치는날","tel":"031-460-7979","addr":"경기도 군포시 부곡동 451번지 군포복합물류센터관리 편익동 105호","category":"레저업소 - 당 구 장"},{"name":"대성카프랜드","tel":"031-460-2382","addr":"경기도 군포시 부곡동 451번지 (주)한국복합물류관리편익동 107호","category":"기타 - 기계공구"},{"name":"디마인","tel":"031-356-5910","addr":"경기도 군포시 부곡동 451번지 1층 102호 한국복합물류(주)","category":"일반휴게음식 - 서양음식"},{"name":"마당","tel":"031-460-2151","addr":"경기도 군포시 부곡동 451번지 지하1층","category":"일반휴게음식 - 일반한식"},{"name":"소담","tel":"","addr":"경기도 군포시 부곡동 451번지 한국복합물류(주) 관리편익(18)동 지층 4호","category":"일반휴게음식 - 일반한식"},{"name":"에이스카센타","tel":"031-460-2423","addr":"경기도 군포시 부곡동 451번지 (15동)","category":"자동차정비 유지 - 자동차정비"},{"name":"연화","tel":"031-460-2158","addr":"경기도 군포시 부곡동 451번지 한국복합물류(주) 지층 6호","category":"일반휴게음식 - 일반한식"},{"name":"오봉도시락","tel":"031-460-2144","addr":"경기도 군포시 부곡동 451번지 1층 한국복합물류(주)","category":"일반휴게음식 - 스넥"},{"name":"유아교육발전소","tel":"031-393-7799","addr":"경기도 군포시 부곡동 451번지 한국복합물류(주) N동 9층","category":"서적문구 - 일반서적"},{"name":"장독대","tel":"031-460-1256","addr":"경기도 군포시 부곡동 451번지","category":"일반휴게음식 - 일반한식"},{"name":"주)에어테크","tel":"031-460-2566","addr":"경기도 군포시 부곡동 451번지 엘지전자내 에어테크","category":"전기제품 - 냉열기기"},{"name":"주식회사 지상이엔씨","tel":"02-111-1111","addr":"경기도 군포시 부곡동 451번지 한국복합물류(주) H동 4층","category":"신변잡화 - 신발"},{"name":"탑(TOP)시스템","tel":"031-460-2851","addr":"경기도 군포시 부곡동 451번지 한국복합물류(주) 화물터미널 K동","category":"용역 서비스 - 기타용역서비스"},{"name":"터미널센터","tel":"031-460-2166","addr":"경기도 군포시 부곡동 451번지 한국복합물류(주) 1층 106호","category":"유통업 영리 - 편 의 점"},{"name":"터미널슈퍼","tel":"031-460-2160","addr":"경기도 군포시 부곡동 451번지","category":"유통업 영리 - 슈퍼마켓"},{"name":"터미널식당","tel":"031-460-2161","addr":"경기도 군포시 부곡동 451번지 관리편익동 지층 7호","category":"일반휴게음식 - 일반한식"},{"name":"투게더스토어","tel":"031-460-2160","addr":"경기도 군포시 부곡동 451번지 한국복합물류(주) 관리동 104호","category":"유통업 영리 - 슈퍼마켓"},{"name":"풍미장","tel":"031-460-2177","addr":"경기도 군포시 부곡동 451번지 한국복합물류(주) 지하1층 B05호","category":"일반휴게음식 - 일반한식"},{"name":"한국복합물류(주) 직영 군포터미널 주유소","tel":"031-460-2995","addr":"경기도 군포시 부곡동 451번지","category":"연료판매점 - GS주유소"},{"name":"한빛슈퍼","tel":"031-460-2164","addr":"경기도 군포시 부곡동 451번지 한국복합물류(주) 운영동 103호","category":"유통업 영리 - 슈퍼마켓"}]},{"lat":"37.333228032","long":"126.92693102","items":[{"name":"(주)삼표에너지산본그린주유소","tel":"031-462-0202","addr":"경기도 군포시 부곡동 1184번지","category":"연료판매점 - GS주유소"}]},{"lat":"37.324840676","long":"126.94484479","items":[{"name":"(주)웰그로","tel":"00-1644-7374","addr":"경기도 군포시 부곡동 1120-3번지 3층 301-1호","category":"문화.취미 - 민예·공예품"}]},{"lat":"37.335196099","long":"126.9331804","items":[{"name":"(주)유스타앤코","tel":"070-7802-1550","addr":"경기도 군포시 부곡동 1192번지 상훈오피스텔 217호","category":"보건위생 - 화장품"}]},{"lat":"37.324895247","long":"126.94589402","items":[{"name":"(주)이송테크","tel":"031-461-9401","addr":"경기도 군포시 부곡동 1122-1번지 경희렉슬 1층","category":"기타 - 기계공구"}]},{"lat":"37.325703331","long":"126.94028594","items":[{"name":"365늘봄메디칼의원","tel":"02-1111-1111","addr":"경기도 군포시 부곡동 1248번지 티타워 2층 201-207호,3층 301-307호","category":"의원 - 의원"},{"name":"365늘봄메디칼의원","tel":"031-000-0000","addr":"경기도 군포시 부곡동 1248번지 티타워 201~207,301~307호 군포T-타워","category":"의원 - 의원"},{"name":"본죽&비빔밥카페 군포부곡점","tel":"031-462-8886","addr":"경기도 군포시 부곡동 1248번지 티타워 102호","category":"일반휴게음식 - 일반한식"},{"name":"서울우리치과","tel":"031-346-2275","addr":"경기도 군포시 부곡동 1248번지 티타워 401,402호","category":"의원 - 치과의원"},{"name":"세븐일레븐군포T타워점","tel":"031-5177-0711","addr":"경기도 군포시 부곡동 1248번지 티타워 1층 101호","category":"유통업 영리 - 편 의 점"},{"name":"열린세계로약국","tel":"031-461-7585","addr":"경기도 군포시 부곡동 1248번지 1층 110,111호","category":"약국 - 약국"},{"name":"열린세계로약국","tel":"031-461-7585","addr":"경기도 군포시 부곡동 1248번지 1층 110,111호","category":"약국 - 약국"},{"name":"투썸플레이스 군포첨단산업단지점","tel":"031-462-5288","addr":"경기도 군포시 부곡동 1248번지 티타워 1층 105,106,107호","category":"일반휴게음식 - 서양음식"}]},{"lat":"37.322344366","long":"126.94386516","items":[{"name":"59쌀피자","tel":"031-462-5995","addr":"경기도 군포시 부곡동 1139-1번지 1층","category":"일반휴게음식 - 서양음식"},{"name":"고기바보먹방촌","tel":"031-462-5314","addr":"경기도 군포시 부곡동 1139-1번지 102호","category":"일반휴게음식 - 일반한식"},{"name":"고기바보푸주간","tel":"","addr":"경기도 군포시 부곡동 1139-1번지 1층 103호","category":"음료식품 - 정육점"}]},{"lat":"37.337089059","long":"126.93458919","items":[{"name":"GANZI HAIR (간지헤어)","tel":"031-399-7770","addr":"경기도 군포시 부곡동 1216-3번지 1층","category":"보건위생 - 미용원"},{"name":"카페아띠랑스","tel":"031-393-3622","addr":"경기도 군포시 부곡동 1216-3번지 101호","category":"일반휴게음식 - 일반한식"}]},{"lat":"37.321894407","long":"126.94498244","items":[{"name":"GDR 아카데미 군포부곡점","tel":"","addr":"경기도 군포시 부곡동 1141-1번지 의왕프라자 5층","category":"레저업소 - 골프연습장"},{"name":"글로리 휘트니스(헬스)","tel":"031-462-1273","addr":"경기도 군포시 부곡동 1141-1번지 의왕프라자 4층 401,402,403호","category":"레저업소 - 헬스클럽"},{"name":"글로리휘트니스","tel":"031-462-1273","addr":"경기도 군포시 부곡동 1141-1번지 의왕프라자 4층","category":"레저업소 - 헬스클럽"},{"name":"바른치킨군포부곡점","tel":"031-462-8492","addr":"경기도 군포시 부곡동 1141-1번지 의왕프라자 1층 104호","category":"일반휴게음식 - 스넥"},{"name":"부곡사랑빛의원","tel":"031-461-2260","addr":"경기도 군포시 부곡동 1141-1번지 의왕프라자 201,202호","category":"의원 - 의원"},{"name":"비앤에이","tel":"031-461-4630","addr":"경기도 군포시 부곡동 1141-1번지","category":"보건위생 - 미용원"},{"name":"새우리약국","tel":"031-462-3004","addr":"경기도 군포시 부곡동 1141-1번지 의왕프라자 106호","category":"약국 - 약국"},{"name":"세무사 최선정","tel":"031-461-9333","addr":"경기도 군포시 부곡동 1141-1번지 의왕프라자 2층 202호","category":"용역 서비스 - 법률회계서비스(개인)"},{"name":"웹투비즈","tel":"070-8241-6952","addr":"경기도 군포시 부곡동 1141-1번지 의왕프라자 104호","category":"사무통신 - 통신기기"},{"name":"족발시대","tel":"031-461-6661","addr":"경기도 군포시 부곡동 1141-1번지 의왕프라자 103호,105호 일부","category":"일반휴게음식 - 일반한식"},{"name":"주식회사 세강씨엔티","tel":"031-8015-0726","addr":"경기도 군포시 부곡동 1141-1번지 의왕프라자 104호","category":"사무통신 - 통신기기"},{"name":"착한회초밥","tel":"031-299-1587","addr":"경기도 군포시 부곡동 1141-1번지 의왕프라자 105호","category":"일반휴게음식 - 일식·회집"},{"name":"카페담따","tel":"031-462-2277","addr":"경기도 군포시 부곡동 1141-1번지 의왕프라자 1층 107호","category":"일반휴게음식 - 서양음식"},{"name":"포스매니아(POSMANIA)","tel":"00-1544-4906","addr":"경기도 군포시 부곡동 1141-1번지 대영프라자 3층","category":"사무통신 - 통신기기"}]},{"lat":"37.322119268","long":"126.94418124","items":[{"name":"GS25군포부곡점","tel":"","addr":"경기도 군포시 부곡동 1140-1번지 1층 104호","category":"유통업 영리 - 편 의 점"},{"name":"맑은약국","tel":"031-462-4144","addr":"경기도 군포시 부곡동 1140-1번지 102호","category":"약국 - 약국"},{"name":"상남자","tel":"031-462-2850","addr":"경기도 군포시 부곡동 1140-1번지 103호","category":"보건위생 - 이용원"},{"name":"석사경희대태권도","tel":"031-461-0505","addr":"경기도 군포시 부곡동 1140-1번지 부곡프라자 501호","category":"학원 - 예·체능계학원"},{"name":"손내과의원","tel":"031-462-9088","addr":"경기도 군포시 부곡동 1140-1번지 부곡프라자 201호","category":"의원 - 의원"},{"name":"솔소아청소년과","tel":"031-462-1279","addr":"경기도 군포시 부곡동 1140-1번지 부곡프라자 3층 301호","category":"의원 - 의원"},{"name":"엘림보습학원","tel":"031-462-3311","addr":"경기도 군포시 부곡동 1140-1번지 부곡프라자 401호","category":"학원 - 보습학원"},{"name":"윤상현한의원","tel":"031-462-4114","addr":"경기도 군포시 부곡동 1140-1번지 부곡프라자 202호","category":"의원 - 한의원"},{"name":"클라라음악학원","tel":"031-462-8859","addr":"경기도 군포시 부곡동 1140-1번지 502호","category":"학원 - 예·체능계학원"},{"name":"파리바게트 부곡점","tel":"031-461-8240","addr":"경기도 군포시 부곡동 1140-1번지 101호","category":"음료식품 - 제과점"},{"name":"허브치과","tel":"031-393-2888","addr":"경기도 군포시 부곡동 1140-1번지 302호","category":"의원 - 치과의원"}]},{"lat":"37.336314119","long":"126.93447705","items":[{"name":"GS25군포삼성로점","tel":"","addr":"경기도 군포시 부곡동 1219번지 웅신프라자 101호","category":"유통업 영리 - 편 의 점"},{"name":"글로벌박사 경희대 태권도장","tel":"031-396-3100","addr":"경기도 군포시 부곡동 1219번지 5층","category":"학원 - 예·체능계학원"},{"name":"김애옥할매순대국밥","tel":"031-397-5900","addr":"경기도 군포시 부곡동 1219번지 웅신프라자 108호","category":"일반휴게음식 - 일반한식"},{"name":"김애옥할매순대국밥","tel":"031-397-5900","addr":"경기도 군포시 부곡동 1219번지 웅신프라자 108호","category":"일반휴게음식 - 일반한식"},{"name":"리치미술교습소","tel":"031-391-1953","addr":"경기도 군포시 부곡동 1219번지 웅신프라자 5층 502호","category":"학원 - 예·체능계학원"},{"name":"메인텔레콤","tel":"031-399-3339","addr":"경기도 군포시 부곡동 1219번지 웅신프라자 1층 107호","category":"사무통신 - 통신기기"},{"name":"바로e수학학원","tel":"031-397-9869","addr":"경기도 군포시 부곡동 1219번지","category":"회원제형태 - 학원"},{"name":"보라약국","tel":"031-392-1002","addr":"경기도 군포시 부곡동 1219번지 웅신프라자 105호","category":"약국 - 약국"},{"name":"삼통치킨(부곡점)","tel":"031-392-8877","addr":"경기도 군포시 부곡동 1219번지 웅신프라자 1층 109-110호","category":"일반휴게음식 - 스넥"},{"name":"삼통치킨(부곡점)","tel":"031-392-8877","addr":"경기도 군포시 부곡동 1219번지 웅신프라자 109동 110호","category":"일반휴게음식 - 스넥"},{"name":"송미희음악학원","tel":"031-391-1953","addr":"경기도 군포시 부곡동 1219번지 웅신프라자 503호","category":"학원 - 예·체능계학원"},{"name":"스마트치과의원","tel":"031-392-2675","addr":"경기도 군포시 부곡동 1219번지 웅신프라자 301호","category":"의원 - 치과의원"},{"name":"월수금통돼지김치찌개&생삼겹","tel":"031-392-7145","addr":"경기도 군포시 부곡동 1219번지 웅신프라자 2층 203호","category":"일반휴게음식 - 일반한식"},{"name":"인피니트영수학원","tel":"031-391-1952","addr":"경기도 군포시 부곡동 1219번지 웅신프라자 503호 일부","category":"학원 - 보습학원"},{"name":"인피니트영수학원","tel":"031-391-1952","addr":"경기도 군포시 부곡동 1219번지 웅신프라자 503호","category":"학원 - 보습학원"},{"name":"참조은가정의원","tel":"031-392-3500","addr":"경기도 군포시 부곡동 1219번지 웅신프라자 303호","category":"의원 - 의원"},{"name":"태영생막창","tel":"070-2457-8968","addr":"경기도 군포시 부곡동 1219번지 웅신프라자 1층 103호","category":"일반휴게음식 - 일반한식"},{"name":"하늘소아청소년건강기능식품","tel":"031-392-0075","addr":"경기도 군포시 부곡동 1219번지 웅신프라자 302호","category":"건강식품 - 기타건강식품"},{"name":"하늘소아청소년과의원","tel":"031-392-0075","addr":"경기도 군포시 부곡동 1219번지 웅신프라자 302호","category":"의원 - 의원"},{"name":"헬로브릭","tel":"031-391-7663","addr":"경기도 군포시 부곡동 1219번지 웅신프라자 2층 202호","category":"일반휴게음식 - 일반한식"},{"name":"혜강한의원","tel":"031-395-1275","addr":"경기도 군포시 부곡동 1219번지 웅신프라자 401호","category":"의원 - 한의원"}]},{"lat":"37.326198748","long":"126.94001475","items":[{"name":"LAON FORET","tel":"","addr":"경기도 군포시 부곡동 1244-3번지 1층 112호","category":"일반휴게음식 - 서양음식"},{"name":"골프존파크 부곡첨단점","tel":"031-462-0777","addr":"경기도 군포시 부곡동 1244-3번지 5층","category":"레저업소 - 스크린골프"},{"name":"뜰한식부페","tel":"031-461-9700","addr":"경기도 군포시 부곡동 1244-3번지 2층 204,205,206호","category":"일반휴게음식 - 일반한식"},{"name":"타우루스","tel":"","addr":"경기도 군포시 부곡동 1244-3번지 군포MD센터프라자 1층 110호","category":"일반휴게음식 - 서양음식"}]},{"lat":"37.324217117","long":"126.94117849","items":[{"name":"SKY할인마트","tel":"031-462-9090","addr":"경기도 군포시 부곡동 1098 휴먼시아3단지105","category":"유통업 영리 - 슈퍼마켓"},{"name":"부곡명가축산","tel":"031-462-7277","addr":"경기도 군포시 부곡동 1098번지 휴먼시아 상가 103호","category":"음료식품 - 정육점"},{"name":"셀렉토군포부곡점","tel":"031-461-8718","addr":"경기도 군포시 부곡동 1098번지 휴먼시아 101호","category":"일반휴게음식 - 서양음식"}]},{"lat":"37.336926765","long":"126.93439751","items":[{"name":"SSM모바일","tel":"031-391-0416","addr":"경기도 군포시 부곡동 1215-6번지 101호","category":"사무통신 - 통신기기"},{"name":"꽃소담","tel":"031-399-3886","addr":"경기도 군포시 부곡동 1215-6번지 1층 103호","category":"문화.취미 - 화원"},{"name":"야간얼큰우동군포점","tel":"031-398-5180","addr":"경기도 군포시 부곡동 1215-6번지 1층 102호","category":"일반휴게음식 - 일반한식"}]},{"lat":"37.322200163","long":"126.9437863","items":[{"name":"Y2모바일","tel":"031-461-9040","addr":"경기도 군포시 부곡동 1139-2번지 102호","category":"사무통신 - 통신기기"},{"name":"요거프레소(의왕역점)","tel":"031-385-8769","addr":"경기도 군포시 부곡동 1139-2번지","category":"일반휴게음식 - 서양음식"}]},{"lat":"37.324722086","long":"126.94194528","items":[{"name":"가위림","tel":"031-461-5353","addr":"경기도 군포시 부곡동 1098번지 휴먼시아","category":"신변잡화 - 액세서리"}]},{"lat":"37.321956359","long":"126.94273726","items":[{"name":"가위소리","tel":"031-461-5353","addr":"경기도 군포시 부곡동 1134-6번지","category":"보건위생 - 미용원"},{"name":"신근쌤나눔수학교습소","tel":"031-461-9335","addr":"경기도 군포시 부곡동 1134-6번지 101호","category":"학원 - 보습학원"},{"name":"크린토피아 군포부곡휴먼시아중앙점","tel":"031-461-8119","addr":"경기도 군포시 부곡동 1134-6번지 102호","category":"수리서비스 - 세탁소"}]},{"lat":"37.323781852","long":"126.93606794","items":[{"name":"감성식탁","tel":"","addr":"경기도 군포시 부곡동 1091-1번지 1층","category":"일반휴게음식 - 일반한식"}]},{"lat":"37.321532874","long":"126.94272632","items":[{"name":"강남동태탕부곡점","tel":"031-461-5599","addr":"경기도 군포시 부곡동 1135-8번지 1층","category":"일반휴게음식 - 일반한식"}]},{"lat":"37.338807698","long":"126.93070574","items":[{"name":"개인과외","tel":"","addr":"경기도 군포시 부곡동 1204번지 삼성마을6단지","category":"학원 - 기타 교육기관"},{"name":"데이원 안양대리점","tel":"02-1111-1111","addr":"경기도 군포시 부곡동 1204번지 삼성마을6단지","category":"문화.취미 - 애완동물"},{"name":"미니스톱군포삼성점","tel":"031-1577-9621","addr":"경기도 군포시 부곡동 1204번지 삼성마을6단지 상가동 101,102호","category":"유통업 영리 - 편 의 점"},{"name":"미래나무어린이집[아이행복]","tel":"031-394-5588","addr":"경기도 군포시 부곡동 1204번지 삼성마을6단지","category":"학원 - 유아원"},{"name":"미즈존패션","tel":"031-437-3270","addr":"경기도 군포시 부곡동 1204번지 삼성마을6단지","category":"의류 - 내의판매"},{"name":"삼성농산","tel":"031-000-0000","addr":"경기도 군포시 부곡동 1204번지 삼성마을6단지","category":"음료식품 - 농·축·수산품"},{"name":"스마트 출장 세차맨","tel":"","addr":"경기도 군포시 부곡동 1204번지 삼성마을6단지","category":"자동차정비 유지 - 세차장"},{"name":"이글벳 강동","tel":"","addr":"경기도 군포시 부곡동 1204번지 삼성마을6단지","category":"자동차정비 유지 - 자동차부품"},{"name":"초이라이스","tel":"031-391-0027","addr":"경기도 군포시 부곡동 1204번지 삼성마을6단지 102호","category":"일반휴게음식 - 일반한식"}]},{"lat":"37.337809893","long":"126.93462239","items":[{"name":"거시기 함흥냉면","tel":"031-395-5600","addr":"경기도 군포시 부곡동 1217-9번지 1층","category":"일반휴게음식 - 일반한식"}]},{"lat":"37.32578485","long":"126.94109823","items":[{"name":"고랑치기삼겹살","tel":"031-461-5948","addr":"경기도 군포시 부곡동 1249-4번지 102호","category":"일반휴게음식 - 일반한식"},{"name":"애드빌","tel":"031-467-1022","addr":"경기도 군포시 부곡동 1249-4번지 101호","category":"사무통신 - 기타 사무용품"}]},{"lat":"37.335953456","long":"126.9340373","items":[{"name":"고운햇살치과의원","tel":"031-394-2275","addr":"경기도 군포시 부곡동 1195번지 해피시티 3층 302호","category":"의원 - 치과의원"},{"name":"국수랑","tel":"","addr":"경기도 군포시 부곡동 1195번지 해피시티 101호","category":"일반휴게음식 - 일반한식"},{"name":"런던떡볶이","tel":"031-340-6862","addr":"경기도 군포시 부곡동 1195번지 해피시티 1층 112호","category":"일반휴게음식 - 스넥"},{"name":"명짬뽕","tel":"02-1899-5266","addr":"경기도 군포시 부곡동 1195번지 해피씨티 207호","category":"일반휴게음식 - 중국식"},{"name":"발리노래연습장","tel":"031-399-0385","addr":"경기도 군포시 부곡동 1195번지 2층 205,206호","category":"레저업소 - 노 래 방"},{"name":"발리노래연습장","tel":"031-399-0385","addr":"경기도 군포시 부곡동 1195번지 2층 205,206호","category":"레저업소 - 노 래 방"},{"name":"보다안경원 군포점","tel":"","addr":"경기도 군포시 부곡동 1195번지 1층 108,109호","category":"보건위생 - 안경"},{"name":"보다안경원군포점","tel":"031-391-1016","addr":"경기도 군포시 부곡동 1195번지 1층 108,109호","category":"보건위생 - 안경"},{"name":"삼성 당구클럽","tel":"070-7773-4939","addr":"경기도 군포시 부곡동 1195번지 해피시티 4층 401호","category":"레저업소 - 당 구 장"},{"name":"삼성 당구클럽","tel":"070-7773-4939","addr":"경기도 군포시 부곡동 1195번지 해피시티 4층 401호","category":"레저업소 - 당 구 장"},{"name":"삼성한의원","tel":"070-7736-1075","addr":"경기도 군포시 부곡동 1195번지 해피시티 3층 306호","category":"의원 - 한의원"},{"name":"상구비어","tel":"031-397-3955","addr":"경기도 군포시 부곡동 1195번지 해피시티 113호","category":"일반휴게음식 - 주점"},{"name":"석기정돌솥부대찌개","tel":"031-392-0290","addr":"경기도 군포시 부곡동 1195번지 해피시티 201호","category":"일반휴게음식 - 일반한식"},{"name":"스타덤PC 군포본점","tel":"070-9117-4180","addr":"경기도 군포시 부곡동 1195번지 해피시티 307호","category":"레저업소 - 기타레져업소"},{"name":"싱싱농산물","tel":"","addr":"경기도 군포시 부곡동 1195번지 해피시티 102호","category":"음료식품 - 농·축·수산품"},{"name":"암소하누나라","tel":"031-391-9592","addr":"경기도 군포시 부곡동 1195번지 해피시티 202호","category":"일반휴게음식 - 일반한식"},{"name":"좋은아침 군포점","tel":"031-391-8781","addr":"경기도 군포시 부곡동 1195번지 해피시티 105,106호","category":"음료식품 - 제과점"},{"name":"주식회사 치킨영토","tel":"031-394-7575","addr":"경기도 군포시 부곡동 1195번지 103,516호","category":"일반휴게음식 - 스넥"},{"name":"준헤어","tel":"031-396-8260","addr":"경기도 군포시 부곡동 1195번지 해피시티 104호","category":"보건위생 - 미용원"},{"name":"치킨영토 부곡점","tel":"031-394-7575","addr":"경기도 군포시 부곡동 1195번지 해피시티 103호","category":"일반휴게음식 - 일반한식"},{"name":"칡냉면전문점설봄","tel":"031-392-9993","addr":"경기도 군포시 부곡동 1195번지 2층 203호 204호","category":"일반휴게음식 - 일반한식"},{"name":"커피에반하다삼성마을점","tel":"031-391-3327","addr":"경기도 군포시 부곡동 1195번지 해피시티 1층 107호","category":"일반휴게음식 - 서양음식"},{"name":"평촌김장현수학학원","tel":"031-360-8941","addr":"경기도 군포시 부곡동 1195번지 해피시티 301호","category":"학원 - 보습학원"},{"name":"해정옥전주콩나물국밥","tel":"031-398-3880","addr":"경기도 군포시 부곡동 1195번지 109호일부,110호,111호","category":"일반휴게음식 - 일반한식"},{"name":"해피스크린골프존","tel":"031-392-8191","addr":"경기도 군포시 부곡동 1195번지 4층 402,403,404,405,406호","category":"레저업소 - 스크린골프"},{"name":"해피시티관리단","tel":"031-391-2732","addr":"경기도 군포시 부곡동 1195번지","category":"자동차정비 유지 - 주차장"}]},{"lat":"37.325425003","long":"126.94218165","items":[{"name":"공방카페","tel":"","addr":"경기도 군포시 부곡동 1253-3번지 1층 101-1호","category":"일반휴게음식 - 서양음식"},{"name":"샤인헤어","tel":"031-461-7896","addr":"경기도 군포시 부곡동 1253-3번지 1층 102호","category":"보건위생 - 미용원"},{"name":"재재하우스","tel":"","addr":"경기도 군포시 부곡동 1253-3번지 101-2호","category":"신변잡화 - 기타잡화"}]},{"lat":"37.322037731","long":"126.94329002","items":[{"name":"교촌치킨","tel":"031-462-8292","addr":"경기도 군포시 부곡동 1132-4번지","category":"일반휴게음식 - 스넥"},{"name":"빛쟁이조명","tel":"031-461-8964","addr":"경기도 군포시 부곡동 1132-4번지","category":"건축자재 - 조명기구"}]},{"lat":"37.337754856","long":"126.93295235","items":[{"name":"국사랑 군포삼성마을점","tel":"031-398-9453","addr":"경기도 군포시 부곡동 1211번지 1층","category":"음료식품 - 기타음료식품"},{"name":"레인보우커피(Rainbow coffee)","tel":"070-7538-8284","addr":"경기도 군포시 부곡동 1211번지 1층 세븐하임","category":"일반휴게음식 - 서양음식"},{"name":"소호아동미술교습소","tel":"031-391-7229","addr":"경기도 군포시 부곡동 1211번지 세븐하임 102호","category":"학원 - 예·체능계학원"}]},{"lat":"37.336918061","long":"126.93492788","items":[{"name":"국수나무군포삼성마을점","tel":"031-393-1180","addr":"경기도 군포시 부곡동 1218-2번지 노블타워 1층 102호","category":"일반휴게음식 - 일반한식"},{"name":"남자의부엌","tel":"031-396-1981","addr":"경기도 군포시 부곡동 1218-2번지 노블타워 104호","category":"일반휴게음식 - 주점"},{"name":"도야족발 군포점","tel":"031-767-7064","addr":"경기도 군포시 부곡동 1218-2번지 노블타워 105호","category":"일반휴게음식 - 일반한식"},{"name":"뮤직엔피아노학원","tel":"031-397-0010","addr":"경기도 군포시 부곡동 1218-2번지 노블타워 4층 402호","category":"학원 - 예·체능계학원"},{"name":"살빠GYM&복싱","tel":"031-391-0777","addr":"경기도 군포시 부곡동 1218-2번지 노블타워 3층 301,302호","category":"레저업소 - 헬스클럽"},{"name":"슈에뜨","tel":"031-394-2227","addr":"경기도 군포시 부곡동 1218-2번지 노블타워 4층 401호","category":"보건위생 - 피부미용실"},{"name":"슬림핏점핑다이어트2호점","tel":"031-4154-7414","addr":"경기도 군포시 부곡동 1218-2번지 노블타워 301호","category":"건강식품 - 기타건강식품"},{"name":"신기K타이거즈 태권도","tel":"031-392-1245","addr":"경기도 군포시 부곡동 1218-2번지 5층","category":"학원 - 예·체능계학원"},{"name":"원포쓰리(143)","tel":"031-391-8733","addr":"경기도 군포시 부곡동 1218-2번지 노블타워 101호","category":"일반휴게음식 - 일반한식"},{"name":"청년떡볶이 군포부곡점","tel":"031-395-1591","addr":"경기도 군포시 부곡동 1218-2번지 노블타워 103호","category":"일반휴게음식 - 스넥"}]},{"lat":"37.322343242","long":"126.94165387","items":[{"name":"군포부곡내태후사랑염색방","tel":"031-462-1554","addr":"경기도 군포시 부곡동 1133-1번지","category":"보건위생 - 화장품"},{"name":"부곡중앙분식","tel":"031-462-2894","addr":"경기도 군포시 부곡동 1133-1번지 101호","category":"일반휴게음식 - 스넥"},{"name":"뽀끼앤마리","tel":"031-462-1187","addr":"경기도 군포시 부곡동 1133-1번지 1층 102호","category":"일반휴게음식 - 일반한식"},{"name":"컴퓨터가게","tel":"031-454-8592","addr":"경기도 군포시 부곡동 1133-1번지 1층 101호","category":"사무통신 - 컴퓨터"},{"name":"통통버거","tel":"031-451-2509","addr":"경기도 군포시 부곡동 1133-1번지 1층 102호","category":"일반휴게음식 - 일반한식"},{"name":"한별정보통신","tel":"070-4400-4720","addr":"경기도 군포시 부곡동 1133-1번지 104호","category":"사무통신 - 통신기기"},{"name":"허갈닭강정","tel":"031-462-0808","addr":"경기도 군포시 부곡동 1133-1번지","category":"일반휴게음식 - 스넥"},{"name":"허갈닭강정","tel":"031-462-0808","addr":"경기도 군포시 부곡동 1133-1번지 1층","category":"일반휴게음식 - 스넥"}]},{"lat":"37.332920839","long":"126.92562242","items":[{"name":"군포시립노인요양센터","tel":"031-687-8701","addr":"경기도 군포시 부곡동 770-1번지","category":"기타의료기관 - 기타의료기관 및 기타"}]},{"lat":"37.323758803","long":"126.94353687","items":[{"name":"군포시립도담어린이집[아이행복]","tel":"031-462-0367","addr":"경기도 군포시 부곡동 1126번지 휴먼시아2단지 206동1층주민복지관내","category":"학원 - 유아원"},{"name":"뚜레쥬르군포부곡점","tel":"031-461-0904","addr":"경기도 군포시 부곡동 1126 휴먼시아상가 103","category":"음료식품 - 제과점"},{"name":"티바두마리치킨(부곡점)","tel":"031-427-2792","addr":"경기도 군포시 부곡동 1126번지 휴먼시아 상가동 1층 104호","category":"일반휴게음식 - 스넥"}]},{"lat":"37.334002654","long":"126.92653531","items":[{"name":"군포충전소","tel":"031-462-5500","addr":"경기도 군포시 부곡동 1180번지","category":"연료판매점 - GS 가스충전소"},{"name":"오토오아시스 군포당동점","tel":"031-445-0366","addr":"경기도 군포시 부곡동 1180번지","category":"자동차정비 유지 - 자동차정비"}]},{"lat":"37.322199032","long":"126.94156373","items":[{"name":"권샘수학교습소","tel":"031-111-1111","addr":"경기도 군포시 부곡동 1133-2번지 1층 일부","category":"학원 - 보습학원"},{"name":"읽새논술교습소","tel":"","addr":"경기도 군포시 부곡동 1133-2번지 1층","category":"학원 - 보습학원"}]},{"lat":"37.321704838","long":"126.94426053","items":[{"name":"그린당구장","tel":"031-461-5889","addr":"경기도 군포시 부곡동 1140-5번지 주공프라자 401,402호","category":"레저업소 - 당 구 장"},{"name":"다이서 할인마트","tel":"031-462-8812","addr":"경기도 군포시 부곡동 1140-5번지 102동 107호","category":"유통업 영리 - 슈퍼마켓"}]},{"lat":"37.323704366","long":"126.94279228","items":[{"name":"금정사","tel":"","addr":"경기도 군포시 부곡동 1126번지 휴먼시아 205동 602호","category":"자동차정비 유지 - 자동차시트·타이어"}]},{"lat":"37.325785364","long":"126.9420911","items":[{"name":"금호타이어 군포첨단산업단지점","tel":"070-4064-7885","addr":"경기도 군포시 부곡동 1253-1번지 1층","category":"자동차정비 유지 - 자동차시트·타이어"}]},{"lat":"37.337675122","long":"126.9352883","items":[{"name":"기름칠","tel":"031-394-3003","addr":"경기도 군포시 부곡동 1212-8번지 1층","category":"일반휴게음식 - 일반한식"}]},{"lat":"37.322506033","long":"126.94283836","items":[{"name":"김경민헤어","tel":"031-462-1284","addr":"경기도 군포시 부곡동 1130-3번지","category":"보건위생 - 미용원"},{"name":"브이점핑다이어트","tel":"070-8780-2150","addr":"경기도 군포시 부곡동 1130-3번지 상가동 1층 101호","category":"건강식품 - 기타건강식품"},{"name":"삼성잉글존&조이매쓰학원","tel":"031-461-2850","addr":"경기도 군포시 부곡동 1130-3번지 102호 103","category":"회원제형태 - 학원"},{"name":"제이에어컨","tel":"032-256-4088","addr":"경기도 군포시 부곡동 1130-3번지 101호","category":"용역 서비스 - 기타용역서비스"}]},{"lat":"37.322344185","long":"126.94350414","items":[{"name":"김밥천국","tel":"031-461-0637","addr":"경기도 군포시 부곡동 1132-2번지 1층","category":"일반휴게음식 - 스넥"},{"name":"반찬사랑","tel":"031-461-7791","addr":"경기도 군포시 부곡동 1132-2번지 1층","category":"음료식품 - 기타음료식품"},{"name":"옛날통닭","tel":"031-461-3912","addr":"경기도 군포시 부곡동 1132-2번지 경원주택 1층 102호","category":"일반휴게음식 - 스넥"}]},{"lat":"37.323047752","long":"126.94506053","items":[{"name":"김선미헤어","tel":"031-893-6867","addr":"경기도 군포시 부곡동 1137번지 휴먼시아 상가 101호","category":"보건위생 - 미용원"}]},{"lat":"37.337394502","long":"126.93304296","items":[{"name":"깊은생각 수학공부방","tel":"031-395-3384","addr":"경기도 군포시 부곡동 1210-3번지 401호","category":"학원 - 기타 교육기관"},{"name":"꽈배기친구들","tel":"070-7802-6000","addr":"경기도 군포시 부곡동 1210-3번지 102호","category":"일반휴게음식 - 일반한식"},{"name":"애견샵컬리독","tel":"031-399-7774","addr":"경기도 군포시 부곡동 1210-3번지 1층 103호","category":"문화.취미 - 애완동물"}]},{"lat":"37.336755264","long":"126.9338673","items":[{"name":"꽃잎헤어","tel":"031-395-1551","addr":"경기도 군포시 부곡동 1214-5번지 102호","category":"보건위생 - 미용원"},{"name":"마드레떼호두파이","tel":"031-383-1007","addr":"경기도 군포시 부곡동 1214-5번지 1층 102호","category":"일반휴게음식 - 스넥"},{"name":"맨오브더데이","tel":"031-1111-1111","addr":"경기도 군포시 부곡동 1214-5번지 103호","category":"의류 - 정장"}]},{"lat":"37.325559736","long":"126.94136919","items":[{"name":"나눔카페앤비어","tel":"031-461-9090","addr":"경기도 군포시 부곡동 1251번지 상가동 1층","category":"일반휴게음식 - 서양음식"}]},{"lat":"37.337701868","long":"126.93479176","items":[{"name":"나능이 능이버섯백숙","tel":"031-399-1616","addr":"경기도 군포시 부곡동 1217-8번지 1층","category":"일반휴게음식 - 일반한식"},{"name":"나능이 능이버섯백숙","tel":"031-399-1616","addr":"경기도 군포시 부곡동 1217-8번지 1층","category":"일반휴게음식 - 일반한식"},{"name":"더케이커뮤니케이션","tel":"031-395-1971","addr":"경기도 군포시 부곡동 1217-8번지 2층 201호","category":"용역 서비스 - 종합용역"}]},{"lat":"37.322312209","long":"126.93435436","items":[{"name":"나들가게 군포1호점","tel":"031-459-7148","addr":"경기도 군포시 부곡동 1086번지 휴먼시아 상가동 101호","category":"유통업 영리 - 슈퍼마켓"},{"name":"맑은샘어린이집[아이행복]","tel":"031-462-2864","addr":"경기도 군포시 부곡동 1086번지 휴먼시아5단지 관리동","category":"학원 - 유아원"}]},{"lat":"37.325451046","long":"126.94028615","items":[{"name":"나따오비까 군포부곡점","tel":"031-111-1111","addr":"경기도 군포시 부곡동 1248-1번지 대흥테라스뷰 1층 105호,106호","category":"일반휴게음식 - 서양음식"}]},{"lat":"37.337475527","long":"126.93293004","items":[{"name":"너와네일","tel":"070-4686-9412","addr":"경기도 군포시 부곡동 1210-2번지 1층 3호","category":"보건위생 - 피부미용실"},{"name":"르엘르","tel":"031-396-6527","addr":"경기도 군포시 부곡동 1210-2번지 1층 101호","category":"의류 - 정장"},{"name":"윈디","tel":"031-393-5231","addr":"경기도 군포시 부곡동 1210-2번지 101(101호~102호)","category":"음료식품 - 정육점"},{"name":"하늘팬시문구","tel":"031-393-1238","addr":"경기도 군포시 부곡동 1210-2번지 102호","category":"서적문구 - 문구용품"}]},{"lat":"37.333480513","long":"126.92723543","items":[{"name":"넘버원 카 와시 (Number One Car Wash)","tel":"031-397-8880","addr":"경기도 군포시 부곡동 1185번지","category":"자동차정비 유지 - 세차장"},{"name":"자판기","tel":"031-397-8880","addr":"경기도 군포시 부곡동 1185번지","category":"음료식품 - 기타음료식품"},{"name":"자판기","tel":"","addr":"경기도 군포시 부곡동 1185번지","category":"음료식품 - 기타음료식품"}]},{"lat":"37.337088382","long":"126.93342691","items":[{"name":"네일스토리","tel":"031-391-2123","addr":"경기도 군포시 부곡동 1214-1번지 1층 103호","category":"보건위생 - 피부미용실"},{"name":"땡큐","tel":"031-392-2730","addr":"경기도 군포시 부곡동 1214-1번지 1층 103호","category":"의류 - 정장"},{"name":"본죽 당동2지구점","tel":"031-396-6288","addr":"경기도 군포시 부곡동 1214-1번지 1층 102호","category":"일반휴게음식 - 일반한식"},{"name":"피자굼터","tel":"031-395-1033","addr":"경기도 군포시 부곡동 1214-1번지 1층 101호","category":"일반휴게음식 - 서양음식"}]},{"lat":"37.337314333","long":"126.93462284","items":[{"name":"네일엔젤","tel":"031-392-1508","addr":"경기도 군포시 부곡동 1216-5번지 101호","category":"보건위생 - 피부미용실"}]},{"lat":"37.324453737","long":"126.94587179","items":[{"name":"논두렁","tel":"031-461-3321","addr":"경기도 군포시 부곡동 1122-4번지","category":"일반휴게음식 - 일반한식"}]},{"lat":"37.337809342","long":"126.9336745","items":[{"name":"놀작마이아트미술교습소","tel":"031-000-0000","addr":"경기도 군포시 부곡동 1213-6번지 1층 101호","category":"학원 - 예·체능계학원"}]},{"lat":"37.336620614","long":"126.93473631","items":[{"name":"누이네곱창","tel":"031-397-1030","addr":"경기도 군포시 부곡동 1218-3번지 드림시티 110호","category":"일반휴게음식 - 일반한식"},{"name":"드림양꼬치","tel":"031-395-8822","addr":"경기도 군포시 부곡동 1218-3번지 드림시티 105호","category":"일반휴게음식 - 일반한식"},{"name":"봉구하우스","tel":"02-1111-1111","addr":"경기도 군포시 부곡동 1218-3번지 드림시티 2층 202호","category":"일반휴게음식 - 서양음식"},{"name":"손가네한방족발","tel":"031-398-5999","addr":"경기도 군포시 부곡동 1218-3번지 드림시티 114~115호","category":"일반휴게음식 - 일반한식"},{"name":"와이.아이(Y.I) 워터","tel":"","addr":"경기도 군포시 부곡동 1218-3번지 드림시티 301호","category":"주방용구 - 정수기"},{"name":"제주흑&백돼지","tel":"031-398-8808","addr":"경기도 군포시 부곡동 1218-3번지 112, 113호","category":"일반휴게음식 - 일반한식"},{"name":"주식회사 우인네트웍스","tel":"02-504-4660","addr":"경기도 군포시 부곡동 1218-3번지 드림시티 109호","category":"사무통신 - 통신기기"},{"name":"주식회사 제이비렌트카","tel":"031-360-4444","addr":"경기도 군포시 부곡동 1218-3번지 드림시티 4층 401호","category":"여행 - 렌터카"},{"name":"진부령착한코다리","tel":"031-391-5158","addr":"경기도 군포시 부곡동 1218-3번지 드림시티 111호","category":"일반휴게음식 - 일반한식"},{"name":"착한코다리삼성마을점","tel":"031-398-5033","addr":"경기도 군포시 부곡동 1218-3번지 드림시티 111호","category":"일반휴게음식 - 일반한식"},{"name":"촌뜨기","tel":"02-1577-0000","addr":"경기도 군포시 부곡동 1218-3번지 드림시티 1층 106호","category":"일반휴게음식 - 일반한식"},{"name":"팀원유소년스포츠클럽&유아체육교실","tel":"031-391-2882","addr":"경기도 군포시 부곡동 1218-3번지 드림시티 3층303,0번지 304호","category":"학원 - 예·체능계학원"},{"name":"풍천장어직판장","tel":"031-399-8292","addr":"경기도 군포시 부곡동 1218-3번지 118,119호","category":"일반휴게음식 - 일반한식"},{"name":"홍짜장군포삼성마을점","tel":"031-391-4568","addr":"경기도 군포시 부곡동 1218-3번지 드림시티 1층 107호","category":"일반휴게음식 - 중국식"},{"name":"화통삼 당동2지구점","tel":"031-391-9708","addr":"경기도 군포시 부곡동 1218-3번지 드림시티 112호","category":"일반휴게음식 - 일반한식"}]},{"lat":"37.32209088","long":"126.94150741","items":[{"name":"늑대와여우컴퓨터","tel":"031-462-0014","addr":"경기도 군포시 부곡동 1133-3번지 101호","category":"사무통신 - 컴퓨터"},{"name":"대양","tel":"031-456-7246","addr":"경기도 군포시 부곡동 1133-3번지 1층","category":"음료식품 - 기타음료식품"},{"name":"만들기샘","tel":"031-416-0316","addr":"경기도 군포시 부곡동 1133-3번지 101호","category":"서적문구 - 문구용품"}]},{"lat":"37.323475613","long":"126.93626001","items":[{"name":"달콤한나의도시","tel":"031-406-8576","addr":"경기도 군포시 부곡동 1091-6번지 1층","category":"일반휴게음식 - 서양음식"}]},{"lat":"37.338089254","long":"126.93470113","items":[{"name":"대게좋은집 붉은대게 무한리필","tel":"031-393-3688","addr":"경기도 군포시 부곡동 1212-4번지 1층","category":"일반휴게음식 - 일반한식"},{"name":"대게좋은집 붉은대게 무한리필","tel":"031-393-3688","addr":"경기도 군포시 부곡동 1212-4번지 1층","category":"일반휴게음식 - 일반한식"}]},{"lat":"37.322064971","long":"126.94370743","items":[{"name":"더샵피아노관현악음악학원","tel":"031-462-0403","addr":"경기도 군포시 부곡동 1139-3번지 신아주택","category":"학원 - 예·체능계학원"}]},{"lat":"37.322893074","long":"126.94205958","items":[{"name":"더샵피아노음악교습소","tel":"031-462-0403","addr":"경기도 군포시 부곡동 1128-1번지 태화빌딩 101호","category":"학원 - 예·체능계학원"},{"name":"아뜰리에이유미술교습소","tel":"","addr":"경기도 군포시 부곡동 1128-1번지 태화빌딩 103호","category":"학원 - 예·체능계학원"},{"name":"오렌지팟 군포부곡점","tel":"031-461-0714","addr":"경기도 군포시 부곡동 1128-1번지 태화빌딩 1층 102호","category":"서적문구 - 문구용품"}]},{"lat":"37.337251657","long":"126.93531124","items":[{"name":"더스트릿펍(THE STREET PUB)","tel":"031-391-9043","addr":"경기도 군포시 부곡동 1218번지 드림스마트타운 1층 107호","category":"일반휴게음식 - 주점"},{"name":"드림골프존","tel":"031-391-9188","addr":"경기도 군포시 부곡동 1218번지 드림스마트타운 301,302,303호","category":"레저업소 - 스크린골프"},{"name":"베러댄와플(순포부곡점)","tel":"","addr":"경기도 군포시 부곡동 1218번지 드림스마트타운 1층 108호","category":"일반휴게음식 - 서양음식"},{"name":"서초정","tel":"031-391-9282","addr":"경기도 군포시 부곡동 1218번지 드림스마트타운 101,102,103호","category":"일반휴게음식 - 일반한식"},{"name":"스터디센터","tel":"031-399-7988","addr":"경기도 군포시 부곡동 1218번지 드림스마트타운 202,203호","category":"보건위생 - 기타대인서비스"},{"name":"제주향","tel":"031-456-0356","addr":"경기도 군포시 부곡동 1218번지 드림스마트타운 1층 110호","category":"일반휴게음식 - 일반한식"},{"name":"진낙지마당","tel":"031-111-1111","addr":"경기도 군포시 부곡동 1218번지 1층 104,105호","category":"일반휴게음식 - 일반한식"},{"name":"컴퍼니에이치","tel":"031-397-2400","addr":"경기도 군포시 부곡동 1218번지 드림스마트타운 2층 201호","category":"보건위생 - 화장품"},{"name":"콘센트스터디센터독서실","tel":"031-399-7988","addr":"경기도 군포시 부곡동 1218번지 202,203호","category":"학원 - 독서실"}]},{"lat":"37.336809567","long":"126.93428477","items":[{"name":"도닥","tel":"031-458-7627","addr":"경기도 군포시 부곡동 1215-5번지","category":"주방용구 - 주방용식기"},{"name":"신공인중개사사무소","tel":"031-394-7788","addr":"경기도 군포시 부곡동 1215-5번지","category":"용역 서비스 - 부동산 중개·임대"},{"name":"코코","tel":"031-399-1215","addr":"경기도 군포시 부곡동 1215-5번지 103호","category":"보건위생 - 화장품"}]},{"lat":"37.322226238","long":"126.94190217","items":[{"name":"도도피아노음악교습소","tel":"031-461-2178","addr":"경기도 군포시 부곡동 1134-1번지 1층 일부","category":"학원 - 예·체능계학원"},{"name":"한솔+수학","tel":"031-462-2943","addr":"경기도 군포시 부곡동 1134-1번지 1층 101호","category":"학원 - 보습학원"}]},{"lat":"37.32198309","long":"126.94215057","items":[{"name":"도레미음악학원","tel":"031-422-5091","addr":"경기도 군포시 부곡동 1134-10번지 1층","category":"학원 - 예·체능계학원"}]},{"lat":"37.332424916","long":"126.92507003","items":[{"name":"도로시(DoRoTHY)","tel":"031-394-3239","addr":"경기도 군포시 부곡동 770번지 1층","category":"일반휴게음식 - 서양음식"}]},{"lat":"37.326144861","long":"126.94034199","items":[{"name":"동송루","tel":"031-462-7300","addr":"경기도 군포시 부곡동 1244-4번지 베스트빌딩 202호","category":"일반휴게음식 - 중국식"},{"name":"씨유군포첨단2호점","tel":"080-080-3663","addr":"경기도 군포시 부곡동 1244-4번지 베스트빌딩 103호","category":"유통업 영리 - 편 의 점"},{"name":"자연밥상 한식부페","tel":"031-462-5778","addr":"경기도 군포시 부곡동 1244-4번지 베스트빌딩 2층 201호","category":"일반휴게음식 - 일반한식"},{"name":"장혁민의부대찌개군포점","tel":"031-461-1223","addr":"경기도 군포시 부곡동 1244-4번지 베스트빌딩 203호","category":"일반휴게음식 - 일반한식"},{"name":"주식회사 중앙부동산중개법인","tel":"031-392-2001","addr":"경기도 군포시 부곡동 1244-4번지 베스트빌딩 1층 105호","category":"용역 서비스 - 부동산 중개·임대"}]},{"lat":"37.333587842","long":"126.92600539","items":[{"name":"동진수산","tel":"031-397-1888","addr":"경기도 군포시 부곡동 763번지 1층","category":"음료식품 - 농·축·수산품"},{"name":"부곡수산","tel":"031-397-1888","addr":"경기도 군포시 부곡동 763번지","category":"음료식품 - 농·축·수산품"}]},{"lat":"37.321371225","long":"126.94378695","items":[{"name":"동화세상","tel":"031-748-7326","addr":"경기도 군포시 부곡동 1143-7번지 101호","category":"서적문구 - 일반서적"}]},{"lat":"37.325398295","long":"126.94281349","items":[{"name":"두드림어린이집[아이행복]","tel":"031-462-9906","addr":"경기도 군포시 부곡동 1254번지","category":"학원 - 유아원"},{"name":"라크리마커피군포점","tel":"031-000-0000","addr":"경기도 군포시 부곡동 1254번지 1층 일부호","category":"일반휴게음식 - 서양음식"}]},{"lat":"37.338007698","long":"126.93390001","items":[{"name":"두목커피연구소","tel":"031-618-9019","addr":"경기도 군포시 부곡동 1213-8번지 1층","category":"일반휴게음식 - 서양음식"}]},{"lat":"37.321968769","long":"126.93256082","items":[{"name":"드림인테리어","tel":"031-271-5700","addr":"경기도 군포시 부곡동 1086번지 휴먼시아","category":"건축자재 - 인테리어전문"}]},{"lat":"37.32556004","long":"126.94195589","items":[{"name":"따뜻한밥상","tel":"031-462-2600","addr":"경기도 군포시 부곡동 1252-1번지 1층","category":"일반휴게음식 - 일반한식"}]},{"lat":"37.336926621","long":"126.93414925","items":[{"name":"또봉이통닭 부곡점","tel":"031-393-3024","addr":"경기도 군포시 부곡동 1215-4번지 101호","category":"일반휴게음식 - 스넥"}]},{"lat":"37.337007337","long":"126.93350597","items":[{"name":"똘똘이네 축산유통","tel":"031-391-0188","addr":"경기도 군포시 부곡동 1214-2번지 101호","category":"음료식품 - 정육점"}]},{"lat":"37.321118939","long":"126.94378715","items":[{"name":"로스터틴팅","tel":"031-462-1118","addr":"경기도 군포시 부곡동 1144-3번지","category":"자동차정비 유지 - 자동차부품"},{"name":"유일하이진","tel":"031-438-5088","addr":"경기도 군포시 부곡동 1144-3번지","category":"신변잡화 - 기타잡화"},{"name":"주식회사드림공조","tel":"031-461-3831","addr":"경기도 군포시 부곡동 1144-3번지 102호","category":"용역 서비스 - 기타용역서비스"}]},{"lat":"37.337142377","long":"126.93331401","items":[{"name":"머리맛집","tel":"031-393-5567","addr":"경기도 군포시 부곡동 1214번지 1층 02호","category":"보건위생 - 미용원"}]},{"lat":"37.338088445","long":"126.93331314","items":[{"name":"멜로디음악학원","tel":"031-394-8188","addr":"경기도 군포시 부곡동 1211-3번지","category":"학원 - 예·체능계학원"},{"name":"앤올리브미술교습소","tel":"031-394-8188","addr":"경기도 군포시 부곡동 1211-3번지 1층 일부","category":"학원 - 예·체능계학원"}]},{"lat":"37.321812809","long":"126.94395584","items":[{"name":"명작영상제작실","tel":"031-461-0053","addr":"경기도 군포시 부곡동 1140-3번지 청보빌딩 301호","category":"용역 서비스 - 종합용역"}]},{"lat":"37.323728397","long":"126.93715109","items":[{"name":"모감주 매점","tel":"031-461-0925","addr":"경기도 군포시 부곡동 1094번지 부곡중앙고등학교","category":"음료식품 - 기타음료식품"}]},{"lat":"37.336674225","long":"126.93395765","items":[{"name":"모두의커피와김밥천국","tel":"031-396-0703","addr":"경기도 군포시 부곡동 1214-6번지","category":"일반휴게음식 - 일반한식"},{"name":"신포항막회물회","tel":"031-394-7756","addr":"경기도 군포시 부곡동 1214-6번지","category":"일반휴게음식 - 일반한식"}]},{"lat":"37.322559557","long":"126.94178908","items":[{"name":"모퉁이","tel":"031-461-1758","addr":"경기도 군포시 부곡동 1128-4번지 1층 104호","category":"일반휴게음식 - 일반한식"},{"name":"잉글리시아이부곡중앙영어교습소","tel":"070-8587-9684","addr":"경기도 군포시 부곡동 1128-4번지 1층","category":"회원제형태 - 학원"},{"name":"한솔플러스수학교실부곡중앙수학교습소","tel":"070-4242-0229","addr":"경기도 군포시 부곡동 1128-4번지 1층","category":"회원제형태 - 학원"}]},{"lat":"37.337476769","long":"126.93506279","items":[{"name":"목마르즈","tel":"070-3933-9876","addr":"경기도 군포시 부곡동 1217-6번지 1층","category":"음료식품 - 기타음료식품"}]},{"lat":"37.324399408","long":"126.94531899","items":[{"name":"무봉리 토종순대국","tel":"031-461-8588","addr":"경기도 군포시 부곡동 1124-1번지 1층","category":"일반휴게음식 - 일반한식"},{"name":"무봉리토종순대국","tel":"031-461-8588","addr":"경기도 군포시 부곡동 1124-1번지 1층","category":"일반휴게음식 - 일반한식"}]},{"lat":"37.325370738","long":"126.9417868","items":[{"name":"무진장김치찌개","tel":"","addr":"경기도 군포시 부곡동 1252-5번지 1층","category":"일반휴게음식 - 일반한식"}]},{"lat":"37.322839146","long":"126.94231912","items":[{"name":"뮤엠부곡중앙영어학원","tel":"031-462-8855","addr":"경기도 군포시 부곡동 1129-1번지 1층","category":"학원 - 보습학원"},{"name":"불타는토스트","tel":"031-461-0711","addr":"경기도 군포시 부곡동 1129-1번지 상가 102호","category":"일반휴게음식 - 일반한식"}]},{"lat":"37.326423895","long":"126.93981147","items":[{"name":"미니스톱 군포첨단점","tel":"031-1577-9621","addr":"경기도 군포시 부곡동 1244-2번지 삼덕빌딩 106호","category":"유통업 영리 - 편 의 점"},{"name":"밥사랑한식부페2호점","tel":"031-462-3355","addr":"경기도 군포시 부곡동 1244-2번지 삼덕빌딩 2층 203~206호","category":"일반휴게음식 - 일반한식"},{"name":"밥사랑한식부페2호점","tel":"031-462-3355","addr":"경기도 군포시 부곡동 1244-2번지 삼덕빌딩 2층 203-206호","category":"일반휴게음식 - 일반한식"},{"name":"에스지골프 (군포점)","tel":"031-461-7200","addr":"경기도 군포시 부곡동 1244-2번지 삼덕빌딩 402,403,404,405.406호","category":"레져용품 - 골프용품 전문점"},{"name":"현진골프","tel":"070-8888-1240","addr":"경기도 군포시 부곡동 1244-2번지 삼덕빌딩 402호,403호","category":"레져용품 - 골프용품 전문점"}]},{"lat":"37.336341487","long":"126.93506381","items":[{"name":"미라클요양병원","tel":"031-393-5566","addr":"경기도 군포시 부곡동 1219-3번지","category":"병원 - 병원"}]},{"lat":"37.324712317","long":"126.94048985","items":[{"name":"미르어린이집[아이행복]","tel":"031-462-0313","addr":"경기도 군포시 부곡동 1098번지 휴먼시아","category":"학원 - 유아원"}]},{"lat":"37.337034809","long":"126.934262","items":[{"name":"미소까사","tel":"070-4151-9987","addr":"경기도 군포시 부곡동 1215-7번지 1층 102호","category":"가구 - 기타가구"}]},{"lat":"37.332003281","long":"126.92792521","items":[{"name":"바다향왕코다리 군포점","tel":"","addr":"경기도 군포시 부곡동 751번지 1층","category":"일반휴게음식 - 일반한식"},{"name":"솔향기","tel":"031-461-6719","addr":"경기도 군포시 부곡동 751번지","category":"일반휴게음식 - 일반한식"}]},{"lat":"37.325559824","long":"126.94153843","items":[{"name":"밥과찌개","tel":"031-461-1505","addr":"경기도 군포시 부곡동 1251-1번지 101호","category":"일반휴게음식 - 일반한식"}]},{"lat":"37.322451562","long":"126.94203737","items":[{"name":"별똥별블럭","tel":"031-461-9515","addr":"경기도 군포시 부곡동 1130-9번지 101호","category":"학원 - 기타 교육기관"}]},{"lat":"37.324867828","long":"126.94509298","items":[{"name":"보금","tel":"02-1577-0000","addr":"경기도 군포시 부곡동 1120-4번지 덕원프라자 1층 105~108호","category":"일반휴게음식 - 일반한식"},{"name":"인바이오주식회사","tel":"031-477-6017","addr":"경기도 군포시 부곡동 1120-4번지 덕원프라자 4층 402호","category":"농업 - 비료,사료,종자"},{"name":"피티골프(PT GOLF)","tel":"070-4149-0723","addr":"경기도 군포시 부곡동 1120-4번지 덕원프라자","category":"회원제형태 - 레져업소"}]},{"lat":"37.338224086","long":"126.93414807","items":[{"name":"보람학원","tel":"031-000-0000","addr":"경기도 군포시 부곡동 1213-10번지 1층","category":"학원 - 보습학원"}]},{"lat":"37.321479109","long":"126.94331302","items":[{"name":"보싸마보싸마 의왕점","tel":"031-461-5399","addr":"경기도 군포시 부곡동 1142-2번지 1층","category":"일반휴게음식 - 일반한식"}]},{"lat":"37.337340747","long":"126.93356209","items":[{"name":"복사꽃다방","tel":"031-390-1939","addr":"경기도 군포시 부곡동 1215번지 1층","category":"일반휴게음식 - 서양음식"},{"name":"호텔세탁","tel":"031-382-8284","addr":"경기도 군포시 부곡동 1215번지 1층 101호","category":"수리서비스 - 세탁소"}]},{"lat":"37.339116911","long":"126.93556912","items":[{"name":"복합생활스포츠타운","tel":"031-390-7621","addr":"경기도 군포시 부곡동 1226번지 군포국민체육센터","category":"용역 서비스 - 사무서비스"},{"name":"스카로스포츠 군포점","tel":"031-455-1786","addr":"경기도 군포시 부곡동 1226번지 1층","category":"레져용품 - 스포츠·레져용품"},{"name":"아미스카페5호","tel":"031-427-0555","addr":"경기도 군포시 부곡동 1226번지 1층 일부 군포국민체육센터","category":"일반휴게음식 - 서양음식"}]},{"lat":"37.321398446","long":"126.94417052","items":[{"name":"본래순대 군포부곡점","tel":"031-462-4252","addr":"경기도 군포시 부곡동 1143-4번지 1층","category":"일반휴게음식 - 일반한식"}]},{"lat":"37.321650349","long":"126.94340314","items":[{"name":"본안경","tel":"070-4220-0908","addr":"경기도 군포시 부곡동 1142-1번지 101호,102호","category":"보건위생 - 안경"},{"name":"엘린헤어","tel":"031-461-7177","addr":"경기도 군포시 부곡동 1142-1번지","category":"보건위생 - 미용원"}]},{"lat":"37.322037064","long":"126.9419813","items":[{"name":"봉구시스템","tel":"","addr":"경기도 군포시 부곡동 1134-9번지 1층 102호","category":"건축자재 - 인테리어전문"}]},{"lat":"37.320982945","long":"126.92657104","items":[{"name":"부곡버스공영차고지_버스보조금전용/군포시","tel":"031-390-7652","addr":"경기도 군포시 부곡동 881-1번지 부곡버스공영차고지","category":"기타 - 기타 전문점"}]},{"lat":"37.32578495","long":"126.94129003","items":[{"name":"부곡복권방","tel":"","addr":"경기도 군포시 부곡동 1249-5번지 태진 상가동 102호","category":"음료식품 - 기타음료식품"},{"name":"첨단원공인중개사사무소","tel":"031-427-0322","addr":"경기도 군포시 부곡동 1249-5번지 상가동 1층 101호","category":"용역 서비스 - 부동산 중개·임대"}]},{"lat":"37.323244789","long":"126.94267982","items":[{"name":"부곡정보통신","tel":"031-453-5123","addr":"경기도 군포시 부곡동 1126번지 휴먼시아","category":"사무통신 - 통신기기"}]},{"lat":"37.322703274","long":"126.94093152","items":[{"name":"부곡중앙초등학교병설유치원[아이행복]","tel":"031-462-0654","addr":"경기도 군포시 부곡동 1113번지 부곡중앙초등학교","category":"학원 - 유치원"}]},{"lat":"37.322506425","long":"126.94361683","items":[{"name":"부곡진로마트","tel":"031-462-4449","addr":"경기도 군포시 부곡동 1132-1번지","category":"유통업 영리 - 슈퍼마켓"}]},{"lat":"37.323685925","long":"126.94196868","items":[{"name":"브니엘어린이집[아이행복]","tel":"031-461-0813","addr":"경기도 군포시 부곡동 1098번지 휴먼시아","category":"학원 - 유아원"}]},{"lat":"37.325370826","long":"126.94195604","items":[{"name":"블루블라썸","tel":"031-347-5255","addr":"경기도 군포시 부곡동 1252-2번지 1층 101호","category":"일반휴게음식 - 서양음식"}]},{"lat":"37.321091993","long":"126.9439564","items":[{"name":"블리찌","tel":"031-392-5284","addr":"경기도 군포시 부곡동 1144-4번지 경복팰리스 401호","category":"신변잡화 - 액세서리"}]},{"lat":"37.3227044","long":"126.94312026","items":[{"name":"비비펫미용","tel":"031-461-8147","addr":"경기도 군포시 부곡동 1129-6번지 1층","category":"문화.취미 - 애완동물"}]},{"lat":"37.324163938","long":"126.94289345","items":[{"name":"산길기업(Living way)","tel":"031-461-8913","addr":"경기도 군포시 부곡동 1126번지 휴먼시아","category":"용역 서비스 - 종합용역"}]},{"lat":"37.338169623","long":"126.93345977","items":[{"name":"삼공삼공영어학원","tel":"031-395-3005","addr":"경기도 군포시 부곡동 1211-4번지 파인빌 1층","category":"학원 - 보습학원"}]},{"lat":"37.321785359","long":"126.94312099","items":[{"name":"삼다돈부곡점","tel":"031-461-9990","addr":"경기도 군포시 부곡동 1136-1번지 1층","category":"일반휴게음식 - 일반한식"},{"name":"홈마트","tel":"031-461-2234","addr":"경기도 군포시 부곡동 1136-1번지","category":"유통업 영리 - 슈퍼마켓"}]},{"lat":"37.336448167","long":"126.93259246","items":[{"name":"삼성마을꿈나무어린이집[아이행복]","tel":"031-394-2071","addr":"경기도 군포시 부곡동 1199번지 삼성마을2단지 관리동","category":"학원 - 유아원"},{"name":"진이찬방","tel":"031-399-0555","addr":"경기도 군포시 부곡동 1199번지 삼성마을2단지 상가동 1층 101호","category":"음료식품 - 기타음료식품"}]},{"lat":"37.322758307","long":"126.9428156","items":[{"name":"삼성영수학원","tel":"031-462-2323","addr":"경기도 군포시 부곡동 1129-4번지","category":"학원 - 보습학원"},{"name":"영어숲학원","tel":"031-462-2323","addr":"경기도 군포시 부곡동 1129-4번지 1층","category":"회원제형태 - 학원"}]},{"lat":"37.337537277","long":"126.93072952","items":[{"name":"삼성영어 송정이룸 공부방","tel":"070-8281-4602","addr":"경기도 군포시 부곡동 1201번지 삼성마을4단지","category":"학원 - 기타 교육기관"},{"name":"삼성키즈빌어린이집[아이행복]","tel":"031-397-4879","addr":"경기도 군포시 부곡동 1201번지 삼성마을4단지 관리동","category":"학원 - 유아원"},{"name":"선해캘리그라피디자인","tel":"","addr":"경기도 군포시 부곡동 1201번지 삼성마을4단지","category":"건축자재 - 인테리어전문"},{"name":"셀파우등생교실","tel":"031-387-2379","addr":"경기도 군포시 부곡동 1201번지 삼성마을4단지","category":"학원 - 보습학원"},{"name":"올가스킨","tel":"","addr":"경기도 군포시 부곡동 1201번지 삼성마을4단지 상가동 101호","category":"보건위생 - 화장품"},{"name":"와이샵헤어","tel":"031-398-8053","addr":"경기도 군포시 부곡동 1201번지 삼성마을4단지 상가동 1층 102호","category":"보건위생 - 미용원"}]},{"lat":"37.335922676","long":"126.94376427","items":[{"name":"삼성웰스토리 (주)안양베네스트","tel":"031-288-5078","addr":"경기도 군포시 부곡동 1번지 안양컨트리클럽","category":"일반휴게음식 - 위탁급식업"},{"name":"삼성웰스토리(주)안양베네스트","tel":"031-460-3441","addr":"경기도 군포시 부곡동 1번지 안양컨트리클럽","category":"일반휴게음식 - 위탁급식업"}]},{"lat":"37.337953213","long":"126.93317785","items":[{"name":"삼성이지영어학원","tel":"031-393-8526","addr":"경기도 군포시 부곡동 1211-2번지 1층","category":"학원 - 외국어학원"}]},{"lat":"37.321982717","long":"126.94142852","items":[{"name":"상상그린미술교습소","tel":"031-272-0314","addr":"경기도 군포시 부곡동 1133-4번지 1층 101호","category":"학원 - 예·체능계학원"}]},{"lat":"37.323646795","long":"126.9362373","items":[{"name":"상지문고","tel":"070-4141-4617","addr":"경기도 군포시 부곡동 1091-5번지 1층","category":"서적문구 - 일반서적"}]},{"lat":"37.337917936","long":"126.93448688","items":[{"name":"새우가게","tel":"031-395-8779","addr":"경기도 군포시 부곡동 1217-10번지 1층","category":"일반휴게음식 - 일반한식"}]},{"lat":"37.325370522","long":"126.94136935","items":[{"name":"생극해장곰탕","tel":"","addr":"경기도 군포시 부곡동 1251-5번지 1층","category":"일반휴게음식 - 일반한식"}]},{"lat":"37.336620229","long":"126.93407054","items":[{"name":"선진","tel":"031-477-5551","addr":"경기도 군포시 부곡동 1214-7번지 202호","category":"음료식품 - 농·축·수산품"}]},{"lat":"37.323646712","long":"126.93609063","items":[{"name":"성우수학교습소","tel":"070-8817-7298","addr":"경기도 군포시 부곡동 1091-2번지 1층","category":"회원제형태 - 학원"},{"name":"주식회사 알파메디칼","tel":"031-461-8780","addr":"경기도 군포시 부곡동 1091-2번지 1층 101호","category":"보건위생 - 의료용품"}]},{"lat":"37.32511865","long":"126.94217061","items":[{"name":"소문난감자탕","tel":"031-462-7334","addr":"경기도 군포시 부곡동 1253-5번지 1층 101호","category":"일반휴게음식 - 일반한식"}]},{"lat":"37.321451885","long":"126.94292946","items":[{"name":"소문난순대국","tel":"031-443-9289","addr":"경기도 군포시 부곡동 1136-3번지 1층 101호","category":"일반휴게음식 - 일반한식"}]},{"lat":"37.322357449","long":"126.9346815","items":[{"name":"솔민영어전문공부방","tel":"","addr":"경기도 군포시 부곡동 1086번지 휴먼시아 502동 104호","category":"학원 - 기타 교육기관"}]},{"lat":"37.338223922","long":"126.93386596","items":[{"name":"수리산목공방","tel":"031-399-9940","addr":"경기도 군포시 부곡동 1213-1번지 101호","category":"가구 - 일반가구"}]},{"lat":"37.323218123","long":"126.94340191","items":[{"name":"수와공간","tel":"031-000-0000","addr":"경기도 군포시 부곡동 1126번지 휴먼시아","category":"건축자재 - 인테리어전문"}]},{"lat":"37.337287126","long":"126.93431819","items":[{"name":"숯겹살군포삼성점","tel":"070-7817-0001","addr":"경기도 군포시 부곡동 1216-1번지 카르페디엠 1층 101호","category":"일반휴게음식 - 일반한식"}]},{"lat":"37.32334254","long":"126.94006226","items":[{"name":"숲속해아뜰유치원[아이행복]","tel":"031-461-8080","addr":"경기도 군포시 부곡동 1110-1번지","category":"학원 - 유치원"}]},{"lat":"37.321717366","long":"126.93406157","items":[{"name":"스마일 에듀","tel":"031-395-1176","addr":"경기도 군포시 부곡동 1086번지 휴먼시아5단지아파트 511동 1102호","category":"회원제형태 - 서적"}]},{"lat":"37.322397588","long":"126.94220665","items":[{"name":"시스템리더","tel":"031-461-1465","addr":"경기도 군포시 부곡동 1130-8번지 1층","category":"전기제품 - 냉열기기"},{"name":"해법영어엘리트학원","tel":"070-4409-3601","addr":"경기도 군포시 부곡동 1130-8번지 102,103호","category":"학원 - 보습학원"},{"name":"해법영어엘리트학원","tel":"070-4409-3601","addr":"경기도 군포시 부곡동 1130-8번지 1층 일부","category":"회원제형태 - 학원"}]},{"lat":"37.322226636","long":"126.94268063","items":[{"name":"신부곡화로","tel":"031-461-0202","addr":"경기도 군포시 부곡동 1130-5번지 1층","category":"일반휴게음식 - 일반한식"}]},{"lat":"37.324245887","long":"126.94460832","items":[{"name":"신신","tel":"031-461-1378","addr":"경기도 군포시 부곡동 1126번지 휴먼시아","category":"건축자재 - 보일러·펌프·샷시"}]},{"lat":"37.322064309","long":"126.94239871","items":[{"name":"신한기술","tel":"031-349-5430","addr":"경기도 군포시 부곡동 1134-4번지 1층","category":"서적문구 - 과학기자재"}]},{"lat":"37.321253922","long":"126.94344858","items":[{"name":"쌍용해장국","tel":"031-462-3386","addr":"경기도 군포시 부곡동 1144-1번지 1층","category":"일반휴게음식 - 일반한식"}]},{"lat":"37.337313458","long":"126.93312202","items":[{"name":"씨유군포삼성점","tel":"031-898-6569","addr":"경기도 군포시 부곡동 1210-4번지 101호","category":"유통업 영리 - 편 의 점"}]},{"lat":"37.325587186","long":"126.94218152","items":[{"name":"씨유군포첨단점","tel":"031-446-8967","addr":"경기도 군포시 부곡동 1253-2번지 1층 전체","category":"유통업 영리 - 편 의 점"}]},{"lat":"37.323114829","long":"126.93559468","items":[{"name":"씨유부곡중앙점","tel":"031-461-1774","addr":"경기도 군포시 부곡동 1092-1번지 1층","category":"유통업 영리 - 편 의 점"}]},{"lat":"37.323232325","long":"126.93623766","items":[{"name":"아란치아","tel":"031-462-7438","addr":"경기도 군포시 부곡동 1092-5번지 1층","category":"용역 서비스 - 종합용역"},{"name":"주식회사 올굿","tel":"031-462-4620","addr":"경기도 군포시 부곡동 1092-5번지 1층","category":"음료식품 - 기타음료식품"}]},{"lat":"37.321948018","long":"126.94406855","items":[{"name":"아이센스PC방(부곡점)","tel":"031-000-0000","addr":"경기도 군포시 부곡동 1140-2번지 광장프라자 2층 202호","category":"레저업소 - 기타레져업소"},{"name":"알파학원","tel":"031-462-0507","addr":"경기도 군포시 부곡동 1140-2번지 군포광장프라자 401호","category":"학원 - 보습학원"},{"name":"어부네회수산","tel":"031-461-5577","addr":"경기도 군포시 부곡동 1140-2번지 광장프라자 1층 104호","category":"일반휴게음식 - 일반한식"},{"name":"이모네밥상","tel":"031-000-0000","addr":"경기도 군포시 부곡동 1140-2번지 광장프라자 1층 104호","category":"일반휴게음식 - 일반한식"},{"name":"참조은약국","tel":"031-462-8575","addr":"경기도 군포시 부곡동 1140-2번지 광장프라자 102호","category":"약국 - 약국"},{"name":"참조은약국","tel":"031-462-8575","addr":"경기도 군포시 부곡동 1140-2번지 군포광장프라자 1층","category":"약국 - 약국"},{"name":"청정검도교실","tel":"","addr":"경기도 군포시 부곡동 1140-2번지 광장프라자 3층 301호","category":"학원 - 예·체능계학원"},{"name":"카페우물","tel":"070-7862-1697","addr":"경기도 군포시 부곡동 1140-2번지 군포광장프라자 101호","category":"일반휴게음식 - 서양음식"}]},{"lat":"37.337034664","long":"126.93401374","items":[{"name":"아이유푸드","tel":"031-396-4048","addr":"경기도 군포시 부곡동 1215-3번지 1층","category":"음료식품 - 정육점"}]},{"lat":"37.337259886","long":"126.93395711","items":[{"name":"아인스","tel":"031-398-3440","addr":"경기도 군포시 부곡동 1215-9번지 1층 102호 상가","category":"보건위생 - 미용원"},{"name":"커머스","tel":"031-398-3440","addr":"경기도 군포시 부곡동 1215-9번지 1층","category":"보건위생 - 미용원"}]},{"lat":"37.325199416","long":"126.94153872","items":[{"name":"아향","tel":"031-462-1999","addr":"경기도 군포시 부곡동 1251-3번지 1층","category":"일반휴게음식 - 중국식"}]},{"lat":"37.324147417","long":"126.94592843","items":[{"name":"아향교동","tel":"070-4116-8323","addr":"경기도 군포시 부곡동 1124-5번지 1층","category":"일반휴게음식 - 중국식"}]},{"lat":"37.337395613","long":"126.93495002","items":[{"name":"알앤비(RnB)","tel":"031-395-0624","addr":"경기도 군포시 부곡동 1217-5번지 1층","category":"일반휴게음식 - 서양음식"}]},{"lat":"37.3333096","long":"126.92767567","items":[{"name":"애견미용헤어독","tel":"031-462-9112","addr":"경기도 군포시 부곡동 762-14","category":"문화.취미 - 애완동물"}]},{"lat":"37.325199545","long":"126.94178694","items":[{"name":"약산골순대국","tel":"031-344-7078","addr":"경기도 군포시 부곡동 1252-4번지 1층","category":"일반휴게음식 - 일반한식"}]},{"lat":"37.337864174","long":"126.93500602","items":[{"name":"어죽이네 철렵국","tel":"031-459-3328","addr":"경기도 군포시 부곡동 1212-6번지 1층","category":"일반휴게음식 - 일반한식"},{"name":"어죽이네철렵국","tel":"031-459-3328","addr":"경기도 군포시 부곡동 1212-6번지 1층","category":"일반휴게음식 - 일반한식"}]},{"lat":"37.337422377","long":"126.93448733","items":[{"name":"언더독","tel":"","addr":"경기도 군포시 부곡동 1216-6번지 1층","category":"일반휴게음식 - 서양음식"}]},{"lat":"37.32578505","long":"126.94148184","items":[{"name":"엄마손꼬마김밥","tel":"031-461-7887","addr":"경기도 군포시 부곡동 1249-6번지 1층 102호","category":"일반휴게음식 - 일반한식"}]},{"lat":"37.337224309","long":"126.93475834","items":[{"name":"에스.20 (S.20)","tel":"070-8186-4473","addr":"경기도 군포시 부곡동 1216-4번지 1층","category":"일반휴게음식 - 주점"},{"name":"헤어7번가","tel":"031-391-7721","addr":"경기도 군포시 부곡동 1216-4번지 101호","category":"보건위생 - 미용원"}]},{"lat":"37.322118086","long":"126.94184585","items":[{"name":"에스플래닛","tel":"070-4229-1106","addr":"경기도 군포시 부곡동 1134-8번지 1층","category":"의류 - 정장"},{"name":"유일","tel":"031-462-3160","addr":"경기도 군포시 부곡동 1134-8번지 1층","category":"신변잡화 - 기타잡화"}]},{"lat":"37.33761957","long":"126.93272679","items":[{"name":"엘린","tel":"","addr":"경기도 군포시 부곡동 1210번지 문하우스 101호","category":"보건위생 - 미용원"}]},{"lat":"37.337646967","long":"126.9333474","items":[{"name":"오감만두","tel":"031-394-5556","addr":"경기도 군포시 부곡동 1213-5번지 4층","category":"일반휴게음식 - 일반한식"},{"name":"우리수산","tel":"031-399-8666","addr":"경기도 군포시 부곡동 1213-5, 1층","category":"음료식품 - 농·축·수산품"},{"name":"중앙식자재마트","tel":"031-399-8666","addr":"경기도 군포시 부곡동 1213-5번지","category":"유통업 영리 - 슈퍼마켓"}]},{"lat":"37.322676742","long":"126.94189052","items":[{"name":"오로미아 코리아","tel":"031-462-1149","addr":"경기도 군포시 부곡동 1128-3번지 1층","category":"일반휴게음식 - 서양음식"},{"name":"카페501로스터스","tel":"031-462-1149","addr":"경기도 군포시 부곡동 1128-3번지","category":"일반휴게음식 - 서양음식"}]},{"lat":"37.326700571","long":"126.93503863","items":[{"name":"오작교","tel":"031-461-5630","addr":"경기도 군포시 부곡동 490-1번지","category":"일반휴게음식 - 일반한식"}]},{"lat":"37.337259741","long":"126.93370886","items":[{"name":"오토슈트","tel":"070-4156-0074","addr":"경기도 군포시 부곡동 1215-1번지 1층 101호","category":"자동차정비 유지 - 카인테리어"}]},{"lat":"37.337529535","long":"126.93283971","items":[{"name":"욜로(YOLO)","tel":"","addr":"경기도 군포시 부곡동 1210-1번지 1층","category":"의류 - 정장"}]},{"lat":"37.322784899","long":"126.94195813","items":[{"name":"용인대석사중앙태권도","tel":"031-461-8781","addr":"경기도 군포시 부곡동 1128-2번지 1층","category":"학원 - 예·체능계학원"}]},{"lat":"37.337448955","long":"126.93370869","items":[{"name":"우리동네비어","tel":"","addr":"경기도 군포시 부곡동 1215-11번지 1층","category":"일반휴게음식 - 주점"}]},{"lat":"37.322812196","long":"126.94247709","items":[{"name":"우리비발디음악학원","tel":"031-461-6095","addr":"경기도 군포시 부곡동 1129-2번지","category":"학원 - 예·체능계학원"}]},{"lat":"37.324282717","long":"126.94623295","items":[{"name":"우리종합상사","tel":"031-451-2177","addr":"경기도 군포시 부곡동 1123-5번지 1층","category":"기타 - 기계공구"}]},{"lat":"37.321893356","long":"126.9428727","items":[{"name":"웅카페","tel":"031-461-0619","addr":"경기도 군포시 부곡동 1134-7번지 1층","category":"일반휴게음식 - 서양음식"}]},{"lat":"37.338314109","long":"126.93401257","items":[{"name":"워시프렌즈 셀프빨래방 군포 부곡동점","tel":"","addr":"경기도 군포시 부곡동 1213번지","category":"수리서비스 - 세탁소"}]},{"lat":"37.338395378","long":"126.93431718","items":[{"name":"육십 (60)계군포점","tel":"031-393-9060","addr":"경기도 군포시 부곡동 1212-1번지 1층 101호","category":"일반휴게음식 - 스넥"},{"name":"태후사랑","tel":"031-393-8856","addr":"경기도 군포시 부곡동 1212-1번지 102호","category":"신변잡화 - 기타잡화"},{"name":"태후사랑","tel":"031-393-8856","addr":"경기도 군포시 부곡동 1212-1번지 102호","category":"신변잡화 - 기타잡화"}]},{"lat":"37.321623136","long":"126.94304214","items":[{"name":"의정부명물부대찌개","tel":"031-385-1998","addr":"경기도 군포시 부곡동 1136-2번지 101호","category":"일반휴게음식 - 일반한식"},{"name":"한끼식사","tel":"","addr":"경기도 군포시 부곡동 1136-2번지","category":"일반휴게음식 - 일반한식"}]},{"lat":"37.321676801","long":"126.94226364","items":[{"name":"이정우두루치기삼겹살","tel":"031-461-8899","addr":"경기도 군포시 부곡동 1135-5번지 1층","category":"일반휴게음식 - 일반한식"}]},{"lat":"37.32537061","long":"126.94153859","items":[{"name":"이제이네일","tel":"031-461-5959","addr":"경기도 군포시 부곡동 1251-2번지 101호","category":"보건위생 - 피부미용실"}]},{"lat":"37.321588999","long":"126.93033862","items":[{"name":"자매다육","tel":"031-461-6235","addr":"경기도 군포시 부곡동 864-4","category":"문화.취미 - 화원"}]},{"lat":"37.325784744","long":"126.94089514","items":[{"name":"전주식한식부페","tel":"031-462-1800","addr":"경기도 군포시 부곡동 1249-3번지 1층","category":"일반휴게음식 - 일반한식"}]},{"lat":"37.338007553","long":"126.93365175","items":[{"name":"제이앤비 인터내셔널","tel":"070-7529-8843","addr":"경기도 군포시 부곡동 1213-3번지 202호","category":"신변잡화 - 기타잡화"},{"name":"해법수학셀파수학교실학원","tel":"031-393-1850","addr":"경기도 군포시 부곡동 1213-3번지 1층","category":"학원 - 보습학원"}]},{"lat":"37.337917786","long":"126.93422734","items":[{"name":"조셉파리","tel":"031-394-0908","addr":"경기도 군포시 부곡동 1217번지 주건축물제1동 1층","category":"음료식품 - 제과점"}]},{"lat":"37.322785251","long":"126.94264634","items":[{"name":"조이아트미술학원","tel":"031-461-1884","addr":"경기도 군포시 부곡동 1129-3번지 1층","category":"학원 - 예·체능계학원"}]},{"lat":"37.322731345","long":"126.942951","items":[{"name":"좋은날포차","tel":"031-462-7164","addr":"경기도 군포시 부곡동 1129-5번지 101호","category":"일반휴게음식 - 주점"}]},{"lat":"37.322118283","long":"126.94222944","items":[{"name":"주문진만성횟집","tel":"031-462-4888","addr":"경기도 군포시 부곡동 1134-3번지 101호","category":"일반휴게음식 - 일식·회집"}]},{"lat":"37.324201397","long":"126.94575915","items":[{"name":"주식회사 서암척","tel":"070-7848-9304","addr":"경기도 군포시 부곡동 1124-4번지 103호","category":"서적문구 - 문구용품"}]},{"lat":"37.321011341","long":"126.94484773","items":[{"name":"주식회사 선호메딕스","tel":"031-461-0606","addr":"경기도 군포시 부곡동 1141-4번지 부일빌딩 406호","category":"보건위생 - 의료용품"},{"name":"주식회사 제이피메디칼","tel":"031-689-5789","addr":"경기도 군포시 부곡동 1141-4번지 부일빌딩 305호","category":"보건위생 - 화장품"}]},{"lat":"37.325504003","long":"126.93823268","items":[{"name":"주식회사 지원테크","tel":"031-429-4868","addr":"경기도 군포시 부곡동 1234-5번지","category":"전기제품 - 기타전기제품"}]},{"lat":"37.324616132","long":"126.94631168","items":[{"name":"주식회사아이포인트","tel":"070-8285-4907","addr":"경기도 군포시 부곡동 1123-3번지","category":"용역 서비스 - 종합용역"}]},{"lat":"37.321560399","long":"126.94370783","items":[{"name":"짝","tel":"","addr":"경기도 군포시 부곡동 1143-1번지 1층","category":"일반휴게음식 - 주점"}]},{"lat":"37.321343917","long":"126.94323416","items":[{"name":"차이나","tel":"031-462-7000","addr":"경기도 군포시 부곡동 1142-3번지 101,102호","category":"일반휴게음식 - 중국식"},{"name":"힐링헤어샵","tel":"031-461-2727","addr":"경기도 군포시 부곡동 1142-3번지 101호","category":"보건위생 - 미용원"}]},{"lat":"37.337783167","long":"126.93515279","items":[{"name":"창의블럭","tel":"031-000-0000","addr":"경기도 군포시 부곡동 1212-7번지 1층 101호","category":"학원 - 기타 교육기관"}]},{"lat":"37.33664804","long":"126.93542463","items":[{"name":"책속놀이터","tel":"031-393-5500","addr":"경기도 군포시 부곡동 1219-5번지 지하1층","category":"일반휴게음식 - 스넥"}]},{"lat":"37.321032221","long":"126.93343041","items":[{"name":"천사나라어린이집[아이행복]","tel":"031-461-1191","addr":"경기도 군포시 부곡동 827번지","category":"학원 - 유아원"}]},{"lat":"37.324975484","long":"126.94414517","items":[{"name":"체리빈스군포부곡점","tel":"","addr":"경기도 군포시 부곡동 1119번지 거성아우룸팰리스1차 2층 201호","category":"일반휴게음식 - 서양음식"}]},{"lat":"37.338007953","long":"126.9343401","items":[{"name":"최순녀봉평메밀막국수","tel":"031-399-3305","addr":"경기도 군포시 부곡동 1217-11번지 아르노빌 1층","category":"일반휴게음식 - 일반한식"}]},{"lat":"37.33792654","long":"126.93378724","items":[{"name":"카스킨 코리아","tel":"031-111-1111","addr":"경기도 군포시 부곡동 1213-7번지 101호","category":"자동차정비 유지 - 카인테리어"}]},{"lat":"37.32525326","long":"126.94112123","items":[{"name":"카페위로","tel":"","addr":"경기도 군포시 부곡동 1250-3번지 1층","category":"일반휴게음식 - 서양음식"}]},{"lat":"37.338008247","long":"126.9348479","items":[{"name":"카페토닥토닥","tel":"031-393-2613","addr":"경기도 군포시 부곡동 1212-5번지","category":"일반휴게음식 - 서양음식"}]},{"lat":"37.338115741","long":"126.9337645","items":[{"name":"칸타빌레음악학원","tel":"031-399-2678","addr":"경기도 군포시 부곡동 1213-2번지 1층","category":"학원 - 예·체능계학원"}]},{"lat":"37.32575763","long":"126.9407372","items":[{"name":"커피에반하다 군포첨단산업단지점","tel":"","addr":"경기도 군포시 부곡동 1249-2번지 1층","category":"일반휴게음식 - 서양음식"}]},{"lat":"37.338503421","long":"126.93418167","items":[{"name":"커피와그랬대","tel":"031-398-3293","addr":"경기도 군포시 부곡동 1212번지 101호","category":"일반휴게음식 - 서양음식"}]},{"lat":"37.325559952","long":"126.94178665","items":[{"name":"커피타임","tel":"070-4649-1101","addr":"경기도 군포시 부곡동 1252번지 1층","category":"일반휴게음식 - 서양음식"}]},{"lat":"37.324093421","long":"126.94606386","items":[{"name":"커피페이지(Coffee Page)","tel":"031-459-4865","addr":"경기도 군포시 부곡동 1124-6번지","category":"일반휴게음식 - 서양음식"}]},{"lat":"37.336926312","long":"126.93361889","items":[{"name":"크린토피아 당동삼성마을점","tel":"031-391-2999","addr":"경기도 군포시 부곡동 1214-3번지 1층","category":"수리서비스 - 세탁소"}]},{"lat":"37.323178073","long":"126.93589924","items":[{"name":"클라비어음악교습소","tel":"031-000-0000","addr":"경기도 군포시 부곡동 1092-3번지 1동 101층","category":"학원 - 예·체능계학원"},{"name":"헤어다온","tel":"031-461-1259","addr":"경기도 군포시 부곡동 1092-3번지 1층 102호","category":"보건위생 - 미용원"}]},{"lat":"37.32528084","long":"126.94218176","items":[{"name":"택이네조개전골 (부곡점)","tel":"031-462-8892","addr":"경기도 군포시 부곡동 1253-4번지","category":"일반휴게음식 - 일반한식"}]},{"lat":"37.337584814","long":"126.93492728","items":[{"name":"토담갈비","tel":"031-398-9889","addr":"경기도 군포시 부곡동 1217-7번지 101호","category":"일반휴게음식 - 일반한식"}]},{"lat":"37.334166455","long":"126.9290853","items":[{"name":"토브키즈어린이집[아이행복]","tel":"031-399-3888","addr":"경기도 군포시 부곡동 1181번지 삼성마을","category":"학원 - 유아원"}]},{"lat":"37.336836289","long":"126.93375438","items":[{"name":"파리바게뜨 (군포삼성마을점)","tel":"031-394-8240","addr":"경기도 군포시 부곡동 1214-4번지 1층 102호","category":"음료식품 - 제과점"}]},{"lat":"37.32217294","long":"126.94340273","items":[{"name":"펀비어킹군포부곡점","tel":"031-462-5552","addr":"경기도 군포시 부곡동 1132-3번지 1층","category":"일반휴게음식 - 스넥"}]},{"lat":"37.338314352","long":"126.9344301","items":[{"name":"편의점사랑삼성점","tel":"031-393-7813","addr":"경기도 군포시 부곡동 1212-2번지 1층","category":"유통업 영리 - 슈퍼마켓"}]},{"lat":"37.337926395","long":"126.93353898","items":[{"name":"피아노리음악학원","tel":"","addr":"경기도 군포시 부곡동 1213-4번지 101호","category":"학원 - 예·체능계학원"}]},{"lat":"37.323658432","long":"126.9410774","items":[{"name":"하나뷰티라인","tel":"02-419-0045","addr":"경기도 군포시 부곡동 1098번지 휴먼시아","category":"보건위생 - 화장품"}]},{"lat":"37.325343291","long":"126.94098576","items":[{"name":"하정해장국","tel":"","addr":"경기도 군포시 부곡동 1250-4번지 1층","category":"일반휴게음식 - 일반한식"}]},{"lat":"37.326730127","long":"126.93959684","items":[{"name":"한국산업포장","tel":"031-462-8080","addr":"경기도 군포시 부곡동 403","category":"기타 - 기타 전문점"}]},{"lat":"37.334481209","long":"126.92812586","items":[{"name":"한국폴리","tel":"031-501-9444","addr":"경기도 군포시 부곡동 1181번지 삼성마을","category":"자동차정비 유지 - 자동차부품"}]},{"lat":"37.322289621","long":"126.94251135","items":[{"name":"함박우렁쌈밥","tel":"031-462-2822","addr":"경기도 군포시 부곡동 1130-6번지 1층","category":"일반휴게음식 - 일반한식"}]},{"lat":"37.333480223","long":"126.92678408","items":[{"name":"현수통상","tel":"031-458-8862","addr":"경기도 군포시 부곡동 1183번지","category":"자동차정비 유지 - 자동차시트·타이어"}]},{"lat":"37.321758175","long":"126.94281639","items":[{"name":"홍가네대족발","tel":"031-461-7711","addr":"경기도 군포시 부곡동 1134-14번지 1층 101호","category":"일반휴게음식 - 일반한식"}]},{"lat":"37.323699694","long":"126.93420643","items":[{"name":"휴먼마트","tel":"031-461-9477","addr":"경기도 군포시 부곡동 1080번지 휴먼시아 상가동 102,0번지","category":"유통업 영리 - 슈퍼마켓"},{"name":"휴먼시아어린이집[아이행복]","tel":"031-461-7877","addr":"경기도 군포시 부곡동 1080번지","category":"학원 - 유아원"}]}]