[{"lat":"37.47846925","long":"127.2791442","items":[{"name":"Dimanche Farm(디망쉬농장)","tel":"031-768-1288","addr":"경기도 광주시 남종면 삼성리 382-1번지","category":"음료식품 - 농·축·수산품"}]},{"lat":"37.49329966","long":"127.2829417","items":[{"name":"The 쉼","tel":"031-765-6345","addr":"경기도 광주시 남종면 삼성리 300-1번지","category":"신변잡화 - 기타잡화"}]},{"lat":"37.47977454","long":"127.2796352","items":[{"name":"농업회사 주식회사 보경","tel":"031-0000-0000","addr":"경기도 광주시 남종면 삼성리 370-5번지","category":"음료식품 - 농·축·수산품"}]},{"lat":"37.48402219","long":"127.2817764","items":[{"name":"농업회사법인(주)자연에서배우는사람들","tel":"031-0000-0000","addr":"경기도 광주시 남종면 삼성리 200-3번지","category":"음료식품 - 기타음료식품"}]},{"lat":"37.47880451","long":"127.2783315","items":[{"name":"농업회사법인(주)파머스대디(Farmer's Dadd","tel":"070-8154-7923","addr":"경기도 광주시 남종면 삼성리 380번지","category":"음료식품 - 농·축·수산품"}]},{"lat":"37.48157873","long":"127.2786921","items":[{"name":"라온농장","tel":"031-765-1562","addr":"경기도 광주시 남종면 삼성리 356","category":"음료식품 - 농·축·수산품"}]},{"lat":"37.47810809","long":"127.2794707","items":[{"name":"무명","tel":"031-768-1288","addr":"경기도 광주시 남종면 삼성리 410-4번지","category":"일반휴게음식 - 서양음식"}]},{"lat":"37.47338676","long":"127.2756436","items":[{"name":"삼성리 농원","tel":"031-999-9999","addr":"경기도 광주시 남종면 삼성리 420-1번지","category":"음료식품 - 농·축·수산품"}]},{"lat":"37.47360511","long":"127.2707834","items":[{"name":"삼정리농원","tel":"031-791-9303","addr":"경기도 광주시 남종면 삼성리 430번지","category":"레저업소 - 기타레져업소"}]},{"lat":"37.47407963","long":"127.2760305","items":[{"name":"태현농산","tel":"","addr":"경기도 광주시 남종면 삼성리 418번지","category":"음료식품 - 미곡상"}]},{"lat":"37.4842199","long":"127.2857796","items":[{"name":"팔당커피농장(주)농업회사법인","tel":"031-797-4577","addr":"경기도 광주시 남종면 삼성리 227","category":"음료식품 - 농·축·수산품"}]},{"lat":"37.49165852","long":"127.2835009","items":[{"name":"향아농원","tel":"031-765-1562","addr":"경기도 광주시 남종면 삼성리 291-51번지","category":"음료식품 - 농·축·수산품"}]}]