[{"lat":"37.002885171","long":"127.26832518","items":[{"name":"(주)안성지하수","tel":"031-675-4815","addr":"경기도 안성시 신흥동 207-168번지","category":"용역 서비스 - 기타용역서비스"}]},{"lat":"37.003303573","long":"127.27059606","items":[{"name":"(주)페이펀","tel":"031-1661-3262","addr":"경기도 안성시 신흥동 228-1번지","category":"회원제형태 - 기타4"},{"name":"채림이네반찬","tel":"","addr":"경기도 안성시 신흥동 228-1번지","category":"음료식품 - 기타음료식품"}]},{"lat":"37.002804277","long":"127.26823503","items":[{"name":"대흥유통","tel":"031-673-6171","addr":"경기도 안성시 신흥동 207-74번지 1층","category":"유통업 영리 - 기타유통업"}]},{"lat":"37.003244363","long":"127.26887694","items":[{"name":"동원설비","tel":"031-672-2144","addr":"경기도 안성시 신흥동 434","category":"회원제형태 - 기타4"}]},{"lat":"37.003108322","long":"127.26926968","items":[{"name":"두꺼비인쇄광고기획","tel":"031-673-7085","addr":"경기도 안성시 신흥동 427-1번지","category":"서적문구 - 출판 및 인쇄물"}]},{"lat":"37.002134799","long":"127.2694348","items":[{"name":"뚝방당구장","tel":"031-671-0880","addr":"경기도 안성시 신흥동 207-60번지","category":"레저업소 - 당 구 장"}]},{"lat":"37.002687189","long":"127.26821215","items":[{"name":"봉수아피자 안성1호점","tel":"031-676-1118","addr":"경기도 안성시 신흥동 207-72번지 1층","category":"일반휴게음식 - 서양음식"},{"name":"안성종합타이어","tel":"031-674-6611","addr":"경기도 안성시 신흥동 207-72번지","category":"자동차정비 유지 - 자동차부품"}]},{"lat":"37.002940189","long":"127.26789846","items":[{"name":"삼성인쇄기획","tel":"031-675-3671","addr":"경기도 안성시 신흥동 207-305번지","category":"용역 서비스 - 종합용역"}]},{"lat":"37.002298175","long":"127.26890734","items":[{"name":"샛별전자","tel":"031-675-8222","addr":"경기도 안성시 신흥동 207-66번지","category":"건축자재 - 조명기구"}]},{"lat":"37.003162839","long":"127.26906764","items":[{"name":"시스컴","tel":"031-676-3909","addr":"경기도 안성시 신흥동 432번지","category":"사무통신 - 컴퓨터"},{"name":"위아이디","tel":"031-673-2781","addr":"경기도 안성시 신흥동 432번지","category":"건축자재 - 인테리어전문"}]},{"lat":"37.002664631","long":"127.27023431","items":[{"name":"아르떼 Bin","tel":"02-438-2332","addr":"경기도 안성시 신흥동 212-2번지","category":"문화.취미 - 문화취미기타"}]},{"lat":"37.001916625","long":"127.27028787","items":[{"name":"오륙도","tel":"031-671-8090","addr":"경기도 안성시 신흥동 207-47번지","category":"일반휴게음식 - 일반한식"}]},{"lat":"37.00277556","long":"127.26898765","items":[{"name":"제이엠산업","tel":"031-673-0079","addr":"경기도 안성시 신흥동 207-144번지","category":"신변잡화 - 기타잡화"}]},{"lat":"37.002528839","long":"127.27051471","items":[{"name":"종합신문","tel":"031-675-4717","addr":"경기도 안성시 신흥동 210번지","category":"서적문구 - 정기간행물"},{"name":"홍콩반점","tel":"031-676-8437","addr":"경기도 안성시 신흥동 210번지","category":"일반휴게음식 - 중국식"}]},{"lat":"37.003084233","long":"127.26795513","items":[{"name":"청구목공소","tel":"031-675-9020","addr":"경기도 안성시 신흥동 207-81번지","category":"건축자재 - 기타건축자재"}]},{"lat":"37.002715149","long":"127.26779656","items":[{"name":"한강수퍼","tel":"031-672-2326","addr":"경기도 안성시 신흥동 207-89번지","category":"유통업 영리 - 슈퍼마켓"}]}]