[{"lat":"37.40361303","long":"126.95797582","items":[{"name":"(주)그린온","tel":"02-6010-7735","addr":"경기도 안양시 동안구 관악대로","category":"용역 서비스 - 종합용역"}]},{"lat":"37.403163337","long":"126.96016717","items":[{"name":"(주)씨앤피","tel":"031-384-6773","addr":"경기도 안양시 동안구 관악대로","category":"용역 서비스 - 종합용역"}]},{"lat":"37.401383358","long":"126.94806105","items":[{"name":"(주)오크피아","tel":"031-87-4600","addr":"경기도 안양시 동안구 관악대로 225","category":"가구 - 일반가구"}]},{"lat":"37.404470827","long":"126.96311428","items":[{"name":"JS합성오일전문점/세차","tel":"031-422-4435","addr":"경기도 안양시 동안구 관악대로","category":"자동차정비 유지 - 세차장"}]},{"lat":"37.402383968","long":"126.97533561","items":[{"name":"글로벌안과의원","tel":"031-426-1004","addr":"경기도 안양시 동안구 관악대로","category":"의원 - 의원"},{"name":"본죽(인덕원점)","tel":"031-347-6288","addr":"경기도 안양시 동안구 관악대로","category":"일반휴게음식 - 일반한식"},{"name":"아모레카운셀러","tel":"031-421-0070","addr":"경기도 안양시 동안구 관악대로","category":"보건위생 - 화장품"},{"name":"아모레카운셀러","tel":"031-421-0070","addr":"경기도 안양시 동안구 관악대로","category":"보건위생 - 화장품"}]},{"lat":"37.40294239","long":"126.97447705","items":[{"name":"김가네김밥(인덕원역점)","tel":"031-426-8253","addr":"경기도 안양시 동안구 관악대로","category":"일반휴게음식 - 스넥"},{"name":"조은DC백화점","tel":"031-426-1981","addr":"경기도 안양시 동안구 관악대로","category":"신변잡화 - 기타잡화"},{"name":"클랙잭등산복","tel":"031-424-0163","addr":"경기도 안양시 동안구 관악대로","category":"레져용품 - 스포츠·레져용품"}]},{"lat":"37.399830906","long":"126.94248308","items":[{"name":"뉴스본아","tel":"031-474-1100","addr":"경기도 안양시 동안구 관악대로","category":"보건위생 - 화장품"},{"name":"예담플라워","tel":"031-385-2032","addr":"경기도 안양시 동안구 관악대로","category":"문화.취미 - 화원"}]},{"lat":"37.405049611","long":"126.97008269","items":[{"name":"다온플라워","tel":"031-421-0400","addr":"경기도 안양시 동안구 관악대로","category":"문화.취미 - 화원"},{"name":"커텐나라","tel":"031-427-0737","addr":"경기도 안양시 동안구 관악대로","category":"건축자재 - 인테리어전문"}]},{"lat":"37.403524372","long":"126.96195147","items":[{"name":"대림사","tel":"031-341-2559","addr":"경기도 안양시 동안구 관악대로","category":"보건위생 - 미용재료"}]},{"lat":"37.404084157","long":"126.96545242","items":[{"name":"더네일스(The Neils)","tel":"031-346-9087","addr":"경기도 안양시 동안구 관악대로","category":"보건위생 - 화장품"}]},{"lat":"37.403217492","long":"126.96042691","items":[{"name":"동안할인문구","tel":"031-388-4184","addr":"경기도 안양시 동안구 관악대로","category":"서적문구 - 문구용품"}]},{"lat":"37.400667319","long":"126.9395686","items":[{"name":"러블리헤어","tel":"","addr":"경기도 안양시 동안구 관악대로","category":"보건위생 - 미용원"},{"name":"머리한데이","tel":"031-444-1772","addr":"경기도 안양시 동안구 관악대로","category":"보건위생 - 미용원"},{"name":"숲속작은집","tel":"031-342-1793","addr":"경기도 안양시 동안구 관악대로","category":"직물 - 카페트,커튼,천막,지물"},{"name":"이멘토영어교습소","tel":"031-465-9898","addr":"경기도 안양시 동안구 관악대로","category":"회원제형태 - 학원"}]},{"lat":"37.404328666","long":"126.96958605","items":[{"name":"법무사장병환사무소","tel":"031-426-3211","addr":"경기도 안양시 동안구 관악대로","category":"용역 서비스 - 법률회계서비스(개인)"},{"name":"세모스쿠알렌 과천지점","tel":"031-423-7578","addr":"경기도 안양시 동안구 관악대로","category":"보건위생 - 화장품"}]},{"lat":"37.401022723","long":"126.94756439","items":[{"name":"베스트올 우리병원점","tel":"070-4123-3305","addr":"경기도 안양시 동안구 관악대로","category":"음료식품 - 기타음료식품"},{"name":"커피홀","tel":"070-4123-3305","addr":"경기도 안양시 동안구 관악대로","category":"일반휴게음식 - 서양음식"}]},{"lat":"37.403974455","long":"126.96075402","items":[{"name":"베이커리듀팡","tel":"031-426-8333","addr":"경기도 안양시 동안구 관악대로","category":"음료식품 - 제과점"}]},{"lat":"37.403911247","long":"126.96037005","items":[{"name":"복수선","tel":"031-469-7773","addr":"경기도 안양시 동안구 관악대로","category":"수리서비스 - 세탁소"}]},{"lat":"37.404328611","long":"126.96939404","items":[{"name":"부림노래연습장","tel":"031-421-8668","addr":"경기도 안양시 동안구 관악대로","category":"레저업소 - 노 래 방"}]},{"lat":"37.403082004","long":"126.95950086","items":[{"name":"상쾌한항외과카페테리아","tel":"031-425-7282","addr":"경기도 안양시 동안구 관악대로","category":"일반휴게음식 - 스넥"}]},{"lat":"37.398916257","long":"126.93401362","items":[{"name":"샘모루약국","tel":"031-442-9905","addr":"경기도 안양시 동안구 관악대로","category":"약국 - 약국"},{"name":"심미치과의원","tel":"031-441-6293","addr":"경기도 안양시 동안구 관악대로","category":"의원 - 치과의원"},{"name":"터닝포인트짐","tel":"031-465-9220","addr":"경기도 안양시 동안구 관악대로","category":"레져용품 - 스포츠·레져용품"}]},{"lat":"37.404190905","long":"126.96134121","items":[{"name":"서울신세계약국","tel":"031-4229-734","addr":"경기도 안양시 동안구 관악대로","category":"약국 - 약국"}]},{"lat":"37.404473286","long":"126.97125756","items":[{"name":"세영(온새미로)","tel":"031-424-7773","addr":"경기도 안양시 동안구 관악대로","category":"신변잡화 - 기타잡화"}]},{"lat":"37.404473256","long":"126.97114461","items":[{"name":"수헤어 su hair","tel":"031-384-3949","addr":"경기도 안양시 동안구 관악대로","category":"보건위생 - 미용원"}]},{"lat":"37.405049497","long":"126.96967608","items":[{"name":"아리랑","tel":"031-425-3242","addr":"경기도 안양시 동안구 관악대로","category":"의류 - 맞춤복점"}]},{"lat":"37.402495191","long":"126.95645178","items":[{"name":"아이잼평촌학원","tel":"031-388-1232","addr":"경기도 안양시 동안구 관악대로","category":"회원제형태 - 학원"}]},{"lat":"37.398808004","long":"126.93378785","items":[{"name":"엠아이실용음악학원","tel":"031-466-6508","addr":"경기도 안양시 동안구 관악대로","category":"회원제형태 - 학원"},{"name":"파라투스학원","tel":"031-385-0030","addr":"경기도 안양시 동안구 관악대로","category":"회원제형태 - 학원"}]},{"lat":"37.403912555","long":"126.96417624","items":[{"name":"우드피아가구 안양점","tel":"031-422-8164","addr":"경기도 안양시 동안구 관악대로","category":"가구 - 일반가구"}]},{"lat":"37.399029512","long":"126.94347756","items":[{"name":"우리수산산오징어","tel":"031-476-7400","addr":"경기도 안양시 동안구 관악대로","category":"일반휴게음식 - 일식·회집"}]},{"lat":"37.402637844","long":"126.95275851","items":[{"name":"원일24시셀프세차장","tel":"031-384-0046","addr":"경기도 안양시 동안구 관악대로","category":"자동차정비 유지 - 세차장"}]},{"lat":"37.397717126","long":"126.9326708","items":[{"name":"유연식품","tel":"031-468-7582","addr":"경기도 안양시 동안구 관악대로","category":"건강식품 - 기타건강식품"}]},{"lat":"37.40475077","long":"126.96503419","items":[{"name":"인쇄박사","tel":"031-457-0033","addr":"경기도 안양시 동안구 관악대로","category":"서적문구 - 출판 및 인쇄물"}]},{"lat":"37.404192692","long":"126.9667851","items":[{"name":"일룸 평촌전시장","tel":"031-426-9470","addr":"경기도 안양시 동안구 관악대로","category":"가구 - 일반가구"}]},{"lat":"37.404416541","long":"126.96244794","items":[{"name":"정관장홍삼관양점","tel":"031-425-2303","addr":"경기도 안양시 동안구 관악대로","category":"건강식품 - 홍삼제품"}]},{"lat":"37.40405694","long":"126.96486512","items":[{"name":"제우스당구장","tel":"031-426-3535","addr":"경기도 안양시 동안구 관악대로","category":"레저업소 - 당 구 장"}]},{"lat":"37.399363386","long":"126.94448244","items":[{"name":"크린토피아 비산삼호점","tel":"031-387-2040","addr":"경기도 안양시 동안구 관악대로","category":"수리서비스 - 세탁소"}]},{"lat":"37.404940821","long":"126.96775607","items":[{"name":"큰옷크레빅평촌점","tel":"031-421-1663","addr":"경기도 안양시 동안구 관악대로","category":"의류 - 정장"}]},{"lat":"37.404913632","long":"126.96722524","items":[{"name":"킴스스포츠(KIM`S SPORTS)","tel":"031-422-0904","addr":"경기도 안양시 동안구 관악대로","category":"레져용품 - 스포츠·레져용품"}]},{"lat":"37.399083877","long":"126.94408738","items":[{"name":"파로스","tel":"031-422-3681","addr":"경기도 안양시 동안구 관악대로","category":"전기제품 - 기타전기제품"}]},{"lat":"37.400527416","long":"126.94809556","items":[{"name":"한동정보통신","tel":"031-426-3883","addr":"경기도 안양시 동안구 관악대로","category":"사무통신 - 통신기기"}]},{"lat":"37.405112304","long":"126.96874991","items":[{"name":"해천대게킹크랩","tel":"031-421-5770","addr":"경기도 안양시 동안구 관악대로","category":"일반휴게음식 - 일반한식"}]},{"lat":"37.402140818","long":"126.97586652","items":[{"name":"환상비책","tel":"070-7005-2288","addr":"경기도 안양시 동안구 관악대로","category":"보건위생 - 화장품"}]}]