[{"lat":"37.30950669","long":"126.8953252","items":[{"name":"(유)미래유통","tel":"070-4917-5741","addr":"경기도 안산시 상록구 팔곡일동 124-5번지","category":"신변잡화 - 기타잡화"},{"name":"찬송유통","tel":"070-5356-6363","addr":"경기도 안산시 상록구 팔곡일동 124-5번지","category":"신변잡화 - 기타잡화"}]},{"lat":"37.298984485","long":"126.88760304","items":[{"name":"(주)육일축산","tel":"031-502-9292","addr":"경기도 안산시 상록구 팔곡일동 577-1번지","category":"음료식품 - 정육점"}]},{"lat":"37.302596978","long":"126.89657575","items":[{"name":"(주)윤성하우징","tel":"031-1566-0495","addr":"경기도 안산시 상록구 팔곡일동 299-1번지","category":"용역 서비스 - 기타용역서비스"}]},{"lat":"37.307342011","long":"126.8929031","items":[{"name":"(주)자연유통","tel":"031-000-0000","addr":"경기도 안산시 상록구 팔곡일동 309번지","category":"음료식품 - 농·축·수산품"}]},{"lat":"37.312477651","long":"126.89270385","items":[{"name":"(주)한국광고시설산업","tel":"031-484-9600","addr":"경기도 안산시 상록구 팔곡일동 91-2번지 102호","category":"용역 서비스 - 종합용역"}]},{"lat":"37.297759434","long":"126.88795454","items":[{"name":"(주)한백티엔씨","tel":"031-411-2616","addr":"경기도 안산시 상록구 팔곡일동 571-22번지","category":"기타 - 기타 전문점"}]},{"lat":"37.30317212","long":"126.89490561","items":[{"name":"가까운농장","tel":"","addr":"경기도 안산시 상록구 팔곡일동 323-15번지","category":"음료식품 - 농·축·수산품"}]},{"lat":"37.3053121423","long":"126.9000685923","items":[{"name":"가나디자인","tel":"","addr":"경기도 안산시 상록구 팔곡일동 262-7번지","category":"건설업 - 인테리어"}]},{"lat":"37.301144181","long":"126.89420921","items":[{"name":"거승종합상사","tel":"031-502-7579","addr":"경기도 안산시 상록구 팔곡일동 332-6","category":"신변잡화 - 기타잡화"}]},{"lat":"37.306094399","long":"126.89820638","items":[{"name":"경기모바일과학고등학교","tel":"031-400-6707","addr":"경기도 안산시 상록구 팔곡일동 253번지 경기모바일과학고등학교","category":"학원 - 초중고교육기관"},{"name":"경기모바일과학고등학교 매점","tel":"031-754-2580","addr":"경기도 안산시 상록구 팔곡일동 253번지 2층","category":"음료식품 - 기타음료식품"},{"name":"경기모바일과학고등학교_수업료","tel":"031-400-6707","addr":"경기도 안산시 상록구 팔곡일동 253번지 경기모바일과학고등학교","category":"학원 - 초중고교육기관"}]},{"lat":"37.298146556","long":"126.88762687","items":[{"name":"금강창호산업","tel":"031-438-4677","addr":"경기도 안산시 상록구 팔곡일동 568-1번지","category":"건축자재 - 보일러·펌프·샷시"}]},{"lat":"37.297678101","long":"126.88770654","items":[{"name":"김밥나라","tel":"031-438-0025","addr":"경기도 안산시 상록구 팔곡일동 568-6번지","category":"일반휴게음식 - 스넥"},{"name":"다나치과","tel":"031-409-2875","addr":"경기도 안산시 상록구 팔곡일동 568-6번지 예일빌딩 상가 1동 2층","category":"의원 - 치과의원"},{"name":"대성슈퍼","tel":"031-415-3372","addr":"경기도 안산시 상록구 팔곡일동 568-6번지 예일빌딩 1층 4호","category":"유통업 영리 - 슈퍼마켓"},{"name":"라인시스템","tel":"031-419-2945","addr":"경기도 안산시 상록구 팔곡일동 568-6번지 예일빌딩","category":"기타 - 기계공구"},{"name":"명품왕화로구이","tel":"031-407-7798","addr":"경기도 안산시 상록구 팔곡일동 568-6번지 예일빌딩 2동 1층","category":"일반휴게음식 - 일반한식"},{"name":"미니스톱안산대성점","tel":"031-1577-9621","addr":"경기도 안산시 상록구 팔곡일동 568-6번지 예일빌딩 1층 4호","category":"유통업 영리 - 편 의 점"},{"name":"불로불러참숯바베큐","tel":"031-438-2292","addr":"경기도 안산시 상록구 팔곡일동 568-6번지 예일빌딩 101호","category":"일반휴게음식 - 스넥"},{"name":"불로불러참숯바베큐","tel":"031-438-2922","addr":"경기도 안산시 상록구 팔곡일동 568-6번지 예일빌딩 1층","category":"일반휴게음식 - 일반한식"},{"name":"세븐당구장","tel":"031-438-2292","addr":"경기도 안산시 상록구 팔곡일동 568-6번지 예일빌딩 202호","category":"레저업소 - 당 구 장"},{"name":"조은팬시","tel":"031-501-5853","addr":"경기도 안산시 상록구 팔곡일동 568-6번지 예일빌딩 지층 101호","category":"서적문구 - 문구용품"},{"name":"팔곡연세의원","tel":"031-437-8781","addr":"경기도 안산시 상록구 팔곡일동 568-6번지 예일빌딩 101동 102호","category":"의원 - 의원"},{"name":"프리스타일","tel":"031-502-7778","addr":"경기도 안산시 상록구 팔곡일동 568-6번지 외3필지 예일빌딩 104호","category":"보건위생 - 미용원"},{"name":"행복약국","tel":"031-502-3380","addr":"경기도 안산시 상록구 팔곡일동 568-6번지 예일빌딩 105호","category":"약국 - 약국"}]},{"lat":"37.2976781010","long":"126.8877065386","items":[{"name":"김밥나라","tel":"031-438-0025","addr":"경기도 안산시 상록구 팔곡일동 568-6번지","category":"숙박 및 음식점업 - 한식"},{"name":"불로불로치킨","tel":"","addr":"경기도 안산시 상록구 팔곡일동 568-6번지","category":"숙박 및 음식점업 - 치킨"},{"name":"팔곡연세의원","tel":"031-437-8781","addr":"경기도 안산시 상록구 팔곡일동 568-6번지","category":"보건업 및 사회복지서비스업 - 내과,"},{"name":"행복약국","tel":"031-502-3380","addr":"경기도 안산시 상록구 팔곡일동 568-6번지","category":"도매 및 소매업 - 양약, 의료기기"}]},{"lat":"37.311451647","long":"126.89395748","items":[{"name":"남산뜰순두부","tel":"031-502-2332","addr":"경기도 안산시 상록구 팔곡일동 97-4번지","category":"일반휴게음식 - 일반한식"}]},{"lat":"37.29959685","long":"126.88726374","items":[{"name":"농업회사법인 서창농산 주식회사","tel":"031-438-5530","addr":"경기도 안산시 상록구 팔곡일동 585-2번지","category":"음료식품 - 미곡상"}]},{"lat":"37.310564202","long":"126.88923229","items":[{"name":"농업회사법인이풀원예주식회사","tel":"031-437-2550","addr":"경기도 안산시 상록구 팔곡일동 163-6번지","category":"문화.취미 - 티켓"},{"name":"에코반","tel":"031-437-2525","addr":"경기도 안산시 상록구 팔곡일동 163-6번지","category":"일반휴게음식 - 스넥"}]},{"lat":"37.307865272","long":"126.89362426","items":[{"name":"다경유통","tel":"031-394-9108","addr":"경기도 안산시 상록구 팔곡일동 169-1번지","category":"유통업 영리 - 기타유통업"},{"name":"샘물나라","tel":"","addr":"경기도 안산시 상록구 팔곡일동 169-1번지 1층","category":"유통업 영리 - 기타유통업"},{"name":"우리유통","tel":"031-382-7097","addr":"경기도 안산시 상록구 팔곡일동 169-1번지","category":"유통업 영리 - 기타유통업"}]},{"lat":"37.304035231","long":"126.89287408","items":[{"name":"다차","tel":"031-437-3376","addr":"경기도 안산시 상록구 팔곡일동 367-2번지","category":"일반휴게음식 - 스넥"}]},{"lat":"37.298260909","long":"126.89421336","items":[{"name":"대림농장","tel":"","addr":"경기도 안산시 상록구 팔곡일동 526-1번지","category":"음료식품 - 농·축·수산품"}]},{"lat":"37.296089796","long":"126.89459994","items":[{"name":"더센","tel":"031-502-4580","addr":"경기도 안산시 상록구 팔곡일동 505-1번지","category":"의류 - 아동의류"}]},{"lat":"37.300588764","long":"126.8880743","items":[{"name":"더펫마트","tel":"031-501-3360","addr":"경기도 안산시 상록구 팔곡일동 607번지","category":"문화.취미 - 애완동물"}]},{"lat":"37.3054561586","long":"126.8998992022","items":[{"name":"또래분식","tel":"031-438-1882","addr":"경기도 안산시 상록구 팔곡일동 262-5번지","category":"숙박 및 음식점업 - 한식"}]},{"lat":"37.297426056","long":"126.88795505","items":[{"name":"럭키마트","tel":"031-502-4975","addr":"경기도 안산시 상록구 팔곡일동 571-3번지 1층","category":"유통업 영리 - 슈퍼마켓"}]},{"lat":"37.2974260559","long":"126.8879550477","items":[{"name":"럭키마트","tel":"031-502-4975","addr":"경기도 안산시 상록구 팔곡일동 571-3번지","category":"도매 및 소매업 - 슈퍼마켓, 정육"}]},{"lat":"37.297957308","long":"126.88759333","items":[{"name":"믿음의가게우리동네야채&과일","tel":"","addr":"경기도 안산시 상록구 팔곡일동 568-5번지 1층","category":"음료식품 - 농·축·수산품"},{"name":"상아노래연습장","tel":"031-501-7840","addr":"경기도 안산시 상록구 팔곡일동 568-5번지 2층","category":"레저업소 - 노 래 방"},{"name":"수랫골집밥","tel":"031-437-9337","addr":"경기도 안산시 상록구 팔곡일동 568-5번지 101호","category":"일반휴게음식 - 일반한식"},{"name":"초원식당","tel":"031-437-3331","addr":"경기도 안산시 상록구 팔곡일동 568-5번지 1층","category":"일반휴게음식 - 일반한식"}]},{"lat":"37.305204137","long":"126.90020409","items":[{"name":"반달전기조명","tel":"031-502-6603","addr":"경기도 안산시 상록구 팔곡일동 262-2번지 1층 4호","category":"건축자재 - 인테리어전문"}]},{"lat":"37.3059782689","long":"126.8993457860","items":[{"name":"반달전기조명","tel":"031-502-6603","addr":"경기도 안산시 상록구 팔곡일동 262-6번지","category":"건설업 - 실내인테리어, 건축마무리"}]},{"lat":"37.305230174","long":"126.89906482","items":[{"name":"반월중학교","tel":"031-487-2108","addr":"경기도 안산시 상록구 팔곡일동 253-1번지 반월중학교","category":"학원 - 초중고교육기관"}]},{"lat":"37.304699663","long":"126.90031757","items":[{"name":"봉구스밥버거","tel":"031-409-0009","addr":"경기도 안산시 상록구 팔곡일동 264-1번지 1호","category":"일반휴게음식 - 일반한식"},{"name":"봉구스밥버거안산반월점","tel":"031-409-0009","addr":"경기도 안산시 상록구 팔곡일동 264-1번지 1층","category":"일반휴게음식 - 일반한식"},{"name":"월드헤어","tel":"031-438-9633","addr":"경기도 안산시 상록구 팔곡일동 264-1번지","category":"보건위생 - 미용원"},{"name":"한식부페","tel":"031-502-5578","addr":"경기도 안산시 상록구 팔곡일동 264-1번지 1층","category":"일반휴게음식 - 일반한식"}]},{"lat":"37.30056635","long":"126.89293553","items":[{"name":"봉림조경","tel":"031-501-0922","addr":"경기도 안산시 상록구 팔곡일동 437-1및팔곡일동437-24","category":"건축자재 - 인테리어전문"}]},{"lat":"37.298541768","long":"126.89590474","items":[{"name":"부옥물산(주)","tel":"02-575-3611","addr":"경기도 안산시 상록구 팔곡일동 470-8","category":"건축자재 - 기타건축자재"}]},{"lat":"37.299951302","long":"126.89043254","items":[{"name":"부흥조경","tel":"031-409-7709","addr":"경기도 안산시 상록구 팔곡일동 557-1번지","category":"문화.취미 - 화원"}]},{"lat":"37.306761742","long":"126.89887096","items":[{"name":"비글부부","tel":"","addr":"경기도 안산시 상록구 팔곡일동 261-8번지 대광빌라 지층 1호","category":"의류 - 정장"}]},{"lat":"37.304985158","long":"126.88745853","items":[{"name":"산자락","tel":"031-437-3504","addr":"경기도 안산시 상록구 팔곡일동 396-1번지 1층","category":"일반휴게음식 - 일반한식"}]},{"lat":"37.317007229","long":"126.88998972","items":[{"name":"삼부철강","tel":"031-416-5300","addr":"경기도 안산시 상록구 팔곡일동 39번지","category":"건축자재 - 기타건축자재"},{"name":"에스제이코리아","tel":"031-501-3134","addr":"경기도 안산시 상록구 팔곡일동 39번지 다동 1층","category":"전기제품 - 기타전기제품"}]},{"lat":"37.301178961","long":"126.89284441","items":[{"name":"상록물산","tel":"031-437-4478","addr":"경기도 안산시 상록구 팔곡일동 332-2","category":"음료식품 - 농·축·수산품"}]},{"lat":"37.2979573082","long":"126.8875933281","items":[{"name":"상아노래연습장","tel":"031-501-7840","addr":"경기도 안산시 상록구 팔곡일동 568-5번지","category":"협회 및 단체, 수리 및 기타 개인서"}]},{"lat":"37.299785766","long":"126.88695893","items":[{"name":"색시포크거성주식회사","tel":"031-405-9988","addr":"경기도 안산시 상록구 팔곡일동 603-10번지 1층 1호","category":"음료식품 - 정육점"},{"name":"색시포크거성주식회사","tel":"031-405-9988","addr":"경기도 안산시 상록구 팔곡일동 603-10번지 1층 2호","category":"음료식품 - 기타음료식품"}]},{"lat":"37.299866371","long":"126.88646254","items":[{"name":"서머힐어린이집[아이행복]","tel":"031-438-0910","addr":"경기도 안산시 상록구 팔곡일동 603-4번지","category":"학원 - 유아원"}]},{"lat":"37.30184348","long":"126.89046356","items":[{"name":"선학농장","tel":"031-416-1508","addr":"경기도 안산시 상록구 팔곡일동 373-2, 373-3, 418, 416-7","category":"음료식품 - 농·축·수산품"}]},{"lat":"37.304897506","long":"126.89987741","items":[{"name":"성지어린이집[아이행복]","tel":"031-437-4033","addr":"경기도 안산시 상록구 팔곡일동 266-1번지","category":"학원 - 유아원"}]},{"lat":"37.2984249796","long":"126.8867128876","items":[{"name":"손대감회포차","tel":"031-483-4777","addr":"경기도 안산시 상록구 팔곡일동 681번지 팔곡마을주공아파트","category":"숙박 및 음식점업 - 한식"},{"name":"에스엠푸드","tel":"","addr":"경기도 안산시 상록구 팔곡일동 681번지","category":"숙박 및 음식점업 - 휴게음식"}]},{"lat":"37.305456159","long":"126.8998992","items":[{"name":"쇼떼마블","tel":"070-4138-2355","addr":"경기도 안산시 상록구 팔곡일동 262-5번지 2층","category":"문화.취미 - 화방·표구점"}]},{"lat":"37.306032261","long":"126.89926675","items":[{"name":"신도","tel":"031-495-8796","addr":"경기도 안산시 상록구 팔곡일동 262-15번지","category":"사무통신 - 사무용 OA기기"},{"name":"영동슈퍼","tel":"031-437-3548","addr":"경기도 안산시 상록구 팔곡일동 262-15번지","category":"유통업 영리 - 슈퍼마켓"}]},{"lat":"37.306446731","long":"126.89926619","items":[{"name":"신일","tel":"070-8197-7008","addr":"경기도 안산시 상록구 팔곡일동 261-10번지 영동빌라 7동 102호","category":"음료식품 - 농·축·수산품"}]},{"lat":"37.3116764126","long":"126.8934269758","items":[{"name":"씨앤시스넷","tel":"031-480-3210","addr":"경기도 안산시 상록구 팔곡일동 96-2번지","category":"도매 및 소매업 - 컴퓨터및주변기기"}]},{"lat":"37.301815254","long":"126.88018838","items":[{"name":"씨유안산북고개주유소점","tel":"080-080-3663","addr":"경기도 안산시 상록구 팔곡일동 632-6번지","category":"유통업 영리 - 편 의 점"},{"name":"카스페이스 안산","tel":"031-406-8367","addr":"경기도 안산시 상록구 팔곡일동 632-6번지 가동 1,2층","category":"자동차정비 유지 - 카인테리어"}]},{"lat":"37.307955301","long":"126.89354517","items":[{"name":"아산수산","tel":"031-000-0000","addr":"경기도 안산시 상록구 팔곡일동 169-7번지","category":"음료식품 - 농·축·수산품"}]},{"lat":"37.304843758","long":"126.90023842","items":[{"name":"앤(N)마트","tel":"031-437-0024","addr":"경기도 안산시 상록구 팔곡일동 265-20번지 1층","category":"유통업 영리 - 슈퍼마켓"}]},{"lat":"37.3048437579","long":"126.9002384226","items":[{"name":"앤마트","tel":"031-437-0024","addr":"경기도 안산시 상록구 팔곡일동 265-20번지","category":"도매 및 소매업 - 슈퍼담배"}]},{"lat":"37.303755946","long":"126.89290833","items":[{"name":"양지뜰","tel":"031-562-1789","addr":"경기도 안산시 상록구 팔곡일동 369번지","category":"일반휴게음식 - 일반한식"}]},{"lat":"37.3060322610","long":"126.8992667542","items":[{"name":"영동슈퍼","tel":"","addr":"경기도 안산시 상록구 팔곡일동 262-15번지","category":"도매 및 소매업 - 슈퍼마켓"}]},{"lat":"37.29842498","long":"126.88671289","items":[{"name":"영일ENG","tel":"031-437-1779","addr":"경기도 안산시 상록구 팔곡일동 681번지 102(1단지내상가)","category":"전기제품 - 냉열기기"}]},{"lat":"37.315978974","long":"126.88885186","items":[{"name":"유진기업(주) 안산","tel":"031-437-5111","addr":"경기도 안산시 상록구 팔곡일동 37-15번지","category":"건축자재 - 기타건축자재"}]},{"lat":"37.3039785124","long":"126.8999350554","items":[{"name":"은빛세차사업단","tel":"","addr":"경기도 안산시 상록구 팔곡일동 264-6번지","category":"협회 및 단체, 수리 및 기타 개인서"}]},{"lat":"37.303590759","long":"126.89957465","items":[{"name":"이삭어린이집[아이행복]","tel":"031-419-7809","addr":"경기도 안산시 상록구 팔곡일동 279-12번지","category":"학원 - 유아원"}]},{"lat":"37.30317619","long":"126.89946242","items":[{"name":"이삭유치원[아이행복]","tel":"031-501-8268","addr":"경기도 안산시 상록구 팔곡일동 279-3","category":"학원 - 유치원"}]},{"lat":"37.312009047","long":"126.89262557","items":[{"name":"정든집","tel":"031-437-2678","addr":"경기도 안산시 상록구 팔곡일동 102번지","category":"일반휴게음식 - 일반한식"}]},{"lat":"37.3120090466","long":"126.8926255726","items":[{"name":"정든집","tel":"031-437-2678","addr":"경기도 안산시 상록구 팔곡일동 102번지","category":"숙박 및 음식점업 - 일반음식점"}]},{"lat":"37.299397451","long":"126.88606851","items":[{"name":"주식회사 누리온","tel":"070-7209-2615","addr":"경기도 안산시 상록구 팔곡일동 602-6번지","category":"건축자재 - 조명기구"}]},{"lat":"37.299119341","long":"126.88729831","items":[{"name":"주식회사 성경유통","tel":"031-430-9297","addr":"경기도 안산시 상록구 팔곡일동 587-4번지 가동 1층","category":"음료식품 - 기타음료식품"}]},{"lat":"37.31236896","long":"126.89209486","items":[{"name":"주식회사 액션카","tel":"031-411-6660","addr":"경기도 안산시 상록구 팔곡일동 83-2번지","category":"자동차정비 유지 - 자동차부품"}]},{"lat":"37.311648512","long":"126.89249073","items":[{"name":"주식회사 엘노아","tel":"031-414-7601","addr":"경기도 안산시 상록구 팔곡일동 112-1번지 (주)엘노아빌딩","category":"전기제품 - 기타전기제품"}]},{"lat":"37.3069776","long":"126.89843075","items":[{"name":"주식회사 재다인","tel":"031-416-4220","addr":"경기도 안산시 상록구 팔곡일동 257-2번지","category":"신변잡화 - 기타잡화"}]},{"lat":"37.316475628","long":"126.88999052","items":[{"name":"주식회사 조이에스디","tel":"031-312-1330","addr":"경기도 안산시 상록구 팔곡일동 47-1번지 2호에이동","category":"신변잡화 - 기타잡화"}]},{"lat":"37.299506339","long":"126.88684657","items":[{"name":"주식회사 천수푸드","tel":"031-419-9669","addr":"경기도 안산시 상록구 팔곡일동 587-2번지","category":"음료식품 - 정육점"}]},{"lat":"37.311428975","long":"126.88901666","items":[{"name":"주식회사유니스의정원","tel":"031-437-2045","addr":"경기도 안산시 상록구 팔곡일동 163-2번지","category":"일반휴게음식 - 서양음식"}]},{"lat":"37.304395482","long":"126.89270437","items":[{"name":"주찬상사(주)","tel":"031-378-5374","addr":"경기도 안산시 상록구 팔곡일동 366-6번지 1,2층","category":"자동차정비 유지 - 자동차부품"}]},{"lat":"37.317642573","long":"126.88548749","items":[{"name":"착한고기","tel":"031-501-2834","addr":"경기도 안산시 상록구 팔곡일동 4-1번지 1층","category":"일반휴게음식 - 일반한식"}]},{"lat":"37.31753492","long":"126.88596147","items":[{"name":"착한고기","tel":"031-501-2834","addr":"경기도 안산시 상록구 팔곡일동 4-8번지 1층","category":"일반휴게음식 - 일반한식"}]},{"lat":"37.312342603","long":"126.89281686","items":[{"name":"청기와","tel":"031-438-3087","addr":"경기도 안산시 상록구 팔곡일동 92번지","category":"일반휴게음식 - 일반한식"}]},{"lat":"37.29995098","long":"126.89009417","items":[{"name":"청매분재원","tel":"031-438-5882","addr":"경기도 안산시 상록구 팔곡일동 557-4번지","category":"문화.취미 - 화원"}]},{"lat":"37.300263142","long":"126.88678901","items":[{"name":"태양FRP산업","tel":"031-501-5080","addr":"경기도 안산시 상록구 팔곡일동 608-2번지","category":"건축자재 - 기타건축자재"}]},{"lat":"37.304951763","long":"126.90010292","items":[{"name":"팝콘나라","tel":"031-437-9433","addr":"경기도 안산시 상록구 팔곡일동 265-1번지 현준상가 1층 3호","category":"주방용구 - 주방용구"}]},{"lat":"37.304477733","long":"126.89395627","items":[{"name":"프라임","tel":"031-452-1288","addr":"경기도 안산시 상록구 팔곡일동 319-3번지","category":"가구 - 일반가구"}]},{"lat":"37.3046996628","long":"126.9003175748","items":[{"name":"한식부페","tel":"031-966-3492","addr":"경기도 안산시 상록구 팔곡일동 264-1번지","category":"숙박 및 음식점업 - 한식"}]},{"lat":"37.303482202","long":"126.88024207","items":[{"name":"향림조경","tel":"031-416-7788","addr":"경기도 안산시 상록구 팔곡일동 635-6번지","category":"건축자재 - 인테리어전문"}]},{"lat":"37.2976243903","long":"126.8880675302","items":[{"name":"현대카","tel":"031-502-1110","addr":"경기도 안산시 상록구 팔곡일동 571-12번지","category":"도매 및 소매업 - 카인테리어, 타이"}]},{"lat":"37.306179305","long":"126.89248745","items":[{"name":"흥부오리","tel":"031-437-8190","addr":"경기도 안산시 상록구 팔곡일동 340-2번지 1층","category":"일반휴게음식 - 일반한식"}]}]