[{"lat":"36.939418477","long":"127.23598905","items":[{"name":"가나환경","tel":"031-677-8289","addr":"경기도 안성시 서운면 송산리 361-7","category":"용역 서비스 - 종합용역"}]},{"lat":"36.944229815","long":"127.24074112","items":[{"name":"경진농원","tel":"031-672-9235","addr":"경기도 안성시 서운면 송산리 77-5번지","category":"음료식품 - 농·축·수산품"}]},{"lat":"36.941838779","long":"127.23321243","items":[{"name":"그린농원","tel":"031-672-9087","addr":"경기도 안성시 서운면 송산리 252-4","category":"음료식품 - 농·축·수산품"}]},{"lat":"36.945417402","long":"127.23712995","items":[{"name":"농업회사법인 주식회사 스마트머쉬바이오","tel":"031-676-8903","addr":"경기도 안성시 서운면 송산리 180-1번지","category":"음료식품 - 농·축·수산품"}]},{"lat":"36.939140596","long":"127.23524733","items":[{"name":"두리푸드","tel":"031-671-3655","addr":"경기도 안성시 서운면 송산리 140-2번지 1층","category":"일반휴게음식 - 일반한식"}]},{"lat":"36.944146217","long":"127.24198695","items":[{"name":"맛사랑농원","tel":"031-672-9545","addr":"경기도 안성시 서운면 송산리 76-4","category":"음료식품 - 농·축·수산품"}]},{"lat":"36.93244927","long":"127.24246674","items":[{"name":"미각유통","tel":"070-4141-5918","addr":"경기도 안성시 서운면 송산리 520-1","category":"음료식품 - 기타음료식품"}]},{"lat":"36.939168615","long":"127.23474227","items":[{"name":"세븐일레븐안성서운점","tel":"","addr":"경기도 안성시 서운면 송산리 224-5번지","category":"유통업 영리 - 편 의 점"},{"name":"클라인(Klein)","tel":"031-675-8863","addr":"경기도 안성시 서운면 송산리 224-5","category":"레져용품 - 악기점"}]},{"lat":"36.937667924","long":"127.23724093","items":[{"name":"식물보호센타","tel":"031-611-5353","addr":"경기도 안성시 서운면 송산리 372-6번지","category":"농업 - 비료,사료,종자"},{"name":"한미케미칼","tel":"031-677-5353","addr":"경기도 안성시 서운면 송산리 372-6번지 외 2필지","category":"농업 - 비료,사료,종자"}]},{"lat":"36.945173576","long":"127.24635717","items":[{"name":"영동포도농원","tel":"031-673-5179","addr":"경기도 안성시 서운면 송산리 5","category":"음료식품 - 농·축·수산품"}]},{"lat":"36.939396628","long":"127.23793097","items":[{"name":"우주농원","tel":"031-677-9328","addr":"경기도 안성시 서운면 송산리 327","category":"음료식품 - 농·축·수산품"}]},{"lat":"36.939365446","long":"127.23546129","items":[{"name":"중부자동차정비(주)","tel":"031-677-0671","addr":"경기도 안성시 서운면 송산리 144-1번지","category":"자동차정비 유지 - 자동차정비"}]},{"lat":"36.94150755","long":"127.23671385","items":[{"name":"천규네농원","tel":"031-672-9347","addr":"경기도 안성시 서운면 송산리 296-2번지","category":"음료식품 - 농·축·수산품"}]},{"lat":"36.93713983","long":"127.24446826","items":[{"name":"포도랑농원","tel":"031-673-5743","addr":"경기도 안성시 서운면 송산리 408번지","category":"음료식품 - 농·축·수산품"}]},{"lat":"36.939617571","long":"127.23555186","items":[{"name":"한양공업사","tel":"031-675-8905","addr":"경기도 안성시 서운면 송산리 147번지","category":"용역 서비스 - 기타용역서비스"}]}]