[{"lat":"37.008249982","long":"127.27079318","items":[{"name":"#1","tel":"031-676-3617","addr":"경기도 안성시 대천동 29번지 1층","category":"의류 - 정장"},{"name":"그리다널","tel":"070-4157-8551","addr":"경기도 안성시 대천동 29번지 2층","category":"일반휴게음식 - 서양음식"},{"name":"레트로 무드(RETRO MOOD)","tel":"","addr":"경기도 안성시 대천동 29번지","category":"의류 - 정장"},{"name":"린메이크업(RIN MAKE-UP)","tel":"","addr":"경기도 안성시 대천동 29번지","category":"보건위생 - 미용원"},{"name":"반했나봄","tel":"","addr":"경기도 안성시 대천동 29번지","category":"음료식품 - 기타음료식품"},{"name":"헤어싸롱드레이","tel":"031-674-6656","addr":"경기도 안성시 대천동 29번지","category":"보건위생 - 미용원"}]},{"lat":"37.008521996","long":"127.27004135","items":[{"name":"(ART.C)아트씨","tel":"031-677-0518","addr":"경기도 안성시 대천동 72번지 2층","category":"보건위생 - 미용원"},{"name":"MAN`S 헤어","tel":"031-676-5195","addr":"경기도 안성시 대천동 72번지","category":"보건위생 - 미용원"},{"name":"두꺼비스넥","tel":"031-675-3039","addr":"경기도 안성시 대천동 72번지 1층 가운데호","category":"일반휴게음식 - 스넥"},{"name":"두꺼비스넥","tel":"031-673-3039","addr":"경기도 안성시 대천동 72번지 1층","category":"일반휴게음식 - 일반한식"},{"name":"마리웨일마카롱 경기안성점","tel":"031-675-0251","addr":"경기도 안성시 대천동 72번지","category":"일반휴게음식 - 일반한식"},{"name":"메리맨","tel":"031-677-6070","addr":"경기도 안성시 대천동 72번지 1층","category":"의류 - 정장"},{"name":"모이몰른","tel":"","addr":"경기도 안성시 대천동 72번지 1층","category":"의류 - 스포츠의류"},{"name":"샵페이지","tel":"070-4237-8663","addr":"경기도 안성시 대천동 72번지","category":"신변잡화 - 액세서리"},{"name":"세레나데","tel":"031-674-1020","addr":"경기도 안성시 대천동 72","category":"문화.취미 - 화원"},{"name":"안성맞춤모바일","tel":"031-673-0130","addr":"경기도 안성시 대천동 72번지 1층","category":"사무통신 - 통신기기"}]},{"lat":"37.008107812","long":"127.26990507","items":[{"name":"(주)안성모바일통신","tel":"031-677-7019","addr":"경기도 안성시 대천동 76번지","category":"사무통신 - 통신기기"},{"name":"제우스 당구클럽","tel":"","addr":"경기도 안성시 대천동 76번지 3층","category":"레저업소 - 당 구 장"},{"name":"중국한의원","tel":"031-676-8896","addr":"경기도 안성시 대천동 76번지","category":"의원 - 한의원"}]},{"lat":"37.007885925","long":"127.26839875","items":[{"name":"(주)코리아세븐안성점/412호점","tel":"031-675-7138","addr":"경기도 안성시 대천동 155-4번지","category":"유통업 영리 - 편 의 점"},{"name":"안성보쌈","tel":"031-671-2353","addr":"경기도 안성시 대천동 155-4번지","category":"일반휴게음식 - 일반한식"}]},{"lat":"37.008277318","long":"127.27065845","items":[{"name":"1016 마카롱스튜디오","tel":"","addr":"경기도 안성시 대천동 27-2번지","category":"일반휴게음식 - 서양음식"},{"name":"경성술집","tel":"070-5121-6771","addr":"경기도 안성시 대천동 27-2번지 2층","category":"일반휴게음식 - 주점"},{"name":"마르헤어페이스","tel":"031-677-2256","addr":"경기도 안성시 대천동 27-2번지","category":"보건위생 - 미용원"},{"name":"콜론디(Colon:D)","tel":"031-675-9995","addr":"경기도 안성시 대천동 27-2번지","category":"의류 - 정장"}]},{"lat":"37.007880548","long":"127.27079188","items":[{"name":"25시","tel":"031-675-3137","addr":"경기도 안성시 대천동 52번지","category":"레저업소 - 노 래 방"},{"name":"커피나무","tel":"031-547-7300","addr":"경기도 안성시 대천동 52번지","category":"일반휴게음식 - 일반한식"}]},{"lat":"37.008189792","long":"127.26951212","items":[{"name":"EXR 안성대리점","tel":"031-676-8838","addr":"경기도 안성시 대천동 123-1번지","category":"레져용품 - 스포츠·레져용품"},{"name":"주식회사 금솔씨엔엘","tel":"031-225-1016","addr":"경기도 안성시 대천동 123-1번지","category":"사무통신 - 통신기기"}]},{"lat":"37.007555151","long":"127.27124015","items":[{"name":"INA","tel":"031-674-7877","addr":"경기도 안성시 대천동 54-3번지","category":"신변잡화 - 신발"},{"name":"르피타","tel":"031-671-2822","addr":"경기도 안성시 대천동 54-3번지 1층","category":"의류 - 정장"},{"name":"빨간자전거","tel":"031-671-1188","addr":"경기도 안성시 대천동 54-3번지","category":"일반휴게음식 - 일반한식"},{"name":"빨간자전거","tel":"031-671-1188","addr":"경기도 안성시 대천동 54-3번지","category":"일반휴게음식 - 일반한식"}]},{"lat":"37.008495899","long":"127.26962554","items":[{"name":"J&J쥬얼리","tel":"031-671-1418","addr":"경기도 안성시 대천동 94번지","category":"신변잡화 - 액세서리"},{"name":"기도네미장원","tel":"031-8052-9194","addr":"경기도 안성시 대천동 94번지","category":"보건위생 - 미용원"},{"name":"리본시크(Ribbon chic)","tel":"031-673-6631","addr":"경기도 안성시 대천동 94번지","category":"의류 - 정장"},{"name":"마브엠(Mab-M)","tel":"031-675-3426","addr":"경기도 안성시 대천동 94번지","category":"광학제품 - 사진관"},{"name":"씨에스컴퓨터","tel":"031-677-0418","addr":"경기도 안성시 대천동 94번지","category":"사무통신 - 컴퓨터"},{"name":"와이드통신","tel":"031-677-0040","addr":"경기도 안성시 대천동 94번지","category":"사무통신 - 통신기기"},{"name":"제닉스 아레나 PC","tel":"","addr":"경기도 안성시 대천동 94번지 2층","category":"레저업소 - 기타레져업소"},{"name":"종로당구장","tel":"031-677-3399","addr":"경기도 안성시 대천동 94번지","category":"레저업소 - 당 구 장"},{"name":"태양미장원","tel":"031-674-2258","addr":"경기도 안성시 대천동 94번지","category":"보건위생 - 미용원"}]},{"lat":"37.008053319","long":"127.27009589","items":[{"name":"MPLAY market","tel":"031-677-4051","addr":"경기도 안성시 대천동 78번지 1층","category":"의류 - 정장"},{"name":"공룡발","tel":"031-675-4182","addr":"경기도 안성시 대천동 78번지","category":"신변잡화 - 신발"},{"name":"마초떡볶이 안성점","tel":"031-674-8061","addr":"경기도 안성시 대천동 78번지 2층 전체호","category":"일반휴게음식 - 스넥"}]},{"lat":"37.008131473","long":"127.27139948","items":[{"name":"Olga 올가","tel":"031-677-7753","addr":"경기도 안성시 대천동 34번지","category":"의류 - 정장"},{"name":"헉스","tel":"031-675-3695","addr":"경기도 안성시 대천동 34번지","category":"의류 - 정장"}]},{"lat":"37.007665484","long":"127.27026306","items":[{"name":"YES","tel":"031-671-7176","addr":"경기도 안성시 대천동 61번지","category":"의류 - 내의판매"},{"name":"아이지에이마트 안성로데오점","tel":"031-768-0708","addr":"경기도 안성시 대천동 61번지 1층","category":"유통업 영리 - 편 의 점"},{"name":"유림모텔","tel":"031-675-2694","addr":"경기도 안성시 대천동 61번지","category":"숙박업 - 여관/기타숙박업"},{"name":"프로방스노래연습장","tel":"031-8052-8633","addr":"경기도 안성시 대천동 61번지","category":"레저업소 - 노 래 방"},{"name":"프리카페","tel":"031-673-7892","addr":"경기도 안성시 대천동 61번지","category":"일반휴게음식 - 서양음식"}]},{"lat":"37.008333885","long":"127.26954633","items":[{"name":"bhc안성중앙점","tel":"031-676-2030","addr":"경기도 안성시 대천동 122","category":"일반휴게음식 - 스넥"}]},{"lat":"37.008743761","long":"127.27159264","items":[{"name":"ㅎㅎ슬라임","tel":"031-675-8005","addr":"경기도 안성시 대천동 1번지","category":"일반휴게음식 - 서양음식"}]},{"lat":"37.007637008","long":"127.27090338","items":[{"name":"가고싶은 곱창집","tel":"031-673-8818","addr":"경기도 안성시 대천동 54번지","category":"일반휴게음식 - 일반한식"},{"name":"공차","tel":"","addr":"경기도 안성시 대천동 54번지 1층","category":"일반휴게음식 - 서양음식"}]},{"lat":"37.008356611","long":"127.27145645","items":[{"name":"가우디미술학원","tel":"031-677-3660","addr":"경기도 안성시 대천동 15번지 ,2-3층","category":"학원 - 예·체능계학원"},{"name":"뷰티인사이드","tel":"02-1111-1111","addr":"경기도 안성시 대천동 15번지 1층","category":"보건위생 - 화장품"},{"name":"석기정","tel":"031-675-8724","addr":"경기도 안성시 대천동 15번지","category":"일반휴게음식 - 일반한식"},{"name":"여자옷장","tel":"","addr":"경기도 안성시 대천동 15번지 1층 2호","category":"의류 - 정장"},{"name":"크레마","tel":"","addr":"경기도 안성시 대천동 15번지","category":"일반휴게음식 - 일반한식"}]},{"lat":"37.007694815","long":"127.26924074","items":[{"name":"가인요가","tel":"070-3328-2835","addr":"경기도 안성시 대천동 130-3번지","category":"회원제형태 - 레져업소"},{"name":"남성크로커다일 안성점","tel":"031-675-0947","addr":"경기도 안성시 대천동 130-3번지","category":"의류 - 스포츠의류"},{"name":"안성성심간호학원","tel":"031-637-3331","addr":"경기도 안성시 대천동 130-3번지 백양빌딩 5층,6층,8층","category":"학원 - 기능학원"},{"name":"정미사","tel":"031-675-4710","addr":"경기도 안성시 대천동 130-3번지","category":"건축자재 - 목재·석재·철물"},{"name":"코데즈컴바인","tel":"031-677-0101","addr":"경기도 안성시 대천동 130-3번지 백양빌딩","category":"의류 - 정장"}]},{"lat":"37.009027726","long":"127.26953752","items":[{"name":"강릉초당순두부","tel":"031-673-3112","addr":"경기도 안성시 대천동 102번지","category":"일반휴게음식 - 일반한식"}]},{"lat":"37.008443273","long":"127.26898493","items":[{"name":"강문숙도예공방","tel":"031-672-9511","addr":"경기도 안성시 대천동 139번지","category":"문화.취미 - 민예·공예품"},{"name":"땡이네포차","tel":"031-671-7774","addr":"경기도 안성시 대천동 139번지","category":"일반휴게음식 - 일반한식"},{"name":"박싸롱헤어","tel":"031-677-0887","addr":"경기도 안성시 대천동 139번지 외1필지 144호","category":"보건위생 - 미용원"}]},{"lat":"37.008497891","long":"127.26873794","items":[{"name":"겐스빌치킨","tel":"031-672-1838","addr":"경기도 안성시 대천동 143번지","category":"일반휴게음식 - 일반한식"},{"name":"아기자기","tel":"031-675-4955","addr":"경기도 안성시 대천동 143번지 1층","category":"직물 - 침구·수예점"}]},{"lat":"37.007384026","long":"127.27120585","items":[{"name":"겐조","tel":"031-8052-5528","addr":"경기도 안성시 대천동 54-4번지","category":"의류 - 정장"},{"name":"겐조","tel":"031-8052-5528","addr":"경기도 안성시 대천동 54-4번지","category":"의류 - 기타의류"},{"name":"미락원","tel":"031-676-3544","addr":"경기도 안성시 대천동 54-4번지","category":"일반휴게음식 - 일반한식"}]},{"lat":"37.007492839","long":"127.27090287","items":[{"name":"경영지도사고영목사무","tel":"031-676-1140","addr":"경기도 안성시 대천동 56번지","category":"보건위생 - 기타대인서비스"},{"name":"롯데리아안성중앙점","tel":"031-672-6618","addr":"경기도 안성시 대천동 56번지","category":"일반휴게음식 - 서양음식"},{"name":"오바","tel":"031-691-8223","addr":"경기도 안성시 대천동 56번지 2층","category":"일반휴게음식 - 주점"},{"name":"오바","tel":"031-673-5056","addr":"경기도 안성시 대천동 56번지","category":"일반휴게음식 - 주점"}]},{"lat":"37.008215687","long":"127.27001781","items":[{"name":"경희체육사","tel":"031-675-3744","addr":"경기도 안성시 대천동 74","category":"레져용품 - 스포츠·레져용품"},{"name":"비어앤크림 안성점","tel":"","addr":"경기도 안성시 대천동 74번지","category":"음료식품 - 기타음료식품"},{"name":"슈마커","tel":"031-677-3757","addr":"경기도 안성시 대천동 74","category":"레져용품 - 스포츠·레져용품"},{"name":"아이웰빙의원","tel":"031-671-7585","addr":"경기도 안성시 대천동 74","category":"회원제형태 - 건강식품"},{"name":"아이웰빙의원","tel":"031-671-7585","addr":"경기도 안성시 대천동 74번지","category":"의원 - 의원"},{"name":"안성제과제빵학원","tel":"031-677-6448","addr":"경기도 안성시 대천동 74번지","category":"회원제형태 - 학원"},{"name":"웃음짓는약국","tel":"031-674-2847","addr":"경기도 안성시 대천동 74번지 1층","category":"약국 - 약국"},{"name":"이젠","tel":"031-677-1080","addr":"경기도 안성시 대천동 74","category":"신변잡화 - 액세서리"}]},{"lat":"37.007384534","long":"127.27098114","items":[{"name":"고피부비뇨기과","tel":"031-675-7195","addr":"경기도 안성시 대천동 55번지","category":"의원 - 의원"},{"name":"동방서림","tel":"031-672-2072","addr":"경기도 안성시 대천동 55번지","category":"서적문구 - 일반서적"},{"name":"비겐의료기","tel":"031-677-7582","addr":"경기도 안성시 대천동 55번지 백양빌딩 지하층","category":"기타의료기관 - 기타의료기관 및 기타"},{"name":"빌탑 당구클럽","tel":"031-672-7644","addr":"경기도 안성시 대천동 55번지 지하1층","category":"레저업소 - 당 구 장"},{"name":"스펀지","tel":"031-111-1111","addr":"경기도 안성시 대천동 55번지 백양빌딩 1층","category":"신변잡화 - 기타잡화"},{"name":"안성자연치과의원","tel":"031-673-2833","addr":"경기도 안성시 대천동 55번지 3층","category":"의원 - 치과의원"},{"name":"약손약국","tel":"031-674-8729","addr":"경기도 안성시 대천동 55번지","category":"약국 - 약국"},{"name":"채플린노래연습장","tel":"031-677-8090","addr":"경기도 안성시 대천동 55번지 4층","category":"레저업소 - 노 래 방"}]},{"lat":"37.007686308","long":"127.269016","items":[{"name":"골드마인드","tel":"031-671-3070","addr":"경기도 안성시 대천동 131번지","category":"신변잡화 - 액세서리"},{"name":"김현경의헤어클래식","tel":"031-676-2889","addr":"경기도 안성시 대천동 131번지","category":"보건위생 - 미용원"}]},{"lat":"37.008883859","long":"127.26940219","items":[{"name":"광신헤어포인트","tel":"031-674-4761","addr":"경기도 안성시 대천동 100번지","category":"보건위생 - 미용원"},{"name":"우리집행국이","tel":"031-675-7611","addr":"경기도 안성시 대천동 100번지 1층","category":"일반휴게음식 - 일반한식"}]},{"lat":"37.00815881","long":"127.27126475","items":[{"name":"굿가이즈","tel":"031-677-8834","addr":"경기도 안성시 대천동 18-3번지 1층","category":"일반휴게음식 - 일반한식"},{"name":"헤어매니아가쥬","tel":"031-671-8266","addr":"경기도 안성시 대천동 18-3번지","category":"보건위생 - 미용원"}]},{"lat":"37.008020883","long":"127.2684891","items":[{"name":"권미용타운","tel":"031-673-4433","addr":"경기도 안성시 대천동 155-1번지","category":"보건위생 - 미용원"},{"name":"별빛물고기","tel":"031-672-1838","addr":"경기도 안성시 대천동 155-1번지","category":"신변잡화 - 액세서리"}]},{"lat":"37.007970273","long":"127.27096073","items":[{"name":"글래이드펍","tel":"031-673-8033","addr":"경기도 안성시 대천동 38번지 2층","category":"일반휴게음식 - 주점"},{"name":"시져스헤어샵","tel":"031-677-7737","addr":"경기도 안성시 대천동 38번지","category":"보건위생 - 미용원"},{"name":"커피볶는집체리빈스","tel":"031-676-3755","addr":"경기도 안성시 대천동 38번지 1층","category":"일반휴게음식 - 서양음식"}]},{"lat":"37.008244486","long":"127.26923142","items":[{"name":"글로리뷰티","tel":"","addr":"경기도 안성시 대천동 136-4번지 1층","category":"보건위생 - 피부미용실"},{"name":"대천동카페#1","tel":"031-673-5060","addr":"경기도 안성시 대천동 136-4번지 1동 1층","category":"일반휴게음식 - 서양음식"},{"name":"불자청년회","tel":"031-676-4112","addr":"경기도 안성시 대천동 136-4번지","category":"기타 - 기타 전문점"},{"name":"웅이애견샵","tel":"031-675-1279","addr":"경기도 안성시 대천동 136-4번지 1층","category":"문화.취미 - 애완동물"},{"name":"천하컴퓨터랜드","tel":"031-676-3321","addr":"경기도 안성시 대천동 136-4번지","category":"사무통신 - 컴퓨터"}]},{"lat":"37.007858692","long":"127.26848854","items":[{"name":"김밥나라","tel":"031-675-4244","addr":"경기도 안성시 대천동 154번지","category":"일반휴게음식 - 일반한식"},{"name":"안성랜드부동산","tel":"031-671-8200","addr":"경기도 안성시 대천동 154번지 2층","category":"용역 서비스 - 부동산 중개·임대"}]},{"lat":"37.008079465","long":"127.27048922","items":[{"name":"김윤희헤어샵","tel":"031-676-1142","addr":"경기도 안성시 대천동 41번지","category":"보건위생 - 미용원"},{"name":"미스터피자안성점","tel":"031-671-0066","addr":"경기도 안성시 대천동 41번지","category":"일반휴게음식 - 서양음식"}]},{"lat":"37.007722098","long":"127.26912848","items":[{"name":"김종희세무사사무소","tel":"031-671-0321","addr":"경기도 안성시 대천동 130-1번지 (대천동.,132)","category":"용역 서비스 - 법률회계서비스(개인)"},{"name":"다인(DAIN)","tel":"031-676-6669","addr":"경기도 안성시 대천동 130-1번지 1층","category":"보건위생 - 미용원"},{"name":"라세느헤어","tel":"031-676-5379","addr":"경기도 안성시 대천동 130-1번지","category":"보건위생 - 미용원"},{"name":"숲","tel":"031-675-3199","addr":"경기도 안성시 대천동 130-1번지","category":"레져용품 - 스포츠·레져용품"},{"name":"안성중앙로점 빽다방","tel":"031-677-9633","addr":"경기도 안성시 대천동 130-1번지","category":"일반휴게음식 - 서양음식"},{"name":"안성중앙로점 빽다방","tel":"031-677-9633","addr":"경기도 안성시 대천동 130-1번지","category":"일반휴게음식 - 서양음식"}]},{"lat":"37.008720987","long":"127.26970498","items":[{"name":"까리헤어","tel":"031-8052-8889","addr":"경기도 안성시 대천동 92-1번지 1층","category":"보건위생 - 미용원"},{"name":"땡땡이리본","tel":"031-672-4804","addr":"경기도 안성시 대천동 92-1번지","category":"의류 - 아동의류"},{"name":"아이폰엔젤 안성아이폰수리센터","tel":"070-7622-4105","addr":"경기도 안성시 대천동 92-1번지 1층","category":"수리서비스 - 사무·통신기기수리"},{"name":"클릭앤전원미술학원","tel":"031-671-5354","addr":"경기도 안성시 대천동 92-1번지","category":"학원 - 예·체능계학원"},{"name":"킴스 필라테스 스튜디오","tel":"031-677-3384","addr":"경기도 안성시 대천동 92-1번지 1층","category":"레저업소 - 헬스클럽"}]},{"lat":"37.008134338","long":"127.27012988","items":[{"name":"꼬마꼬마","tel":"031-674-2679","addr":"경기도 안성시 대천동 77번지","category":"의류 - 아동의류"},{"name":"이디야(커피전문점)","tel":"031-677-1235","addr":"경기도 안성시 대천동 77번지 1층","category":"일반휴게음식 - 서양음식"},{"name":"이디야(커피전문점)","tel":"031-677-1235","addr":"경기도 안성시 대천동 77번지","category":"일반휴게음식 - 서양음식"},{"name":"토마토","tel":"031-676-4185","addr":"경기도 안성시 대천동 77번지","category":"신변잡화 - 기타잡화"},{"name":"피라미드 당구장","tel":"","addr":"경기도 안성시 대천동 77번지 2층","category":"레저업소 - 당 구 장"},{"name":"피라미드바","tel":"","addr":"경기도 안성시 대천동 77번지","category":"일반휴게음식 - 주점"}]},{"lat":"37.007911951","long":"127.26884826","items":[{"name":"꼬추포차","tel":"031-677-2208","addr":"경기도 안성시 대천동 151","category":"일반휴게음식 - 일반한식"},{"name":"네일스토리","tel":"070-4235-7262","addr":"경기도 안성시 대천동 151번지","category":"보건위생 - 피부미용실"},{"name":"멋쟁이","tel":"031-673-1182","addr":"경기도 안성시 대천동 151","category":"의류 - 정장"},{"name":"준노래연습장","tel":"031-111-1111","addr":"경기도 안성시 대천동 151번지","category":"레저업소 - 노 래 방"},{"name":"킹콩노래연습장","tel":"031-671-9536","addr":"경기도 안성시 대천동 151번지","category":"레저업소 - 노 래 방"},{"name":"프레고","tel":"031-676-4665","addr":"경기도 안성시 대천동 151번지","category":"의류 - 정장"}]},{"lat":"37.008164121","long":"127.26890531","items":[{"name":"꽃품은 설기","tel":"031-674-4864","addr":"경기도 안성시 대천동 147번지","category":"음료식품 - 기타음료식품"},{"name":"더헤어","tel":"031-673-8295","addr":"경기도 안성시 대천동 147번지","category":"보건위생 - 미용원"},{"name":"왔다 꼬마김밥","tel":"031-675-7377","addr":"경기도 안성시 대천동 147번지 1층","category":"일반휴게음식 - 일반한식"},{"name":"쥬디첼리","tel":"031-673-9556","addr":"경기도 안성시 대천동 147번지","category":"의류 - 스포츠의류"}]},{"lat":"37.008222696","long":"127.27090544","items":[{"name":"끌려","tel":"031-674-3748","addr":"경기도 안성시 대천동 30번지 2층","category":"일반휴게음식 - 일반한식"},{"name":"레몬테라스","tel":"031-674-5462","addr":"경기도 안성시 대천동 30번지","category":"의류 - 정장"},{"name":"생과일쥬스전문점 시소","tel":"031-672-9187","addr":"경기도 안성시 대천동 30번지","category":"일반휴게음식 - 스넥"},{"name":"신데렐라","tel":"031-676-9874","addr":"경기도 안성시 대천동 30번지","category":"의류 - 정장"},{"name":"아이러브플랫","tel":"031-677-5862","addr":"경기도 안성시 대천동 30번지","category":"의류 - 정장"}]},{"lat":"37.008159191","long":"127.27109622","items":[{"name":"날개","tel":"031-675-0466","addr":"경기도 안성시 대천동 30-3번지 1층","category":"의류 - 정장"},{"name":"더슈","tel":"031-671-6226","addr":"경기도 안성시 대천동 30-3번지","category":"의류 - 정장"},{"name":"버르장머리","tel":"031-675-8466","addr":"경기도 안성시 대천동 30-3번지","category":"보건위생 - 미용원"},{"name":"피카소","tel":"031-674-3839","addr":"경기도 안성시 대천동 30-3번지","category":"일반휴게음식 - 주점"}]},{"lat":"37.007555405","long":"127.2711278","items":[{"name":"날면돼지","tel":"031-677-1188","addr":"경기도 안성시 대천동 54-2번지 2층","category":"일반휴게음식 - 일반한식"},{"name":"마이크로사이언스","tel":"031-672-2298","addr":"경기도 안성시 대천동 54-2번지","category":"서적문구 - 과학기자재"},{"name":"반디나무","tel":"031-673-1197","addr":"경기도 안성시 대천동 54-2번지 2층","category":"보건위생 - 화장품"}]},{"lat":"37.008109428","long":"127.26918601","items":[{"name":"낭만","tel":"031-674-4399","addr":"경기도 안성시 대천동 136-3번지","category":"일반휴게음식 - 주점"},{"name":"숟가락젓가락","tel":"031-675-0125","addr":"경기도 안성시 대천동 136-3번지 1층","category":"일반휴게음식 - 일반한식"},{"name":"쏘&맥","tel":"031-673-2025","addr":"경기도 안성시 대천동 136-3번지","category":"일반휴게음식 - 주점"},{"name":"쏘&맥","tel":"031-676-9543","addr":"경기도 안성시 대천동 136-3번지 지하1층","category":"일반휴게음식 - 주점"},{"name":"짚동가리쌩주","tel":"031-674-7748","addr":"경기도 안성시 대천동 136-3번지 2층","category":"일반휴게음식 - 일반한식"}]},{"lat":"37.00805218","long":"127.27060148","items":[{"name":"내일를향하여","tel":"031-673-4585","addr":"경기도 안성시 대천동 41-1번지 1층","category":"일반휴게음식 - 주점"},{"name":"내일을 향하여","tel":"031-673-4585","addr":"경기도 안성시 대천동 41-1번지","category":"일반휴게음식 - 주점"}]},{"lat":"37.008663352","long":"127.27128899","items":[{"name":"내혜홀","tel":"031-674-1463","addr":"경기도 안성시 대천동 12번지","category":"일반휴게음식 - 일반한식"},{"name":"불난술집안성점","tel":"031-672-7455","addr":"경기도 안성시 대천동 12번지","category":"일반휴게음식 - 일반한식"}]},{"lat":"37.008052686","long":"127.27037677","items":[{"name":"네이처리퍼블릭","tel":"031-677-5681","addr":"경기도 안성시 대천동 42-1번지","category":"보건위생 - 화장품"},{"name":"오렌즈 안성점","tel":"031-674-4777","addr":"경기도 안성시 대천동 42-1번지","category":"보건위생 - 안경"}]},{"lat":"37.008133731","long":"127.27039953","items":[{"name":"네이처컬렉션 안성점","tel":"031-671-3807","addr":"경기도 안성시 대천동 42번지","category":"보건위생 - 화장품"},{"name":"더페이스샵 안성점","tel":"031-671-3807","addr":"경기도 안성시 대천동 42번지 1층 2호","category":"보건위생 - 화장품"},{"name":"쥬씨","tel":"070-4226-1028","addr":"경기도 안성시 대천동 42번지","category":"일반휴게음식 - 서양음식"},{"name":"혜화동돈까스극장","tel":"031-673-6605","addr":"경기도 안성시 대천동 42번지 2층","category":"일반휴게음식 - 일반한식"}]},{"lat":"37.007825469","long":"127.2712411","items":[{"name":"노래나라","tel":"031-676-1020","addr":"경기도 안성시 대천동 35-2번지","category":"레저업소 - 노 래 방"},{"name":"베트남노래연습장","tel":"","addr":"경기도 안성시 대천동 35-2번지 1층","category":"레저업소 - 노 래 방"},{"name":"앵글러9","tel":"031-677-3322","addr":"경기도 안성시 대천동 35-2번지","category":"일반휴게음식 - 일반한식"},{"name":"앵글러9","tel":"031-677-3322","addr":"경기도 안성시 대천동 35-2번지","category":"일반휴게음식 - 주점"}]},{"lat":"37.008686937","long":"127.26881725","items":[{"name":"니또내","tel":"031-672-7644","addr":"경기도 안성시 대천동 120번지","category":"일반휴게음식 - 일반한식"},{"name":"본죽","tel":"031-677-6288","addr":"경기도 안성시 대천동 120번지","category":"일반휴게음식 - 일반한식"},{"name":"팡팡","tel":"031-673-9998","addr":"경기도 안성시 대천동 120번지 지하1층","category":"레저업소 - 노 래 방"},{"name":"해피랜드,모이츠","tel":"031-674-3779","addr":"경기도 안성시 대천동 120번지","category":"의류 - 아동의류"}]},{"lat":"37.008803948","long":"127.26887383","items":[{"name":"다온노래연습장","tel":"031-675-3282","addr":"경기도 안성시 대천동 115번지","category":"레저업소 - 노 래 방"},{"name":"수입나라","tel":"031-676-6737","addr":"경기도 안성시 대천동 115번지","category":"의류 - 정장"}]},{"lat":"37.008910083","long":"127.26976182","items":[{"name":"달인즉석계란말이김밥","tel":"","addr":"경기도 안성시 대천동 89-1번지","category":"일반휴게음식 - 일반한식"},{"name":"돈가츠","tel":"031-675-2440","addr":"경기도 안성시 대천동 89-1번지 1층 중앙호","category":"일반휴게음식 - 일식·회집"},{"name":"수구레집","tel":"031-673-1433","addr":"경기도 안성시 대천동 89-1번지","category":"일반휴게음식 - 일반한식"},{"name":"안성드림북 서점","tel":"031-674-4006","addr":"경기도 안성시 대천동 89-1번지","category":"회원제형태 - 서적"}]},{"lat":"37.008467502","long":"127.27023216","items":[{"name":"담너머집","tel":"031-676-8010","addr":"경기도 안성시 대천동 70번지","category":"일반휴게음식 - 일반한식"}]},{"lat":"37.008999431","long":"127.2700992","items":[{"name":"대박소주방","tel":"031-671-2203","addr":"경기도 안성시 대천동 67번지","category":"일반휴게음식 - 일반한식"},{"name":"신전떡볶이","tel":"031-672-5558","addr":"경기도 안성시 대천동 67번지","category":"일반휴게음식 - 스넥"}]},{"lat":"37.008971893","long":"127.27032381","items":[{"name":"대천스포츠","tel":"031-675-0110","addr":"경기도 안성시 대천동 65-1번지","category":"회원제형태 - 레져업소"},{"name":"럭키타임 대천점","tel":"031-677-7055","addr":"경기도 안성시 대천동 65-1번지","category":"유통업 영리 - 편 의 점"},{"name":"별별족닭","tel":"031-676-4506","addr":"경기도 안성시 대천동 65-1번지","category":"일반휴게음식 - 일반한식"},{"name":"크램PC카페","tel":"","addr":"경기도 안성시 대천동 65-1번지 101호","category":"레저업소 - 기타레져업소"}]},{"lat":"37.007776792","long":"127.26884779","items":[{"name":"대한정보통신","tel":"031-676-1618","addr":"경기도 안성시 대천동 152-4번지","category":"사무통신 - 통신기기"},{"name":"대한정보통신","tel":"031-677-6018","addr":"경기도 안성시 대천동 152-4번지","category":"별도관리 - 자체물품대금"},{"name":"대한정보통신","tel":"031-676-1618","addr":"경기도 안성시 대천동 152-4번지","category":"사무통신 - 통신기기"},{"name":"대한통신","tel":"031-677-6010","addr":"경기도 안성시 대천동 152-4번지","category":"사무통신 - 통신기기"},{"name":"도도리(DODORI)","tel":"031-111-1111","addr":"경기도 안성시 대천동 152-4번지","category":"의류 - 정장"},{"name":"모모(MOMO)","tel":"070-7627-7002","addr":"경기도 안성시 대천동 152-4번지","category":"의류 - 정장"},{"name":"수생한의원","tel":"031-675-7579","addr":"경기도 안성시 대천동 152-4번지 2층","category":"의원 - 한의원"}]},{"lat":"37.007908644","long":"127.27032009","items":[{"name":"더샘 안성점","tel":"031-674-5761","addr":"경기도 안성시 대천동 44번지 1층 1호 A","category":"보건위생 - 화장품"},{"name":"수도악기사","tel":"031-675-2390","addr":"경기도 안성시 대천동 44번지","category":"레져용품 - 악기점"},{"name":"클럽클리오안성클럽/(주)클리오","tel":"031-674-5762","addr":"경기도 안성시 대천동 44번지","category":"보건위생 - 화장품"}]},{"lat":"37.008412806","long":"127.27051286","items":[{"name":"돈데이","tel":"031-673-3459","addr":"경기도 안성시 대천동 27번지","category":"일반휴게음식 - 일반한식"},{"name":"돈데이(축산유통)","tel":"031-673-3459","addr":"경기도 안성시 대천동 27번지","category":"음료식품 - 정육점"},{"name":"위너","tel":"031-677-2208","addr":"경기도 안성시 대천동 27번지","category":"일반휴게음식 - 주점"}]},{"lat":"37.007521947","long":"127.26998167","items":[{"name":"동글동글","tel":"031-677-0955","addr":"경기도 안성시 대천동 82-4번지","category":"의류 - 정장"},{"name":"디자인유나이티드안성대리점","tel":"031-676-1629","addr":"경기도 안성시 대천동 82-4번지","category":"레져용품 - 스포츠·레져용품"},{"name":"중앙한의원","tel":"031-677-8150","addr":"경기도 안성시 대천동 82-4번지","category":"의원 - 한의원"}]},{"lat":"37.007831358","long":"127.26862327","items":[{"name":"등초마라탕","tel":"031-672-0008","addr":"경기도 안성시 대천동 153-1번지 1층 우측호","category":"일반휴게음식 - 중국식"},{"name":"샤트렌(안성)","tel":"031-675-2502","addr":"경기도 안성시 대천동 153-1번지","category":"레져용품 - 스포츠·레져용품"}]},{"lat":"37.008604707","long":"127.26932256","items":[{"name":"딴따라노래연습장","tel":"031-677-0506","addr":"경기도 안성시 대천동 95-2번지","category":"레저업소 - 노 래 방"},{"name":"밀라노","tel":"031-675-8866","addr":"경기도 안성시 대천동 95-2","category":"의류 - 정장"},{"name":"아리랑노래연습장","tel":"031-677-0506","addr":"경기도 안성시 대천동 95-2번지","category":"레저업소 - 노 래 방"},{"name":"아이보리","tel":"031-671-1510","addr":"경기도 안성시 대천동 95-2번지 1층 전호","category":"일반휴게음식 - 일반한식"}]},{"lat":"37.008775783","long":"127.26937934","items":[{"name":"로데오멀티샵","tel":"031-677-7772","addr":"경기도 안성시 대천동 96번지","category":"의류 - 정장"},{"name":"여우네일","tel":"031-673-8389","addr":"경기도 안성시 대천동 96번지","category":"보건위생 - 화장품"},{"name":"여우뷰티","tel":"031-673-8389","addr":"경기도 안성시 대천동 96번지 1층","category":"보건위생 - 피부미용실"},{"name":"쥴리","tel":"031-673-5090","addr":"경기도 안성시 대천동 96번지","category":"의류 - 기타의류"}]},{"lat":"37.008520933","long":"127.27051324","items":[{"name":"로이&듀크","tel":"070-2332-5447","addr":"경기도 안성시 대천동 26번지","category":"일반휴게음식 - 주점"},{"name":"오뜨리","tel":"031-676-1183","addr":"경기도 안성시 대천동 26번지","category":"의류 - 정장"},{"name":"이에스에스유(ESSU)","tel":"031-677-7273","addr":"경기도 안성시 대천동 26번지 1층","category":"의류 - 정장"}]},{"lat":"37.008137895","long":"127.26854569","items":[{"name":"로즈마리","tel":"031-672-2888","addr":"경기도 안성시 대천동 155번지 3층","category":"보건위생 - 피부미용실"},{"name":"백년주막","tel":"031-674-9647","addr":"경기도 안성시 대천동 155번지","category":"일반휴게음식 - 일반한식"}]},{"lat":"37.00857823","long":"127.26907529","items":[{"name":"리안헤어","tel":"031-677-2500","addr":"경기도 안성시 대천동 117번지","category":"보건위생 - 미용원"},{"name":"쿤스트하우스","tel":"031-676-3461","addr":"경기도 안성시 대천동 117번지 2층","category":"일반휴게음식 - 주점"}]},{"lat":"37.008611596","long":"127.27026637","items":[{"name":"마르카토리","tel":"070-4122-1204","addr":"경기도 안성시 대천동 69번지 1동 103호","category":"신변잡화 - 기타잡화"},{"name":"맥주콜","tel":"031-674-1253","addr":"경기도 안성시 대천동 69번지 2층","category":"일반휴게음식 - 주점"},{"name":"명가곱창볶음","tel":"031-672-9533","addr":"경기도 안성시 대천동 69번지","category":"일반휴게음식 - 일반한식"},{"name":"백채김치찌개","tel":"031-677-1007","addr":"경기도 안성시 대천동 69번지 1동","category":"일반휴게음식 - 일반한식"},{"name":"유명상회","tel":"031-676-0095","addr":"경기도 안성시 대천동 69번지","category":"유통업 영리 - 슈퍼마켓"},{"name":"정소영뷰티샵","tel":"031-672-9657","addr":"경기도 안성시 대천동 69번지","category":"보건위생 - 화장품"}]},{"lat":"37.008746577","long":"127.2703455","items":[{"name":"마을회관","tel":"031-677-6692","addr":"경기도 안성시 대천동 65-3번지","category":"일반휴게음식 - 일반한식"}]},{"lat":"37.008051571","long":"127.27087113","items":[{"name":"마카롱이!머랭?","tel":"031-111-1111","addr":"경기도 안성시 대천동 39-1번지 2층","category":"음료식품 - 기타음료식품"},{"name":"미(차연선)코스메틱","tel":"031-677-3329","addr":"경기도 안성시 대천동 39-1번지 2층","category":"회원제형태 - 기타4"},{"name":"여우","tel":"031-675-3476","addr":"경기도 안성시 대천동 39-1번지","category":"의류 - 정장"},{"name":"예쁜손","tel":"031-673-3375","addr":"경기도 안성시 대천동 39-1번지","category":"보건위생 - 피부미용실"}]},{"lat":"37.008828988","long":"127.26976153","items":[{"name":"맘스터치","tel":"031-674-9245","addr":"경기도 안성시 대천동 90-1번지","category":"일반휴게음식 - 서양음식"},{"name":"순두네왕만두","tel":"031-671-9333","addr":"경기도 안성시 대천동 90-1번지 1층","category":"일반휴게음식 - 일반한식"}]},{"lat":"37.008359375","long":"127.27023178","items":[{"name":"메가커피 안성명동점","tel":"031-672-3344","addr":"경기도 안성시 대천동 70-3번지 1층","category":"일반휴게음식 - 서양음식"}]},{"lat":"37.007856703","long":"127.26937613","items":[{"name":"메인사진관","tel":"031-677-4814","addr":"경기도 안성시 대천동 127-1 2층","category":"광학제품 - 사진관"},{"name":"뱅뱅코너","tel":"031-674-2244","addr":"경기도 안성시 대천동 127-1","category":"의류 - 정장"},{"name":"엔제리너스커피 안성점","tel":"031-674-4333","addr":"경기도 안성시 대천동 127-1번지 1층","category":"일반휴게음식 - 서양음식"}]},{"lat":"37.008971209","long":"127.27062717","items":[{"name":"명동닭갈비","tel":"031-671-8919","addr":"경기도 안성시 대천동 7번지","category":"일반휴게음식 - 일반한식"},{"name":"성심종합기획유통","tel":"070-4032-8919","addr":"경기도 안성시 대천동 7번지","category":"신변잡화 - 기타잡화"},{"name":"세종ILS학원","tel":"031-671-3660","addr":"경기도 안성시 대천동 7번지","category":"회원제형태 - 학원"},{"name":"인사이드스포츠","tel":"031-677-7182","addr":"경기도 안성시 대천동 7번지 상가 1층","category":"레져용품 - 스포츠·레져용품"},{"name":"평강","tel":"031-675-1263","addr":"경기도 안성시 대천동 7번지","category":"용역 서비스 - 가례서비스업"},{"name":"포크포크","tel":"070-4649-1101","addr":"경기도 안성시 대천동 7번지","category":"일반휴게음식 - 일반한식"}]},{"lat":"37.00777437","long":"127.26992638","items":[{"name":"명랑핫도그","tel":"031-676-0085","addr":"경기도 안성시 대천동 80-1번지","category":"일반휴게음식 - 일반한식"},{"name":"악쓰는 하마 노래연습장","tel":"031-676-6896","addr":"경기도 안성시 대천동 80-1번지","category":"레저업소 - 노 래 방"},{"name":"탑마켓","tel":"031-675-4050","addr":"경기도 안성시 대천동 80-1번지","category":"의류 - 정장"}]},{"lat":"37.008359553","long":"127.27015314","items":[{"name":"모델라인","tel":"031-673-9831","addr":"경기도 안성시 대천동 70-2번지","category":"의류 - 정장"},{"name":"피턴진","tel":"031-676-3757","addr":"경기도 안성시 대천동 70-2 1층","category":"의류 - 정장"},{"name":"피턴진","tel":"031-676-3757","addr":"경기도 안성시 대천동 70-2번지 1층","category":"의류 - 정장"}]},{"lat":"37.007717215","long":"127.2712969","items":[{"name":"모멘트 사진관","tel":"031-8052-1107","addr":"경기도 안성시 대천동 35-6번지","category":"광학제품 - 사진관"},{"name":"소호","tel":"031-673-5580","addr":"경기도 안성시 대천동 35-6번지","category":"의류 - 정장"}]},{"lat":"37.008583627","long":"127.27068199","items":[{"name":"모모bar","tel":"031-672-7577","addr":"경기도 안성시 대천동 24-1번지 2층","category":"일반휴게음식 - 주점"},{"name":"카페달리","tel":"","addr":"경기도 안성시 대천동 24-1번지","category":"일반휴게음식 - 서양음식"},{"name":"탱고탱고","tel":"052-900-6783","addr":"경기도 안성시 대천동 24-1번지 지하1층 1호","category":"일반휴게음식 - 일반한식"},{"name":"화사랑","tel":"031-677-9294","addr":"경기도 안성시 대천동 24-1번지","category":"일반휴게음식 - 주점"}]},{"lat":"37.008331888","long":"127.27043393","items":[{"name":"미니스톱안성명동점","tel":"031-673-0448","addr":"경기도 안성시 대천동 27-3번지","category":"유통업 영리 - 편 의 점"},{"name":"신통치킨","tel":"031-671-1251","addr":"경기도 안성시 대천동 27-3번지","category":"일반휴게음식 - 스넥"},{"name":"아우라","tel":"031-671-1470","addr":"경기도 안성시 대천동 27-3번지","category":"보건위생 - 미용원"}]},{"lat":"37.007666041","long":"127.27001588","items":[{"name":"미샤","tel":"031-673-5511","addr":"경기도 안성시 대천동 84번지","category":"보건위생 - 화장품"},{"name":"짚시방","tel":"031-673-6853","addr":"경기도 안성시 대천동 84번지","category":"신변잡화 - 신발"},{"name":"포트오브모카","tel":"031-676-2565","addr":"경기도 안성시 대천동 84번지 2층","category":"일반휴게음식 - 서양음식"}]},{"lat":"37.008745386","long":"127.27087356","items":[{"name":"바다고을","tel":"031-671-6282","addr":"경기도 안성시 대천동 9번지","category":"일반휴게음식 - 일반한식"},{"name":"불날개","tel":"031-676-5574","addr":"경기도 안성시 대천동 9번지","category":"일반휴게음식 - 주점"}]},{"lat":"37.007857383","long":"127.26907278","items":[{"name":"백양안성직매장","tel":"031-673-6969","addr":"경기도 안성시 대천동 133번지","category":"의류 - 내의판매"}]},{"lat":"37.009054177","long":"127.26979603","items":[{"name":"백조씽크","tel":"031-673-4111","addr":"경기도 안성시 대천동 88번지","category":"주방용구 - 주방용구"}]},{"lat":"37.007493219","long":"127.27073434","items":[{"name":"본가황제오리","tel":"031-677-5445","addr":"경기도 안성시 대천동 57번지","category":"일반휴게음식 - 일반한식"}]},{"lat":"37.007881232","long":"127.27048853","items":[{"name":"부에노","tel":"031-674-0752","addr":"경기도 안성시 대천동 46번지","category":"일반휴게음식 - 서양음식"},{"name":"엉터리생고기(안성점)","tel":"031-677-8889","addr":"경기도 안성시 대천동 46번지 1층","category":"일반휴게음식 - 일반한식"}]},{"lat":"37.008465728","long":"127.27101864","items":[{"name":"북촌삼대갈비","tel":"031-673-8110","addr":"경기도 안성시 대천동 21번지 현대빌딩 1층","category":"일반휴게음식 - 일반한식"}]},{"lat":"37.007942556","long":"127.27126399","items":[{"name":"불타는닭갈비","tel":"031-674-3695","addr":"경기도 안성시 대천동 36번지","category":"일반휴게음식 - 일반한식"},{"name":"블링블링헤어클럽","tel":"031-677-3124","addr":"경기도 안성시 대천동 36번지","category":"보건위생 - 미용원"},{"name":"비비안수","tel":"031-677-1555","addr":"경기도 안성시 대천동 36번지","category":"의류 - 정장"},{"name":"이안","tel":"031-671-5494","addr":"경기도 안성시 대천동 36번지","category":"일반휴게음식 - 서양음식"},{"name":"투존치킨 안성대천점","tel":"031-677-2242","addr":"경기도 안성시 대천동 36번지 2층","category":"일반휴게음식 - 일반한식"},{"name":"평생문화센터","tel":"031-677-3110","addr":"경기도 안성시 대천동 36번지","category":"문화.취미 - 문화취미기타"}]},{"lat":"37.008772799","long":"127.27070513","items":[{"name":"비바청춘","tel":"031-674-0722","addr":"경기도 안성시 대천동 9-1번지 1층","category":"일반휴게음식 - 주점"},{"name":"오사카블루스","tel":"031-654-7254","addr":"경기도 안성시 대천동 9-1번지","category":"일반휴게음식 - 주점"}]},{"lat":"37.008662843","long":"127.2715137","items":[{"name":"비비","tel":"031-673-7796","addr":"경기도 안성시 대천동 13번지","category":"보건위생 - 화장품"}]},{"lat":"37.007666597","long":"127.26976871","items":[{"name":"비비안","tel":"031-677-5435","addr":"경기도 안성시 대천동 82-1번지","category":"의류 - 내의판매"},{"name":"이화사진관","tel":"031-675-2641","addr":"경기도 안성시 대천동 82-1번지","category":"광학제품 - 사진관"},{"name":"최이비인후과의원","tel":"031-675-7421","addr":"경기도 안성시 대천동 82-1번지","category":"의원 - 의원"},{"name":"테마헤어스케치","tel":"031-674-8009","addr":"경기도 안성시 대천동 82-1번지 2층","category":"보건위생 - 미용원"},{"name":"파리바게뜨","tel":"031-675-0067","addr":"경기도 안성시 대천동 82-1번지","category":"음료식품 - 제과점"}]},{"lat":"37.008632546","long":"127.26896312","items":[{"name":"빨계91.2","tel":"031-673-6997","addr":"경기도 안성시 대천동 118번지 1층","category":"일반휴게음식 - 일반한식"},{"name":"연탄화덕 탄탄구이","tel":"031-677-4566","addr":"경기도 안성시 대천동 118번지","category":"일반휴게음식 - 일반한식"},{"name":"터보노래방","tel":"031-672-1116","addr":"경기도 안성시 대천동 118번지","category":"레저업소 - 노 래 방"}]},{"lat":"37.008748574","long":"127.26945789","items":[{"name":"샤네일","tel":"070-4407-0109","addr":"경기도 안성시 대천동 98번지","category":"보건위생 - 화장품"}]},{"lat":"37.007804075","long":"127.26873553","items":[{"name":"서독안경원","tel":"031-675-4949","addr":"경기도 안성시 대천동 152-2번지","category":"보건위생 - 안경"},{"name":"지지헤어클린","tel":"031-676-8660","addr":"경기도 안성시 대천동 152-2번지","category":"보건위생 - 미용원"}]},{"lat":"37.009271693","long":"127.26923501","items":[{"name":"세븐일레븐안성대천점","tel":"","addr":"경기도 안성시 대천동 105번지","category":"유통업 영리 - 편 의 점"},{"name":"존맛탱 생고기 앤 단지화덕막창","tel":"031-677-6951","addr":"경기도 안성시 대천동 105번지 1층","category":"일반휴게음식 - 일반한식"}]},{"lat":"37.007964956","long":"127.26932033","items":[{"name":"솔그린전자","tel":"031-672-2342","addr":"경기도 안성시 대천동 128번지","category":"전기제품 - 가전제품"},{"name":"안성검정양복대여","tel":"031-676-1857","addr":"경기도 안성시 대천동 128번지","category":"용역 서비스 - 가례서비스업"},{"name":"엑스트로노래방","tel":"031-672-2342","addr":"경기도 안성시 대천동 128번지 3층","category":"레저업소 - 노 래 방"},{"name":"이쁜방","tel":"031-676-1857","addr":"경기도 안성시 대천동 128번지","category":"의류 - 내의판매"},{"name":"화성서점","tel":"031-675-2744","addr":"경기도 안성시 대천동 128번지","category":"서적문구 - 일반서적"}]},{"lat":"37.00849347","long":"127.27070415","items":[{"name":"숫도령쪽갈비","tel":"031-671-8885","addr":"경기도 안성시 대천동 23번지","category":"일반휴게음식 - 일반한식"}]},{"lat":"37.008299959","long":"127.26860243","items":[{"name":"스마일당구장","tel":"","addr":"경기도 안성시 대천동 145번지 3층","category":"레저업소 - 당 구 장"}]},{"lat":"37.00894367","long":"127.27085179","items":[{"name":"스마트pc방","tel":"","addr":"경기도 안성시 대천동 6번지","category":"레저업소 - 기타레져업소"},{"name":"조앤어학원","tel":"031-671-0572","addr":"경기도 안성시 대천동 6번지 1층","category":"회원제형태 - 학원"}]},{"lat":"37.007775784","long":"127.2692972","items":[{"name":"스타키보청기","tel":"031-675-0054","addr":"경기도 안성시 대천동 128-2번지","category":"보건위생 - 의료용품"}]},{"lat":"37.007548093","long":"127.270375","items":[{"name":"신세계한의원","tel":"031-675-1015","addr":"경기도 안성시 대천동 59번지 2층","category":"의원 - 한의원"},{"name":"올리브영 안성점","tel":"031-676-2677","addr":"경기도 안성시 대천동 59번지","category":"유통업 영리 - 편 의 점"},{"name":"한외과의원","tel":"031-673-4567","addr":"경기도 안성시 대천동 59번지","category":"의원 - 의원"}]},{"lat":"37.007637642","long":"127.2706225","items":[{"name":"씨엘 노래연습장","tel":"031-673-4904","addr":"경기도 안성시 대천동 57-3번지","category":"레저업소 - 노 래 방"}]},{"lat":"37.008912","long":"127.26890792","items":[{"name":"아름옷수선","tel":"031-671-1347","addr":"경기도 안성시 대천동 114번지","category":"수리서비스 - 세탁소"},{"name":"형제순대국집","tel":"031-674-8700","addr":"경기도 안성시 대천동 114번지 1층","category":"일반휴게음식 - 일반한식"}]},{"lat":"37.007966693","long":"127.26854509","items":[{"name":"아산만 수산","tel":"031-673-4000","addr":"경기도 안성시 대천동 155-5번지","category":"일반휴게음식 - 일식·회집"}]},{"lat":"37.007992416","long":"127.26912942","items":[{"name":"아이폰 헬퍼 안성아이폰 수리","tel":"031-8052-8011","addr":"경기도 안성시 대천동 135번지","category":"수리서비스 - 사무·통신기기수리"},{"name":"정음전기","tel":"031-675-2758","addr":"경기도 안성시 대천동 135번지","category":"전기제품 - 기타전기제품"}]},{"lat":"37.007357249","long":"127.2710934","items":[{"name":"안경나라","tel":"031-675-2288","addr":"경기도 안성시 대천동 55-1번지","category":"보건위생 - 안경"},{"name":"예인치과","tel":"031-675-0446","addr":"경기도 안성시 대천동 55-1번지","category":"의원 - 치과의원"},{"name":"웰메이드 안성점","tel":"031-673-9387","addr":"경기도 안성시 대천동 55-1번지","category":"레져용품 - 스포츠·레져용품"},{"name":"파스타스토리","tel":"031-673-3331","addr":"경기도 안성시 대천동 55-1번지 2층","category":"일반휴게음식 - 서양음식"}]},{"lat":"37.007909782","long":"127.2698145","items":[{"name":"안성우체국","tel":"031-673-2500","addr":"경기도 안성시 대천동 81번지","category":"용역 서비스 - 공공요금대행서비스/소"},{"name":"에뛰드하우스","tel":"031-671-8338","addr":"경기도 안성시 대천동 81번지","category":"보건위생 - 화장품"},{"name":"에스엠(SM)","tel":"031-671-2432","addr":"경기도 안성시 대천동 81","category":"의류 - 정장"},{"name":"에스엠(SM)","tel":"031-671-2432","addr":"경기도 안성시 대천동 81","category":"서적문구 - 문구용품"},{"name":"우정사업본부(우체국)","tel":"031-8046-7950","addr":"경기도 안성시 대천동 81번지","category":"용역 서비스 - 공공요금대행서비스/소"}]},{"lat":"37.007494409","long":"127.27020628","items":[{"name":"안성중앙치과","tel":"031-674-2872","addr":"경기도 안성시 대천동 64번지","category":"의원 - 치과의원"},{"name":"한스델리 안성점","tel":"031-675-5212","addr":"경기도 안성시 대천동 64번지 2층","category":"일반휴게음식 - 일반한식"}]},{"lat":"37.008604329","long":"127.2694911","items":[{"name":"알퐁소.포래즈","tel":"031-675-2580","addr":"경기도 안성시 대천동 95","category":"의류 - 정장"}]},{"lat":"37.009136962","long":"127.26904353","items":[{"name":"언니밥상","tel":"031-671-3526","addr":"경기도 안성시 대천동 108번지 1층","category":"일반휴게음식 - 일반한식"},{"name":"자매식당","tel":"031-675-1580","addr":"경기도 안성시 대천동 108번지 자매식당","category":"일반휴게음식 - 일반한식"},{"name":"치킨플러스안성중앙점","tel":"031-671-0515","addr":"경기도 안성시 대천동 108번지","category":"일반휴게음식 - 스넥"},{"name":"홍은진헤어샵","tel":"031-674-3103","addr":"경기도 안성시 대천동 108번지","category":"보건위생 - 미용원"}]},{"lat":"37.009136534","long":"127.26923453","items":[{"name":"오른발왼발","tel":"031-671-2225","addr":"경기도 안성시 대천동 109번지","category":"일반휴게음식 - 일반한식"}]},{"lat":"37.007969968","long":"127.27109555","items":[{"name":"오인아헤어써클","tel":"031-675-3633","addr":"경기도 안성시 대천동 35번지","category":"보건위생 - 미용원"},{"name":"하루","tel":"031-675-2931","addr":"경기도 안성시 대천동 35번지 1층","category":"의류 - 정장"}]},{"lat":"37.008110485","long":"127.26871412","items":[{"name":"올인모텔","tel":"031-671-0026","addr":"경기도 안성시 대천동 155-2번지","category":"숙박업 - 여관/기타숙박업"}]},{"lat":"37.007466618","long":"127.27054325","items":[{"name":"왕약국","tel":"031-677-9850","addr":"경기도 안성시 대천동 57-4번지","category":"약국 - 약국"},{"name":"정치과의원","tel":"031-677-0855","addr":"경기도 안성시 대천동 57-4번지","category":"의원 - 치과의원"},{"name":"트윈모바일","tel":"031-677-6677","addr":"경기도 안성시 대천동 57-4번지","category":"사무통신 - 통신기기"},{"name":"현대내과의원","tel":"031-675-1100","addr":"경기도 안성시 대천동 57-4번지","category":"의원 - 의원"}]},{"lat":"37.007799148","long":"127.27092642","items":[{"name":"왕조곱창&닭갈비","tel":"031-676-2933","addr":"경기도 안성시 대천동 52-1번지","category":"일반휴게음식 - 일반한식"}]},{"lat":"37.007803949","long":"127.2687917","items":[{"name":"이레상회","tel":"031-671-4340","addr":"경기도 안성시 대천동 152-3번지 1층","category":"직물 - 옷감·직물"}]},{"lat":"37.008857584","long":"127.26906503","items":[{"name":"이선경산부인과의원","tel":"031-673-2251","addr":"경기도 안성시 대천동 112-1번지","category":"의원 - 의원"},{"name":"차외과","tel":"031-675-2251","addr":"경기도 안성시 대천동 112-1번지","category":"의원 - 의원"}]},{"lat":"37.008051825","long":"127.27075877","items":[{"name":"즐겨찾기","tel":"031-674-6762","addr":"경기도 안성시 대천동 39번지","category":"의류 - 정장"},{"name":"카페니즈","tel":"031-672-9911","addr":"경기도 안성시 대천동 39번지","category":"일반휴게음식 - 서양음식"}]},{"lat":"37.008800135","long":"127.2705704","items":[{"name":"청년다방 안성중앙로점","tel":"031-673-3330","addr":"경기도 안성시 대천동 8번지","category":"일반휴게음식 - 스넥"},{"name":"호재슈퍼","tel":"031-673-1357","addr":"경기도 안성시 대천동 8번지","category":"유통업 영리 - 슈퍼마켓"}]},{"lat":"37.007991735","long":"127.26943278","items":[{"name":"체이스컬트","tel":"031-675-6304","addr":"경기도 안성시 대천동 126번지","category":"의류 - 정장"}]},{"lat":"37.009217074","long":"127.269482","items":[{"name":"초당 순두부","tel":"031-673-3118","addr":"경기도 안성시 대천동 104번지","category":"일반휴게음식 - 일반한식"}]},{"lat":"37.008610963","long":"127.27054726","items":[{"name":"친절한 금순씨네","tel":"031-673-8253","addr":"경기도 안성시 대천동 25번지","category":"일반휴게음식 - 주점"}]},{"lat":"37.008801198","long":"127.2700985","items":[{"name":"크레파스by안경매니져","tel":"031-671-5001","addr":"경기도 안성시 대천동 68번지","category":"보건위생 - 안경"}]},{"lat":"37.009020001","long":"127.26896447","items":[{"name":"킹스타텔레콤안성2호점","tel":"","addr":"경기도 안성시 대천동 113번지 1층 2호","category":"사무통신 - 통신기기"}]},{"lat":"37.009162304","long":"127.26979641","items":[{"name":"풍경","tel":"031-672-0725","addr":"경기도 안성시 대천동 87번지","category":"의류 - 정장"},{"name":"홈아트패션","tel":"031-673-6033","addr":"경기도 안성시 대천동 87번지","category":"유통업 영리 - 기타유통업"}]},{"lat":"37.008243855","long":"127.26951231","items":[{"name":"한경통신","tel":"070-4273-2024","addr":"경기도 안성시 대천동 123번지","category":"사무통신 - 통신기기"}]},{"lat":"37.007717469","long":"127.27118455","items":[{"name":"함흥식당","tel":"031-671-2205","addr":"경기도 안성시 대천동 35-5번지","category":"일반휴게음식 - 일반한식"}]}]