[{"lat":"37.499693359","long":"127.4761519","items":[{"name":"(주) 한국환경위생연구원","tel":"031-772-5000","addr":"경기도 양평군 양평읍 오빈리 150-47번지 단독","category":"용역 서비스 - 사무서비스"},{"name":"느낌표","tel":"","addr":"경기도 양평군 양평읍 오빈리 150-47번지 1층","category":"일반휴게음식 - 일반한식"}]},{"lat":"37.502275948","long":"127.47244753","items":[{"name":"(주)엔오에스","tel":"031-772-0100","addr":"경기도 양평군 양평읍 오빈리 211-1번지","category":"사무통신 - 사무용 OA기기"}]},{"lat":"37.504082249","long":"127.46217867","items":[{"name":"(주)코리아세븐/양평4호점","tel":"031-771-4122","addr":"경기도 양평군 양평읍 오빈리 400-1번지","category":"유통업 영리 - 편 의 점"},{"name":"(주)휴먼터치양평리조트","tel":"031-774-8800","addr":"경기도 양평군 양평읍 오빈리 400-1번지","category":"일반휴게음식 - 일반한식"}]},{"lat":"37.50438219","long":"127.46382037","items":[{"name":"(주)휴먼터치오빈주유소","tel":"02-6916-1500","addr":"경기도 양평군 양평읍 오빈리 448-6번지","category":"유통업 영리 - 편 의 점"},{"name":"강가주유소(구)오빈주유소","tel":"031-771-0185","addr":"경기도 양평군 양평읍 오빈리 448-6번지","category":"연료판매점 - 주유소"}]},{"lat":"37.502190112","long":"127.47589625","items":[{"name":"EL스포츠","tel":"031-775-1758","addr":"경기도 양평군 양평읍 오빈리 118-11번지 1층 3호","category":"레져용품 - 스포츠·레져용품"},{"name":"시애틀","tel":"031-771-3880","addr":"경기도 양평군 양평읍 오빈리 118-11번지 1층","category":"일반휴게음식 - 주점"}]},{"lat":"37.506967282","long":"127.4593689","items":[{"name":"OBIN","tel":"070-8899-0156","addr":"경기도 양평군 양평읍 오빈리 424-40번지","category":"음료식품 - 기타음료식품"}]},{"lat":"37.500352855","long":"127.47795416","items":[{"name":"강남태양열 양평대리점","tel":"031-0000-0000","addr":"경기도 양평군 양평읍 오빈리 150-54번지","category":"전기제품 - 기타전기제품"},{"name":"팔구사","tel":"031-775-9090","addr":"경기도 양평군 양평읍 오빈리 150-54번지","category":"문화.취미 - 골동품점"}]},{"lat":"37.50502338","long":"127.46112135","items":[{"name":"경기종합주방","tel":"031-774-8166","addr":"경기도 양평군 양평읍 오빈리 434-1번지 B동 102호","category":"주방용구 - 주방용구"},{"name":"씨유양평남한강점","tel":"02-1577-8007","addr":"경기도 양평군 양평읍 오빈리 434-1번지 1층","category":"유통업 영리 - 편 의 점"},{"name":"양평오빈해장국","tel":"","addr":"경기도 양평군 양평읍 오빈리 434-1번지","category":"일반휴게음식 - 일반한식"}]},{"lat":"37.503217376","long":"127.46906067","items":[{"name":"광부","tel":"031-773-9292","addr":"경기도 양평군 양평읍 오빈리 362-3번지","category":"음료식품 - 정육점"},{"name":"씨유양평들꽃점","tel":"031-774-6866","addr":"경기도 양평군 양평읍 오빈리 362-3번지","category":"유통업 영리 - 편 의 점"}]},{"lat":"37.503358734","long":"127.47655955","items":[{"name":"국보서림","tel":"031-771-2147","addr":"경기도 양평군 양평읍 오빈리 118-1","category":"서적문구 - 일반서적"}]},{"lat":"37.502630513","long":"127.4716468","items":[{"name":"귀뚜라미보일러 양평대리점","tel":"031-771-9950","addr":"경기도 양평군 양평읍 오빈리 217-3번지","category":"건축자재 - 보일러·펌프·샷시"}]},{"lat":"37.500414854","long":"127.47597552","items":[{"name":"그유명한파육칼","tel":"031-773-6635","addr":"경기도 양평군 양평읍 오빈리 149-7번지 1층","category":"일반휴게음식 - 일반한식"}]},{"lat":"37.502605725","long":"127.46651232","items":[{"name":"금잔디","tel":"031-773-5294","addr":"경기도 양평군 양평읍 오빈리 375-6","category":"문화.취미 - 화원"}]},{"lat":"37.504910092","long":"127.46476229","items":[{"name":"김순애 할매순대","tel":"031-773-5701","addr":"경기도 양평군 양평읍 오빈리 347-8번지 1층","category":"일반휴게음식 - 일반한식"},{"name":"지중해모텔","tel":"031-775-5117","addr":"경기도 양평군 양평읍 오빈리 347-8번지","category":"숙박업 - 여관/기타숙박업"}]},{"lat":"37.505269875","long":"127.46950319","items":[{"name":"꽃드림","tel":"070-4922-1261","addr":"경기도 양평군 양평읍 오빈리 325-27번지","category":"문화.취미 - 화원"}]},{"lat":"37.502075294","long":"127.47531876","items":[{"name":"남선석유 (주)라피네주유소","tel":"031-771-1993","addr":"경기도 양평군 양평읍 오빈리 118-7번지 1층","category":"연료판매점 - 쌍용S-OIL"},{"name":"동부P&C","tel":"031-771-0074","addr":"경기도 양평군 양평읍 오빈리 118-7번지 B1","category":"건축자재 - 페인트"},{"name":"라피네주유소","tel":"031-771-1993","addr":"경기도 양평군 양평읍 오빈리 118-7번지","category":"연료판매점 - SK주유소"},{"name":"씨유양평오빈점","tel":"031-771-9017","addr":"경기도 양평군 양평읍 오빈리 118-7번지 1층","category":"유통업 영리 - 편 의 점"},{"name":"월드컵주유소","tel":"031-771-1993","addr":"경기도 양평군 양평읍 오빈리 118-7번지","category":"연료판매점 - 주유소"}]},{"lat":"37.500969416","long":"127.4769855","items":[{"name":"남한강세차장","tel":"031-771-8151","addr":"경기도 양평군 양평읍 오빈리 150-8번지","category":"자동차정비 유지 - 세차장"}]},{"lat":"37.50071583","long":"127.47731186","items":[{"name":"남한강주유소","tel":"031-771-0044","addr":"경기도 양평군 양평읍 오빈리 151번지","category":"연료판매점 - GS주유소"},{"name":"자연놀이","tel":"031-771-0044","addr":"경기도 양평군 양평읍 오빈리 151번지 남한강주유소 내","category":"문화.취미 - 화원"}]},{"lat":"37.501519816","long":"127.47453495","items":[{"name":"남한강차유리","tel":"031-771-9245","addr":"경기도 양평군 양평읍 오빈리 205-1번지","category":"자동차정비 유지 - 자동차부품"},{"name":"양평기아","tel":"031-772-5539","addr":"경기도 양평군 양평읍 오빈리 205-1번지","category":"자동차정비 유지 - 자동차부품"},{"name":"양평삼성","tel":"031-773-3013","addr":"경기도 양평군 양평읍 오빈리 205-1번지","category":"자동차정비 유지 - 자동차부품"},{"name":"양평자동차I&D","tel":"031-772-2301","addr":"경기도 양평군 양평읍 오빈리 205-1번지 1층","category":"자동차정비 유지 - 자동차부품"},{"name":"양평자동차공업사","tel":"031-772-8502","addr":"경기도 양평군 양평읍 오빈리 205-1번지","category":"자동차정비 유지 - 자동차정비"}]},{"lat":"37.500910926","long":"127.47584294","items":[{"name":"노루페인트양평점","tel":"031-775-7404","addr":"경기도 양평군 양평읍 오빈리 174-3번지","category":"건축자재 - 페인트"},{"name":"재남컨설팅","tel":"031-773-0500","addr":"경기도 양평군 양평읍 오빈리 174-3번지 1층 4,5호","category":"수리서비스 - 기타수리서비스"}]},{"lat":"37.501550658","long":"127.47131209","items":[{"name":"농업회사법인 유한회사 들꽃수목원","tel":"031-772-1800","addr":"경기도 양평군 양평읍 오빈리 210-37","category":"신변잡화 - 기념품점"},{"name":"농업회사법인 유한회사 들꽃수목원","tel":"031-771-1733","addr":"경기도 양평군 양평읍 오빈리 210-37","category":"음료식품 - 농·축·수산품"}]},{"lat":"37.506526272","long":"127.47529026","items":[{"name":"당너머한우","tel":"031-772-7723","addr":"경기도 양평군 양평읍 오빈리 239-1번지","category":"일반휴게음식 - 일반한식"}]},{"lat":"37.502357889","long":"127.47223317","items":[{"name":"대명이동식주택컨테이너","tel":"","addr":"경기도 양평군 양평읍 오빈리 210-79번지","category":"건축자재 - 기타건축자재"}]},{"lat":"37.502491199","long":"127.47042455","items":[{"name":"도도피그","tel":"070-8843-2747","addr":"경기도 양평군 양평읍 오빈리 365-5번지","category":"일반휴게음식 - 서양음식"},{"name":"들꽃푸드랜드","tel":"031-773-1501","addr":"경기도 양평군 양평읍 오빈리 365-5번지","category":"일반휴게음식 - 일반한식"},{"name":"양평자동차극장","tel":"031-773-7893","addr":"경기도 양평군 양평읍 오빈리 365-5","category":"문화.취미 - 영화관"}]},{"lat":"37.505184841","long":"127.46362173","items":[{"name":"동우기업","tel":"031-772-9030","addr":"경기도 양평군 양평읍 오빈리 448-1번지","category":"건축자재 - 기타건축자재"},{"name":"성우조립식판넬","tel":"031-774-8135","addr":"경기도 양평군 양평읍 오빈리 448-1번지","category":"건축자재 - 기타건축자재"}]},{"lat":"37.49977164","long":"127.47909265","items":[{"name":"동원판넬","tel":"031-775-0901","addr":"경기도 양평군 양평읍 오빈리 150-88번지","category":"건축자재 - 기타건축자재"}]},{"lat":"37.502605816","long":"127.47105858","items":[{"name":"들꽃공방","tel":"031-773-7728","addr":"경기도 양평군 양평읍 오빈리 219-4번지 외1필지","category":"가구 - 일반가구"}]},{"lat":"37.504661819","long":"127.45909475","items":[{"name":"멋&맛 겔러리","tel":"031-775-1703","addr":"경기도 양평군 양평읍 오빈리 416-5번지 나동 2층","category":"의류 - 정장"},{"name":"쌍용수상스키장","tel":"031-774-8705","addr":"경기도 양평군 양평읍 오빈리 416-5번지","category":"레저업소 - 기타레져업소"}]},{"lat":"37.506442949","long":"127.46214789","items":[{"name":"미파케터리","tel":"","addr":"경기도 양평군 양평읍 오빈리 431-24번지","category":"문화.취미 - 애완동물"}]},{"lat":"37.505054204","long":"127.47390123","items":[{"name":"서교동 언니집","tel":"","addr":"경기도 양평군 양평읍 오빈리 253-6번지","category":"일반휴게음식 - 일반한식"}]},{"lat":"37.504415667","long":"127.46447651","items":[{"name":"서울석재","tel":"031-775-7991","addr":"경기도 양평군 양평읍 오빈리 310-36번지","category":"건축자재 - 목재·석재·철물"},{"name":"특수견114","tel":"070-4179-1177","addr":"경기도 양평군 양평읍 오빈리 310-36번지","category":"문화.취미 - 애완동물"}]},{"lat":"37.503551026","long":"127.46669911","items":[{"name":"석재나라 돌무지","tel":"031-775-0017","addr":"경기도 양평군 양평읍 오빈리 377-14번지","category":"건축자재 - 목재·석재·철물"}]},{"lat":"37.505076263","long":"127.45909727","items":[{"name":"세경판넬","tel":"031-773-5251","addr":"경기도 양평군 양평읍 오빈리 421-3번지 오빈421-3,481-5","category":"음료식품 - 기타음료식품"},{"name":"세경판넬","tel":"031-773-5251","addr":"경기도 양평군 양평읍 오빈리 421-3번지","category":"건축자재 - 기타건축자재"}]},{"lat":"37.500221617","long":"127.47698078","items":[{"name":"세이프자재산업","tel":"031-772-2705","addr":"경기도 양평군 양평읍 오빈리 150-57번지 1층","category":"기타 - 기계공구"}]},{"lat":"37.501494559","long":"127.47634422","items":[{"name":"손짜장명인","tel":"031-775-3976","addr":"경기도 양평군 양평읍 오빈리 147-3번지","category":"일반휴게음식 - 중국식"}]},{"lat":"37.503689282","long":"127.47501227","items":[{"name":"슬로우베리팜","tel":"070-7725-0406","addr":"경기도 양평군 양평읍 오빈리 233-11번지","category":"음료식품 - 농·축·수산품"}]},{"lat":"37.500466465","long":"127.47658652","items":[{"name":"야산해촌","tel":"031-771-8321","addr":"경기도 양평군 양평읍 오빈리 150-59","category":"일반휴게음식 - 일반한식"}]},{"lat":"37.503381739","long":"127.46159761","items":[{"name":"양평리조트수상레저","tel":"031-585-6825","addr":"경기도 양평군 양평읍 오빈리 407-2 2번지선","category":"레저업소 - 기타레져업소"}]},{"lat":"37.503581842","long":"127.4770925","items":[{"name":"양평수제도시락made","tel":"031-772-5630","addr":"경기도 양평군 양평읍 오빈리 124번지 1층","category":"음료식품 - 기타음료식품"}]},{"lat":"37.507332065","long":"127.47656204","items":[{"name":"양평아트센터","tel":"031-774-2490","addr":"경기도 양평군 양평읍 오빈리 96-23번지 104호","category":"문화.취미 - 화랑"}]},{"lat":"37.503971413","long":"127.46748205","items":[{"name":"양평인테리어하우징","tel":"031-771-2829","addr":"경기도 양평군 양평읍 오빈리 358-3번지","category":"직물 - 카페트,커튼,천막,지물"}]},{"lat":"37.501105604","long":"127.47672626","items":[{"name":"양평점현대자동차","tel":"031-774-5511","addr":"경기도 양평군 양평읍 오빈리 150-72번지","category":"자동차정비 유지 - 자동차정비"}]},{"lat":"37.50493504","long":"127.46298687","items":[{"name":"양평종합주방기구","tel":"031-771-5566","addr":"경기도 양평군 양평읍 오빈리 447-6번지 1층","category":"주방용구 - 주방용구"}]},{"lat":"37.503408764","long":"127.46850771","items":[{"name":"양평충전소","tel":"031-771-4478","addr":"경기도 양평군 양평읍 오빈리 361-4번지","category":"연료판매점 - SK가스충전소"}]},{"lat":"37.505882696","long":"127.47625883","items":[{"name":"엘리팜(ELEFARM)","tel":"031-775-6249","addr":"경기도 양평군 양평읍 오빈리 96-27번지","category":"음료식품 - 기타음료식품"}]},{"lat":"37.502325551","long":"127.47356744","items":[{"name":"엠디텍","tel":"02-2068-7512","addr":"경기도 양평군 양평읍 오빈리 207-3번지 2층 203호","category":"기타의료기관 - 기타의료기관 및 기타"},{"name":"오빈잔디기계수리센타","tel":"031-775-8995","addr":"경기도 양평군 양평읍 오빈리 207-3번지 1층 107호","category":"수리서비스 - 기타수리서비스"},{"name":"주식회사 네버하우징","tel":"031-774-6006","addr":"경기도 양평군 양평읍 오빈리 207-3번지","category":"건축자재 - 부동산 분양"}]},{"lat":"37.505102696","long":"127.46389265","items":[{"name":"예담식품","tel":"031-773-0208","addr":"경기도 양평군 양평읍 오빈리 310-17번지 1층","category":"음료식품 - 제과점"}]},{"lat":"37.510384794","long":"127.48365024","items":[{"name":"오빈과일","tel":"","addr":"경기도 양평군 양평읍 오빈리 52-2번지 1층 2호","category":"음료식품 - 농·축·수산품"}]},{"lat":"37.504803287","long":"127.47356037","items":[{"name":"오빈역수산","tel":"","addr":"경기도 양평군 양평읍 오빈리 253-18번지","category":"음료식품 - 농·축·수산품"}]},{"lat":"37.504828964","long":"127.47389982","items":[{"name":"오빈역장어","tel":"031-771-6962","addr":"경기도 양평군 양평읍 오빈리 253-62번지","category":"일반휴게음식 - 일반한식"},{"name":"플앤카라(주)","tel":"031-4223-7237","addr":"경기도 양평군 양평읍 오빈리 253-62번지","category":"음료식품 - 기타음료식품"}]},{"lat":"37.504467675","long":"127.46037153","items":[{"name":"오케이철물종합상사","tel":"031-775-1432","addr":"경기도 양평군 양평읍 오빈리 418-6번지","category":"건축자재 - 목재·석재·철물"}]},{"lat":"37.504496824","long":"127.46214728","items":[{"name":"와이스포츠","tel":"070-8881-3951","addr":"경기도 양평군 양평읍 오빈리 437-10번지 1층","category":"의류 - 스포츠의류"}]},{"lat":"37.503800897","long":"127.46731136","items":[{"name":"유로디자인","tel":"070-8800-8082","addr":"경기도 양평군 양평읍 오빈리 377-2번지","category":"직물 - 침구·수예점"}]},{"lat":"37.504943792","long":"127.4767279","items":[{"name":"유한상사","tel":"031-771-7291","addr":"경기도 양평군 양평읍 오빈리 96-44번지","category":"신변잡화 - 기타잡화"}]},{"lat":"37.505047093","long":"127.45965126","items":[{"name":"육개장팩토리","tel":"031-774-8887","addr":"경기도 양평군 양평읍 오빈리 420-5번지","category":"일반휴게음식 - 일반한식"}]},{"lat":"37.505718165","long":"127.47684589","items":[{"name":"은성벽난로","tel":"","addr":"경기도 양평군 양평읍 오빈리 96-49번지","category":"전기제품 - 냉열기기"}]},{"lat":"37.503664774","long":"127.46755932","items":[{"name":"인니퍼니처","tel":"031-774-9962","addr":"경기도 양평군 양평읍 오빈리 376-5","category":"건축자재 - 인테리어전문"}]},{"lat":"37.50446487","long":"127.46109531","items":[{"name":"장터해장국","tel":"031-771-8906","addr":"경기도 양평군 양평읍 오빈리 411-2번지","category":"일반휴게음식 - 일반한식"},{"name":"중부엔마텍(주)","tel":"031-772-4532","addr":"경기도 양평군 양평읍 오빈리 411-2번지","category":"용역 서비스 - 사무서비스"}]},{"lat":"37.504883719","long":"127.45762587","items":[{"name":"정우벽난로","tel":"031-775-1975","addr":"경기도 양평군 양평읍 오빈리 483-8번지","category":"전기제품 - 냉열기기"},{"name":"주식회사화롯불벽난로","tel":"031-773-8886","addr":"경기도 양평군 양평읍 오빈리 483-8번지","category":"전기제품 - 냉열기기"}]},{"lat":"37.500631834","long":"127.47803509","items":[{"name":"주식회사명성우드","tel":"031-775-5447","addr":"경기도 양평군 양평읍 오빈리 152-2번지","category":"건축자재 - 기타건축자재"}]},{"lat":"37.49915889","long":"127.47687228","items":[{"name":"주식회사티엔티(T&T)","tel":"031-775-3740","addr":"경기도 양평군 양평읍 오빈리 150-68","category":"건축자재 - 기타건축자재"}]},{"lat":"37.506249098","long":"127.47475696","items":[{"name":"준디자인광고","tel":"031-771-0116","addr":"경기도 양평군 양평읍 오빈리 238-11번지 1층","category":"용역 서비스 - 종합용역"}]},{"lat":"37.500134485","long":"127.47848428","items":[{"name":"참진","tel":"031-774-5570","addr":"경기도 양평군 양평읍 오빈리 150-17번지","category":"음료식품 - 기타음료식품"}]},{"lat":"37.502355911","long":"127.47273076","items":[{"name":"청우종합상사","tel":"031-774-7788","addr":"경기도 양평군 양평읍 오빈리 210-21번지","category":"건축자재 - 기타건축자재"}]},{"lat":"37.502909032","long":"127.46728322","items":[{"name":"청호산업","tel":"031-773-0089","addr":"경기도 양평군 양평읍 오빈리 375-4","category":"농업 - 기타농업관련"}]},{"lat":"37.50429816","long":"127.46687337","items":[{"name":"클럽워시","tel":"031-772-2221","addr":"경기도 양평군 양평읍 오빈리 356-8번지","category":"자동차정비 유지 - 세차장"}]},{"lat":"37.503297135","long":"127.47167359","items":[{"name":"한샘리하우스","tel":"031-775-3535","addr":"경기도 양평군 양평읍 오빈리 226-7번지","category":"건축자재 - 기타건축자재"}]},{"lat":"37.504407496","long":"127.45962474","items":[{"name":"호산종합건재상사","tel":"031-773-7775","addr":"경기도 양평군 양평읍 오빈리 415-1번지 1동 1층","category":"건축자재 - 목재·석재·철물"}]}]