[{"lat":"37.187410814","long":"126.84216169","items":[{"name":"(주)삼현컨테이너","tel":"031-366-7547","addr":"경기도 화성시 남양읍 활초리 15번지","category":"건축자재 - 기타건축자재"}]},{"lat":"37.177659044","long":"126.83388331","items":[{"name":"녹원정","tel":"031-366-8980","addr":"경기도 화성시 남양읍 활초리 319-2번지","category":"일반휴게음식 - 일반한식"}]},{"lat":"37.176635367","long":"126.83636288","items":[{"name":"라플라스(LAPLACE)","tel":"031-366-8968","addr":"경기도 화성시 남양읍 활초리 325-2번지","category":"일반휴게음식 - 서양음식"}]},{"lat":"37.188635924","long":"126.83543556","items":[{"name":"명수농장","tel":"031-355-2815","addr":"경기도 화성시 남양읍 활초리 195-28번지 2층","category":"일반휴게음식 - 일반한식"},{"name":"명수농장정육식당","tel":"031-355-2815","addr":"경기도 화성시 남양읍 활초리 195-28번지 1층 일부","category":"일반휴게음식 - 일반한식"},{"name":"명수농장정육점","tel":"","addr":"경기도 화성시 남양읍 활초리 195-28번지","category":"음료식품 - 정육점"},{"name":"명수상사(슈퍼)","tel":"031-355-2815","addr":"경기도 화성시 남양읍 활초리 195-28번지 1층","category":"유통업 영리 - 슈퍼마켓"}]},{"lat":"37.181298343","long":"126.83966341","items":[{"name":"버킹검모텔","tel":"031-356-5810","addr":"경기도 화성시 남양읍 활초리 79-1번지","category":"숙박업 - 여관/기타숙박업"}]},{"lat":"37.183824464","long":"126.82924111","items":[{"name":"엠케이우드테크(m k wood tech)","tel":"","addr":"경기도 화성시 남양읍 활초리 230-1번지","category":"기타 - 기계공구"}]},{"lat":"37.186436181","long":"126.83458452","items":[{"name":"이투스투포세븐 비봉 기숙학원","tel":"031-376-0247","addr":"경기도 화성시 남양읍 활초리 195-5번지","category":"학원 - 보습학원"},{"name":"코리아커뮤니케이션","tel":"032-207-8944","addr":"경기도 화성시 남양읍 활초리 195-5번지 한울유스센터 탑클래스학원","category":"학원 - 기타 교육기관"}]},{"lat":"37.187133409","long":"126.84358128","items":[{"name":"주식회사 엔모터스","tel":"031-357-1836","addr":"경기도 화성시 남양읍 활초리 21번지","category":"자동차정비 유지 - 자동차부품"}]},{"lat":"37.187103665","long":"126.84157672","items":[{"name":"청궁염소탕","tel":"031-356-0502","addr":"경기도 화성시 남양읍 활초리 25번지","category":"일반휴게음식 - 일반한식"}]},{"lat":"37.185411068","long":"126.83605081","items":[{"name":"한울유스센터","tel":"070-4230-0250","addr":"경기도 화성시 남양읍 활초리 196번지 1층","category":"음료식품 - 기타음료식품"}]},{"lat":"37.176860183","long":"126.8360471","items":[{"name":"활초관광농원","tel":"031-356-2633","addr":"경기도 화성시 남양읍 활초리 324-1번지 외4필지","category":"일반휴게음식 - 일반한식"}]},{"lat":"37.181523681","long":"126.83971923","items":[{"name":"활초마트","tel":"031-366-9361","addr":"경기도 화성시 남양읍 활초리 79번지","category":"유통업 영리 - 슈퍼마켓"}]},{"lat":"37.179327537","long":"126.84146938","items":[{"name":"활초매점","tel":"031-355-9311","addr":"경기도 화성시 남양읍 활초리 85-3번지","category":"음료식품 - 기타음료식품"}]}]