[{"lat":"37.006549747","long":"127.27353985","items":[{"name":"(재)아름다운가게안성점","tel":"031-676-0676","addr":"경기도 안성시 영동 429-3 외(533-2,581-1)1층","category":"기타 - 비영리/대상"}]},{"lat":"37.006992085","long":"127.27318189","items":[{"name":"(주)굿모닝여행사","tel":"031-677-5400","addr":"경기도 안성시 영동 442-3번지","category":"여행 - 관광여행"},{"name":"꽃밭","tel":"031-671-3711","addr":"경기도 안성시 영동 442-3번지","category":"문화.취미 - 화원"},{"name":"대원투어","tel":"031-677-5400","addr":"경기도 안성시 영동 442-3번지","category":"여행 - 관광여행"}]},{"lat":"37.006660022","long":"127.27259648","items":[{"name":"(주)코리아세븐안성2호점/473호점","tel":"031-676-3456","addr":"경기도 안성시 영동 31번지","category":"유통업 영리 - 편 의 점"},{"name":"개성짱","tel":"070-8827-7081","addr":"경기도 안성시 영동 31번지 1층 7호","category":"의류 - 정장"},{"name":"국민스넥","tel":"031-676-9557","addr":"경기도 안성시 영동 31번지","category":"일반휴게음식 - 일반한식"},{"name":"네일 (NAIL)_5","tel":"031-677-2501","addr":"경기도 안성시 영동 31번지 106호","category":"보건위생 - 피부미용실"},{"name":"법무사김천규사무소","tel":"031-673-5580","addr":"경기도 안성시 영동 31번지","category":"용역 서비스 - 법률회계서비스(개인)"},{"name":"이프모아","tel":"031-673-9079","addr":"경기도 안성시 영동 31번지 1층 7호","category":"의류 - 정장"},{"name":"정재흠세무회계사무소","tel":"031-675-8106","addr":"경기도 안성시 영동 31번지","category":"용역 서비스 - 법률회계서비스(개인)"},{"name":"크로바헤어클럽","tel":"031-676-2629","addr":"경기도 안성시 영동 31번지","category":"보건위생 - 미용원"}]},{"lat":"37.006523278","long":"127.27329258","items":[{"name":"고은장식.조명","tel":"031-676-3054","addr":"경기도 안성시 영동 531번지","category":"직물 - 카페트,커튼,천막,지물"},{"name":"먹깨비포차","tel":"031-671-2633","addr":"경기도 안성시 영동 531번지","category":"일반휴게음식 - 일반한식"}]},{"lat":"37.007605623","long":"127.27282452","items":[{"name":"공룡고기안성점","tel":"031-677-5569","addr":"경기도 안성시 영동 24번지","category":"일반휴게음식 - 일반한식"},{"name":"안일옥","tel":"031-675-2486","addr":"경기도 안성시 영동 24번지","category":"일반휴게음식 - 일반한식"}]},{"lat":"37.005632866","long":"127.27257038","items":[{"name":"굿샷스크린골프","tel":"031-677-2501","addr":"경기도 안성시 영동 546번지 1층","category":"레저업소 - 스크린골프"}]},{"lat":"37.00655215","long":"127.27248374","items":[{"name":"금강","tel":"031-677-7772","addr":"경기도 안성시 영동 33번지 1층","category":"일반휴게음식 - 주점"},{"name":"러빙노래방","tel":"031-676-0047","addr":"경기도 안성시 영동 33 2층","category":"레저업소 - 노 래 방"},{"name":"정성가득찬","tel":"031-673-0290","addr":"경기도 안성시 영동 33번지","category":"일반휴게음식 - 일반한식"}]},{"lat":"37.005550058","long":"127.27332284","items":[{"name":"금호알미늄","tel":"031-673-3473","addr":"경기도 안성시 영동 408-1번지","category":"건축자재 - 보일러·펌프·샷시"}]},{"lat":"37.006828767","long":"127.27367566","items":[{"name":"나르지오 워킹화 (안성점)","tel":"031-676-7949","addr":"경기도 안성시 영동 429-1번지 1층","category":"레져용품 - 스포츠·레져용품"},{"name":"보성사","tel":"031-674-4488","addr":"경기도 안성시 영동 429-1","category":"서적문구 - 출판 및 인쇄물"}]},{"lat":"37.005576347","long":"127.27364875","items":[{"name":"누들꼬마김밥","tel":"031-111-1111","addr":"경기도 안성시 영동 408-2번지","category":"일반휴게음식 - 일반한식"},{"name":"보성칼국수","tel":"031-676-2436","addr":"경기도 안성시 영동 408-2번지","category":"일반휴게음식 - 일반한식"},{"name":"은지네 건강반찬","tel":"031-671-0605","addr":"경기도 안성시 영동 408-2번지 1층","category":"음료식품 - 기타음료식품"}]},{"lat":"37.005552408","long":"127.27228922","items":[{"name":"뉴 헤라 헤어샵","tel":"031-676-5662","addr":"경기도 안성시 영동 574-2번지","category":"보건위생 - 미용원"},{"name":"집밥","tel":"031-675-3371","addr":"경기도 안성시 영동 574-2번지 1층","category":"일반휴게음식 - 일반한식"},{"name":"카츠야","tel":"031-675-3371","addr":"경기도 안성시 영동 574-2번지 1층","category":"일반휴게음식 - 일반한식"}]},{"lat":"37.005579822","long":"127.27212079","items":[{"name":"대명당","tel":"031-674-0843","addr":"경기도 안성시 영동 46번지","category":"신변잡화 - 시계"},{"name":"리바똥호프","tel":"031-671-9160","addr":"경기도 안성시 영동 46번지","category":"일반휴게음식 - 주점"},{"name":"미미꽃","tel":"031-675-8422","addr":"경기도 안성시 영동 46번지","category":"문화.취미 - 화원"},{"name":"사랑의 뜰안","tel":"031-677-5004","addr":"경기도 안성시 영동 46번지","category":"건강식품 - 기타건강식품"},{"name":"세븐일레븐안성낙원공원점","tel":"031-1577-0711","addr":"경기도 안성시 영동 46번지 1층 1호","category":"유통업 영리 - 편 의 점"},{"name":"피자나라치킨공주 안성점","tel":"031-673-4540","addr":"경기도 안성시 영동 46번지 1층 우호","category":"일반휴게음식 - 스넥"},{"name":"해피랑힐링센터 (안성지점)","tel":"031-673-7736","addr":"경기도 안성시 영동 46번지 일순빌딩 2층","category":"보건위생 - 의료용품"}]},{"lat":"37.007605188","long":"127.27301553","items":[{"name":"더네일샵(The nail#)","tel":"031-8052-5800","addr":"경기도 안성시 영동 23번지","category":"보건위생 - 피부미용실"}]},{"lat":"37.006577777","long":"127.27310177","items":[{"name":"더모먼트플라워","tel":"031-671-1350","addr":"경기도 안성시 영동 529-1번지 1층","category":"문화.취미 - 화원"},{"name":"땡스","tel":"031-674-7790","addr":"경기도 안성시 영동 529-1번지 1층 101호","category":"보건위생 - 화장품"},{"name":"성주컴퓨터","tel":"031-675-7347","addr":"경기도 안성시 영동 529-1번지","category":"사무통신 - 컴퓨터"},{"name":"유진기획","tel":"031-672-1796","addr":"경기도 안성시 영동 529-1번지","category":"서적문구 - 출판 및 인쇄물"}]},{"lat":"37.006222181","long":"127.27493185","items":[{"name":"도림건재","tel":"031-672-1020","addr":"경기도 안성시 영동 5번지","category":"건축자재 - 기타건축자재"},{"name":"도림건재","tel":"031-672-1020","addr":"경기도 안성시 영동 5번지","category":"건축자재 - 기타건축자재"}]},{"lat":"37.006076929","long":"127.27540321","items":[{"name":"동성건재","tel":"031-675-2234","addr":"경기도 안성시 영동 1번지","category":"기타 - 기계공구"}]},{"lat":"37.006052446","long":"127.27429084","items":[{"name":"디딤사회적협동조합","tel":"031-677-0907","addr":"경기도 안성시 영동 410번지","category":"일반휴게음식 - 일반한식"},{"name":"크린토피아","tel":"031-672-1050","addr":"경기도 안성시 영동 410번지 1층","category":"수리서비스 - 세탁소"}]},{"lat":"37.006271417","long":"127.27310069","items":[{"name":"라이프러리독서실","tel":"031-677-6646","addr":"경기도 안성시 영동 529-10번지","category":"학원 - 독서실"}]},{"lat":"37.006774191","long":"127.27390017","items":[{"name":"매킨토시","tel":"031-677-0620","addr":"경기도 안성시 영동 426번지","category":"서적문구 - 출판 및 인쇄물"},{"name":"제일광고","tel":"031-674-3304","addr":"경기도 안성시 영동 426번지","category":"용역 서비스 - 종합용역"}]},{"lat":"37.007333745","long":"127.27350892","items":[{"name":"백성열쇠","tel":"031-673-1967","addr":"경기도 안성시 영동 444-3번지","category":"기타 - 기계공구"}]},{"lat":"37.006467882","long":"127.27387661","items":[{"name":"베로니카화원","tel":"031-675-3855","addr":"경기도 안성시 영동 409번지","category":"문화.취미 - 화원"},{"name":"영동카프러스","tel":"031-675-4534","addr":"경기도 안성시 영동 409번지","category":"자동차정비 유지 - 카인테리어"}]},{"lat":"37.006522459","long":"127.2736521","items":[{"name":"부흥식당","tel":"031-675-5814","addr":"경기도 안성시 영동 428번지","category":"일반휴게음식 - 일반한식"},{"name":"안성종합계기","tel":"031-675-6258","addr":"경기도 안성시 영동 428번지","category":"기타 - 기계공구"}]},{"lat":"37.006965743","long":"127.27287844","items":[{"name":"블레스롤 안성점","tel":"031-671-6606","addr":"경기도 안성시 영동 30-1번지 1층 우측호","category":"일반휴게음식 - 서양음식"}]},{"lat":"37.005577908","long":"127.27296341","items":[{"name":"샘터분식","tel":"","addr":"경기도 안성시 영동 408-4번지 1층","category":"일반휴게음식 - 일반한식"},{"name":"안성참왕족발보쌈","tel":"031-671-1400","addr":"경기도 안성시 영동 408-4","category":"일반휴게음식 - 일반한식"},{"name":"케이씨씨(Kcc)페인트 안성대리점","tel":"","addr":"경기도 안성시 영동 408-4번지 1층 102호","category":"건축자재 - 페인트"},{"name":"타슈켄트시티(Tashkent city)","tel":"","addr":"경기도 안성시 영동 408-4번지 1층","category":"일반휴게음식 - 서양음식"}]},{"lat":"37.005630897","long":"127.27343547","items":[{"name":"성원유리","tel":"031-675-6999","addr":"경기도 안성시 영동 408 1/6","category":"건축자재 - 유리"}]},{"lat":"37.006194582","long":"127.27517893","items":[{"name":"송현공사","tel":"031-675-4622","addr":"경기도 안성시 영동 4-1번지","category":"건축자재 - 보일러·펌프·샷시"}]},{"lat":"37.006269829","long":"127.27379727","items":[{"name":"수민네닭갈비","tel":"031-671-2396","addr":"경기도 안성시 영동 409-3번지","category":"일반휴게음식 - 일반한식"}]},{"lat":"37.006137918","long":"127.27236993","items":[{"name":"안성농협안흥지점","tel":"031-674-1755","addr":"경기도 안성시 영동 40번지","category":"유통업 비영리 - 농,축협 직영매장"}]},{"lat":"37.007550562","long":"127.27326251","items":[{"name":"안성마춤방앗간","tel":"031-673-3834","addr":"경기도 안성시 영동 446-4번지 1층","category":"음료식품 - 기타음료식품"},{"name":"짱가네감자탕","tel":"031-676-3254","addr":"경기도 안성시 영동 446-4번지","category":"일반휴게음식 - 일반한식"}]},{"lat":"37.005527206","long":"127.27543496","items":[{"name":"안성막걸리상사","tel":"031-676-4222","addr":"경기도 안성시 영동 20번지","category":"음료식품 - 기타음료식품"}]},{"lat":"37.006110172","long":"127.27268441","items":[{"name":"엘모텔","tel":"031-677-8579","addr":"경기도 안성시 영동 557번지","category":"숙박업 - 여관/기타숙박업"}]},{"lat":"37.006327191","long":"127.27234813","items":[{"name":"여기가조은데","tel":"031-676-6939","addr":"경기도 안성시 영동 39","category":"일반휴게음식 - 일반한식"}]},{"lat":"37.006964234","long":"127.27354132","items":[{"name":"연산치과의원","tel":"031-675-2348","addr":"경기도 안성시 영동 435번지","category":"의원 - 치과의원"}]},{"lat":"37.006550131","long":"127.27337132","items":[{"name":"영동식당","tel":"031-676-8948","addr":"경기도 안성시 영동 532번지 1층","category":"일반휴게음식 - 일반한식"}]},{"lat":"37.007442614","long":"127.27318348","items":[{"name":"영진닭칼국수","tel":"031-676-4317","addr":"경기도 안성시 영동 445번지","category":"일반휴게음식 - 일반한식"},{"name":"청용모터스","tel":"031-674-3071","addr":"경기도 안성시 영동 445번지","category":"자동차정비 유지 - 자동차정비"}]},{"lat":"37.006884213","long":"127.27306915","items":[{"name":"영헤어","tel":"031-676-7305","addr":"경기도 안성시 영동 440번지 1층","category":"보건위생 - 미용원"}]},{"lat":"37.007000583","long":"127.27340662","items":[{"name":"예솔 미용실","tel":"031-677-6720","addr":"경기도 안성시 영동 437-2번지","category":"보건위생 - 미용원"},{"name":"창대세탁소","tel":"031-673-5877","addr":"경기도 안성시 영동 437-2번지","category":"수리서비스 - 세탁소"},{"name":"하진호프","tel":"031-675-8905","addr":"경기도 안성시 영동 437-2번지","category":"일반휴게음식 - 주점"}]},{"lat":"37.006632173","long":"127.27295591","items":[{"name":"운동나라","tel":"070-8827-7081","addr":"경기도 안성시 영동 526-1번지","category":"의류 - 스포츠의류"}]},{"lat":"37.007162595","long":"127.27348584","items":[{"name":"정 피부에스테틱","tel":"031-676-2789","addr":"경기도 안성시 영동 442-5번지 1층","category":"보건위생 - 피부미용실"},{"name":"짬뽕가","tel":"031-671-7111","addr":"경기도 안성시 영동 442-5번지","category":"일반휴게음식 - 중국식"}]},{"lat":"37.007056232","long":"127.27271023","items":[{"name":"제일통증의학과의원","tel":"031-673-2119","addr":"경기도 안성시 영동 30번지 성민빌딩","category":"의원 - 의원"}]},{"lat":"37.006692326","long":"127.27423694","items":[{"name":"조석명세무회계사무소","tel":"031-674-0100","addr":"경기도 안성시 영동 420번지","category":"용역 서비스 - 법률회계서비스(개인)"}]},{"lat":"37.005577601","long":"127.27309823","items":[{"name":"철오토바이","tel":"031-675-6706","addr":"경기도 안성시 영동 408-3번지","category":"자동차판매 - 이륜차판매"}]},{"lat":"37.007163107","long":"127.27326114","items":[{"name":"퀸즈헤나","tel":"031-676-6788","addr":"경기도 안성시 영동 442-12번지 1층","category":"보건위생 - 미용원"}]},{"lat":"37.005660408","long":"127.27234577","items":[{"name":"한국사회교육원 안성영동한GL0제1교실지부","tel":"031-675-9036","addr":"경기도 안성시 영동 547번지","category":"학원 - 기타 교육기관"},{"name":"한글로","tel":"031-675-9036","addr":"경기도 안성시 영동 547번지 지층","category":"서적문구 - 일반서적"}]},{"lat":"37.006719871","long":"127.27401233","items":[{"name":"한성세탁소","tel":"031-675-3417","addr":"경기도 안성시 영동 425번지","category":"수리서비스 - 세탁소"}]},{"lat":"37.00757785","long":"127.27315025","items":[{"name":"한일광고","tel":"031-675-2344","addr":"경기도 안성시 영동 446-5번지","category":"용역 서비스 - 종합용역"}]},{"lat":"37.007469339","long":"127.2733184","items":[{"name":"할매소머리국밥","tel":"031-677-1850","addr":"경기도 안성시 영동 445-2번지","category":"일반휴게음식 - 일반한식"}]},{"lat":"37.006910426","long":"127.27342877","items":[{"name":"행복한동물병원","tel":"031-677-8275","addr":"경기도 안성시 영동 437-1번지","category":"기타의료기관 - 동물병원"}]},{"lat":"37.006468831","long":"127.27346091","items":[{"name":"회계법인공명안성분사소","tel":"031-675-9501","addr":"경기도 안성시 영동 533-2번지","category":"용역 서비스 - 법률회계서비스(법인)"}]}]