[{"lat":"37.504669125","long":"127.6337454","items":[{"name":"(주)해나눔","tel":"031-411-4300","addr":"경기도 양평군 지평면 송현리 864-1번지","category":"음료식품 - 기타음료식품"}]},{"lat":"37.482779283","long":"127.61760851","items":[{"name":"경기우리에너지","tel":"031-774-6388","addr":"경기도 양평군 지평면 송현리 398-11,26","category":"연료판매점 - LPG 취급점"}]},{"lat":"37.489918681","long":"127.63232102","items":[{"name":"공원가든","tel":"031-775-8770","addr":"경기도 양평군 지평면 송현리 507","category":"일반휴게음식 - 일반한식"}]},{"lat":"37.502551717","long":"127.63207647","items":[{"name":"광탄카센타","tel":"031-773-7482","addr":"경기도 양평군 지평면 송현리 790-9","category":"자동차정비 유지 - 자동차정비"}]},{"lat":"37.48786172","long":"127.63451989","items":[{"name":"만나정","tel":"031-773-8043","addr":"경기도 양평군 지평면 송현리 16번지","category":"일반휴게음식 - 일반한식"}]},{"lat":"37.48836439","long":"127.62979785","items":[{"name":"만애벌꿀","tel":"031-771-1776","addr":"경기도 양평군 지평면 송현리 432","category":"건강식품 - 기타건강식품"}]},{"lat":"37.477747456","long":"127.63043269","items":[{"name":"복순할매 바지락칼국수","tel":"031-773-4876","addr":"경기도 양평군 지평면 송현리 94-4번지","category":"일반휴게음식 - 일반한식"},{"name":"자카르카페","tel":"031-773-9401","addr":"경기도 양평군 지평면 송현리 94-4번지","category":"일반휴게음식 - 서양음식"}]},{"lat":"37.48555198","long":"127.63343764","items":[{"name":"송현리체험농장","tel":"031-773-7556","addr":"경기도 양평군 지평면 송현리 485-5","category":"학원 - 기타 교육기관"}]},{"lat":"37.490082175","long":"127.63207363","items":[{"name":"씽크스페이스","tel":"070-8831-4179","addr":"경기도 양평군 지평면 송현리 506-4번지","category":"서적문구 - 기타서적문구"},{"name":"한신씽크가구","tel":"032-773-3932","addr":"경기도 양평군 지평면 송현리 506-4번지 1층","category":"가구 - 일반가구"}]},{"lat":"37.478448379","long":"127.62908191","items":[{"name":"오스타","tel":"031-774-5051","addr":"경기도 양평군 지평면 송현리 104-3","category":"주방용구 - 주방용구"}]},{"lat":"37.48886201","long":"127.63110231","items":[{"name":"울랄라 스포츠","tel":"031-772-0938","addr":"경기도 양평군 지평면 송현리 446번지","category":"학원 - 기타 교육기관"}]},{"lat":"37.486274493","long":"127.6348005","items":[{"name":"원지평상사","tel":"031-774-4500","addr":"경기도 양평군 지평면 송현리 27-2번지 2층","category":"음료식품 - 주류 판매점"}]},{"lat":"37.479280839","long":"127.62841053","items":[{"name":"유진상사","tel":"031-772-0428","addr":"경기도 양평군 지평면 송현리 108번지 1층","category":"건축자재 - 기타건축자재"}]},{"lat":"37.479391883","long":"127.62785748","items":[{"name":"지평꽃식물원","tel":"031-774-4035","addr":"경기도 양평군 지평면 송현리 331-2","category":"문화.취미 - 화원"}]},{"lat":"37.480528744","long":"127.62755039","items":[{"name":"지평농업협동조합자재부","tel":"031-773-7747","addr":"경기도 양평군 지평면 송현리 710번지","category":"유통업 비영리 - 농,축협 직영매장"}]},{"lat":"37.47758054","long":"127.63132441","items":[{"name":"지평먹을터","tel":"031-773-7071","addr":"경기도 양평군 지평면 송현리 88-3번지","category":"일반휴게음식 - 일반한식"}]},{"lat":"37.488223607","long":"127.63424027","items":[{"name":"지평주유소","tel":"031-772-3076","addr":"경기도 양평군 지평면 송현리 19-1번지 지평주유소","category":"연료판매점 - 현대정유(오일뱅크)"}]},{"lat":"37.48814089","long":"127.63454486","items":[{"name":"프로파크","tel":"031-773-2464","addr":"경기도 양평군 지평면 송현리 18-2번지","category":"숙박업 - 여관/기타숙박업"},{"name":"프로파크","tel":"031-773-2464","addr":"경기도 양평군 지평면 송현리 18-2번지","category":"숙박업 - 여관/기타숙박업"},{"name":"프로파크모텔","tel":"031-773-2464","addr":"경기도 양평군 지평면 송현리 18-2번지","category":"숙박업 - 여관/기타숙박업"}]},{"lat":"37.488023466","long":"127.6346004","items":[{"name":"프로파크","tel":"031-773-2464","addr":"경기도 양평군 지평면 송현리 17번지 18통2반","category":"숙박업 - 여관/기타숙박업"}]},{"lat":"37.490640119","long":"127.63557224","items":[{"name":"현대종합에너지","tel":"031-773-5530","addr":"경기도 양평군 지평면 송현리 566-2번지","category":"연료판매점 - LPG 취급점"}]}]