[{"lat":"37.15197223","long":"126.98456723","items":[{"name":"(주)이지크린","tel":"02-1600-7439","addr":"경기도 화성시 정남면 발산리 673-4번지","category":"주방용구 - 주방용구"}]},{"lat":"37.15286378","long":"126.98165147","items":[{"name":"GS25화성발산점","tel":"","addr":"경기도 화성시 정남면 발산리 689-1번지 1층","category":"유통업 영리 - 편 의 점"},{"name":"소문난순대국","tel":"031-366-2696","addr":"경기도 화성시 정남면 발산리 689-1번지 1층","category":"일반휴게음식 - 일반한식"}]},{"lat":"37.163190148","long":"126.98392279","items":[{"name":"고기굽는날","tel":"031-354-0190","addr":"경기도 화성시 정남면 발산리 486-1번지","category":"일반휴게음식 - 일반한식"},{"name":"무지개노래연습장","tel":"031-354-9644","addr":"경기도 화성시 정남면 발산리 486-1번지 2층","category":"레저업소 - 노 래 방"},{"name":"싱싱회포차","tel":"031-354-7240","addr":"경기도 화성시 정남면 발산리 486-1 영선빌딩","category":"일반휴게음식 - 일반한식"},{"name":"킹콩빌리어즈클럽","tel":"","addr":"경기도 화성시 정남면 발산리 486-1번지 2층","category":"레저업소 - 당 구 장"},{"name":"피그족","tel":"031-354-5858","addr":"경기도 화성시 정남면 발산리 486-1번지","category":"일반휴게음식 - 일반한식"}]},{"lat":"37.160973305","long":"126.98229092","items":[{"name":"고기마을","tel":"031-3540-1091","addr":"경기도 화성시 정남면 발산리 540","category":"일반휴게음식 - 일반한식"},{"name":"당구매니아","tel":"031-352-7532","addr":"경기도 화성시 정남면 발산리 540번지 2층","category":"레저업소 - 당 구 장"},{"name":"희야","tel":"031-000-0000","addr":"경기도 화성시 정남면 발산리 540번지","category":"일반휴게음식 - 일반한식"}]},{"lat":"37.161162544","long":"126.98240345","items":[{"name":"골프까페","tel":"031-354-8890","addr":"경기도 화성시 정남면 발산리 723","category":"일반휴게음식 - 서양음식"},{"name":"진노래연습장","tel":"031-354-8890","addr":"경기도 화성시 정남면 발산리 723","category":"레저업소 - 노 래 방"},{"name":"초가마을","tel":"031-353-2987","addr":"경기도 화성시 정남면 발산리 723","category":"일반휴게음식 - 일반한식"}]},{"lat":"37.168722713","long":"126.98490096","items":[{"name":"국제모터","tel":"031-366-3959","addr":"경기도 화성시 정남면 발산리 729-29","category":"수리서비스 - 기타수리서비스"}]},{"lat":"37.168109798","long":"126.98359504","items":[{"name":"김밥마을만두나라","tel":"031-352-3434","addr":"경기도 화성시 정남면 발산리 409-3번지","category":"일반휴게음식 - 스넥"}]},{"lat":"37.1602795","long":"126.98229111","items":[{"name":"꼬꼬가마솥통닭","tel":"031-352-3654","addr":"경기도 화성시 정남면 발산리 539-3번지 1층","category":"일반휴게음식 - 일반한식"}]},{"lat":"37.168749502","long":"126.9833697","items":[{"name":"나눔분식","tel":"031-354-1093","addr":"경기도 화성시 정남면 발산리 402-3번지","category":"일반휴게음식 - 스넥"}]},{"lat":"37.160829597","long":"126.98512799","items":[{"name":"나눔정보통신","tel":"031-233-0369","addr":"경기도 화성시 정남면 발산리 490-12번지 동남훼미리아파트 106동 904호","category":"회원제형태 - 기타1"}]},{"lat":"37.16864133","long":"126.98308824","items":[{"name":"남양에버유통","tel":"031-352-1642","addr":"경기도 화성시 정남면 발산리 404-4","category":"음료식품 - 기타음료식품"}]},{"lat":"37.155747735","long":"126.98536559","items":[{"name":"다정한식부페","tel":"031-234-0150","addr":"경기도 화성시 정남면 발산리 577번지","category":"일반휴게음식 - 일반한식"}]},{"lat":"37.168668845","long":"126.98622956","items":[{"name":"대성상사","tel":"070-5121-0211","addr":"경기도 화성시 정남면 발산리 113-2번지","category":"신변잡화 - 기타잡화"}]},{"lat":"37.16872235","long":"126.98264911","items":[{"name":"대진광고인테리어","tel":"031-353-6158","addr":"경기도 화성시 정남면 발산리 403-6","category":"용역 서비스 - 종합용역"},{"name":"정남농약종묘사","tel":"031-352-4422","addr":"경기도 화성시 정남면 발산리 403-6번지","category":"농업 - 비료,사료,종자"}]},{"lat":"37.155242727","long":"126.98270899","items":[{"name":"대한에너지관리","tel":"031-242-6055","addr":"경기도 화성시 정남면 발산리 702-1번지 B동 102호","category":"용역 서비스 - 기타용역서비스"}]},{"lat":"37.168416147","long":"126.98356119","items":[{"name":"더 클래스","tel":"031-352-5204","addr":"경기도 화성시 정남면 발산리 407-8번지","category":"의류 - 정장"},{"name":"부원상사","tel":"031-353-7148","addr":"경기도 화성시 정남면 발산리 407-8번지","category":"직물 - 옷감·직물"}]},{"lat":"37.169669537","long":"126.99059799","items":[{"name":"더채움","tel":"031-696-6530","addr":"경기도 화성시 정남면 발산리 376-1번지","category":"음료식품 - 기타음료식품"}]},{"lat":"37.16808272","long":"126.98331357","items":[{"name":"도도한 커피","tel":"031-000-0000","addr":"경기도 화성시 정남면 발산리 408-6번지 1층","category":"일반휴게음식 - 서양음식"}]},{"lat":"37.163496503","long":"126.98392271","items":[{"name":"돈치킨정남점","tel":"031-359-8277","addr":"경기도 화성시 정남면 발산리 486-1번지 C동 8호","category":"일반휴게음식 - 주점"},{"name":"진미가마솥통닭","tel":"031-359-9265","addr":"경기도 화성시 정남면 발산리 486-1번지 C동 1층","category":"일반휴게음식 - 스넥"}]},{"lat":"37.161306725","long":"126.98248222","items":[{"name":"두루애(화성정남점)","tel":"031-359-9287","addr":"경기도 화성시 정남면 발산리 723-1번지 1층","category":"일반휴게음식 - 일반한식"},{"name":"정남열쇠,도장","tel":"031-354-3030","addr":"경기도 화성시 정남면 발산리 723-1번지 1층","category":"건축자재 - 목재·석재·철물"},{"name":"청마루감자탕해장국","tel":"031-354-4388","addr":"경기도 화성시 정남면 발산리 723-1번지 1층 1,2호","category":"일반휴게음식 - 일반한식"},{"name":"파랑돼지","tel":"031-354-4448","addr":"경기도 화성시 정남면 발산리 723-1번지","category":"일반휴게음식 - 일반한식"},{"name":"폰카페","tel":"031-354-8226","addr":"경기도 화성시 정남면 발산리 723-1번지 1층 일부","category":"일반휴게음식 - 서양음식"}]},{"lat":"37.161532005","long":"126.98259474","items":[{"name":"드림태권도장","tel":"031-353-2248","addr":"경기도 화성시 정남면 발산리 723-2번지","category":"학원 - 예·체능계학원"}]},{"lat":"37.159333779","long":"126.98458797","items":[{"name":"딜라이트뮤직","tel":"031-354-2179","addr":"경기도 화성시 정남면 발산리 532-6번지","category":"학원 - 예·체능계학원"}]},{"lat":"37.159774919","long":"126.98231376","items":[{"name":"떡시루공방","tel":"031-352-1852","addr":"경기도 화성시 정남면 발산리 719번지","category":"일반휴게음식 - 일반한식"},{"name":"신원유통","tel":"031-354-9337","addr":"경기도 화성시 정남면 발산리 719번지 1층","category":"서적문구 - 문구용품"},{"name":"인디안","tel":"","addr":"경기도 화성시 정남면 발산리 719번지 102호","category":"음료식품 - 기타음료식품"}]},{"lat":"37.154359567","long":"126.98193248","items":[{"name":"린나이종합가스","tel":"031-352-3656","addr":"경기도 화성시 정남면 발산리 696-5번지 1층","category":"연료판매점 - LPG 취급점"}]},{"lat":"37.160973338","long":"126.98248231","items":[{"name":"맛나분식","tel":"031-354-1019","addr":"경기도 화성시 정남면 발산리 540-2번지","category":"일반휴게음식 - 스넥"},{"name":"미니스톱 화성동남점","tel":"031-1577-9621","addr":"경기도 화성시 정남면 발산리 540-2번지","category":"유통업 영리 - 편 의 점"},{"name":"스타월드노래연습장","tel":"031-352-5531","addr":"경기도 화성시 정남면 발산리 540-2번지","category":"레저업소 - 노 래 방"},{"name":"주식회사(술이랑밥이랑)","tel":"031-352-3002","addr":"경기도 화성시 정남면 발산리 540-2번지 1층","category":"일반휴게음식 - 일반한식"},{"name":"후문 옷수선","tel":"031-352-1143","addr":"경기도 화성시 정남면 발산리 540-2번지","category":"수리서비스 - 세탁소"}]},{"lat":"37.160387635","long":"126.98234737","items":[{"name":"매교볼트","tel":"031-8059-4700","addr":"경기도 화성시 정남면 발산리 539-2번지 1층","category":"기타 - 기계공구"},{"name":"화성연합","tel":"031-354-7731","addr":"경기도 화성시 정남면 발산리 539-2","category":"건축자재 - 보일러·펌프·샷시"}]},{"lat":"37.157720554","long":"126.98242689","items":[{"name":"발산리 순대국","tel":"031-366-0389","addr":"경기도 화성시 정남면 발산리 712번지","category":"일반휴게음식 - 일반한식"},{"name":"풍년한식부페","tel":"","addr":"경기도 화성시 정남면 발산리 712번지","category":"일반휴게음식 - 일반한식"}]},{"lat":"37.153945093","long":"126.98197763","items":[{"name":"비비모터스(B.B MOTORS)","tel":"070-5022-4846","addr":"경기도 화성시 정남면 발산리 696-1번지","category":"자동차정비 유지 - 자동차정비"}]},{"lat":"37.169723637","long":"126.99095828","items":[{"name":"삼영","tel":"031-353-9337","addr":"경기도 화성시 정남면 발산리 376-6번지","category":"기타 - 기계공구"},{"name":"정성정밀","tel":"031-366-4948","addr":"경기도 화성시 정남면 발산리 376-6","category":"기타 - 기계공구"}]},{"lat":"37.160198449","long":"126.9825388","items":[{"name":"삼오가든","tel":"031-353-3308","addr":"경기도 화성시 정남면 발산리 720-1번지 1층","category":"일반휴게음식 - 일반한식"}]},{"lat":"37.168578309","long":"126.98340352","items":[{"name":"새농민마트","tel":"031-352-2960","addr":"경기도 화성시 정남면 발산리 406-1","category":"유통업 영리 - 슈퍼마켓"},{"name":"한스헤어","tel":"070-8222-8744","addr":"경기도 화성시 정남면 발산리 406-1","category":"보건위생 - 미용원"}]},{"lat":"37.163586599","long":"126.9838664","items":[{"name":"성천기업상사","tel":"031-353-8412","addr":"경기도 화성시 정남면 발산리 484번지","category":"기타 - 기계공구"}]},{"lat":"37.161649416","long":"126.98427218","items":[{"name":"신영공조","tel":"031-353-1028","addr":"경기도 화성시 정남면 발산리 490-12번지 동남훼미리마트 102동 1411호","category":"전기제품 - 냉열기기"}]},{"lat":"37.154945265","long":"126.98203364","items":[{"name":"씨유화성정남에이스점","tel":"031-354-1026","addr":"경기도 화성시 정남면 발산리 697번지","category":"유통업 영리 - 편 의 점"},{"name":"와이제이정밀","tel":"031-223-5214","addr":"경기도 화성시 정남면 발산리 697번지","category":"기타 - 기계공구"},{"name":"이싼인디타이레스토랑","tel":"031-000-0000","addr":"경기도 화성시 정남면 발산리 697번지 108호","category":"일반휴게음식 - 서양음식"},{"name":"흥부네","tel":"031-354-9770","addr":"경기도 화성시 정남면 발산리 697번지 1층","category":"일반휴게음식 - 중국식"}]},{"lat":"37.168470141","long":"126.98314458","items":[{"name":"아이비(구제)","tel":"031-352-6032","addr":"경기도 화성시 정남면 발산리 405-2번지","category":"의류 - 정장"},{"name":"우리안경원","tel":"031-354-7887","addr":"경기도 화성시 정남면 발산리 405-2번지","category":"보건위생 - 안경"}]},{"lat":"37.165749322","long":"126.98526195","items":[{"name":"에투알(ETOILE)","tel":"070-5566-2234","addr":"경기도 화성시 정남면 발산리 245-2번지","category":"문화.취미 - 애완동물"}]},{"lat":"37.160468827","long":"126.9829215","items":[{"name":"영전산업(주)","tel":"031-353-8262","addr":"경기도 화성시 정남면 발산리 539-4번지","category":"전기제품 - 기타전기제품"}]},{"lat":"37.15519789","long":"126.98401484","items":[{"name":"영천석유","tel":"031-352-4233","addr":"경기도 화성시 정남면 발산리 590번지","category":"연료판매점 - 유류판매"}]},{"lat":"37.162802628","long":"126.98348381","items":[{"name":"예음음악미술학원","tel":"031-366-5156","addr":"경기도 화성시 정남면 발산리 486-3번지 3층","category":"학원 - 예·체능계학원"},{"name":"이불마트","tel":"031-352-6560","addr":"경기도 화성시 정남면 발산리 486-3번지","category":"직물 - 침구·수예점"},{"name":"참새와방앗간소주방","tel":"031-8059-6889","addr":"경기도 화성시 정남면 발산리 486-3번지","category":"일반휴게음식 - 일반한식"},{"name":"퀸헤어샵","tel":"031-353-8464","addr":"경기도 화성시 정남면 발산리 486-3","category":"보건위생 - 미용원"},{"name":"해피홈","tel":"031-353-9852","addr":"경기도 화성시 정남면 발산리 486-3번지 101호","category":"일반휴게음식 - 스넥"}]},{"lat":"37.167947918","long":"126.98558795","items":[{"name":"오케이테크(OK TECH)","tel":"031-352-0105","addr":"경기도 화성시 정남면 발산리 183-2번지","category":"전기제품 - 기타전기제품"}]},{"lat":"37.155693152","long":"126.98214601","items":[{"name":"우리전기","tel":"031-354-7379","addr":"경기도 화성시 정남면 발산리 705. 101호","category":"전기제품 - 기타전기제품"},{"name":"일심천막기업","tel":"031-354-6888","addr":"경기도 화성시 정남면 발산리 705번지 104호","category":"직물 - 카페트,커튼,천막,지물"},{"name":"효성중전기","tel":"031-354-7164","addr":"경기도 화성시 정남면 발산리 705번지 1층 102호","category":"전기제품 - 기타전기제품"}]},{"lat":"37.158945963","long":"126.98234776","items":[{"name":"우연노래연습장","tel":"031-353-7467","addr":"경기도 화성시 정남면 발산리 715번지","category":"레저업소 - 노 래 방"}]},{"lat":"37.168362031","long":"126.98323469","items":[{"name":"은하미용실","tel":"031-352-5631","addr":"경기도 화성시 정남면 발산리 408-11번지","category":"보건위생 - 미용원"},{"name":"초림식품","tel":"031-352-3655","addr":"경기도 화성시 정남면 발산리 408-11번지","category":"음료식품 - 기타음료식품"}]},{"lat":"37.16957957","long":"126.99200543","items":[{"name":"이레상사","tel":"031-352-4694","addr":"경기도 화성시 정남면 발산리 370-6번지 1층","category":"건축자재 - 기타건축자재"}]},{"lat":"37.16833499","long":"126.9831784","items":[{"name":"이모밥상","tel":"031-352-7298","addr":"경기도 화성시 정남면 발산리 408-10번지","category":"일반휴게음식 - 일반한식"}]},{"lat":"37.165055329","long":"126.98403491","items":[{"name":"정남동물병원","tel":"031-354-8211","addr":"경기도 화성시 정남면 발산리 250번지 103호","category":"기타의료기관 - 동물병원"},{"name":"큰맘할매순대국(화성정남점)","tel":"031-352-6167","addr":"경기도 화성시 정남면 발산리 250번지 1층,104,105호","category":"일반휴게음식 - 일반한식"}]},{"lat":"37.15325123","long":"126.98165137","items":[{"name":"정남제일주유소","tel":"031-8059-1517","addr":"경기도 화성시 정남면 발산리 691번지","category":"연료판매점 - 현대정유(오일뱅크)"},{"name":"정남제일주유소","tel":"031-8059-1556","addr":"경기도 화성시 정남면 발산리 691","category":"연료판매점 - SK주유소"}]},{"lat":"37.167524299","long":"126.98473236","items":[{"name":"정남초등학교병설유치원[아이행복]","tel":"031-352-2474","addr":"경기도 화성시 정남면 발산리 409-1번지","category":"학원 - 유치원"}]},{"lat":"37.168803505","long":"126.98300939","items":[{"name":"정남치과의원","tel":"031-353-3947","addr":"경기도 화성시 정남면 발산리 403-5번지 2층","category":"의원 - 치과의원"}]},{"lat":"37.157170907","long":"126.98237075","items":[{"name":"정남합판목재","tel":"031-354-0747","addr":"경기도 화성시 정남면 발산리 711-6번지","category":"건축자재 - 기타건축자재"}]},{"lat":"37.155531001","long":"126.98235994","items":[{"name":"제이제이 사무기기","tel":"031-354-1511","addr":"경기도 화성시 정남면 발산리 703번지 1동","category":"사무통신 - 사무용 OA기기"}]},{"lat":"37.156946072","long":"126.98500507","items":[{"name":"제일특수","tel":"031-353-6353","addr":"경기도 화성시 정남면 발산리 556번지","category":"용역 서비스 - 기타용역서비스"}]},{"lat":"37.158414605","long":"126.98390147","items":[{"name":"주식회사 유진미트","tel":"031-372-9310","addr":"경기도 화성시 정남면 발산리 548-20번지","category":"음료식품 - 정육점"}]},{"lat":"37.16780378","long":"126.98579065","items":[{"name":"진덕ENG","tel":"031-353-3753","addr":"경기도 화성시 정남면 발산리 183번지","category":"기타 - 기계공구"}]},{"lat":"37.156747994","long":"126.9860408","items":[{"name":"진원테크","tel":"031-352-6215","addr":"경기도 화성시 정남면 발산리 571-3번지","category":"기타 - 기계공구"}]},{"lat":"37.155440865","long":"126.98217985","items":[{"name":"청미한식뷔페2호점","tel":"031-8059-5354","addr":"경기도 화성시 정남면 발산리 703번지","category":"일반휴게음식 - 일반한식"}]},{"lat":"37.16538896","long":"126.98564483","items":[{"name":"큐 빌리어드","tel":"02-1111-1111","addr":"경기도 화성시 정남면 발산리 244-6번지","category":"레져용품 - 스포츠·레져용품"}]},{"lat":"37.161721368","long":"126.98345031","items":[{"name":"크린가이드","tel":"031-854-6243","addr":"경기도 화성시 정남면 발산리 490-12번지 동남 상가 106호","category":"수리서비스 - 세탁소"}]},{"lat":"37.167884555","long":"126.98370769","items":[{"name":"토마토분식","tel":"","addr":"경기도 화성시 정남면 발산리 409-7번지 1층 일부","category":"일반휴게음식 - 스넥"}]},{"lat":"37.156972725","long":"126.98265224","items":[{"name":"형제클라크지게차","tel":"031-366-4548","addr":"경기도 화성시 정남면 발산리 709번지","category":"기타 - 기계공구"}]},{"lat":"37.156945651","long":"126.98240459","items":[{"name":"호남한식뷔페","tel":"031-352-9233","addr":"경기도 화성시 정남면 발산리 709-2번지","category":"일반휴게음식 - 일반한식"}]}]