[{"lat":"37.802836988","long":"127.04525808","items":[{"name":"(주)건창정보기술","tel":"031-970-3793","addr":"경기도 양주시 산북동 300-3번지 1층","category":"사무통신 - 통신기기"},{"name":"밧데리할인마트","tel":"031-846-0011","addr":"경기도 양주시 산북동 300-3번지","category":"자동차정비 유지 - 자동차부품"},{"name":"새차만들기","tel":"031-843-2212","addr":"경기도 양주시 산북동 300-3번지","category":"자동차정비 유지 - 카인테리어"}]},{"lat":"37.801675485","long":"127.04321358","items":[{"name":"(주)미래융합전략연구소","tel":"031-848-1044","addr":"경기도 양주시 산북동 278-2번지","category":"서적문구 - 출판 및 인쇄물"}]},{"lat":"37.808674978","long":"127.04564751","items":[{"name":"(주)와이앤제이인프라","tel":"070-5172-8177","addr":"경기도 양주시 산북동 345번지 나동","category":"신변잡화 - 기타잡화"},{"name":"영 사운드","tel":"031-848-6386","addr":"경기도 양주시 산북동 345번지","category":"회원제형태 - 기타3"},{"name":"조은카랜드","tel":"031-847-8579","addr":"경기도 양주시 산북동 345번지","category":"자동차정비 유지 - 자동차정비"}]},{"lat":"37.806927111","long":"127.04573734","items":[{"name":"(주)정일건설기계","tel":"02-486-0948","addr":"경기도 양주시 산북동 341-15번지","category":"기타 - 기계공구"}]},{"lat":"37.80175591","long":"127.0450985","items":[{"name":"(주)조은렌트카","tel":"031-821-0003","addr":"경기도 양주시 산북동 290-11번지","category":"여행 - 렌터카"},{"name":"형제중고타이어","tel":"031-846-6377","addr":"경기도 양주시 산북동 290-11번지","category":"자동차정비 유지 - 자동차시트·타이어"}]},{"lat":"37.801585552","long":"127.04273664","items":[{"name":"(주)프로세이프텍","tel":"031-842-7284","addr":"경기도 양주시 산북동 277-2번지 , 1,2층","category":"용역 서비스 - 기타용역서비스"}]},{"lat":"37.799620796","long":"127.04473394","items":[{"name":"235연구소","tel":"031-0000-0000","addr":"경기도 양주시 산북동 264-4번지 경기섬유종합지원센터 5층 5호","category":"의류 - 정장"},{"name":"누퍼(NUPER)","tel":"","addr":"경기도 양주시 산북동 264-4번지 경기섬유종합지원센터 5층 11호","category":"의류 - 정장"},{"name":"디돈(DIDONE)","tel":"","addr":"경기도 양주시 산북동 264-4번지 경기섬유종합지원센터 5층 13호","category":"의류 - 기타의류"},{"name":"레이어(LAYOR)","tel":"070-4141-9663","addr":"경기도 양주시 산북동 264-4번지","category":"의류 - 내의판매"},{"name":"마루치","tel":"031-850-3980","addr":"경기도 양주시 산북동 264-4번지 경기섬유종합지원센터 5층 4호","category":"의류 - 정장"},{"name":"섬유지원센터웨딩홀 주식회사","tel":"031-842-2235","addr":"경기도 양주시 산북동 264-4번지 1층 일부","category":"일반휴게음식 - 일반한식"},{"name":"션케이(shawn.k)","tel":"02-792-6408","addr":"경기도 양주시 산북동 264-4번지 경기섬유종합지원센터 5층 10호","category":"의류 - 정장"},{"name":"이오랩(IO Lab.)","tel":"02-6369-3536","addr":"경기도 양주시 산북동 264-4번지 경기패션창작스튜디오 11호","category":"의류 - 정장"},{"name":"주식회사 더헤라","tel":"031-842-2235","addr":"경기도 양주시 산북동 264-4번지 1층","category":"용역 서비스 - 혼례서비스"},{"name":"피코먼트 (PICOMENT)","tel":"","addr":"경기도 양주시 산북동 264-4번지 경기섬유종합지원센터 5층 2호","category":"신변잡화 - 귀금속"}]},{"lat":"37.803008168","long":"127.04525818","items":[{"name":"GS25양주본점","tel":"","addr":"경기도 양주시 산북동 295-15번지","category":"유통업 영리 - 편 의 점"}]},{"lat":"37.799286832","long":"127.04642554","items":[{"name":"KS상사","tel":"031-862-3365","addr":"경기도 양주시 산북동 155-2번지","category":"건축자재 - 기타건축자재"}]},{"lat":"37.805422671","long":"127.0453504","items":[{"name":"간판스타","tel":"031-848-4275","addr":"경기도 양주시 산북동 333-13번지","category":"건축자재 - 인테리어전문"},{"name":"동방인테리어","tel":"","addr":"경기도 양주시 산북동 333-13번지 3호","category":"건축자재 - 인테리어전문"},{"name":"우월한곰탕","tel":"031-848-6100","addr":"경기도 양주시 산북동 333-13번지","category":"일반휴게음식 - 일반한식"}]},{"lat":"37.805674948","long":"127.04531648","items":[{"name":"거명페인트","tel":"031-857-7804","addr":"경기도 양주시 산북동 333-9번지","category":"건축자재 - 페인트"},{"name":"동보유리","tel":"031-840-8475","addr":"경기도 양주시 산북동 333-9번지","category":"건축자재 - 유리"}]},{"lat":"37.798593303","long":"127.04588013","items":[{"name":"경기타일도기상사","tel":"031-841-0933","addr":"경기도 양주시 산북동 261-4번지","category":"건축자재 - 건축용 요업제품"},{"name":"양주생고기김치찌개","tel":"031-867-4666","addr":"경기도 양주시 산북동 261-4번지 1층","category":"일반휴게음식 - 일반한식"},{"name":"희철이네 지물포","tel":"031-861-8832","addr":"경기도 양주시 산북동 261-4번지 104호","category":"건축자재 - 인테리어전문"}]},{"lat":"37.798205929","long":"127.04578908","items":[{"name":"고향막국수","tel":"031-821-7069","addr":"경기도 양주시 산북동 251-1번지","category":"일반휴게음식 - 일반한식"},{"name":"오토빈","tel":"031-846-6323","addr":"경기도 양주시 산북동 251-1번지 1층 1호","category":"자동차정비 유지 - 카인테리어"}]},{"lat":"37.799036263","long":"127.04156578","items":[{"name":"곤지","tel":"031-111-1111","addr":"경기도 양주시 산북동 254-5번지","category":"의류 - 정장"},{"name":"라이너 악기","tel":"031-877-2254","addr":"경기도 양주시 산북동 254-5번지","category":"레져용품 - 악기점"}]},{"lat":"37.792727228","long":"127.04829498","items":[{"name":"그린디자인","tel":"031-841-4800","addr":"경기도 양주시 산북동 207-9번지","category":"용역 서비스 - 종합용역"}]},{"lat":"37.801225089","long":"127.04298624","items":[{"name":"노블 시스템도어(문이든)","tel":"","addr":"경기도 양주시 산북동 276번지 1동","category":"건축자재 - 기타건축자재"}]},{"lat":"37.792204848","long":"127.04785189","items":[{"name":"농업회사법인주식회사한성승마클럽","tel":"031-866-7272","addr":"경기도 양주시 산북동 203-3번지","category":"레저업소 - 기타레져업소"}]},{"lat":"37.805288139","long":"127.04362433","items":[{"name":"데굴데굴 타이어","tel":"031-840-8622","addr":"경기도 양주시 산북동 329-1번지","category":"자동차정비 유지 - 자동차시트·타이어"},{"name":"트라이스포츠","tel":"031-853-8646","addr":"경기도 양주시 산북동 329-1번지 6호","category":"레져용품 - 스포츠·레져용품"}]},{"lat":"37.796340877","long":"127.04603778","items":[{"name":"도봉산 체육시설","tel":"031-848-7794","addr":"경기도 양주시 산북동 239-6(외239-11,12,13,14,15,16번지)","category":"용역 서비스 - 기타용역서비스"},{"name":"월드풋살구장","tel":"031-840-5335","addr":"경기도 양주시 산북동 239-6번지","category":"레저업소 - 기타레져업소"}]},{"lat":"37.80381246","long":"127.03778707","items":[{"name":"디자인레드(Desing-Red)","tel":"070-4228-7426","addr":"경기도 양주시 산북동 364-19번지 2층","category":"레져용품 - 스포츠·레져용품"}]},{"lat":"37.798756331","long":"127.04346179","items":[{"name":"디지텔솔루션","tel":"031-877-1893","addr":"경기도 양주시 산북동 254-8번지","category":"사무통신 - 사무용 OA기기"}]},{"lat":"37.803676681","long":"127.03987632","items":[{"name":"메인필드 코리아","tel":"070-8187-1229","addr":"경기도 양주시 산북동 370-13번지 107호","category":"신변잡화 - 기타잡화"}]},{"lat":"37.807089273","long":"127.04576015","items":[{"name":"메카카오디오","tel":"031-842-1482","addr":"경기도 양주시 산북동 341-6번지 1층","category":"자동차정비 유지 - 카인테리어"}]},{"lat":"37.804649186","long":"127.04148922","items":[{"name":"바른스포츠센터","tel":"","addr":"경기도 양주시 산북동 327-11번지","category":"학원 - 기타 교육기관"},{"name":"샘내식당","tel":"031-844-6686","addr":"경기도 양주시 산북동 327-11번지","category":"일반휴게음식 - 일반한식"}]},{"lat":"37.805453778","long":"127.03190584","items":[{"name":"불곡가든","tel":"031-821-3577","addr":"경기도 양주시 산북동 393번지 393-1,393-3","category":"일반휴게음식 - 일반한식"},{"name":"불곡가든","tel":"031-840-7860","addr":"경기도 양주시 산북동 393번지 1층","category":"일반휴게음식 - 일반한식"}]},{"lat":"37.805589377","long":"127.02998686","items":[{"name":"불곡산장","tel":"031-840-7860","addr":"경기도 양주시 산북동 389번지","category":"일반휴게음식 - 일반한식"}]},{"lat":"37.804396346","long":"127.04320371","items":[{"name":"불곡산종가집밥상","tel":"031-843-2157","addr":"경기도 양주시 산북동 329-12번지 1층 일부","category":"일반휴게음식 - 일반한식"}]},{"lat":"37.80381001","long":"127.04525863","items":[{"name":"비빔국수부흥국수","tel":"031-847-1960","addr":"경기도 양주시 산북동 304-5","category":"일반휴게음식 - 일반한식"},{"name":"탱큐담배슈퍼","tel":"031-843-6434","addr":"경기도 양주시 산북동 304-5","category":"음료식품 - 기타음료식품"},{"name":"한빛정보통신","tel":"031-840-3388","addr":"경기도 양주시 산북동 304-5번지","category":"사무통신 - 컴퓨터"}]},{"lat":"37.804557763","long":"127.0453499","items":[{"name":"산북반점","tel":"031-840-7876","addr":"경기도 양주시 산북동 331-4번지","category":"일반휴게음식 - 중국식"}]},{"lat":"37.790979076","long":"127.04909997","items":[{"name":"삼국지","tel":"031-847-1231","addr":"경기도 양주시 산북동 197-1번지 1층","category":"일반휴게음식 - 중국식"}]},{"lat":"37.798675053","long":"127.0440181","items":[{"name":"삼일락크","tel":"031-856-3131","addr":"경기도 양주시 산북동 258-33번지","category":"기타 - 기계공구"}]},{"lat":"37.80644963","long":"127.04568029","items":[{"name":"샘내마루/농업회사법인 자연과 사람들 주식","tel":"031-840-1113","addr":"경기도 양주시 산북동 339-3번지","category":"일반휴게음식 - 일반한식"}]},{"lat":"37.804784651","long":"127.04049004","items":[{"name":"샘내한증막","tel":"031-843-1960","addr":"경기도 양주시 산북동 319번지","category":"보건위생 - 사우나"},{"name":"한증막구내식당","tel":"031-000-0000","addr":"경기도 양주시 산북동 319번지","category":"일반휴게음식 - 일반한식"}]},{"lat":"37.791511321","long":"127.04731787","items":[{"name":"숲소리농장","tel":"031-866-6111","addr":"경기도 양주시 산북동 201-8번지","category":"레저업소 - 기타레져업소"}]},{"lat":"37.805314769","long":"127.04475987","items":[{"name":"승진광택","tel":"031-843-3734","addr":"경기도 양주시 산북동 333-17번지 건물 A동","category":"자동차정비 유지 - 세차장"}]},{"lat":"37.795313278","long":"127.04743369","items":[{"name":"안나&나무","tel":"031-848-9018","addr":"경기도 양주시 산북동 234번지","category":"문화.취미 - 화원"}]},{"lat":"37.798872455","long":"127.04626634","items":[{"name":"양주도토리방앗간","tel":"031-862-3365","addr":"경기도 양주시 산북동 156-1번지","category":"음료식품 - 제과점"},{"name":"평화로 갈비탕","tel":"031-856-1616","addr":"경기도 양주시 산북동 156-1번지 가동 1층","category":"일반휴게음식 - 일반한식"}]},{"lat":"37.807584793","long":"127.04576043","items":[{"name":"양주샘내점현대자동차","tel":"031-843-2880","addr":"경기도 양주시 산북동 342-4번지 1층전체","category":"자동차정비 유지 - 자동차정비"}]},{"lat":"37.801224577","long":"127.04446234","items":[{"name":"엄마외가","tel":"031-848-0075","addr":"경기도 양주시 산북동 280-7번지 1층","category":"일반휴게음식 - 일반한식"}]},{"lat":"37.804423163","long":"127.04381689","items":[{"name":"에듀바비 경기의정부지사","tel":"02-1522-0701","addr":"경기도 양주시 산북동 329-3번지","category":"용역 서비스 - 사무서비스"}]},{"lat":"37.802559869","long":"127.03870622","items":[{"name":"와이앤제이공방","tel":"031-845-6979","addr":"경기도 양주시 산북동 375-1번지","category":"주방용구 - 주방용구"}]},{"lat":"37.798504341","long":"127.0426555","items":[{"name":"유명가구","tel":"031-840-1177","addr":"경기도 양주시 산북동 254-14","category":"가구 - 일반가구"},{"name":"화이어스톰","tel":"070-4414-0533","addr":"경기도 양주시 산북동 254-14번지","category":"용역 서비스 - 기타용역서비스"}]},{"lat":"37.80153804","long":"127.04945854","items":[{"name":"이라테크","tel":"031-844-8711","addr":"경기도 양주시 산북동 116-1","category":"전기제품 - 기타전기제품"}]},{"lat":"37.794754595","long":"127.04768313","items":[{"name":"자연농원","tel":"031-111-1111","addr":"경기도 양주시 산북동 237-3번지","category":"문화.취미 - 화원"}]},{"lat":"37.805530964","long":"127.04485083","items":[{"name":"조우디자인","tel":"070-7528-2347","addr":"경기도 양주시 산북동 333-14번지 가동","category":"건축자재 - 인테리어전문"}]},{"lat":"37.802008175","long":"127.04509864","items":[{"name":"주식회사 뉴한솔","tel":"031-855-4500","addr":"경기도 양주시 산북동 290-5번지","category":"가구 - 일반가구"}]},{"lat":"37.796232317","long":"127.04724122","items":[{"name":"주식회사 왕상재","tel":"031-877-2123","addr":"경기도 양주시 산북동 229번지","category":"직물 - 카페트,커튼,천막,지물"}]},{"lat":"37.796142128","long":"127.04749095","items":[{"name":"중부종합기계","tel":"031-856-5398","addr":"경기도 양주시 산북동 229-3","category":"기타 - 기타 전문점"}]},{"lat":"37.802674875","long":"127.04509902","items":[{"name":"진우철물","tel":"031-840-6869","addr":"경기도 양주시 산북동 292-14번지","category":"건축자재 - 기타건축자재"}]},{"lat":"37.804451122","long":"127.04104627","items":[{"name":"충북상회","tel":"031-840-0874","addr":"경기도 양주시 산북동 319-6번지","category":"음료식품 - 기타음료식품"}]},{"lat":"37.806728895","long":"127.04575994","items":[{"name":"케이모터스(K MOTORS)","tel":"031-847-7980","addr":"경기도 양주시 산북동 339번지 1층","category":"자동차정비 유지 - 자동차정비"}]},{"lat":"37.792872011","long":"127.04662614","items":[{"name":"클린상사","tel":"031-840-0146","addr":"경기도 양주시 산북동 205-3","category":"전기제품 - 가전제품"}]},{"lat":"37.797981141","long":"127.04454","items":[{"name":"푸짐한해장국","tel":"031-842-3306","addr":"경기도 양주시 산북동 258-4번지 1층","category":"일반휴게음식 - 일반한식"}]},{"lat":"37.795952739","long":"127.0479904","items":[{"name":"풍년농자재","tel":"031-843-0309","addr":"경기도 양주시 산북동 232-2번지","category":"농업 - 기타농업관련"}]},{"lat":"37.806008249","long":"127.04545293","items":[{"name":"하나타일도기","tel":"031-821-7012","addr":"경기도 양주시 산북동 337-2번지","category":"건축자재 - 건축용 요업제품"}]},{"lat":"37.795060748","long":"127.0481261","items":[{"name":"현대꽃","tel":"031-841-8784","addr":"경기도 양주시 산북동 233-1","category":"문화.취미 - 화원"}]},{"lat":"37.792366634","long":"127.04885107","items":[{"name":"호감","tel":"031-847-5222","addr":"경기도 양주시 산북동 207-1번지","category":"문화.취미 - 애완동물"}]}]