[{"lat":"37.283676612","long":"126.84852003","items":[{"name":"레인보우","tel":"031-408-7428","addr":"경기도 안산시 상록구 사이동 1420-20번지","category":"일반휴게음식 - 주점"}]},{"lat":"37.282903926","long":"126.85021304","items":[{"name":"별그린어린이집[아이행복]","tel":"031-406-7213","addr":"경기도 안산시 상록구 사이동 1414-7번지 102호","category":"학원 - 유아원"}]},{"lat":"37.279763312","long":"126.85332022","items":[{"name":"본오슈퍼","tel":"031-409-3991","addr":"경기도 안산시 상록구 사이동 1506번지본오1차상가","category":"유통업 영리 - 슈퍼마켓"}]},{"lat":"37.29186913","long":"126.85021748","items":[{"name":"사동우편취급소","tel":"031-417-3100","addr":"경기도 안산시 상록구 사이동 1345번지 선경중심상가 102호","category":"용역 서비스 - 공공요금대행서비스/소"},{"name":"아름체형관리","tel":"031-408-8232","addr":"경기도 안산시 상록구 사이동 1345번지 선경중심상가 104호","category":"보건위생 - 피부미용실"},{"name":"엘지축산정육점","tel":"031-408-6689","addr":"경기도 안산시 상록구 사이동 1345번지 선경중심상가 지하층 3호","category":"음료식품 - 정육점"},{"name":"토마토","tel":"031-501-1464","addr":"경기도 안산시 상록구 사이동 1345번지 요진중심상가 2층 5호","category":"의류 - 정장"}]},{"lat":"37.290062845","long":"126.8539652","items":[{"name":"성도사","tel":"031-418-7243","addr":"경기도 안산시 상록구 사이동 1344번지 욱일중심상가 103호","category":"의류 - 내의판매"},{"name":"성제한의원","tel":"031-418-3111","addr":"경기도 안산시 상록구 사이동 1344번지 욱일중심상가 306호","category":"의원 - 한의원"}]},{"lat":"37.284123724","long":"126.85288309","items":[{"name":"소망24시열쇠","tel":"031-411-2722","addr":"경기도 안산시 상록구 사이동 1408-8번지 102호","category":"기타 - 기계공구"}]},{"lat":"37.284368055","long":"126.85371706","items":[{"name":"아이존어린이집[아이행복]","tel":"031-417-8291","addr":"경기도 안산시 상록구 사이동 1398-8번지","category":"학원 - 유아원"}]},{"lat":"37.280455259","long":"126.84496344","items":[{"name":"에스에이치","tel":"031-407-4001","addr":"경기도 안산시 상록구 사이동 1495-18","category":"자동차정비 유지 - 자동차부품"}]},{"lat":"37.288069068","long":"126.84507157","items":[{"name":"영마트","tel":"031-502-4582","addr":"경기도 안산시 상록구 사이동 1371-3,102,103번지","category":"유통업 영리 - 슈퍼마켓"}]},{"lat":"37.287098055","long":"126.85363273","items":[{"name":"월드전파사","tel":"031-504-7803","addr":"경기도 안산시 상록구 사이동 1346번지 월드프라자상가 106호","category":"전기제품 - 기타전기제품"},{"name":"월드할인마트","tel":"031-418-0017","addr":"경기도 안산시 상록구 사이동 1346번지 월드프라자 지층 101호","category":"유통업 영리 - 슈퍼마켓"},{"name":"제일한의원","tel":"031-418-9898","addr":"경기도 안산시 상록구 사이동 1346번지 월드크리닉 202","category":"의원 - 한의원"},{"name":"형치과의원","tel":"031-419-2275","addr":"경기도 안산시 상록구 사이동 1346번지 월드크리닉 302","category":"의원 - 치과의원"}]},{"lat":"37.29128883","long":"126.85443643","items":[{"name":"충남할인마트","tel":"031-418-6390","addr":"경기도 안산시 상록구 사이동 1343번지 현대중심상가 114호","category":"음료식품 - 농·축·수산품"}]},{"lat":"37.28142602","long":"126.84321363","items":[{"name":"해안볼링센타","tel":"031-417-9321","addr":"경기도 안산시 상록구 사이동 1497번지 해안프라자 3,4층","category":"레저업소 - 볼 링 장"}]},{"lat":"37.288985699","long":"126.85009926","items":[{"name":"화성건강원","tel":"031-418-4458","addr":"경기도 안산시 상록구 사이동 1345-2번지 현대1차분산상가 108","category":"건강식품 - 기타건강식품"}]}]