[{"lat":"37.301721603","long":"127.65019401","items":[{"name":"Beautup 뷰럽","tel":"070-7797-0010","addr":"경기도 여주시 천송동 515-1번지 월드타워 808호","category":"보건위생 - 피부미용실"},{"name":"주식회사 이투개발","tel":"031-884-7733","addr":"경기도 여주시 천송동 515-1번지 월드타워 201호","category":"의류 - 정장"}]},{"lat":"37.301828595","long":"127.64875123","items":[{"name":"CARAC(카락)","tel":"031-608-7889","addr":"경기도 여주시 천송동 591-5번지","category":"자동차정비 유지 - 세차장"}]},{"lat":"37.301720356","long":"127.64877286","items":[{"name":"G&S 싱크퓨어","tel":"070-2145-3690","addr":"경기도 여주시 천송동 591-6번지","category":"주방용구 - 주방용구"},{"name":"숲속카페","tel":"031-111-1111","addr":"경기도 여주시 천송동 591-6번지 2층","category":"일반휴게음식 - 일반한식"}]},{"lat":"37.301052804","long":"127.65385387","items":[{"name":"GS25여주신륵사점","tel":"","addr":"경기도 여주시 천송동 539-1번지","category":"유통업 영리 - 편 의 점"}]},{"lat":"37.302939614","long":"127.64824189","items":[{"name":"GS25여주천송점","tel":"","addr":"경기도 여주시 천송동 590-1번지 102호","category":"유통업 영리 - 편 의 점"},{"name":"메시아 중원침장","tel":"031-882-8838","addr":"경기도 여주시 천송동 590-1번지 102호, 590-2","category":"직물 - 침구·수예점"},{"name":"아로마 스킨","tel":"031-1111-1111","addr":"경기도 여주시 천송동 590-1번지 103호","category":"보건위생 - 화장품"},{"name":"화봉돼지순대국밥","tel":"031-883-8959","addr":"경기도 여주시 천송동 590-1번지 2","category":"일반휴게음식 - 일반한식"}]},{"lat":"37.301719939","long":"127.65705153","items":[{"name":"가람휘","tel":"031-645-7749","addr":"경기도 여주시 천송동 331-7번지 1층 2호","category":"문화.취미 - 민예·공예품"}]},{"lat":"37.301102579","long":"127.65463253","items":[{"name":"강남약국","tel":"031-885-1443","addr":"경기도 여주시 천송동 541-3번지","category":"약국 - 약국"},{"name":"강릉초당두부래요","tel":"031-881-0403","addr":"경기도 여주시 천송동 541-3번지","category":"일반휴게음식 - 일반한식"},{"name":"연탄구이 도니랑","tel":"031-111-1111","addr":"경기도 여주시 천송동 541-3번지","category":"일반휴게음식 - 일반한식"},{"name":"오박사네칼국수","tel":"031-886-2900","addr":"경기도 여주시 천송동 541-3번지","category":"일반휴게음식 - 일반한식"}]},{"lat":"37.297658095","long":"127.65511034","items":[{"name":"강으로","tel":"031-886-2615","addr":"경기도 여주시 천송동 288-86번지","category":"일반휴게음식 - 일반한식"},{"name":"강으로민물","tel":"031-886-2615","addr":"경기도 여주시 천송동 288-86번지","category":"회원제형태 - 기타1"},{"name":"나티큐코리아(Nautique Korea)트레이닝센터","tel":"031-882-2139","addr":"경기도 여주시 천송동 288-86번지 신륵수상레저","category":"레저업소 - 기타레져업소"},{"name":"커피볶는 오늘","tel":"","addr":"경기도 여주시 천송동 288-86번지 2층","category":"일반휴게음식 - 서양음식"}]},{"lat":"37.30091398","long":"127.6528827","items":[{"name":"강진도예갤러리","tel":"031-881-4534","addr":"경기도 여주시 천송동 527-2번지","category":"주방용구 - 주방용식기"},{"name":"소나무","tel":"031-881-4534","addr":"경기도 여주시 천송동 527-2번지","category":"일반휴게음식 - 서양음식"}]},{"lat":"37.302355362","long":"127.64963549","items":[{"name":"갤러리 토화공방","tel":"031-885-9539","addr":"경기도 여주시 천송동 492-16번지","category":"문화.취미 - 민예·공예품"}]},{"lat":"37.3024686507","long":"127.6486890288","items":[{"name":"거산도예","tel":"031-885-0602","addr":"경기도 여주시 천송동 590-5번지","category":"문화.취미 - 민예·공예품"}]},{"lat":"37.2986614593","long":"127.6545212436","items":[{"name":"고려도자기","tel":"031-885-4526","addr":"경기도 여주시 천송동 289-1번지","category":"문화.취미 - 민예·공예품"},{"name":"명성회관","tel":"031-885-3234","addr":"경기도 여주시 천송동 289-1번지","category":"일반휴게음식 - 일반한식"},{"name":"서울도자기","tel":"031-882-2607","addr":"경기도 여주시 천송동 289-1번지","category":"문화.취미 - 민예·공예품"},{"name":"이박사네","tel":"031-884-2168","addr":"경기도 여주시 천송동 289-1번지","category":"일반휴게음식 - 일반한식"},{"name":"청원상회","tel":"031-885-0505","addr":"경기도 여주시 천송동 289-1번지","category":"문화.취미 - 민예·공예품"}]},{"lat":"37.300991721","long":"127.65349242","items":[{"name":"고루모 도시락","tel":"031-886-8600","addr":"경기도 여주시 천송동 534번지","category":"일반휴게음식 - 서양음식"},{"name":"흙누리 공방","tel":"031-886-3144","addr":"경기도 여주시 천송동 534번지 534호","category":"문화.취미 - 민예·공예품"}]},{"lat":"37.302414266","long":"127.65858021","items":[{"name":"곤지암소머리국밥","tel":"","addr":"경기도 여주시 천송동 319-2번지 1층","category":"일반휴게음식 - 일반한식"},{"name":"여주세라믹","tel":"031-882-1544","addr":"경기도 여주시 천송동 319-2번지","category":"문화.취미 - 민예·공예품"}]},{"lat":"37.305575685","long":"127.65224606","items":[{"name":"공도양 심리상담센터","tel":"","addr":"경기도 여주시 천송동 459-5번지","category":"보건위생 - 기타대인서비스"}]},{"lat":"37.29835631","long":"127.65430432","items":[{"name":"구르미","tel":"031-111-1111","addr":"경기도 여주시 천송동 289-7번지 1층","category":"일반휴게음식 - 서양음식"},{"name":"금수강산","tel":"031-885-5293","addr":"경기도 여주시 천송동 289-7번지","category":"일반휴게음식 - 일반한식"},{"name":"산너머남촌","tel":"031-886-1425","addr":"경기도 여주시 천송동 289-7번지","category":"일반휴게음식 - 일반한식"},{"name":"상현뷰티셀","tel":"031-883-6468","addr":"경기도 여주시 천송동 289-7번지","category":"보건위생 - 화장품"},{"name":"여주 설렁탕","tel":"070-4123-0323","addr":"경기도 여주시 천송동 289-7번지 1층","category":"일반휴게음식 - 일반한식"},{"name":"여주맛집초계국수N수제왕돈까스","tel":"031-885-5888","addr":"경기도 여주시 천송동 289-7번지","category":"일반휴게음식 - 일반한식"},{"name":"카일라라이브카페","tel":"031-885-1180","addr":"경기도 여주시 천송동 289-7번지 2층","category":"일반휴게음식 - 주점"},{"name":"풍경","tel":"031-886-2073","addr":"경기도 여주시 천송동 289-7번지","category":"일반휴게음식 - 일반한식"}]},{"lat":"37.302054614","long":"127.66169006","items":[{"name":"궁림요업","tel":"031-884-5776","addr":"경기도 여주시 천송동 242-5번지","category":"문화.취미 - 민예·공예품"}]},{"lat":"37.30130049","long":"127.65140851","items":[{"name":"그린베이지","tel":"","addr":"경기도 여주시 천송동 517-7번지","category":"일반휴게음식 - 서양음식"}]},{"lat":"37.303023309","long":"127.64941563","items":[{"name":"금호타이어 여주판매","tel":"031-882-4827","addr":"경기도 여주시 천송동 491-3번지","category":"자동차정비 유지 - 자동차시트·타이어"},{"name":"만다린","tel":"031-885-0705","addr":"경기도 여주시 천송동 491-3번지","category":"일반휴게음식 - 중국식"}]},{"lat":"37.302138028","long":"127.65802514","items":[{"name":"길림세라믹1","tel":"031-885-9001","addr":"경기도 여주시 천송동 319번지","category":"문화.취미 - 민예·공예품"}]},{"lat":"37.301357763","long":"127.65899963","items":[{"name":"김가네부대찌개","tel":"031-885-1288","addr":"경기도 여주시 천송동 299-7번지","category":"일반휴게음식 - 일반한식"}]},{"lat":"37.300465674","long":"127.64919072","items":[{"name":"김명자 낙지마당","tel":"031-884-8807","addr":"경기도 여주시 천송동 566-4번지 1층","category":"일반휴게음식 - 일반한식"},{"name":"일품향","tel":"031-883-8280","addr":"경기도 여주시 천송동 566-4번지 2층","category":"일반휴게음식 - 중국식"}]},{"lat":"37.300387603","long":"127.6486374","items":[{"name":"남강노래연습장","tel":"031-886-0329","addr":"경기도 여주시 천송동 565-6번지","category":"레저업소 - 노 래 방"},{"name":"남강호텔","tel":"031-886-0303","addr":"경기도 여주시 천송동 565-6번지","category":"숙박업 - 여관/기타숙박업"},{"name":"마우리","tel":"031-885-8840","addr":"경기도 여주시 천송동 565-6번지","category":"일반휴게음식 - 일반한식"},{"name":"유리의정원","tel":"031-885-0606","addr":"경기도 여주시 천송동 565-6번지","category":"일반휴게음식 - 서양음식"}]},{"lat":"37.302749304","long":"127.64844329","items":[{"name":"낭만포차","tel":"031-882-7759","addr":"경기도 여주시 천송동 590-3번지 1층 5호 6호","category":"일반휴게음식 - 일반한식"}]},{"lat":"37.301912054","long":"127.66301972","items":[{"name":"녹원통상","tel":"031-883-3583","addr":"경기도 여주시 천송동 231-1번지","category":"신변잡화 - 기타잡화"},{"name":"소지개보리밥","tel":"031-886-6786","addr":"경기도 여주시 천송동 231-1번지","category":"일반휴게음식 - 일반한식"}]},{"lat":"37.304769989","long":"127.64799811","items":[{"name":"담원도예","tel":"","addr":"경기도 여주시 천송동 478번지 1층","category":"주방용구 - 주방용식기"},{"name":"해동도예","tel":"031-885-3171","addr":"경기도 여주시 천송동 478번지 478호","category":"문화.취미 - 민예·공예품"}]},{"lat":"37.298717753","long":"127.65575108","items":[{"name":"대성식당","tel":"031-886-5594","addr":"경기도 여주시 천송동 290-2번지","category":"일반휴게음식 - 일반한식"},{"name":"송학장여관","tel":"031-885-3936","addr":"경기도 여주시 천송동 290-2번지","category":"숙박업 - 여관/기타숙박업"},{"name":"옥천식당","tel":"031-885-2476","addr":"경기도 여주시 천송동 290-2번지","category":"일반휴게음식 - 일반한식"},{"name":"옥천유스텔","tel":"031-885-2476","addr":"경기도 여주시 천송동 290-2번지","category":"숙박업 - 여관/기타숙박업"}]},{"lat":"37.298991773","long":"127.65507674","items":[{"name":"대성여관","tel":"031-885-2309","addr":"경기도 여주시 천송동 290-9번지","category":"숙박업 - 여관/기타숙박업"}]},{"lat":"37.302991187","long":"127.66821751","items":[{"name":"대일전사","tel":"031-886-1771","addr":"경기도 여주시 천송동 59-1번지","category":"서적문구 - 출판 및 인쇄물"}]},{"lat":"37.297442367","long":"127.66152577","items":[{"name":"대한불교조계종 신륵사","tel":"031-885-2505","addr":"경기도 여주시 천송동 282번지","category":"문화.취미 - 티켓"},{"name":"대한불교조계종신륵사","tel":"031-885-2505","addr":"경기도 여주시 천송동 282번지","category":"기타 - 비영리/비대상"},{"name":"대한불교조계종신륵사","tel":"031-885-2505","addr":"경기도 여주시 천송동 282번지","category":"학원 - 기타 교육기관"}]},{"lat":"37.297523652","long":"127.67590621","items":[{"name":"동경수상레져","tel":"031-886-8580","addr":"경기도 여주시 천송동 279-4번지","category":"레저업소 - 기타레져업소"},{"name":"동경수상스키클럽","tel":"031-886-8580","addr":"경기도 여주시 천송동 279-4번지","category":"레저업소 - 기타레져업소"},{"name":"동경워터스키아카데미","tel":"031-886-8581","addr":"경기도 여주시 천송동 279-4번지","category":"레저업소 - 기타레져업소"}]},{"lat":"37.302047492","long":"127.64991483","items":[{"name":"동천도예","tel":"031-885-1937","addr":"경기도 여주시 천송동 515-12번지","category":"주방용구 - 주방용식기"},{"name":"명성도예","tel":"031-886-4531","addr":"경기도 여주시 천송동 515-12번지","category":"문화.취미 - 화랑"},{"name":"씨유여주도예촌점","tel":"031-898-6568","addr":"경기도 여주시 천송동 515-12번지","category":"유통업 영리 - 편 의 점"},{"name":"월드크리닝","tel":"031-886-4531","addr":"경기도 여주시 천송동 515-12번지","category":"수리서비스 - 세탁소"},{"name":"타이어벙커","tel":"031-886-0855","addr":"경기도 여주시 천송동 515-12번지","category":"자동차정비 유지 - 자동차시트·타이어"}]},{"lat":"37.302380953","long":"127.6482484","items":[{"name":"루비뷰티","tel":"031-885-0374","addr":"경기도 여주시 천송동 591-1번지","category":"보건위생 - 피부미용실"},{"name":"코코로","tel":"031-881-0505","addr":"경기도 여주시 천송동 591-1번지 1층","category":"일반휴게음식 - 일반한식"}]},{"lat":"37.300803289","long":"127.65825042","items":[{"name":"리베슈트베학원","tel":"031-884-0131","addr":"경기도 여주시 천송동 299-2번지 2층","category":"학원 - 예·체능계학원"}]},{"lat":"37.3009684","long":"127.66097003","items":[{"name":"맛내골","tel":"031-885-5599","addr":"경기도 여주시 천송동 299-18번지","category":"일반휴게음식 - 일반한식"},{"name":"여강수산","tel":"031-885-1062","addr":"경기도 여주시 천송동 299-18번지","category":"음료식품 - 농·축·수산품"}]},{"lat":"37.301277489","long":"127.65885231","items":[{"name":"맛들이","tel":"031-886-1886","addr":"경기도 여주시 천송동 299-6번지","category":"일반휴게음식 - 일반한식"},{"name":"미소푸드","tel":"031-884-1130","addr":"경기도 여주시 천송동 299-6번지","category":"일반휴게음식 - 일반한식"}]},{"lat":"37.305325731","long":"127.67124967","items":[{"name":"방충망","tel":"","addr":"경기도 여주시 천송동 109-7번지","category":"건축자재 - 기타건축자재"}]},{"lat":"37.303576607","long":"127.67305013","items":[{"name":"산수정도예전시장","tel":"031-885-6152","addr":"경기도 여주시 천송동 30-5번지","category":"문화.취미 - 민예·공예품"}]},{"lat":"37.301271781","long":"127.64841938","items":[{"name":"살롱드벨르(SALON DE BELLE)","tel":"","addr":"경기도 여주시 천송동 593-4번지 1동 6호","category":"보건위생 - 피부미용실"},{"name":"세종발레아카데미학원","tel":"031-886-1155","addr":"경기도 여주시 천송동 593-4번지","category":"학원 - 예·체능계학원"},{"name":"오학공구","tel":"031-885-0942","addr":"경기도 여주시 천송동 593-4번지","category":"기타 - 기계공구"},{"name":"운동화이불빨래방","tel":"031-881-1013","addr":"경기도 여주시 천송동 593-4번지 1층","category":"수리서비스 - 세탁소"},{"name":"전자담배듀바코여주점","tel":"031-885-4659","addr":"경기도 여주시 천송동 593-4번지 미진프라자 102호","category":"기타 - 기타 전문점"},{"name":"탑스타일헤어","tel":"031-886-0862","addr":"경기도 여주시 천송동 593-4번지 2층","category":"보건위생 - 미용원"}]},{"lat":"37.309157129","long":"127.66927575","items":[{"name":"삼진도형","tel":"031-885-6685","addr":"경기도 여주시 천송동 117번지","category":"기타 - 기계공구"}]},{"lat":"37.302468651","long":"127.64868903","items":[{"name":"샤이닝 짐","tel":"031-884-0008","addr":"경기도 여주시 천송동 590-5번지 3층","category":"레저업소 - 헬스클럽"}]},{"lat":"37.303247111","long":"127.64803022","items":[{"name":"석도원","tel":"031-886-4393","addr":"경기도 여주시 천송동 485-4번지","category":"주방용구 - 주방용식기"},{"name":"청화도예","tel":"031-885-0870","addr":"경기도 여주시 천송동 485-4번지 487호","category":"문화.취미 - 민예·공예품"}]},{"lat":"37.301465128","long":"127.65913591","items":[{"name":"성연","tel":"031-886-2293","addr":"경기도 여주시 천송동 299-8번지","category":"문화.취미 - 민예·공예품"},{"name":"흥부네웰빙(빈e)","tel":"031-886-8085","addr":"경기도 여주시 천송동 299-8번지 1층","category":"일반휴게음식 - 일반한식"}]},{"lat":"37.298661459","long":"127.65452124","items":[{"name":"세븐일레븐여주신륵사점","tel":"011-***-****","addr":"경기도 여주시 천송동 289-1번지","category":"유통업 영리 - 편 의 점"},{"name":"신륵사강진도예","tel":"031-886-4535","addr":"경기도 여주시 천송동 289-1번지","category":"문화.취미 - 골동품점"},{"name":"여주도자기","tel":"031-883-8008","addr":"경기도 여주시 천송동 289-1번지 2층","category":"문화.취미 - 민예·공예품"},{"name":"영진도자기","tel":"031-885-2440","addr":"경기도 여주시 천송동 289-1번지","category":"문화.취미 - 민예·공예품"},{"name":"해피푸드","tel":"070-8161-8359","addr":"경기도 여주시 천송동 289-1번지","category":"일반휴게음식 - 일반한식"}]},{"lat":"37.298827921","long":"127.65537984","items":[{"name":"송학식당","tel":"031-885-3936","addr":"경기도 여주시 천송동 290-8번지","category":"일반휴게음식 - 일반한식"}]},{"lat":"37.30072039","long":"127.65857678","items":[{"name":"수어린이집[아이행복]","tel":"031-884-0131","addr":"경기도 여주시 천송동 299-2번지","category":"학원 - 유아원"}]},{"lat":"37.300884473","long":"127.6533336","items":[{"name":"스며들다","tel":"031-885-5518","addr":"경기도 여주시 천송동 533-1번지","category":"일반휴게음식 - 서양음식"}]},{"lat":"37.299438401","long":"127.65577986","items":[{"name":"신륵여관","tel":"031-885-2508","addr":"경기도 여주시 천송동 296-1번지","category":"숙박업 - 여관/기타숙박업"}]},{"lat":"37.299552519","long":"127.65958171","items":[{"name":"신륵장애인보호작업장(꽃피는 마을)","tel":"031-881-2067","addr":"경기도 여주시 천송동 298-5번지","category":"문화.취미 - 화원"}]},{"lat":"37.302548723","long":"127.66032961","items":[{"name":"신명에너지","tel":"031-885-6667","addr":"경기도 여주시 천송동 316-4번지","category":"연료판매점 - LPG 취급점"}]},{"lat":"37.304608124","long":"127.65288066","items":[{"name":"싸리골","tel":"031-883-0165","addr":"경기도 여주시 천송동 503-8번지","category":"일반휴게음식 - 일반한식"}]},{"lat":"37.301803678","long":"127.65982686","items":[{"name":"쌍둥이네영양탕","tel":"031-886-3848","addr":"경기도 여주시 천송동 299-12번지","category":"일반휴게음식 - 일반한식"}]},{"lat":"37.301939343","long":"127.66780221","items":[{"name":"씨앤씨에너지","tel":"031-885-1741","addr":"경기도 여주시 천송동 52번지","category":"연료판매점 - LPG 취급점"}]},{"lat":"37.301715897","long":"127.65940878","items":[{"name":"씨유여주천송점","tel":"031-886-4643","addr":"경기도 여주시 천송동 299-10번지","category":"유통업 영리 - 편 의 점"}]},{"lat":"37.30174604","long":"127.65066793","items":[{"name":"아비숑","tel":"031-886-4700","addr":"경기도 여주시 천송동 515번지 515호","category":"숙박업 - 여관/기타숙박업"}]},{"lat":"37.3024976551","long":"127.6614119503","items":[{"name":"아이콘싸인","tel":"031-885-9222","addr":"경기도 여주시 천송동 242번지","category":"건축자재 - 인테리어전문"}]},{"lat":"37.301161238","long":"127.6586934","items":[{"name":"약초꾼의집","tel":"031-885-9065","addr":"경기도 여주시 천송동 299-5번지","category":"일반휴게음식 - 일반한식"}]},{"lat":"37.300857904","long":"127.65160772","items":[{"name":"어버이왕순대","tel":"031-886-2227","addr":"경기도 여주시 천송동 556-2번지","category":"일반휴게음식 - 일반한식"}]},{"lat":"37.3024142662","long":"127.6585802067","items":[{"name":"여강로타리클럽","tel":"031-885-1860","addr":"경기도 여주시 천송동 319-2번지","category":"기타 - 비영리/대상"}]},{"lat":"37.30013404","long":"127.65216544","items":[{"name":"여성시여성단체협의희","tel":"031-000-0000","addr":"경기도 여주시 천송동 553번지 3층","category":"음료식품 - 기타음료식품"}]},{"lat":"37.299826622","long":"127.6540012","items":[{"name":"여주농특산물판매장","tel":"031-886-2772","addr":"경기도 여주시 천송동 544번지","category":"음료식품 - 농·축·수산품"}]},{"lat":"37.299964989","long":"127.6566867","items":[{"name":"여주도자기사업협동조합","tel":"031-885-5713","addr":"경기도 여주시 천송동 297-1번지","category":"문화.취미 - 민예·공예품"},{"name":"여주도자기축제추진위원회","tel":"031-887-2283","addr":"경기도 여주시 천송동 297-1번지","category":"문화.취미 - 티켓"},{"name":"여주민속도자기사업협동조합","tel":"031-885-3937","addr":"경기도 여주시 천송동 297-1번지","category":"문화.취미 - 민예·공예품"},{"name":"여주시장애인단체연합회","tel":"031-885-6657","addr":"경기도 여주시 천송동 297-1번지","category":"일반휴게음식 - 일반한식"},{"name":"재단법인한국도자재단여주도자세상","tel":"031-887-8225","addr":"경기도 여주시 천송동 297-1번지","category":"주방용구 - 주방용식기"},{"name":"재단법인한국도자재단여주도자세상","tel":"031-887-8225","addr":"경기도 여주시 천송동 297-1번지","category":"일반휴게음식 - 서양음식"}]},{"lat":"37.302497655","long":"127.66141195","items":[{"name":"여주동강청정김치","tel":"031-886-1171","addr":"경기도 여주시 천송동 242번지 C동 1층","category":"음료식품 - 기타음료식품"}]},{"lat":"37.304776951","long":"127.65658172","items":[{"name":"여주펜선","tel":"","addr":"경기도 여주시 천송동 342-15번지","category":"숙박업 - 여관/기타숙박업"}]},{"lat":"37.302102467","long":"127.66763446","items":[{"name":"연세석유여주LPG충전소","tel":"031-883-8970","addr":"경기도 여주시 천송동 51-5번지","category":"연료판매점 - GS 가스충전소"},{"name":"연세석유여주셀프주유소","tel":"031-883-8970","addr":"경기도 여주시 천송동 51-5번지","category":"연료판매점 - GS주유소"}]},{"lat":"37.302716278","long":"127.64789034","items":[{"name":"열쇠번호키게이트앤전자키디지털도어락수도","tel":"031-885-7404","addr":"경기도 여주시 천송동 589-1번지 모던하우스 B동 602호","category":"건축자재 - 목재·석재·철물"}]},{"lat":"37.301443333","long":"127.64835318","items":[{"name":"오월모텔","tel":"031-885-5585","addr":"경기도 여주시 천송동 593-2번지","category":"숙박업 - 여관/기타숙박업"}]},{"lat":"37.301552495","long":"127.64816237","items":[{"name":"오월모텔","tel":"031-885-5585","addr":"경기도 여주시 천송동 593-1번지","category":"숙박업 - 여관/기타숙박업"}]},{"lat":"37.302914269","long":"127.64958388","items":[{"name":"오학감자탕2호점","tel":"031-885-3200","addr":"경기도 여주시 천송동 495-4번지","category":"일반휴게음식 - 일반한식"},{"name":"진짜맛있는건어물","tel":"031-8051-1251","addr":"경기도 여주시 천송동 495-4번지 1층","category":"음료식품 - 농·축·수산품"}]},{"lat":"37.300971641","long":"127.65058234","items":[{"name":"온누리","tel":"031-886-1816","addr":"경기도 여주시 천송동 558-2번지","category":"일반휴게음식 - 주점"}]},{"lat":"37.304412446","long":"127.67182811","items":[{"name":"웅골손두부","tel":"031-882-1617","addr":"경기도 여주시 천송동 31-1번지","category":"일반휴게음식 - 일반한식"}]},{"lat":"37.3044124462","long":"127.6718281101","items":[{"name":"웅골아그맛","tel":"031-882-6178","addr":"경기도 여주시 천송동 31-1번지","category":"일반휴게음식 - 일반한식"}]},{"lat":"37.30158189","long":"127.65102744","items":[{"name":"원디자인","tel":"031-882-6915","addr":"경기도 여주시 천송동 517-5번지 중앙하이빌","category":"건축자재 - 인테리어전문"}]},{"lat":"37.30132993","long":"127.65588644","items":[{"name":"원스치킨","tel":"","addr":"경기도 여주시 천송동 304-4번지","category":"일반휴게음식 - 일반한식"}]},{"lat":"37.304574809","long":"127.65238408","items":[{"name":"원일","tel":"031-885-1237","addr":"경기도 여주시 천송동 503-33번지","category":"주방용구 - 주방용식기"}]},{"lat":"37.303326889","long":"127.66780314","items":[{"name":"은하도예","tel":"031-885-8690","addr":"경기도 여주시 천송동 57-10번지","category":"문화.취미 - 민예·공예품"}]},{"lat":"37.301215211","long":"127.65052803","items":[{"name":"일성노래연습장","tel":"031-885-1013","addr":"경기도 여주시 천송동 563-6번지","category":"레저업소 - 노 래 방"},{"name":"일성헤어샵","tel":"031-885-3881","addr":"경기도 여주시 천송동 563-6번지","category":"보건위생 - 미용원"},{"name":"카페힐링","tel":"031-883-0800","addr":"경기도 여주시 천송동 563-6번지 일성남한강콘도미니엄 지하1층","category":"일반휴게음식 - 서양음식"}]},{"lat":"37.307908526","long":"127.65402576","items":[{"name":"전원요업","tel":"031-884-0459","addr":"경기도 여주시 천송동 450-4번지","category":"문화.취미 - 민예·공예품"}]},{"lat":"37.30149744","long":"127.65655334","items":[{"name":"제이엠산업","tel":"031-882-7749","addr":"경기도 여주시 천송동 307-1번지","category":"건축자재 - 목재·석재·철물"}]},{"lat":"37.3085475102","long":"127.6703306796","items":[{"name":"진상명품","tel":"031-885-1582","addr":"경기도 여주시 천송동 110번지","category":"음료식품 - 농·축·수산품"}]},{"lat":"37.299439955","long":"127.65549791","items":[{"name":"천가셀프","tel":"031-885-1663","addr":"경기도 여주시 천송동 294-3번지","category":"일반휴게음식 - 일반한식"},{"name":"천송수산","tel":"031-885-1663","addr":"경기도 여주시 천송동 294-3번지","category":"음료식품 - 농·축·수산품"}]},{"lat":"37.310406814","long":"127.65846913","items":[{"name":"천송매운탕","tel":"031-885-9029","addr":"경기도 여주시 천송동 407-1번지","category":"일반휴게음식 - 일반한식"}]},{"lat":"37.303995963","long":"127.67218535","items":[{"name":"천송이마트","tel":"031-884-0089","addr":"경기도 여주시 천송동 31-6번지","category":"유통업 영리 - 슈퍼마켓"}]},{"lat":"37.301745925","long":"127.66049181","items":[{"name":"천송정","tel":"031-0000-0000","addr":"경기도 여주시 천송동 299-16번지","category":"일반휴게음식 - 일반한식"}]},{"lat":"37.301964356","long":"127.6486396","items":[{"name":"천송한의원","tel":"031-886-9966","addr":"경기도 여주시 천송동 591-4번지","category":"의원 - 한의원"}]},{"lat":"37.305102105","long":"127.65316689","items":[{"name":"천주식품","tel":"031-883-9249","addr":"경기도 여주시 천송동 505-1번지","category":"음료식품 - 기타음료식품"}]},{"lat":"37.302437593","long":"127.64777517","items":[{"name":"청춘","tel":"031-884-2200","addr":"경기도 여주시 천송동 589-3번지","category":"일반휴게음식 - 일반한식"},{"name":"청춘","tel":"031-884-2200","addr":"경기도 여주시 천송동 589-3번지","category":"일반휴게음식 - 일반한식"}]},{"lat":"37.299554161","long":"127.65111155","items":[{"name":"카페라이브러리","tel":"031-885-3237","addr":"경기도 여주시 천송동 561-3번지","category":"일반휴게음식 - 서양음식"}]},{"lat":"37.301717768","long":"127.66069458","items":[{"name":"콩닭콩닭","tel":"031-884-9563","addr":"경기도 여주시 천송동 299-17번지","category":"일반휴게음식 - 일반한식"}]},{"lat":"37.30224507","long":"127.64838259","items":[{"name":"태백골","tel":"031-855-5523","addr":"경기도 여주시 천송동 591-2번지","category":"일반휴게음식 - 일반한식"}]},{"lat":"37.30124841","long":"127.65432926","items":[{"name":"통달배 족발 보쌈 삼겹 여주점","tel":"031-885-3530","addr":"경기도 여주시 천송동 541-19번지 1층","category":"일반휴게음식 - 일반한식"}]},{"lat":"37.30291555","long":"127.66724685","items":[{"name":"한양관","tel":"031-885-6778","addr":"경기도 여주시 천송동 57-3번지","category":"일반휴게음식 - 일반한식"}]},{"lat":"37.3035510406","long":"127.6484727015","items":[{"name":"합동기계공구","tel":"031-884-0984","addr":"경기도 여주시 천송동 485-2번지","category":"기타 - 기계공구"}]},{"lat":"37.302109613","long":"127.66152136","items":[{"name":"해원석고","tel":"031-885-4511","addr":"경기도 여주시 천송동 242-4번지","category":"문화.취미 - 민예·공예품"}]},{"lat":"37.3010528037","long":"127.6538538703","items":[{"name":"향토집","tel":"031-885-1261","addr":"경기도 여주시 천송동 539-1번지","category":"일반휴게음식 - 일반한식"}]},{"lat":"37.310550964","long":"127.66494519","items":[{"name":"호연당 타로숲","tel":"031-889-0245","addr":"경기도 여주시 천송동 168번지","category":"보건위생 - 기타대인서비스"}]}]