[{"lat":"36.979804331","long":"127.07491992","items":[{"name":"㈜해들촌 농업회사법인","tel":"","addr":"경기도 평택시 팽성읍 신궁리 104번지","category":"제조업 - 고춧가루"}]},{"lat":"36.983409682","long":"127.07314868","items":[{"name":"기아부품대리점","tel":"031-653-9293","addr":"경기도 평택시 팽성읍 신궁리 146-45번지","category":"소매업 - 자동차부품"}]},{"lat":"36.984220353","long":"127.07364363","items":[{"name":"루소코리아","tel":"041-622-2285","addr":"경기도 평택시 팽성읍 신궁리 146-9번지 1층","category":"주방용구 - 주방용구"}]},{"lat":"36.981603885","long":"127.06342044","items":[{"name":"박정순샐러드삼","tel":"","addr":"경기도 평택시 팽성읍 신궁리 664-1번지","category":"소매업 - 농산물"},{"name":"박정순샐러드삼","tel":"031-655-9646","addr":"경기도 평택시 팽성읍 신궁리 664-1번지","category":"건강식품 - 인삼제품"}]},{"lat":"36.980554405","long":"127.07122547","items":[{"name":"선경씽크","tel":"031-691-6763","addr":"경기도 평택시 팽성읍 신궁리 143-16번지 1층","category":"주방용구 - 주방용구"}]},{"lat":"36.983635281","long":"127.07258729","items":[{"name":"세종마대산업","tel":"031-657-7037","addr":"경기도 평택시 팽성읍 신궁리 146-25번지","category":"유통업 영리 - 기타유통업"}]},{"lat":"36.983383421","long":"127.07183453","items":[{"name":"소문난정육점","tel":"031-691-6937","addr":"경기도 평택시 팽성읍 신궁리 145-2","category":"음료식품 - 정육점"},{"name":"정육식당평궁","tel":"031-691-6937","addr":"경기도 평택시 팽성읍 신궁리 145-2번지","category":"일반휴게음식 - 일반한식"}]},{"lat":"36.983887713","long":"127.07236288","items":[{"name":"아미","tel":"031-618-7955","addr":"경기도 평택시 팽성읍 신궁리 146-53번지","category":"일반휴게음식 - 일반한식"}]},{"lat":"36.981581127","long":"127.07209123","items":[{"name":"에이스(ACE)/원격지","tel":"031-618-6771","addr":"경기도 평택시 팽성읍 신궁리 144-30번지 공장 B동","category":"기타 - 기타 전문점"}]},{"lat":"36.98468937","long":"127.07286906","items":[{"name":"용성상사","tel":"031-655-9429","addr":"경기도 평택시 팽성읍 신궁리 164-7번지","category":"건축자재 - 기타건축자재"}]},{"lat":"36.978190112","long":"127.07702985","items":[{"name":"유성산업","tel":"031-658-6000","addr":"경기도 평택시 팽성읍 신궁리 57-2번지","category":"건축자재 - 보일러·펌프·샷시"}]},{"lat":"36.978383468","long":"127.07008919","items":[{"name":"청전에프엔비","tel":"031-691-7402","addr":"경기도 평택시 팽성읍 신궁리 193번지","category":"소매업 - 꿀"}]},{"lat":"36.981910591","long":"127.0785385","items":[{"name":"카스저울","tel":"031-653-0202","addr":"경기도 평택시 팽성읍 신궁리 11-152번지","category":"주방용구 - 주방용구"},{"name":"카스저울","tel":"031-656-3100","addr":"경기도 평택시 팽성읍 신궁리 11-152번지","category":"서적문구 - 과학기자재"}]},{"lat":"36.977246262","long":"127.07328902","items":[{"name":"평택과수농협  농산물관리유통센터","tel":"031-653-1425","addr":"경기도 평택시 팽성읍 신궁리 140번지","category":"도소매업 - 농산물"}]},{"lat":"36.981190068","long":"127.0780099","items":[{"name":"하이테크냉동기계","tel":"031-691-3467","addr":"경기도 평택시 팽성읍 신궁리 26-2","category":"용역 서비스 - 기타용역서비스"}]}]