[{"lat":"37.781570972","long":"127.16416483","items":[{"name":"1992오크(O.A.K)","tel":"","addr":"경기도 포천시 소흘읍 직동리 310-6번지","category":"가구 - 일반가구"}]},{"lat":"37.768371332","long":"127.16469229","items":[{"name":"6남매별빛촌","tel":"031-542-0695","addr":"경기도 포천시 소흘읍 직동리 436번지","category":"일반휴게음식 - 일반한식"},{"name":"육남매별빛촌","tel":"542-0695","addr":"경기도 포천시 소흘읍 직동리 436번지 1층","category":"음식 - 한식"}]},{"lat":"37.770876279","long":"127.16447075","items":[{"name":"GS25광릉수목원점","tel":"031-544-5575","addr":"경기도 포천시 소흘읍 직동리 393-1번지","category":"편의점 - 편의점"},{"name":"GS25광릉수목원점","tel":"02-2006-2118","addr":"경기도 포천시 소흘읍 직동리 393-1","category":"유통업 영리 - 편 의 점"},{"name":"카페썸","tel":"031-544-8777","addr":"경기도 포천시 소흘읍 직동리 393-1번지 나동 2층","category":"일반휴게음식 - 서양음식"},{"name":"하우징액트","tel":"031-535-2230","addr":"경기도 포천시 소흘읍 직동리 393-1번지","category":"건축자재 - 인테리어전문"}]},{"lat":"37.766097772","long":"127.16697987","items":[{"name":"SD농산","tel":"070-1111-1111","addr":"경기도 포천시 소흘읍 직동리 87-5번지 SD농산 류승두","category":"음료식품 - 농·축·수산품"},{"name":"아르떼","tel":"031-531-3257","addr":"경기도 포천시 소흘읍 직동리 87-5번지","category":"가구 - 기타가구"},{"name":"아르떼","tel":"543-3257","addr":"경기도 포천시 소흘읍 직동리 87-5번지","category":"소매업 - 잡화"},{"name":"흙과나무","tel":"031-541-7981","addr":"경기도 포천시 소흘읍 직동리 87-5번지","category":"문화.취미 - 화원"}]},{"lat":"37.766179568","long":"127.16646934","items":[{"name":"갤러리가삼","tel":"031-543-2272","addr":"경기도 포천시 소흘읍 직동리 96-10번지","category":"일반휴게음식 - 서양음식"},{"name":"갤러리가삼","tel":"543-2272","addr":"경기도 포천시 소흘읍 직동리 96-10번지","category":"음식 - 커피 등"}]},{"lat":"37.772286758","long":"127.16078502","items":[{"name":"골목집예당","tel":"","addr":"경기도 포천시 소흘읍 직동리 359-6번지","category":"일반휴게음식 - 일반한식"}]},{"lat":"37.776875607","long":"127.1651989","items":[{"name":"광릉내생고기연탄구이","tel":"031-5447-0993","addr":"경기도 포천시 소흘읍 직동리 329-1번지","category":"일반휴게음식 - 일반한식"},{"name":"광릉내연탄구이","tel":"542-1123","addr":"경기도 포천시 소흘읍 직동리 329-1번지","category":"음식 - 한식"},{"name":"재안식품","tel":"031-542-4496","addr":"경기도 포천시 소흘읍 직동리 329-1번지 2층","category":"음료식품 - 농·축·수산품"}]},{"lat":"37.781177423","long":"127.16859105","items":[{"name":"광릉수목원 카페프로방스","tel":"031-866-0058","addr":"경기도 포천시 소흘읍 직동리 217번지","category":"일반휴게음식 - 서양음식"}]},{"lat":"37.780763658","long":"127.16811337","items":[{"name":"광릉숲개발","tel":"031-866-0058","addr":"경기도 포천시 소흘읍 직동리 220-22번지","category":"유통업 영리 - 슈퍼마켓"}]},{"lat":"37.773151485","long":"127.16092307","items":[{"name":"광릉숲황토숯가마","tel":"031-544-5600","addr":"경기도 포천시 소흘읍 직동리 368-5번지 외1필지","category":"보건위생 - 사우나"}]},{"lat":"37.768342771","long":"127.16580448","items":[{"name":"광릉식품","tel":"070-8873-7811","addr":"경기도 포천시 소흘읍 직동리 99-4","category":"음료식품 - 기타음료식품"},{"name":"선한솜씨","tel":"","addr":"경기도 포천시 소흘읍 직동리 99-4번지 2호","category":"소매업 - 생활"},{"name":"선한솜씨","tel":"031-544-7771","addr":"경기도 포천시 소흘읍 직동리 99-4번지 2호","category":"신변잡화 - 가방"},{"name":"신나라찐빵만두신나라주막","tel":"0505-302-7070","addr":"경기도 포천시 소흘읍 직동리 99-4번지","category":"일반휴게음식 - 일반한식"}]},{"lat":"37.766404868","long":"127.16642443","items":[{"name":"광릉요","tel":"031-542-7674","addr":"경기도 포천시 소흘읍 직동리 96-7","category":"주방용구 - 주방용식기"},{"name":"봄카페","tel":"543-1977","addr":"경기도 포천시 소흘읍 직동리 96-7번지","category":"음식 - 커피 등"},{"name":"봄카페","tel":"031-111-1111","addr":"경기도 포천시 소흘읍 직동리 96-7번지","category":"일반휴게음식 - 서양음식"}]},{"lat":"37.752040752","long":"127.16852606","items":[{"name":"국립수목원","tel":"031-540-2047","addr":"경기도 포천시 소흘읍 직동리 산50-18번지","category":"자동차정비 유지 - 주차장"},{"name":"사단법인 한국식물분류학회","tel":"031-543-1968","addr":"경기도 포천시 소흘읍 직동리 산50-18번지 2층","category":"용역 서비스 - 사무서비스"},{"name":"숲속카페/주식회사아리프로퍼티","tel":"031-1111-0000","addr":"경기도 포천시 소흘읍 직동리 산50-18번지","category":"일반휴게음식 - 서양음식"},{"name":"우리나무알림터","tel":"070-5022-4846","addr":"경기도 포천시 소흘읍 직동리 산50-18번지 국립수목원 내","category":"음료식품 - 기타음료식품"}]},{"lat":"37.772925654","long":"127.16136524","items":[{"name":"굿타임","tel":"031-543-9977","addr":"경기도 포천시 소흘읍 직동리 366-2번지","category":"숙박업 - 여관/기타숙박업"}]},{"lat":"37.772320779","long":"127.16228331","items":[{"name":"그냥포차","tel":"070-8883-7791","addr":"경기도 포천시 소흘읍 직동리 355-1번지 1층","category":"일반휴게음식 - 주점"},{"name":"월드노래연습장","tel":"070-4134-7887","addr":"경기도 포천시 소흘읍 직동리 355-1","category":"레저업소 - 노 래 방"},{"name":"유앤미 치킨","tel":"543-9285","addr":"경기도 포천시 소흘읍 직동리 355-1번지 1층","category":"음식 - 치킨등"},{"name":"유앤미치킨","tel":"031-543-9285","addr":"경기도 포천시 소흘읍 직동리 355-1번지","category":"일반휴게음식 - 스넥"},{"name":"직동카독크","tel":"031-541-0869","addr":"경기도 포천시 소흘읍 직동리 355-1번지","category":"자동차정비 유지 - 자동차시트·타이어"},{"name":"철원 막국수","tel":"031-541-8547","addr":"경기도 포천시 소흘읍 직동리 355-1번지","category":"일반휴게음식 - 일반한식"},{"name":"학림 부대찌개 닭갈비","tel":"02-111-1111","addr":"경기도 포천시 소흘읍 직동리 355-1번지","category":"일반휴게음식 - 일반한식"},{"name":"학림부대찌개 딝갈비","tel":"544-3014","addr":"경기도 포천시 소흘읍 직동리 355-1번지 1층","category":"음식 - 한식"}]},{"lat":"37.772790023","long":"127.16172816","items":[{"name":"그랜드","tel":"031-543-4141","addr":"경기도 포천시 소흘읍 직동리 366-4번지","category":"숙박업 - 여관/기타숙박업"}]},{"lat":"37.773092085","long":"127.15816483","items":[{"name":"까사인","tel":"031-541-2296","addr":"경기도 포천시 소흘읍 직동리 381-1번지","category":"신변잡화 - 기타잡화"},{"name":"까사인","tel":"541-2296","addr":"경기도 포천시 소흘읍 직동리 381-1번지","category":"소매업 - 잡화(인테리어소품)"},{"name":"삼신인터내셔날","tel":"031-544-7848","addr":"경기도 포천시 소흘읍 직동리 381-1번지","category":"가구 - 일반가구"},{"name":"심쌤공방소소","tel":"031-543-2510","addr":"경기도 포천시 소흘읍 직동리 381-1번지","category":"문화.취미 - 민예·공예품"},{"name":"아젤리아","tel":"070-7077-8147","addr":"경기도 포천시 소흘읍 직동리 381-1번지","category":"일반휴게음식 - 서양음식"},{"name":"엠투씨","tel":"031-876-7451","addr":"경기도 포천시 소흘읍 직동리 381-1번지","category":"문화.취미 - 화방·표구점"},{"name":"엠투씨","tel":"876-7451","addr":"경기도 포천시 소흘읍 직동리 381-1번지 104호","category":"도소매 - 생활"}]},{"lat":"37.772067806","long":"127.16280488","items":[{"name":"나무호텔","tel":"031-544-7707","addr":"경기도 포천시 소흘읍 직동리 355-4번지","category":"숙박업 - 여관/기타숙박업"}]},{"lat":"37.779597853","long":"127.1641946","items":[{"name":"날마다좋은날","tel":"031-544-7142","addr":"경기도 포천시 소흘읍 직동리 323-4번지","category":"일반휴게음식 - 일반한식"}]},{"lat":"37.77420838","long":"127.16549954","items":[{"name":"남도한상","tel":"031-541-1378","addr":"경기도 포천시 소흘읍 직동리 165-12번지","category":"일반휴게음식 - 일반한식"},{"name":"남도한상","tel":"534-1378","addr":"경기도 포천시 소흘읍 직동리 165-12번지","category":"음식 - 한식"},{"name":"스테파니아","tel":"031-111-1111","addr":"경기도 포천시 소흘읍 직동리 165-12번지 1-2층","category":"일반휴게음식 - 서양음식"},{"name":"스테파니아","tel":"070-4128-3228","addr":"경기도 포천시 소흘읍 직동리 165-12번지","category":"음식 - 양식"}]},{"lat":"37.770650964","long":"127.16452701","items":[{"name":"늘푸른농장","tel":"031-542-9221","addr":"경기도 포천시 소흘읍 직동리 393-6","category":"음료식품 - 농·축·수산품"}]},{"lat":"37.771623988","long":"127.16452912","items":[{"name":"다인막국수","tel":"543-9995","addr":"경기도 포천시 소흘읍 직동리 390-1번지","category":"음식 - 한식"},{"name":"직동가든","tel":"031-533-7961","addr":"경기도 포천시 소흘읍 직동리 390-1번지","category":"일반휴게음식 - 일반한식"}]},{"lat":"37.7715684","long":"127.1656413","items":[{"name":"닥종이 갤러리(국수카페)","tel":"543-9965","addr":"경기도 포천시 소흘읍 직동리 114-1번지","category":"음식 - 한식"},{"name":"닥종이갤러리","tel":"031-543-9965","addr":"경기도 포천시 소흘읍 직동리 114-1번지","category":"일반휴게음식 - 일반한식"}]},{"lat":"37.771932124","long":"127.16320184","items":[{"name":"담고앤담고","tel":"031-542-6660","addr":"경기도 포천시 소흘읍 직동리 355-7번지","category":"신변잡화 - 기타잡화"}]},{"lat":"37.768181712","long":"127.16499831","items":[{"name":"대청마루","tel":"031-541-2289","addr":"경기도 포천시 소흘읍 직동리 438-2번지","category":"일반휴게음식 - 일반한식"},{"name":"대청마루","tel":"541-2289","addr":"경기도 포천시 소흘읍 직동리 438-2번지","category":"음식 - 한식"},{"name":"대청마루","tel":"541-2289","addr":"경기도 포천시 소흘읍 직동리 438-2번지","category":"음식 - 한식"}]},{"lat":"37.763093709","long":"127.16975367","items":[{"name":"도자기까페D토","tel":"031-1111-1111","addr":"경기도 포천시 소흘읍 직동리 579번지 B동 1층","category":"일반휴게음식 - 서양음식"},{"name":"도자기카페D토","tel":"-","addr":"경기도 포천시 소흘읍 직동리 579번지 B동 1층","category":"음식 - 커피 등"},{"name":"세븐일레븐광릉수목원점","tel":"031-542-0077","addr":"경기도 포천시 소흘읍 직동리 579번지 에이동 2호,3호","category":"유통업 영리 - 편 의 점"},{"name":"카페수목원","tel":"544-5783","addr":"경기도 포천시 소흘읍 직동리 579번지 B동 1층","category":"음식 - 커피 등"},{"name":"카페수목원","tel":"031-544-5783","addr":"경기도 포천시 소흘읍 직동리 579번지 B동 1층","category":"일반휴게음식 - 서양음식"}]},{"lat":"37.773290802","long":"127.15777933","items":[{"name":"동이호박오리","tel":"031-543-3534","addr":"경기도 포천시 소흘읍 직동리 377-1,377-6","category":"일반휴게음식 - 일반한식"}]},{"lat":"37.77229188","long":"127.15691464","items":[{"name":"드라이브인호텔띠아모","tel":"031-543-2956","addr":"경기도 포천시 소흘읍 직동리 382-1번지 가동","category":"숙박업 - 여관/기타숙박업"},{"name":"드라이브인호텔띠아모주식회사","tel":"031-543-2956","addr":"경기도 포천시 소흘읍 직동리 382-1번지 가동","category":"숙박업 - 여관/기타숙박업"},{"name":"띠아모무인호텔","tel":"031-543-2955","addr":"경기도 포천시 소흘읍 직동리 382-1번지 나동","category":"숙박업 - 여관/기타숙박업"},{"name":"띠아모무인호텔","tel":"031-543-2955","addr":"경기도 포천시 소흘읍 직동리 382-1번지 나동","category":"숙박업 - 여관/기타숙박업"}]},{"lat":"37.771955839","long":"127.16561945","items":[{"name":"또바기","tel":"","addr":"경기도 포천시 소흘읍 직동리 114번지","category":"의류 - 정장"}]},{"lat":"37.76734264","long":"127.16585903","items":[{"name":"뜨락 떡갈비","tel":"031-544-0008","addr":"경기도 포천시 소흘읍 직동리 98-2번지 1층","category":"일반휴게음식 - 일반한식"}]},{"lat":"37.771931812","long":"127.15667554","items":[{"name":"뜰안에밥상","tel":"031-542-0868","addr":"경기도 포천시 소흘읍 직동리 383-10번지","category":"일반휴게음식 - 일반한식"}]},{"lat":"37.775704407","long":"127.16517364","items":[{"name":"라빈느","tel":"031-543-9903","addr":"경기도 포천시 소흘읍 직동리 165-35","category":"일반휴게음식 - 서양음식"},{"name":"라빈느","tel":"543-9903","addr":"경기도 포천시 소흘읍 직동리 165-35번지","category":"음식 - 경양식"}]},{"lat":"37.771814661","long":"127.16345128","items":[{"name":"럭셔리 쥬얼리","tel":"","addr":"경기도 포천시 소흘읍 직동리 355-5번지","category":"신변잡화 - 액세서리"},{"name":"팜 스토리","tel":"542-2891","addr":"경기도 포천시 소흘읍 직동리 355-5번지","category":"음식 - 한식"},{"name":"팜스토리(FARM STORY)","tel":"031-542-2891","addr":"경기도 포천시 소흘읍 직동리 355-5번지","category":"일반휴게음식 - 일반한식"}]},{"lat":"37.770147722","long":"127.16358388","items":[{"name":"매실짱아찌","tel":"031-541-7981","addr":"경기도 포천시 소흘읍 직동리 398-2번지","category":"문화.취미 - 민예·공예품"}]},{"lat":"37.784291721","long":"127.1642502","items":[{"name":"맨도롱또똣","tel":"070-887-1004","addr":"경기도 포천시 소흘읍 직동리 249-1번지","category":"음식 - 한식"},{"name":"자기올레","tel":"070-4208-7349","addr":"경기도 포천시 소흘읍 직동리 249-1번지","category":"문화.취미 - 민예·공예품"}]},{"lat":"37.772042389","long":"127.16161306","items":[{"name":"몽모텔","tel":"031-544-4231","addr":"경기도 포천시 소흘읍 직동리 357-5번지 외1필지","category":"숙박업 - 여관/기타숙박업"}]},{"lat":"37.781041932","long":"127.16231339","items":[{"name":"민들레울","tel":"031-543-0981","addr":"경기도 포천시 소흘읍 직동리 289-2번지","category":"일반휴게음식 - 일반한식"},{"name":"민들레울","tel":"543-0981","addr":"경기도 포천시 소흘읍 직동리 289-2번지","category":"음식 - 한식"},{"name":"민들레울약초","tel":"031-543-0981","addr":"경기도 포천시 소흘읍 직동리 289-2번지","category":"약국 - 한약방"}]},{"lat":"37.774569791","long":"127.1647512","items":[{"name":"민락농원","tel":"544-4279","addr":"경기도 포천시 소흘읍 직동리 348-1번지","category":"음식 - 한식"},{"name":"민락농원","tel":"031-544-4379","addr":"경기도 포천시 소흘읍 직동리 348-1번지","category":"일반휴게음식 - 일반한식"}]},{"lat":"37.780816661","long":"127.16886268","items":[{"name":"밀크앤치즈 (MILK N CHEEZ)","tel":"","addr":"경기도 포천시 소흘읍 직동리 220-28번지","category":"일반휴게음식 - 서양음식"}]},{"lat":"37.775237586","long":"127.17041659","items":[{"name":"버티고(VERTIGO)","tel":"031-541-1860","addr":"경기도 포천시 소흘읍 직동리 142-7번지 2층","category":"광학제품 - 사진관"}]},{"lat":"37.766873723","long":"127.16616443","items":[{"name":"벼룩마켓","tel":"","addr":"경기도 포천시 소흘읍 직동리 96-8번지 1층","category":"의류 - 정장"},{"name":"심가네영양돌솥","tel":"031-543-6543","addr":"경기도 포천시 소흘읍 직동리 96-8번지","category":"일반휴게음식 - 일반한식"}]},{"lat":"37.780841842","long":"127.16369784","items":[{"name":"부동산임대","tel":"031-543-0981","addr":"경기도 포천시 소흘읍 직동리 284-1","category":"용역 서비스 - 부동산 중개·임대"}]},{"lat":"37.775065919","long":"127.16430961","items":[{"name":"불타는삼겹","tel":"542-3392","addr":"경기도 포천시 소흘읍 직동리 347-1번지 나동 1층","category":"음식 - 한식"},{"name":"수목원 미용실 외","tel":"02-000-0000","addr":"경기도 포천시 소흘읍 직동리 347-1번지","category":"보건위생 - 미용원"}]},{"lat":"37.781677088","long":"127.16561806","items":[{"name":"비득재농원","tel":"070-7789-4236","addr":"경기도 포천시 소흘읍 직동리 213번지","category":"음료식품 - 농·축·수산품"}]},{"lat":"37.76643136","long":"127.16681037","items":[{"name":"빈어스","tel":"031-544-8484","addr":"경기도 포천시 소흘읍 직동리 87-3번지","category":"일반휴게음식 - 일반한식"}]},{"lat":"37.783291251","long":"127.16455453","items":[{"name":"산마을 나드리","tel":"541-3566","addr":"경기도 포천시 소흘읍 직동리 247번지","category":"음식 - 한식"},{"name":"산마을나드리","tel":"031-541-3566","addr":"경기도 포천시 소흘읍 직동리 247번지","category":"일반휴게음식 - 일반한식"}]},{"lat":"37.781177663","long":"127.16842078","items":[{"name":"산책","tel":"031-543-1005","addr":"경기도 포천시 소흘읍 직동리 218번지","category":"음료식품 - 기타음료식품"}]},{"lat":"37.773036512","long":"127.15931109","items":[{"name":"산촌","tel":"031-000-0000","addr":"경기도 포천시 소흘읍 직동리 380-2번지","category":"일반휴게음식 - 일반한식"}]},{"lat":"37.784841562","long":"127.16405841","items":[{"name":"삼낙촌","tel":"031-543-8881","addr":"경기도 포천시 소흘읍 직동리 249-7번지 1층","category":"일반휴게음식 - 일반한식"},{"name":"삼낙촌","tel":"543-8881","addr":"경기도 포천시 소흘읍 직동리 249-7번지","category":"음식 - 한식"}]},{"lat":"37.781983388","long":"127.17203239","items":[{"name":"세간해원","tel":"031-542-3110","addr":"경기도 포천시 소흘읍 직동리 4-1번지","category":"음료식품 - 농·축·수산품"}]},{"lat":"37.769515723","long":"127.16455858","items":[{"name":"소반","tel":"544-1324","addr":"경기도 포천시 소흘읍 직동리 420-4번지","category":"음식 - 한식"},{"name":"소반","tel":"031-544-1324","addr":"경기도 포천시 소흘읍 직동리 420-4번지 1층","category":"일반휴게음식 - 일반한식"}]},{"lat":"37.775069308","long":"127.16836176","items":[{"name":"소울","tel":"02-537-5510","addr":"경기도 포천시 소흘읍 직동리 174-2번지","category":"문화.취미 - 티켓"}]},{"lat":"37.780426226","long":"127.16455964","items":[{"name":"수목스토어","tel":"031-543-1145","addr":"경기도 포천시 소흘읍 직동리 321-1번지","category":"음료식품 - 기타음료식품"}]},{"lat":"37.763652426","long":"127.16966413","items":[{"name":"수목원 정 담은 밥상","tel":"031-542-7836","addr":"경기도 포천시 소흘읍 직동리 513번지 1층","category":"일반휴게음식 - 일반한식"},{"name":"수목원마트","tel":"544-7822","addr":"경기도 포천시 소흘읍 직동리 513번지","category":"소매업 - 잡화"},{"name":"수목원마트","tel":"031-544-7822","addr":"경기도 포천시 소흘읍 직동리 513번지","category":"음료식품 - 기타음료식품"}]},{"lat":"37.77298745","long":"127.16230745","items":[{"name":"수목원가든","tel":"031-541-3336","addr":"경기도 포천시 소흘읍 직동리 351-3번지","category":"일반휴게음식 - 일반한식"}]},{"lat":"37.772480308","long":"127.16422453","items":[{"name":"수목원레스토랑","tel":"031-541-9700","addr":"경기도 포천시 소흘읍 직동리 350-2번지","category":"일반휴게음식 - 일반한식"},{"name":"수목원파크","tel":"031-541-0934","addr":"경기도 포천시 소흘읍 직동리 350-2번지","category":"숙박업 - 여관/기타숙박업"}]},{"lat":"37.772402462","long":"127.16184083","items":[{"name":"수목원명품구제본점 명품구제샵","tel":"","addr":"경기도 포천시 소흘읍 직동리 355-9번지 1층 102호","category":"의류 - 기타의류"}]},{"lat":"37.769822465","long":"127.16425281","items":[{"name":"수한막국수","tel":"031-541-7224","addr":"경기도 포천시 소흘읍 직동리 399-4번지","category":"일반휴게음식 - 일반한식"}]},{"lat":"37.774848429","long":"127.16522852","items":[{"name":"쉐리퐁듀","tel":"031-000-0000","addr":"경기도 포천시 소흘읍 직동리 165-22번지","category":"일반휴게음식 - 서양음식"},{"name":"옛골토속음식","tel":"031-544-9108","addr":"경기도 포천시 소흘읍 직동리 165-22번지","category":"일반휴게음식 - 일반한식"}]},{"lat":"37.772377232","long":"127.16050146","items":[{"name":"신비한 사주 공간 카페","tel":"031-000-0000","addr":"경기도 포천시 소흘읍 직동리 359-2번지","category":"일반휴게음식 - 서양음식"}]},{"lat":"37.771678729","long":"127.16402984","items":[{"name":"쌈도둑들","tel":"542-7787","addr":"경기도 포천시 소흘읍 직동리 389-1번지","category":"음식 - 한식"},{"name":"쌈도둑들","tel":"031-542-7787","addr":"경기도 포천시 소흘읍 직동리 389-1번지","category":"일반휴게음식 - 일반한식"}]},{"lat":"37.766594303","long":"127.16625461","items":[{"name":"알또(ALTTO)","tel":"031-562-8255","addr":"경기도 포천시 소흘읍 직동리 96-6번지 1층","category":"의류 - 정장"}]},{"lat":"37.780563383","long":"127.16308426","items":[{"name":"압구정 레스토랑","tel":"543-4922","addr":"경기도 포천시 소흘읍 직동리 282-2번지","category":"음식 - 한식"},{"name":"압구정레스토랑","tel":"031-543-4922","addr":"경기도 포천시 소흘읍 직동리 282-2번지","category":"일반휴게음식 - 일반한식"}]},{"lat":"37.762597366","long":"127.17033134","items":[{"name":"어울림(Oullim)","tel":"02-111-1111","addr":"경기도 포천시 소흘읍 직동리 607번지","category":"일반휴게음식 - 일반한식"}]},{"lat":"37.783347122","long":"127.16322649","items":[{"name":"여울목","tel":"031-543-0311","addr":"경기도 포천시 소흘읍 직동리 268-8번지","category":"일반휴게음식 - 일반한식"}]},{"lat":"37.767238169","long":"127.16969488","items":[{"name":"연지관광농원","tel":"031-543-4989","addr":"경기도 포천시 소흘읍 직동리 77-3번지","category":"숙박업 - 여관/기타숙박업"}]},{"lat":"37.773596361","long":"127.15835884","items":[{"name":"옹기마당(3호점)","tel":"031-542-5466","addr":"경기도 포천시 소흘읍 직동리 376-2","category":"주방용구 - 주방용식기"}]},{"lat":"37.768207551","long":"127.1722507","items":[{"name":"우노엔지니어링","tel":"031-542-4626","addr":"경기도 포천시 소흘읍 직동리 35-15번지","category":"건축자재 - 조명기구"}]},{"lat":"37.765544064","long":"127.16991806","items":[{"name":"원전사","tel":"031-573-8888","addr":"경기도 포천시 소흘읍 직동리 73-5번지","category":"용역 서비스 - 기타용역서비스"}]},{"lat":"37.771120405","long":"127.16383568","items":[{"name":"윌","tel":"031-541-1414","addr":"경기도 포천시 소흘읍 직동리 394-3번지","category":"일반휴게음식 - 서양음식"},{"name":"윌","tel":"031-541-1414","addr":"경기도 포천시 소흘읍 직동리 394-3번지","category":"일반휴게음식 - 서양음식"},{"name":"한가 정통 어죽","tel":"544-4930","addr":"경기도 포천시 소흘읍 직동리 394-3번지","category":"음식 - 한식"},{"name":"한가정통어죽","tel":"031-544-4930","addr":"경기도 포천시 소흘읍 직동리 394-3번지 나동","category":"일반휴게음식 - 일반한식"}]},{"lat":"37.772619438","long":"127.16128514","items":[{"name":"유로","tel":"542-0909","addr":"경기도 포천시 소흘읍 직동리 364-3번지","category":"숙박업 - 여관"},{"name":"유로","tel":"031-542-0909","addr":"경기도 포천시 소흘읍 직동리 364-3번지","category":"숙박업 - 여관/기타숙박업"},{"name":"유로","tel":"031-542-0909","addr":"경기도 포천시 소흘읍 직동리 364-3번지","category":"숙박업 - 여관/기타숙박업"}]},{"lat":"37.768821541","long":"127.16488621","items":[{"name":"윤씨농장건강원","tel":"031-861-0021","addr":"경기도 포천시 소흘읍 직동리 428-2번지","category":"건강식품 - 기타건강식품"}]},{"lat":"37.775703984","long":"127.16548011","items":[{"name":"음악창꼬","tel":"031-542-0939","addr":"경기도 포천시 소흘읍 직동리 165-8번지","category":"일반휴게음식 - 서양음식"}]},{"lat":"37.773071992","long":"127.15973112","items":[{"name":"이디야(광릉수목원점)","tel":"031-544-1222","addr":"경기도 포천시 소흘읍 직동리 362-7번지","category":"일반휴게음식 - 서양음식"},{"name":"이디야광릉수목원점","tel":"544-1222","addr":"경기도 포천시 소흘읍 직동리 362-7번지","category":"음식 - 커피 등"}]},{"lat":"37.766598528","long":"127.16967075","items":[{"name":"이야기관광농원","tel":"031-544-4576","addr":"경기도 포천시 소흘읍 직동리 76-4번지","category":"레저업소 - 기타레져업소"}]},{"lat":"37.772183073","long":"127.16416714","items":[{"name":"쟈스민","tel":"031-544-9151","addr":"경기도 포천시 소흘읍 직동리 354-4번지","category":"숙박업 - 여관/기타숙박업"}]},{"lat":"37.772147066","long":"127.16414436","items":[{"name":"쟈스민2","tel":"031-544-9151","addr":"경기도 포천시 소흘읍 직동리 354-6번지","category":"숙박업 - 여관/기타숙박업"}]},{"lat":"37.765927176","long":"127.16655957","items":[{"name":"전라도여수 돌게랑꽃게랑","tel":"541-0622","addr":"경기도 포천시 소흘읍 직동리 96-9번지 가동 1층","category":"음식 - 한식"},{"name":"전라도여수 들게랑꽃게랑","tel":"031-541-0622","addr":"경기도 포천시 소흘읍 직동리 96-9번지 가동 1층","category":"일반휴게음식 - 일반한식"},{"name":"커피에 반하다","tel":"031-542-9008","addr":"경기도 포천시 소흘읍 직동리 96-9번지 외1필지","category":"일반휴게음식 - 서양음식"}]},{"lat":"37.777785563","long":"127.16520089","items":[{"name":"주파크","tel":"","addr":"경기도 포천시 소흘읍 직동리 328-1번지","category":"음료식품 - 기타음료식품"},{"name":"주파크테마실내동물원","tel":"543-0068","addr":"경기도 포천시 소흘읍 직동리 328-1번지","category":"서비스 - 동물원"}]},{"lat":"37.774595788","long":"127.16550038","items":[{"name":"지리산흙돼지생소금구이","tel":"542-5034","addr":"경기도 포천시 소흘읍 직동리 165-11번지","category":"음식 - 한식"},{"name":"지리산흙돼지소금구이","tel":"031-542-5034","addr":"경기도 포천시 소흘읍 직동리 165-11번지","category":"일반휴게음식 - 일반한식"}]},{"lat":"37.783841248","long":"127.16424922","items":[{"name":"진아뜨미술관","tel":"031-543-3511","addr":"경기도 포천시 소흘읍 직동리 245-1번지","category":"일반휴게음식 - 서양음식"}]},{"lat":"37.772124252","long":"127.16103438","items":[{"name":"천년 (수목원점)","tel":"031-541-1913","addr":"경기도 포천시 소흘읍 직동리 358-2번지","category":"일반휴게음식 - 일반한식"}]},{"lat":"37.772845877","long":"127.16038895","items":[{"name":"카페 소흘","tel":"","addr":"경기도 포천시 소흘읍 직동리 362-3번지 1층","category":"일반휴게음식 - 서양음식"}]},{"lat":"37.772981428","long":"127.16008279","items":[{"name":"카페바움","tel":"031-542-8969","addr":"경기도 포천시 소흘읍 직동리 363-4번지","category":"일반휴게음식 - 스넥"},{"name":"카페바움","tel":"542-8969","addr":"경기도 포천시 소흘읍 직동리 363-4번지","category":"음식 - 커피 등"}]},{"lat":"37.758571874","long":"127.16908533","items":[{"name":"캐미커피","tel":"031-541-6694","addr":"경기도 포천시 소흘읍 직동리 54-4번지","category":"일반휴게음식 - 서양음식"}]},{"lat":"37.776929366","long":"127.16541469","items":[{"name":"퍼챔피온아이엔씨","tel":"031-544-6430","addr":"경기도 포천시 소흘읍 직동리 196-4번지","category":"신변잡화 - 기념품점"}]},{"lat":"37.772710097","long":"127.16086538","items":[{"name":"평창생고기","tel":"031-541-3057","addr":"경기도 포천시 소흘읍 직동리 364-1,364-6","category":"음료식품 - 정육점"},{"name":"평창생고기","tel":"541-3057","addr":"경기도 포천시 소흘읍 직동리 364-1번지","category":"음식 - 한식"}]},{"lat":"37.762679947","long":"127.1692761","items":[{"name":"풀꽃마을","tel":"541-0552","addr":"경기도 포천시 소흘읍 직동리 69-2번지","category":"도소매 - 꽃,생화"}]},{"lat":"37.771814181","long":"127.16380313","items":[{"name":"하드림해물칼국수","tel":"541-8005","addr":"경기도 포천시 소흘읍 직동리 389-2번지","category":"음식 - 한식"},{"name":"하드림해물칼국수","tel":"031-541-8005","addr":"경기도 포천시 소흘읍 직동리 389-2번지","category":"일반휴게음식 - 일반한식"}]},{"lat":"37.782479666","long":"127.16508629","items":[{"name":"하린재","tel":"031-543-7579","addr":"경기도 포천시 소흘읍 직동리 314-3, 2/1","category":"음료식품 - 기타음료식품"}]},{"lat":"37.783426952","long":"127.16414616","items":[{"name":"해물나라","tel":"031-542-6860","addr":"경기도 포천시 소흘읍 직동리 261-1번지","category":"일반휴게음식 - 일반한식"}]},{"lat":"37.76945303","long":"127.16428605","items":[{"name":"홍어본가","tel":"031-544-8801","addr":"경기도 포천시 소흘읍 직동리 400번지","category":"일반휴게음식 - 일반한식"}]},{"lat":"37.779984606","long":"127.16467219","items":[{"name":"효담","tel":"031-544-3787","addr":"경기도 포천시 소흘읍 직동리 321-3","category":"일반휴게음식 - 일반한식"},{"name":"효담(곤드레산채밥상)","tel":"544-3787","addr":"경기도 포천시 소흘읍 직동리 321-3번지","category":"음식 - 한식"}]},{"lat":"37.770565246","long":"127.16130346","items":[{"name":"힐하우스 호텔","tel":"031-541-6400","addr":"경기도 포천시 소흘읍 직동리 387-1번지 1층","category":"숙박업 - 여관/기타숙박업"}]}]