[{"lat":"37.346700199","long":"126.76080239","items":[{"name":"KTI국가대표태권스쿨","tel":"031-433-7778","addr":"경기도 시흥시 죽율동 752번지 6차푸르지오2단지상가동 3층301호","category":"교육서비스업 - 태권도장"},{"name":"참숯바베큐","tel":"031-499-9272","addr":"경기도 시흥시 죽율동 752번지 시흥6차푸르지오2단지 상가동 상가동 102호","category":"음식점업 - 호프전문점"},{"name":"푸르지오한우마을","tel":"031-431-7997","addr":"경기도 시흥시 죽율동 752번지 시흥6차푸르지오2단지 상가동 103호","category":"소매업 - 정육점"},{"name":"하모니마트 시흥죽율점","tel":"031-434-0456~7","addr":"경기도 시흥시 죽율동 752번지 푸르지오2단지 상가 106~109호","category":"소매업 - 슈퍼, 식육"}]},{"lat":"37.355579314","long":"126.76282812","items":[{"name":"돼지갈비 무한리필","tel":"031-433-8116","addr":"경기도 시흥시 죽율동 37-1번지 1층","category":"음식점업 - 한식"},{"name":"소느루공방","tel":"","addr":"경기도 시흥시 죽율동 37-1번지 정명빌딩 지하1층","category":"기타 - 가구제작,인테리어,가구,전자"}]},{"lat":"37.34855743","long":"126.76136073","items":[{"name":"리틀캥거루미술교습소","tel":"","addr":"경기도 시흥시 죽율동 304번지 시흥6차 푸르지오 1단지상가 3층 306호","category":"교육서비스업 - 미술교습"},{"name":"썬(sun)","tel":"031-499-4552","addr":"경기도 시흥시 죽율동 304번지 시흥6차푸르지오1단지 상가동 105호","category":"소매업 - 통신기기,액세서리,사무용품"},{"name":"유진헤어아트","tel":"031-434-2407","addr":"경기도 시흥시 죽율동 304번지 푸르지오1단지 상가 101호","category":"개인서비스업 - 미용업"},{"name":"푸르지오장터","tel":"","addr":"경기도 시흥시 죽율동 304번지 시흥6차푸르지오1단지 상가동 106호","category":"소매업 - 슈퍼마켓"}]},{"lat":"37.348277614","long":"126.75674566","items":[{"name":"생금마을","tel":"031-488-8200","addr":"경기도 시흥시 죽율동 646-3번지 2층","category":"음식점업 - 한식"}]},{"lat":"37.349580139","long":"126.75485662","items":[{"name":"성도자동차공업사","tel":"031-498-7755","addr":"경기도 시흥시 죽율동 635-1번지","category":"개인서비스업 - 자동차수리"}]}]