[{"lat":"37.003832557","long":"127.27176634","items":[{"name":"VERONKA (러시아 음식점)","tel":"031-677-7488","addr":"경기도 안성시 창전동 123-7번지","category":"일반휴게음식 - 주점"}]},{"lat":"37.004245669","long":"127.27237448","items":[{"name":"거성알미늄샷시유리","tel":"031-676-4997","addr":"경기도 안성시 창전동 82-1번지 창전연립","category":"건축자재 - 유리"}]},{"lat":"37.00391322","long":"127.27195762","items":[{"name":"경상도상회","tel":"031-677-0607","addr":"경기도 안성시 창전동 125-4번지","category":"음료식품 - 농·축·수산품"}]},{"lat":"37.003636154","long":"127.27095674","items":[{"name":"고려황토왕쑥뜸방","tel":"031-676-7337","addr":"경기도 안성시 창전동 116-1번지 나동","category":"보건위생 - 피부미용실"}]},{"lat":"37.005357253","long":"127.27092908","items":[{"name":"과일나라","tel":"031-676-9420","addr":"경기도 안성시 창전동 606-4번지","category":"음료식품 - 농·축·수산품"}]},{"lat":"37.003888247","long":"127.27104751","items":[{"name":"그린청과","tel":"031-674-3572","addr":"경기도 안성시 창전동 113-2번지","category":"음료식품 - 농·축·수산품"},{"name":"안성맞춤축산물도소매센타","tel":"031-675-3094","addr":"경기도 안성시 창전동 113-2번지","category":"음료식품 - 정육점"},{"name":"코코패션","tel":"031-672-9381","addr":"경기도 안성시 창전동 113-2번지","category":"의류 - 양품점"}]},{"lat":"37.00383332","long":"127.2714293","items":[{"name":"김정은한복","tel":"031-675-3335","addr":"경기도 안성시 창전동 122-1번지","category":"의류 - 맞춤복점"}]},{"lat":"37.005328264","long":"127.27179408","items":[{"name":"꼴통막창","tel":"031-676-8274","addr":"경기도 안성시 창전동 608-6번지","category":"일반휴게음식 - 일반한식"}]},{"lat":"37.00516765","long":"127.27109694","items":[{"name":"꽃돼지와 아이들","tel":"031-677-3249","addr":"경기도 안성시 창전동 368-1번지","category":"일반휴게음식 - 일반한식"},{"name":"신부헤어샵","tel":"031-672-0833","addr":"경기도 안성시 창전동 368-1번지","category":"보건위생 - 미용원"},{"name":"영자클럽 안성 중앙점","tel":"","addr":"경기도 안성시 창전동 368-1번지","category":"보건위생 - 피부미용실"},{"name":"정건강활법체육관","tel":"031-676-3615","addr":"경기도 안성시 창전동 368-1번지","category":"학원 - 예·체능계학원"}]},{"lat":"37.003886875","long":"127.27165419","items":[{"name":"대덕전기","tel":"031-675-7942","addr":"경기도 안성시 창전동 123-1번지","category":"수리서비스 - 기타수리서비스"}]},{"lat":"37.004192497","long":"127.27198107","items":[{"name":"대한가스","tel":"031-671-6464","addr":"경기도 안성시 창전동 83-1번지","category":"연료판매점 - LPG 취급점"},{"name":"대한가스","tel":"031-671-6464","addr":"경기도 안성시 창전동 83-1번지","category":"연료판매점 - LPG 취급점"}]},{"lat":"37.003744281","long":"127.27095712","items":[{"name":"도희","tel":"031-677-1471","addr":"경기도 안성시 창전동 115번지","category":"일반휴게음식 - 일반한식"},{"name":"레드","tel":"031-671-5256","addr":"경기도 안성시 창전동 115번지","category":"일반휴게음식 - 주점"}]},{"lat":"37.004690215","long":"127.27103909","items":[{"name":"동인의료기","tel":"031-676-8490","addr":"경기도 안성시 창전동 371-6번지","category":"보건위생 - 의료용품"}]},{"lat":"37.005302631","long":"127.27117606","items":[{"name":"마법사 꽈배기","tel":"031-676-6319","addr":"경기도 안성시 창전동 606-1번지","category":"일반휴게음식 - 일반한식"}]},{"lat":"37.004273949","long":"127.27182407","items":[{"name":"바라봄","tel":"031-672-7535","addr":"경기도 안성시 창전동 85번지 1층","category":"일반휴게음식 - 일반한식"}]},{"lat":"37.003803461","long":"127.27267626","items":[{"name":"백제한우공판장","tel":"031-675-5569","addr":"경기도 안성시 창전동 130-5번지","category":"음료식품 - 정육점"},{"name":"백제한우전문점식당","tel":"031-675-5569","addr":"경기도 안성시 창전동 130-5번지","category":"일반휴게음식 - 일반한식"},{"name":"캐슬당구클럽","tel":"031-674-3776","addr":"경기도 안성시 창전동 130-5번지 2층","category":"레저업소 - 당 구 장"},{"name":"프라쟈골프클럽","tel":"031-676-9045","addr":"경기도 안성시 창전동 130-5번지","category":"회원제형태 - 레져업소"},{"name":"황금바늘(안성점)","tel":"031-676-1803","addr":"경기도 안성시 창전동 130-5번지","category":"의류 - 맞춤복점"}]},{"lat":"37.003716437","long":"127.27131654","items":[{"name":"벌떼","tel":"031-675-9210","addr":"경기도 안성시 창전동 121","category":"일반휴게음식 - 주점"}]},{"lat":"37.004915277","long":"127.27112976","items":[{"name":"부부가구갤러리","tel":"031-677-5909","addr":"경기도 안성시 창전동 370-4,371-1","category":"가구 - 일반가구"}]},{"lat":"37.003915482","long":"127.27095773","items":[{"name":"손맛칼국수","tel":"031-672-0443","addr":"경기도 안성시 창전동 113-3번지","category":"일반휴게음식 - 일반한식"}]},{"lat":"37.003941879","long":"127.27123869","items":[{"name":"심준식방앗간","tel":"031-676-4492","addr":"경기도 안성시 창전동 120번지","category":"음료식품 - 기타음료식품"}]},{"lat":"37.004515706","long":"127.27249902","items":[{"name":"안단테(Aandante)","tel":"031-673-5444","addr":"경기도 안성시 창전동 82-1번지 창전연립 B동 1층 가호","category":"의류 - 정장"}]},{"lat":"37.004247731","long":"127.27146446","items":[{"name":"안성중앙 알뜰매장","tel":"031-675-0616","addr":"경기도 안성시 창전동 93번지 1층","category":"전기제품 - 가전제품"}]},{"lat":"37.004194176","long":"127.27123958","items":[{"name":"을지지업사","tel":"031-671-5795","addr":"경기도 안성시 창전동 94번지","category":"직물 - 카페트,커튼,천막,지물"},{"name":"필박스(FEELBOX)","tel":"031-674-2386","addr":"경기도 안성시 창전동 94외1필지","category":"서적문구 - 출판 및 인쇄물"}]},{"lat":"37.004771184","long":"127.27109555","items":[{"name":"잘해반점","tel":"031-671-3033","addr":"경기도 안성시 창전동 371-4번지 1층","category":"일반휴게음식 - 중국식"}]},{"lat":"37.003689583","long":"127.2712378","items":[{"name":"장미","tel":"031-674-7980","addr":"경기도 안성시 창전동 118번지","category":"일반휴게음식 - 일반한식"}]},{"lat":"37.005355932","long":"127.2715133","items":[{"name":"장헤어","tel":"031-675-0545","addr":"경기도 안성시 창전동 607-1번지","category":"보건위생 - 미용원"}]},{"lat":"37.004193566","long":"127.27150921","items":[{"name":"정단헤어샵","tel":"031-674-7059","addr":"경기도 안성시 창전동 93-1번지 1층","category":"보건위생 - 미용원"}]},{"lat":"37.003885245","long":"127.27237321","items":[{"name":"줄리엣아트","tel":"031-676-1842","addr":"경기도 안성시 창전동 128-1번지","category":"기타 - 기타 전문점"}]},{"lat":"37.005329282","long":"127.27134468","items":[{"name":"최내과","tel":"031-675-3159","addr":"경기도 안성시 창전동 607-3번지","category":"의원 - 의원"}]},{"lat":"37.003887638","long":"127.27131714","items":[{"name":"칠칠공사","tel":"031-674-7704","addr":"경기도 안성시 창전동 120-3번지","category":"건축자재 - 페인트"}]},{"lat":"37.003661432","long":"127.27173204","items":[{"name":"현대파크","tel":"031-675-2433","addr":"경기도 안성시 창전동 123-2번지","category":"숙박업 - 여관/기타숙박업"}]}]