[{"lat":"37.706962299","long":"127.18324728","items":[{"name":"(주) 팔팔라이프","tel":"031-572-8347","addr":"경기도 남양주시 진접읍 연평리 187-2번지","category":"음료식품 - 기타음료식품"}]},{"lat":"37.70363052","long":"127.18208256","items":[{"name":"(주)동일레저","tel":"031-572-0498","addr":"경기도 남양주시 진접읍 연평리 182-1번지","category":"레져용품 - 스포츠·레져용품"}]},{"lat":"37.703156777","long":"127.17958672","items":[{"name":"(주)성지파워","tel":"031-571-5800","addr":"경기도 남양주시 진접읍 연평리 217-5번지","category":"기타 - 기계공구"}]},{"lat":"37.694608275","long":"127.17850063","items":[{"name":"(주)알지유통","tel":"031-6571-8694","addr":"경기도 남양주시 진접읍 연평리 329-5번지","category":"음료식품 - 농·축·수산품"},{"name":"대박식당","tel":"031-527-3855","addr":"경기도 남양주시 진접읍 연평리 329-5번지 외 3필지","category":"일반휴게음식 - 일반한식"}]},{"lat":"37.700744359","long":"127.17814091","items":[{"name":"(주)엘디에코홀딩스","tel":"070-4849-1213","addr":"경기도 남양주시 진접읍 연평리 291-2번지","category":"기타 - 기계공구"},{"name":"위너전기조명","tel":"031-607-6636","addr":"경기도 남양주시 진접읍 연평리 291-2번지","category":"건축자재 - 조명기구"}]},{"lat":"37.706462389","long":"127.18019559","items":[{"name":"(주)연평스피드","tel":"031-571-0795","addr":"경기도 남양주시 진접읍 연평리 198-19번지","category":"자동차정비 유지 - 자동차정비"}]},{"lat":"37.680746417","long":"127.16955772","items":[{"name":"(주)와이제이교육(YJ EDUCATION CO.,Ltd)","tel":"031-594-8487","addr":"경기도 남양주시 진접읍 연평리 842-1번지","category":"서적문구 - 일반서적"},{"name":"드림에듀","tel":"031-594-8487","addr":"경기도 남양주시 진접읍 연평리 842-1번지","category":"서적문구 - 일반서적"}]},{"lat":"37.706490829","long":"127.17925443","items":[{"name":"(주)우림공업사","tel":"031-794-8446","addr":"경기도 남양주시 진접읍 연평리 91-4번지 외4필지","category":"자동차정비 유지 - 자동차정비"},{"name":"TOP엔진","tel":"","addr":"경기도 남양주시 진접읍 연평리 91-4번지 (주)우림공업사 B동 2층","category":"자동차정비 유지 - 자동차정비"},{"name":"사능전기","tel":"031-511-8615","addr":"경기도 남양주시 진접읍 연평리 91-4번지","category":"수리서비스 - 기타수리서비스"},{"name":"우림 윤활유","tel":"031-528-5150","addr":"경기도 남양주시 진접읍 연평리 91-4번지 제1동일부","category":"자동차정비 유지 - 윤활유 전문 판매"}]},{"lat":"37.705520247","long":"127.18358398","items":[{"name":"(주)케어시스코리아","tel":"031-1600-6553","addr":"경기도 남양주시 진접읍 연평리 175-8","category":"직물 - 침구·수예점"}]},{"lat":"37.707127627","long":"127.18117243","items":[{"name":"GS25진접연평리점","tel":"","addr":"경기도 남양주시 진접읍 연평리 93-5번지","category":"유통업 영리 - 편 의 점"},{"name":"곳간","tel":"031-574-2758","addr":"경기도 남양주시 진접읍 연평리 93-5번지","category":"일반휴게음식 - 일반한식"}]},{"lat":"37.694159646","long":"127.17725237","items":[{"name":"KH관수지원센터","tel":"070-8715-6375","addr":"경기도 남양주시 진접읍 연평리 324-8번지 2호","category":"농업 - 농기계"},{"name":"YM korea(와이엠코리아)","tel":"031-514-4100","addr":"경기도 남양주시 진접읍 연평리 324-8번지 2층","category":"신변잡화 - 액세서리"}]},{"lat":"37.681273813","long":"127.17863924","items":[{"name":"LK유통","tel":"031-516-3800","addr":"경기도 남양주시 진접읍 연평리 421-8번지","category":"자동차정비 유지 - 자동차부품"},{"name":"주식회사 피케이","tel":"031-527-2201","addr":"경기도 남양주시 진접읍 연평리 421-8번지","category":"자동차정비 유지 - 자동차부품"}]},{"lat":"37.68227762","long":"127.17611359","items":[{"name":"OK메디칼","tel":"031-529-4220","addr":"경기도 남양주시 진접읍 연평리 501-1번지 1동","category":"레져용품 - 스포츠·레져용품"}]},{"lat":"37.707412933","long":"127.18314631","items":[{"name":"STUCKYINATURE(스투키네이처)","tel":"031-574-8057","addr":"경기도 남양주시 진접읍 연평리 188-1번지","category":"의류 - 아동의류"}]},{"lat":"37.692800018","long":"127.18270276","items":[{"name":"가일식품","tel":"","addr":"경기도 남양주시 진접읍 연평리 357-4번지","category":"음료식품 - 기타음료식품"}]},{"lat":"37.705904758","long":"127.18546736","items":[{"name":"개구쟁이 어린이집[아이행복]","tel":"","addr":"경기도 남양주시 진접읍 연평리 846번지","category":"학원 - 유아원"},{"name":"궁의마트","tel":"031-571-0465","addr":"경기도 남양주시 진접읍 연평리 846번지 원일궁의문아파트 101호","category":"유통업 영리 - 슈퍼마켓"}]},{"lat":"37.68197071","long":"127.17650965","items":[{"name":"경기종합설비","tel":"","addr":"경기도 남양주시 진접읍 연평리 500-6번지","category":"용역 서비스 - 기타용역서비스"}]},{"lat":"37.68569263","long":"127.16961414","items":[{"name":"골프존비전","tel":"031-528-2570","addr":"경기도 남양주시 진접읍 연평리 816-3번지","category":"레져용품 - 스포츠·레져용품"}]},{"lat":"37.705100422","long":"127.18120159","items":[{"name":"구내매점","tel":"031-529-8572","addr":"경기도 남양주시 진접읍 연평리 195-2번지 서울북부터미널복지동구내매점","category":"신변잡화 - 기타잡화"}]},{"lat":"37.68360232","long":"127.16966614","items":[{"name":"구리퓨리스대리점","tel":"031-575-8255","addr":"경기도 남양주시 진접읍 연평리 834-6번지 주 1동","category":"음료식품 - 기타음료식품"}]},{"lat":"37.710799278","long":"127.18397105","items":[{"name":"금도참치","tel":"031-571-3690","addr":"경기도 남양주시 진접읍 연평리 61-6번지","category":"일반휴게음식 - 일반한식"}]},{"lat":"37.710740266","long":"127.18716899","items":[{"name":"김현주의 더 리퍼블릭","tel":"031-551-4329","addr":"경기도 남양주시 진접읍 연평리 127번지 2층","category":"일반휴게음식 - 주점"},{"name":"신고집","tel":"031-552-4329","addr":"경기도 남양주시 진접읍 연평리 127번지 2층(2층일부)","category":"일반휴게음식 - 일반한식"},{"name":"신고집찜칼국수","tel":"031-573-5505","addr":"경기도 남양주시 진접읍 연평리 127번지 1층","category":"일반휴게음식 - 일반한식"}]},{"lat":"37.708072342","long":"127.18202521","items":[{"name":"김호연이발관","tel":"031-573-5719","addr":"경기도 남양주시 진접읍 연평리 97번지 1층","category":"보건위생 - 이용원"},{"name":"엑스오(X.O)","tel":"031-642-0973","addr":"경기도 남양주시 진접읍 연평리 97번지 혜민빌딩","category":"일반휴게음식 - 주점"}]},{"lat":"37.703436244","long":"127.17947398","items":[{"name":"남도전기","tel":"031-571-0812","addr":"경기도 남양주시 진접읍 연평리 217-2","category":"건축자재 - 조명기구"}]},{"lat":"37.703716372","long":"127.178919","items":[{"name":"남부보링","tel":"031-528-2910","addr":"경기도 남양주시 진접읍 연평리 196-7번지","category":"자동차정비 유지 - 자동차정비"}]},{"lat":"37.694213988","long":"127.17705975","items":[{"name":"남양상사","tel":"031-573-0480","addr":"경기도 남양주시 진접읍 연평리 324-25번지","category":"자동차정비 유지 - 자동차부품"}]},{"lat":"37.703968521","long":"127.17899898","items":[{"name":"남양자동차공업사","tel":"031-572-7878","addr":"경기도 남양주시 진접읍 연평리 196-21번지","category":"자동차정비 유지 - 자동차정비"}]},{"lat":"37.683305308","long":"127.16945008","items":[{"name":"남양주 냉동특장","tel":"031-1668-1195","addr":"경기도 남양주시 진접읍 연평리 835-11번지 1동","category":"수리서비스 - 기타수리서비스"}]},{"lat":"37.710854431","long":"127.18325671","items":[{"name":"네비원","tel":"031-528-3409","addr":"경기도 남양주시 진접읍 연평리 61-2번지","category":"자동차정비 유지 - 자동차부품"},{"name":"우리들세무법인","tel":"031-574-9995","addr":"경기도 남양주시 진접읍 연평리 61-2번지 2층","category":"용역 서비스 - 법률회계서비스(법인)"},{"name":"추오정 남원추어탕","tel":"031-575-3266","addr":"경기도 남양주시 진접읍 연평리 61-2번지","category":"일반휴게음식 - 일반한식"}]},{"lat":"37.708937416","long":"127.18192523","items":[{"name":"뉴욕버거(진접점)","tel":"031-575-5737","addr":"경기도 남양주시 진접읍 연평리 101-14번지 이마트진접점 2층 일부","category":"일반휴게음식 - 서양음식"},{"name":"똑똑블럭","tel":"031-574-0880","addr":"경기도 남양주시 진접읍 연평리 101-14번지 2층 이마트","category":"학원 - 기타 교육기관"},{"name":"룩앤룩안경원","tel":"031-529-8921","addr":"경기도 남양주시 진접읍 연평리 101-14번지 이마트진법점 2층 안경코너","category":"보건위생 - 안경"},{"name":"베스킨라빈스","tel":"031-529-4535","addr":"경기도 남양주시 진접읍 연평리 101-14번지 외11필지 2층","category":"음료식품 - 제과점"},{"name":"스피드메이트이마트진접점","tel":"031-572-2320","addr":"경기도 남양주시 진접읍 연평리 101-14","category":"자동차정비 유지 - 자동차정비"},{"name":"온누리정다운약국","tel":"031-528-4091","addr":"경기도 남양주시 진접읍 연평리 101-14번지 이마트진접점 2층","category":"약국 - 약국"},{"name":"이디야커피","tel":"031-574-0026","addr":"경기도 남양주시 진접읍 연평리 101-14번지 외11필지 2층","category":"일반휴게음식 - 서양음식"},{"name":"준오헤어(진접점)","tel":"031-575-6565","addr":"경기도 남양주시 진접읍 연평리 101-14번지 4층 이마트진접점","category":"보건위생 - 미용원"},{"name":"클린보이","tel":"031-527-6018","addr":"경기도 남양주시 진접읍 연평리 101-14번지 주차장내(진접이마트)","category":"자동차정비 유지 - 세차장"},{"name":"포쉬네일 이마트진접점","tel":"031-572-4245","addr":"경기도 남양주시 진접읍 연평리 101-14번지 2층","category":"보건위생 - 피부미용실"}]},{"lat":"37.711771369","long":"127.18458582","items":[{"name":"느티나무집","tel":"031-572-4649","addr":"경기도 남양주시 진접읍 연평리 59번지","category":"일반휴게음식 - 일반한식"},{"name":"명성오일","tel":"031-528-5189","addr":"경기도 남양주시 진접읍 연평리 59번지","category":"자동차정비 유지 - 윤활유 전문 판매"},{"name":"세기오일뱅크","tel":"031-528-5188","addr":"경기도 남양주시 진접읍 연평리 59번지","category":"자동차정비 유지 - 자동차정비"}]},{"lat":"37.69207887","long":"127.18295046","items":[{"name":"능이명가","tel":"031-527-8665","addr":"경기도 남양주시 진접읍 연평리 365-1번지 2동","category":"일반휴게음식 - 일반한식"}]},{"lat":"37.68338465","long":"127.17689839","items":[{"name":"다주","tel":"","addr":"경기도 남양주시 진접읍 연평리 382번지","category":"신변잡화 - 기타잡화"}]},{"lat":"37.694521417","long":"127.17631214","items":[{"name":"대궐창호산업","tel":"031-571-1323","addr":"경기도 남양주시 진접읍 연평리 324-9","category":"건축자재 - 보일러·펌프·샷시"},{"name":"정한실업","tel":"031-551-2795","addr":"경기도 남양주시 진접읍 연평리 324-9번지","category":"건축자재 - 보일러·펌프·샷시"}]},{"lat":"37.703933657","long":"127.1841698","items":[{"name":"대도 정공사","tel":"031-529-0444","addr":"경기도 남양주시 진접읍 연평리 180-4번지 가동","category":"기타 - 기계공구"}]},{"lat":"37.711186463","long":"127.18411942","items":[{"name":"대옥면옥","tel":"031-575-3586","addr":"경기도 남양주시 진접읍 연평리 62-26번지 1층 일부","category":"일반휴게음식 - 일반한식"}]},{"lat":"37.680914163","long":"127.17197271","items":[{"name":"대진공조닥트","tel":"031-527-4419","addr":"경기도 남양주시 진접읍 연평리 461-4번지 가동","category":"용역 서비스 - 기타용역서비스"}]},{"lat":"37.707298637","long":"127.18128624","items":[{"name":"더 카스파","tel":"031-528-6263","addr":"경기도 남양주시 진접읍 연평리 92-2번지","category":"자동차정비 유지 - 세차장"},{"name":"우리 당구장","tel":"031-111-1111","addr":"경기도 남양주시 진접읍 연평리 92-2번지 2층","category":"레저업소 - 당 구 장"},{"name":"찌개와볶음","tel":"031-571-4352","addr":"경기도 남양주시 진접읍 연평리 92-2번지","category":"일반휴게음식 - 일반한식"}]},{"lat":"37.702187287","long":"127.17720313","items":[{"name":"더조은 펫스토리","tel":"031-528-0279","addr":"경기도 남양주시 진접읍 연평리 247-3번지","category":"문화.취미 - 애완동물"}]},{"lat":"37.704571993","long":"127.1791138","items":[{"name":"더풋샵(진접점)","tel":"031-573-2538","addr":"경기도 남양주시 진접읍 연평리 196-18번지 3층","category":"보건위생 - 화장품"}]},{"lat":"37.682221556","long":"127.17747383","items":[{"name":"더함 렌탈","tel":"031-0000-0000","addr":"경기도 남양주시 진접읍 연평리 392-1번지","category":"사무통신 - 사무용 OA기기"}]},{"lat":"37.709490864","long":"127.18528336","items":[{"name":"돈까스클럽(진접점)","tel":"031-528-2714","addr":"경기도 남양주시 진접읍 연평리 110-1번지","category":"일반휴게음식 - 서양음식"},{"name":"등촌샤브칼국수","tel":"031-528-3252","addr":"경기도 남양주시 진접읍 연평리 110-1번지 나동 2층","category":"일반휴게음식 - 일반한식"}]},{"lat":"37.681830408","long":"127.17997824","items":[{"name":"두리팜","tel":"","addr":"경기도 남양주시 진접읍 연평리 417-2번지","category":"약국 - 제약회사"},{"name":"주식회사 에이오(AO)","tel":"031-573-7730","addr":"경기도 남양주시 진접읍 연평리 417-2번지 5","category":"신변잡화 - 기타잡화"}]},{"lat":"37.707828359","long":"127.18250092","items":[{"name":"디자인공감","tel":"031-529-4321","addr":"경기도 남양주시 진접읍 연평리 144번지","category":"건축자재 - 인테리어전문"}]},{"lat":"37.684081746","long":"127.17461001","items":[{"name":"라 까세라(La Casera)","tel":"031-571-2886","addr":"경기도 남양주시 진접읍 연평리 519번지 2층","category":"음료식품 - 기타음료식품"}]},{"lat":"37.707852785","long":"127.18420202","items":[{"name":"런앤짐스포츠클럽","tel":"031-572-9372","addr":"경기도 남양주시 진접읍 연평리 138-3","category":"학원 - 기타 교육기관"},{"name":"연평슈퍼","tel":"031-573-9372","addr":"경기도 남양주시 진접읍 연평리 138-3번지","category":"음료식품 - 기타음료식품"}]},{"lat":"37.684963428","long":"127.16920438","items":[{"name":"레드 패브릭 아이엔씨","tel":"031-312-9093","addr":"경기도 남양주시 진접읍 연평리 822번지 1층 1호","category":"직물 - 침구·수예점"}]},{"lat":"37.70182436","long":"127.17891453","items":[{"name":"루마썬팅진접점","tel":"031-574-6708","addr":"경기도 남양주시 진접읍 연평리 221-8","category":"자동차정비 유지 - 자동차부품"},{"name":"윤일자동차","tel":"031-572-4550","addr":"경기도 남양주시 진접읍 연평리 221-8","category":"자동차정비 유지 - 자동차정비"}]},{"lat":"37.707716541","long":"127.18491613","items":[{"name":"만물정원","tel":"","addr":"경기도 남양주시 진접읍 연평리 158번지 102동 101호","category":"의류 - 정장"}]},{"lat":"37.682443775","long":"127.17950357","items":[{"name":"맑은공기","tel":"","addr":"경기도 남양주시 진접읍 연평리 411번지","category":"신변잡화 - 기타잡화"}]},{"lat":"37.704519575","long":"127.18397845","items":[{"name":"메이플팩토리","tel":"070-4197-0865","addr":"경기도 남양주시 진접읍 연평리 180-3","category":"가구 - 일반가구"}]},{"lat":"37.708267068","long":"127.18430509","items":[{"name":"명민디자인","tel":"031-565-2242","addr":"경기도 남양주시 진접읍 연평리 135-9번지 대현 3동 4호","category":"건축자재 - 인테리어전문"},{"name":"연평고추떡방앗간","tel":"031-571-7790","addr":"경기도 남양주시 진접읍 연평리 135-9번지 1층","category":"음료식품 - 제과점"},{"name":"킹퐁스포츠","tel":"031-575-0092","addr":"경기도 남양주시 진접읍 연평리 135-9번지 외1필지 3층 사무실","category":"레져용품 - 스포츠·레져용품"},{"name":"킹퐁탁구장","tel":"031-575-0092","addr":"경기도 남양주시 진접읍 연평리 135-9번지 2층","category":"레저업소 - 기타레져업소"}]},{"lat":"37.704162877","long":"127.18156222","items":[{"name":"모든상사","tel":"031-572-7232","addr":"경기도 남양주시 진접읍 연평리 192-2번지 나동","category":"자동차정비 유지 - 자동차부품"},{"name":"스마일범퍼","tel":"031-572-7232","addr":"경기도 남양주시 진접읍 연평리 192-2번지 나동","category":"자동차정비 유지 - 자동차부품"}]},{"lat":"37.705795459","long":"127.18034142","items":[{"name":"미니스톱남양주연평점","tel":"031-1577-9621","addr":"경기도 남양주시 진접읍 연평리 197-1번지","category":"유통업 영리 - 편 의 점"},{"name":"훼미리카공업사","tel":"031-572-4095","addr":"경기도 남양주시 진접읍 연평리 197-1","category":"자동차정비 유지 - 자동차정비"}]},{"lat":"37.708023373","long":"127.18458801","items":[{"name":"반찬해주는 여자","tel":"031-111-1111","addr":"경기도 남양주시 진접읍 연평리 138-19번지","category":"음료식품 - 기타음료식품"}]},{"lat":"37.681304215","long":"127.17636072","items":[{"name":"밥이랑참이랑","tel":"031-573-5446","addr":"경기도 남양주시 진접읍 연평리 428-7번지 1층","category":"음료식품 - 기타음료식품"}]},{"lat":"37.711606117","long":"127.1806955","items":[{"name":"보문컨테이너","tel":"031-571-2090","addr":"경기도 남양주시 진접읍 연평리 82-2번지","category":"기타 - 기계공구"}]},{"lat":"37.706128898","long":"127.18028551","items":[{"name":"보승침장","tel":"031-574-5679","addr":"경기도 남양주시 진접읍 연평리 198-5번지 나동","category":"직물 - 침구·수예점"},{"name":"투투","tel":"001-0000-0000","addr":"경기도 남양주시 진접읍 연평리 198-5번지","category":"보건위생 - 미용재료"}]},{"lat":"37.693630848","long":"127.175369","items":[{"name":"봉이네기사님식당","tel":"031-571-0688","addr":"경기도 남양주시 진접읍 연평리 621-2번지 1층,103호,104호","category":"일반휴게음식 - 일반한식"},{"name":"우리들세무법인 남양주3호점","tel":"031-574-6881","addr":"경기도 남양주시 진접읍 연평리 621-2번지","category":"용역 서비스 - 법률회계서비스(법인)"},{"name":"힐링아웃도어","tel":"031-529-2088","addr":"경기도 남양주시 진접읍 연평리 621-2번지 남양주농자재 1층 102호","category":"의류 - 정장"}]},{"lat":"37.705426125","long":"127.18619194","items":[{"name":"비비푸드","tel":"031-558-9713","addr":"경기도 남양주시 진접읍 연평리 846번지 궁의문 106동 602호","category":"음료식품 - 기타음료식품"}]},{"lat":"37.707657592","long":"127.18222834","items":[{"name":"비젼안경콘택트","tel":"031-529-0011","addr":"경기도 남양주시 진접읍 연평리 96번지 1층","category":"보건위생 - 안경"},{"name":"언니네 가죽공방","tel":"031-575-9619","addr":"경기도 남양주시 진접읍 연평리 96번지 1층","category":"문화.취미 - 문화취미기타"},{"name":"웨어 그레이스","tel":"031-575-9619","addr":"경기도 남양주시 진접읍 연평리 96번지 1층","category":"신변잡화 - 가방"},{"name":"지-플러스골프(진접점)","tel":"031-574-6668","addr":"경기도 남양주시 진접읍 연평리 96번지","category":"레져용품 - 골프용품 전문점"}]},{"lat":"37.708629143","long":"127.18900091","items":[{"name":"산신암","tel":"031-529-3920","addr":"경기도 남양주시 진접읍 연평리 50","category":"기타 - 비영리/대상"},{"name":"산신암","tel":"031-552-4640","addr":"경기도 남양주시 진접읍 연평리 50번지","category":"보건위생 - 기타대인서비스"}]},{"lat":"37.703437193","long":"127.17883897","items":[{"name":"삼일종합카에어콘","tel":"031-571-2650","addr":"경기도 남양주시 진접읍 연평리 196-19번지","category":"자동차정비 유지 - 자동차부품"}]},{"lat":"37.70846681","long":"127.18330763","items":[{"name":"수","tel":"070-7746-7078","addr":"경기도 남양주시 진접읍 연평리 136번지 2층","category":"레저업소 - 헬스클럽"}]},{"lat":"37.694219898","long":"127.17914599","items":[{"name":"수림 퍼니처","tel":"031-528-8712","addr":"경기도 남양주시 진접읍 연평리 335-1번지","category":"주방용구 - 주방용구"}]},{"lat":"37.705600567","long":"127.18408314","items":[{"name":"신일아이앤티","tel":"031-529-3073","addr":"경기도 남양주시 진접읍 연평리 176번지 (176,176-1,175-13)","category":"건축자재 - 건축용 요업제품"},{"name":"신일아이앤티","tel":"031-529-3073","addr":"경기도 남양주시 진접읍 연평리 176번지 (연평리 176-1,175-13)","category":"전기제품 - 기타전기제품"}]},{"lat":"37.700968806","long":"127.17867438","items":[{"name":"아로모아","tel":"031-573-7411","addr":"경기도 남양주시 진접읍 연평리 291-1번지","category":"직물 - 침구·수예점"}]},{"lat":"37.701545166","long":"127.17269991","items":[{"name":"아성씨엔지","tel":"031-572-2694","addr":"경기도 남양주시 진접읍 연평리 235번지","category":"신변잡화 - 기타잡화"}]},{"lat":"37.682719905","long":"127.17555913","items":[{"name":"앳홈","tel":"070-8615-3070","addr":"경기도 남양주시 진접읍 연평리 505-5번지 1동","category":"가구 - 기타가구"},{"name":"진성디자인","tel":"031-571-4433","addr":"경기도 남양주시 진접읍 연평리 505-5번지 나동 1층","category":"용역 서비스 - 종합용역"}]},{"lat":"37.707384427","long":"127.18411016","items":[{"name":"에어컨마을","tel":"","addr":"경기도 남양주시 진접읍 연평리 147-17번지 401호","category":"용역 서비스 - 기타용역서비스"}]},{"lat":"37.707882158","long":"127.18267115","items":[{"name":"연평가든","tel":"031-571-2298","addr":"경기도 남양주시 진접읍 연평리 143번지","category":"일반휴게음식 - 일반한식"}]},{"lat":"37.706772837","long":"127.18341692","items":[{"name":"영광농원","tel":"031-572-8347","addr":"경기도 남양주시 진접읍 연평리 187-3","category":"문화.취미 - 화원"}]},{"lat":"37.701518691","long":"127.17231432","items":[{"name":"예닮종탑공사","tel":"070-5293-8197","addr":"경기도 남양주시 진접읍 연평리 236번지","category":"용역 서비스 - 기타용역서비스"},{"name":"한국교회공사","tel":"070-8419-0040","addr":"경기도 남양주시 진접읍 연평리 236번지","category":"건축자재 - 인테리어전문"}]},{"lat":"37.693909697","long":"127.17567578","items":[{"name":"오빠낚시","tel":"031-573-1888","addr":"경기도 남양주시 진접읍 연평리 622번지","category":"레져용품 - 스포츠·레져용품"}]},{"lat":"37.708467704","long":"127.18853555","items":[{"name":"와이앤비유소년스포츠클럽","tel":"031-528-4562","addr":"경기도 남양주시 진접읍 연평리 51-2번지 주1,주2","category":"레저업소 - 기타레져업소"}]},{"lat":"37.707086361","long":"127.18459706","items":[{"name":"외삼촌네 지역장09","tel":"","addr":"경기도 남양주시 진접읍 연평리 151-2번지 청운빌라 다동 101호","category":"음료식품 - 기타음료식품"}]},{"lat":"37.709102592","long":"127.1858381","items":[{"name":"우리들세무법인 남양주2호점","tel":"031-574-9995","addr":"경기도 남양주시 진접읍 연평리 111-1번지 402호","category":"용역 서비스 - 법률회계서비스(법인)"},{"name":"지니유통","tel":"00-1577-3730","addr":"경기도 남양주시 진접읍 연평리 111-1번지","category":"전기제품 - 가전제품"}]},{"lat":"37.687632782","long":"127.17375656","items":[{"name":"우림헬스메디케어","tel":"02-992-6496","addr":"경기도 남양주시 진접읍 연평리 778-4번지 1층","category":"보건위생 - 의료용품"}]},{"lat":"37.704386427","long":"127.18267405","items":[{"name":"우일상사","tel":"031-1111-1111","addr":"경기도 남양주시 진접읍 연평리 185-18번지","category":"신변잡화 - 기타잡화"},{"name":"큐브아이즈 인더스트리","tel":"031-111-1111","addr":"경기도 남양주시 진접읍 연평리 185-18번지 6동","category":"보건위생 - 안경"}]},{"lat":"37.681944098","long":"127.17622618","items":[{"name":"우주산업","tel":"02-924-8300","addr":"경기도 남양주시 진접읍 연평리 440-14","category":"기타 - 기계공구"}]},{"lat":"37.706935772","long":"127.18291835","items":[{"name":"울트라에어컨","tel":"031-1544-7983","addr":"경기도 남양주시 진접읍 연평리 146-2번지","category":"용역 서비스 - 기타용역서비스"}]},{"lat":"37.708849514","long":"127.18635914","items":[{"name":"워시존진접점","tel":"070-7862-1516","addr":"경기도 남양주시 진접읍 연평리 112-19번지","category":"자동차정비 유지 - 세차장"},{"name":"주식회사 퍼스트가전","tel":"031-527-7772","addr":"경기도 남양주시 진접읍 연평리 112-19번지 1동","category":"전기제품 - 가전제품"},{"name":"주식회사 퍼스트가전","tel":"031-527-7772","addr":"경기도 남양주시 진접읍 연평리 112-19번지 1동","category":"전기제품 - 가전제품"}]},{"lat":"37.706407666","long":"127.18063772","items":[{"name":"월드광고기획","tel":"031-572-8681","addr":"경기도 남양주시 진접읍 연평리 198-18번지 103호","category":"건축자재 - 인테리어전문"}]},{"lat":"37.695378924","long":"127.17522565","items":[{"name":"월드종합","tel":"031-529-6464","addr":"경기도 남양주시 진접읍 연평리 314-12번지","category":"레져용품 - 스포츠·레져용품"},{"name":"준희모터스","tel":"031-527-6728","addr":"경기도 남양주시 진접읍 연평리 314-12번지","category":"자동차정비 유지 - 자동차부품"}]},{"lat":"37.710297626","long":"127.18791638","items":[{"name":"유워시세차장","tel":"031-575-3351","addr":"경기도 남양주시 진접읍 연평리 53번지","category":"자동차정비 유지 - 세차장"}]},{"lat":"37.689273621","long":"127.1666404","items":[{"name":"유천환경","tel":"031-527-8598","addr":"경기도 남양주시 진접읍 연평리 710-2번지","category":"건축자재 - 기타건축자재"}]},{"lat":"37.710432983","long":"127.18778062","items":[{"name":"응급실국물떡볶이남양주진접점","tel":"031-528-2119","addr":"경기도 남양주시 진접읍 연평리 130번지 B103호","category":"일반휴게음식 - 스넥"}]},{"lat":"37.688323995","long":"127.16922322","items":[{"name":"이레농산","tel":"070-1111-1111","addr":"경기도 남양주시 진접읍 연평리 766번지","category":"음료식품 - 미곡상"}]},{"lat":"37.707496642","long":"127.1814228","items":[{"name":"일번지손짜장","tel":"031-571-2113","addr":"경기도 남양주시 진접읍 연평리 92-1번지 1층","category":"일반휴게음식 - 중국식"},{"name":"행복한 한식부페","tel":"031-573-0028","addr":"경기도 남양주시 진접읍 연평리 92-1번지","category":"일반휴게음식 - 일반한식"}]},{"lat":"37.702604632","long":"127.18128633","items":[{"name":"일성포장산업","tel":"031-571-3241","addr":"경기도 남양주시 진접읍 연평리 218-24","category":"직물 - 카페트,커튼,천막,지물"}]},{"lat":"37.70780264","long":"127.181639","items":[{"name":"자이언트","tel":"031-111-1111","addr":"경기도 남양주시 진접읍 연평리 98-5번지 101호","category":"음료식품 - 농·축·수산품"}]},{"lat":"37.711771788","long":"127.18431364","items":[{"name":"장현합판목재","tel":"031-528-7337","addr":"경기도 남양주시 진접읍 연평리 76-1","category":"건축자재 - 목재·석재·철물"}]},{"lat":"37.708077221","long":"127.18472422","items":[{"name":"제이에스해양개발","tel":"031-624-2318","addr":"경기도 남양주시 진접읍 연평리 138-14번지 2층","category":"레져용품 - 스포츠·레져용품"}]},{"lat":"37.692132165","long":"127.18344945","items":[{"name":"주식회사 비에스스톤","tel":"031-574-6606","addr":"경기도 남양주시 진접읍 연평리 365-5번지","category":"건축자재 - 목재·석재·철물"}]},{"lat":"37.693771327","long":"127.17786372","items":[{"name":"주식회사 이현시스템","tel":"031-575-6222","addr":"경기도 남양주시 진접읍 연평리 326번지","category":"건축자재 - 기타건축자재"}]},{"lat":"37.706021584","long":"127.17975228","items":[{"name":"주식회사 큰돌","tel":"031-571-9178","addr":"경기도 남양주시 진접읍 연평리 197-5","category":"기타 - 기계공구"}]},{"lat":"37.701774567","long":"127.17603421","items":[{"name":"주식회사 피엔에이치인터내셔널","tel":"031-527-3790","addr":"경기도 남양주시 진접읍 연평리 245-4번지","category":"레져용품 - 스포츠·레져용품"}]},{"lat":"37.710575048","long":"127.18331274","items":[{"name":"주식회사 현대아이온","tel":"031-571-3713","addr":"경기도 남양주시 진접읍 연평리 61-3번지","category":"자동차정비 유지 - 자동차부품"}]},{"lat":"37.699522654","long":"127.17570014","items":[{"name":"주식회사리빙앤케어","tel":"070-8670-8300","addr":"경기도 남양주시 진접읍 연평리 287-4번지","category":"신변잡화 - 기타잡화"}]},{"lat":"37.69393641","long":"127.17589127","items":[{"name":"준엔지니어링","tel":"031-571-9000","addr":"경기도 남양주시 진접읍 연평리 625번지","category":"건축자재 - 보일러·펌프·샷시"}]},{"lat":"37.702713041","long":"127.17502718","items":[{"name":"지우침장","tel":"031-796-2554","addr":"경기도 남양주시 진접읍 연평리 227번지 1층","category":"직물 - 침구·수예점"}]},{"lat":"37.710545981","long":"127.18463953","items":[{"name":"진촌설렁탕","tel":"031-527-3585","addr":"경기도 남양주시 진접읍 연평리 114-1번지 1,2층","category":"일반휴게음식 - 일반한식"},{"name":"차영환이불입니다","tel":"031-527-8571","addr":"경기도 남양주시 진접읍 연평리 114-1번지 101,102호","category":"직물 - 침구·수예점"}]},{"lat":"37.706079309","long":"127.18327916","items":[{"name":"진출기업","tel":"031-567-2493","addr":"경기도 남양주시 진접읍 연평리 175-5번지","category":"건축자재 - 기타건축자재"}]},{"lat":"37.705934426","long":"127.18375509","items":[{"name":"창의영재학원","tel":"031-529-5359","addr":"경기도 남양주시 진접읍 연평리 175-3번지","category":"학원 - 보습학원"},{"name":"푸른강산어린이집[아이행복]","tel":"031-529-5358","addr":"경기도 남양주시 진접읍 연평리 175-3번지","category":"학원 - 유아원"}]},{"lat":"37.707719258","long":"127.18314705","items":[{"name":"케이투비 인터내셔널","tel":"02-514-2730","addr":"경기도 남양주시 진접읍 연평리 139번지","category":"보건위생 - 화장품"}]},{"lat":"37.693053012","long":"127.18222718","items":[{"name":"타이어 게러지","tel":"","addr":"경기도 남양주시 진접읍 연평리 352-1번지","category":"자동차정비 유지 - 자동차시트·타이어"}]},{"lat":"37.694684239","long":"127.17587033","items":[{"name":"타이어테크 연평점","tel":"031-572-8850","addr":"경기도 남양주시 진접읍 연평리 629-1번지 1,2층","category":"자동차정비 유지 - 자동차시트·타이어"}]},{"lat":"37.710857869","long":"127.18686308","items":[{"name":"툇마루","tel":"031-528-5292","addr":"경기도 남양주시 진접읍 연평리 126번지","category":"일반휴게음식 - 일반한식"}]},{"lat":"37.708245618","long":"127.18064211","items":[{"name":"펠리즈(feliz)","tel":"031-529-1481","addr":"경기도 남양주시 진접읍 연평리 98-2번지","category":"가구 - 일반가구"}]},{"lat":"37.707690456","long":"127.18430369","items":[{"name":"풍년토탈씽크","tel":"031-571-5660","addr":"경기도 남양주시 진접읍 연평리 138-4번지","category":"주방용구 - 주방용구"}]},{"lat":"37.707074047","long":"127.18672898","items":[{"name":"한다리이향갈비","tel":"031-571-4455","addr":"경기도 남양주시 진접읍 연평리 161-1","category":"일반휴게음식 - 일반한식"}]},{"lat":"37.70794164","long":"127.1850074","items":[{"name":"행복식당","tel":"031-572-0342","addr":"경기도 남양주시 진접읍 연평리 138-1번지 2층","category":"일반휴게음식 - 일반한식"}]},{"lat":"37.707405841","long":"127.18188753","items":[{"name":"형제자동차공업사","tel":"031-571-5141","addr":"경기도 남양주시 진접읍 연평리 95번지","category":"자동차정비 유지 - 자동차정비"}]},{"lat":"37.682332741","long":"127.17538819","items":[{"name":"효경농원","tel":"031-111-1111","addr":"경기도 남양주시 진접읍 연평리 502-5번지","category":"음료식품 - 농·축·수산품"}]}]