[{"lat":"37.108143593","long":"126.97628634","items":[{"name":"(주)신성하이테크","tel":"031-352-0873","addr":"경기도 화성시 양감면 사창리 52번지","category":"건축자재 - 건축용 요업제품"}]},{"lat":"37.106592982","long":"126.97293436","items":[{"name":"(주)푸르고팜","tel":"070-4047-8477","addr":"경기도 화성시 양감면 사창리 37-18번지","category":"농업 - 농기계"}]},{"lat":"37.1067285","long":"126.97439682","items":[{"name":"1급태동공업사","tel":"031-353-0885","addr":"경기도 화성시 양감면 사창리 63-8번지","category":"자동차정비 유지 - 자동차정비"}]},{"lat":"37.10636759","long":"126.9724282","items":[{"name":"GS25양감초록로점","tel":"","addr":"경기도 화성시 양감면 사창리 37-12번지","category":"유통업 영리 - 편 의 점"}]},{"lat":"37.10586386","long":"126.97598338","items":[{"name":"경기대형카샵","tel":"031-000-0000","addr":"경기도 화성시 양감면 사창리 63-1번지","category":"자동차정비 유지 - 자동차부품"},{"name":"경기대형특장차","tel":"031-8056-3316","addr":"경기도 화성시 양감면 사창리 63-1번지","category":"자동차판매 - 기타운송"}]},{"lat":"37.106953152","long":"126.97195546","items":[{"name":"국제공구철물","tel":"031-374-0095","addr":"경기도 화성시 양감면 사창리 75-1번지","category":"건축자재 - 목재·석재·철물"},{"name":"사창식당","tel":"031-354-1267","addr":"경기도 화성시 양감면 사창리 75-1번지","category":"일반휴게음식 - 일반한식"}]},{"lat":"37.101618227","long":"126.96942654","items":[{"name":"남경구내식당","tel":"031-226-6404","addr":"경기도 화성시 양감면 사창리 1128번지 1층","category":"일반휴게음식 - 위탁급식업"}]},{"lat":"37.104927016","long":"126.97711995","items":[{"name":"남도한식부페","tel":"031-354-1475","addr":"경기도 화성시 양감면 사창리 62-7번지","category":"일반휴게음식 - 일반한식"}]},{"lat":"37.091788257","long":"126.97139923","items":[{"name":"달팽이건강원","tel":"031-352-0530","addr":"경기도 화성시 양감면 사창리 466-4번지","category":"건강식품 - 기타건강식품"},{"name":"이천형의 달팽이요리","tel":"031-352-0530","addr":"경기도 화성시 양감면 사창리 466-4번지 1층 일부","category":"일반휴게음식 - 일반한식"}]},{"lat":"37.101255329","long":"126.96157471","items":[{"name":"들림푸드","tel":"031-353-4147","addr":"경기도 화성시 양감면 사창리 662번지 1층 2호","category":"음료식품 - 기타음료식품"}]},{"lat":"37.093227033","long":"126.96187152","items":[{"name":"마이 주식회사","tel":"031-366-4093","addr":"경기도 화성시 양감면 사창리 802-4번지","category":"건축자재 - 조명기구"}]},{"lat":"37.104566221","long":"126.9754551","items":[{"name":"브랜뉴레이싱","tel":"02-3486-5558","addr":"경기도 화성시 양감면 사창리 64-15번지","category":"자동차정비 유지 - 자동차부품"},{"name":"쏘올스포츠","tel":"","addr":"경기도 화성시 양감면 사창리 64-15번지 1층","category":"자동차정비 유지 - 자동차시트·타이어"}]},{"lat":"37.100702092","long":"126.98234099","items":[{"name":"사단법인 한국장애인협회","tel":"031-358-2002","addr":"경기도 화성시 양감면 사창리 195-8번지 C동","category":"서적문구 - 문구용품"}]},{"lat":"37.089202401","long":"126.97206391","items":[{"name":"사창반점","tel":"031-353-8256","addr":"경기도 화성시 양감면 사창리 432번지","category":"일반휴게음식 - 중국식"}]},{"lat":"37.087977031","long":"126.97232309","items":[{"name":"상상플러스","tel":"031-8059-4625","addr":"경기도 화성시 양감면 사창리 378번지","category":"학원 - 기타 교육기관"}]},{"lat":"37.093594383","long":"126.95623601","items":[{"name":"성미식당","tel":"031-355-2226","addr":"경기도 화성시 양감면 사창리 810-2번지 화성경기종합사격장 1층","category":"일반휴게음식 - 일반한식"},{"name":"커피쏘는날","tel":"031-352-0891","addr":"경기도 화성시 양감면 사창리 810-2번지 2층","category":"일반휴게음식 - 서양음식"}]},{"lat":"37.101449885","long":"126.98186832","items":[{"name":"성한","tel":"070-4413-2319","addr":"경기도 화성시 양감면 사창리 195-4번지 코텍엔지니어링(주) E동","category":"전기제품 - 기타전기제품"}]},{"lat":"37.100618823","long":"126.97226177","items":[{"name":"세븐일레븐화성초록로점","tel":"","addr":"경기도 화성시 양감면 사창리 171번지","category":"유통업 영리 - 편 의 점"}]},{"lat":"37.09461749","long":"126.97109436","items":[{"name":"시흥장갑","tel":"031-354-9810","addr":"경기도 화성시 양감면 사창리 505번지","category":"의류 - 기타의류"}]},{"lat":"37.110287499","long":"126.9737317","items":[{"name":"신라철망스틸","tel":"031-352-2940","addr":"경기도 화성시 양감면 사창리 19번지","category":"건축자재 - 기타건축자재"}]},{"lat":"37.107448511","long":"126.97112275","items":[{"name":"씨유화성양감토성로점","tel":"080-080-3663","addr":"경기도 화성시 양감면 사창리 77-3번지","category":"유통업 영리 - 편 의 점"},{"name":"알뜰잡화","tel":"","addr":"경기도 화성시 양감면 사창리 77-3번지","category":"신변잡화 - 기타잡화"}]},{"lat":"37.093312939","long":"126.97962095","items":[{"name":"양감미곡처리장","tel":"031-352-1314","addr":"경기도 화성시 양감면 사창리 319-1번지","category":"음료식품 - 미곡상"},{"name":"우리철물건재","tel":"031-352-7907","addr":"경기도 화성시 양감면 사창리 319-1","category":"건축자재 - 기타건축자재"}]},{"lat":"37.09114928","long":"126.97445889","items":[{"name":"에스케이(SK)석유","tel":"031-352-5101","addr":"경기도 화성시 양감면 사창리 406-14번지","category":"연료판매점 - 유류판매"}]},{"lat":"37.098203853","long":"126.97171155","items":[{"name":"에스케이종합가스","tel":"031-353-4489","addr":"경기도 화성시 양감면 사창리 543-3번지","category":"연료판매점 - LPG 취급점"}]},{"lat":"37.104368217","long":"126.9764564","items":[{"name":"영인스틸하우스","tel":"031-0000-0000","addr":"경기도 화성시 양감면 사창리 59-2번지","category":"건축자재 - 기타건축자재"}]},{"lat":"37.093150793","long":"126.97984596","items":[{"name":"와이엠산업공구","tel":"031-353-8509","addr":"경기도 화성시 양감면 사창리 319번지","category":"주방용구 - 주방용구"}]},{"lat":"37.088230414","long":"126.97687816","items":[{"name":"용웅솔루션","tel":"031-8059-7990","addr":"경기도 화성시 양감면 사창리 370-2번지","category":"건축자재 - 기타건축자재"}]},{"lat":"37.10742249","long":"126.97515032","items":[{"name":"우리식당","tel":"031-366-0691","addr":"경기도 화성시 양감면 사창리 46-9번지","category":"일반휴게음식 - 일반한식"}]},{"lat":"37.096951333","long":"126.97150958","items":[{"name":"우진건설(주)","tel":"031-374-4983","addr":"경기도 화성시 양감면 사창리 535","category":"용역 서비스 - 기타용역서비스"}]},{"lat":"37.08761622","long":"126.97084985","items":[{"name":"이가네식당","tel":"031-352-7606","addr":"경기도 화성시 양감면 사창리 975-2번지","category":"일반휴게음식 - 일반한식"}]},{"lat":"37.11145","long":"126.97431629","items":[{"name":"이마트24 화성양감점","tel":"","addr":"경기도 화성시 양감면 사창리 16-8번지 1층","category":"유통업 영리 - 편 의 점"},{"name":"이마트24 화성양감점","tel":"","addr":"경기도 화성시 양감면 사창리 16-8번지 1층","category":"유통업 영리 - 편 의 점"}]},{"lat":"37.10864722","long":"126.97229228","items":[{"name":"정원족발","tel":"031-352-4898","addr":"경기도 화성시 양감면 사창리 29-3번지","category":"일반휴게음식 - 일반한식"},{"name":"참순대국","tel":"031-366-0242","addr":"경기도 화성시 양감면 사창리 29-3번지","category":"일반휴게음식 - 일반한식"}]},{"lat":"37.087760661","long":"126.97187329","items":[{"name":"주식회사 라온이앤지","tel":"031-831-5670","addr":"경기도 화성시 양감면 사창리 985-7번지","category":"직물 - 카페트,커튼,천막,지물"}]},{"lat":"37.111287709","long":"126.97390008","items":[{"name":"주식회사 스카이","tel":"070-4103-0382","addr":"경기도 화성시 양감면 사창리 13-2번지","category":"유통업 영리 - 기타유통업"}]},{"lat":"37.093536193","long":"126.97098233","items":[{"name":"주식회사 트러스콘지점","tel":"031-354-2366","addr":"경기도 화성시 양감면 사창리 490-2번지","category":"건축자재 - 기타건축자재"}]},{"lat":"37.093788498","long":"126.97101597","items":[{"name":"진미식당","tel":"031-352-3401","addr":"경기도 화성시 양감면 사창리 502번지","category":"일반휴게음식 - 일반한식"}]},{"lat":"37.102449844","long":"126.98070935","items":[{"name":"팀라비드","tel":"031-1111-1111","addr":"경기도 화성시 양감면 사창리 195-73번지","category":"자동차정비 유지 - 카인테리어"}]},{"lat":"37.09475399","long":"126.97657222","items":[{"name":"해와달홈 주식회사","tel":"02-1577-8373","addr":"경기도 화성시 양감면 사창리 1078번지 정문회화로","category":"건축자재 - 기타건축자재"}]},{"lat":"37.10239582","long":"126.98092311","items":[{"name":"행복한밥상","tel":"031-366-1252","addr":"경기도 화성시 양감면 사창리 195-74번지","category":"일반휴게음식 - 일반한식"}]},{"lat":"37.089756102","long":"126.9567895","items":[{"name":"화성초록병원(매점)","tel":"070-8787-0917","addr":"경기도 화성시 양감면 사창리 808-10번지","category":"음료식품 - 기타음료식품"}]}]