[{"lat":"37.48069869","long":"127.64955271","items":[{"name":"(주)미리내","tel":"031-774-3131","addr":"경기도 양평군 지평면 월산리 576-1번지","category":"숙박업 - 여관/기타숙박업"},{"name":"(주)미리내","tel":"031-774-3131","addr":"경기도 양평군 지평면 월산리 576-1번지","category":"숙박업 - 여관/기타숙박업"},{"name":"(주)미리내","tel":"031-774-9019","addr":"경기도 양평군 지평면 월산리 576-1번지 1층","category":"레저업소 - 골프연습장"},{"name":"고정순에스테틱","tel":"031-1111-111","addr":"경기도 양평군 지평면 월산리 576-1번지 1층 힐빌클럽 내","category":"보건위생 - 피부미용실"}]},{"lat":"37.482302578","long":"127.65607876","items":[{"name":"(주)소프트로닉","tel":"070-8766-4050","addr":"경기도 양평군 지평면 월산리 1029번지","category":"회원제형태 - 기타4"}]},{"lat":"37.481608912","long":"127.65115468","items":[{"name":"미리내승마클럽","tel":"031-774-0300","addr":"경기도 양평군 지평면 월산리 579-1","category":"레저업소 - 기타레져업소"}]},{"lat":"37.482167914","long":"127.65924324","items":[{"name":"주식회사 정가온","tel":"031-775-6878","addr":"경기도 양평군 지평면 월산리 609-5번지","category":"음료식품 - 정육점"},{"name":"주식회사 정우푸드","tel":"031-774-4803","addr":"경기도 양평군 지평면 월산리 609-5번지","category":"음료식품 - 기타음료식품"}]},{"lat":"37.490471533","long":"127.64676493","items":[{"name":"지평농업협동조합가공공장","tel":"031-771-9403","addr":"경기도 양평군 지평면 월산리 1169-1","category":"음료식품 - 기타음료식품"}]},{"lat":"37.501808521","long":"127.6462742","items":[{"name":"청기와","tel":"031-772-8239","addr":"경기도 양평군 지평면 월산리 1232","category":"일반휴게음식 - 일반한식"}]},{"lat":"37.476227599","long":"127.66298978","items":[{"name":"호수산장","tel":"031-774-1974","addr":"경기도 양평군 지평면 월산리 218번지","category":"숙박업 - 여관/기타숙박업"}]}]