[{"lat":"37.882550083","long":"126.75882035","items":[{"name":"(주)효산관광","tel":"02-2690-2112","addr":"경기도 파주시 문산읍 마정리 716-2번지","category":"여행 - 관광여행"}]},{"lat":"37.886380923","long":"126.75972849","items":[{"name":"35년전통어부집","tel":"031-952-4059","addr":"경기도 파주시 문산읍 마정리 686-2","category":"일반휴게음식 - 일반한식"},{"name":"강나루터","tel":"031-952-4003","addr":"경기도 파주시 문산읍 마정리 686-2번지","category":"일반휴게음식 - 일식·회집"}]},{"lat":"37.886606507","long":"126.75989826","items":[{"name":"SM Coorporation","tel":"031-952-4059","addr":"경기도 파주시 문산읍 마정리 686-7번지","category":"회원제형태 - 기타4"},{"name":"포스산업(Poss industry)","tel":"","addr":"경기도 파주시 문산읍 마정리 686-7번지","category":"건축자재 - 인테리어전문"}]},{"lat":"37.884682797","long":"126.75761974","items":[{"name":"가꾸미","tel":"","addr":"경기도 파주시 문산읍 마정리 673-7번지","category":"신변잡화 - 기타잡화"}]},{"lat":"37.89193203","long":"126.74348744","items":[{"name":"강강수월래","tel":"02-977-4767","addr":"경기도 파주시 문산읍 마정리 1316번지","category":"학원 - 기타 교육기관"}]},{"lat":"37.892686783","long":"126.75509211","items":[{"name":"농업회사법인 주식회사 문산영농","tel":"02-1111-1111","addr":"경기도 파주시 문산읍 마정리 915-1번지","category":"음료식품 - 미곡상"}]},{"lat":"37.891933198","long":"126.76096076","items":[{"name":"대성골프","tel":"031-954-0609","addr":"경기도 파주시 문산읍 마정리 569-4번지","category":"레져용품 - 골프용품 전문점"}]},{"lat":"37.890240322","long":"126.74034439","items":[{"name":"로뎀","tel":"031-952-3378","addr":"경기도 파주시 문산읍 마정리 1325 1325-6","category":"일반휴게음식 - 일반한식"}]},{"lat":"37.891153968","long":"126.75881469","items":[{"name":"루아채","tel":"","addr":"경기도 파주시 문산읍 마정리 527번지","category":"건축자재 - 인테리어전문"},{"name":"자투리협동조합","tel":"031-000-0000","addr":"경기도 파주시 문산읍 마정리 527번지","category":"서적문구 - 기타서적문구"}]},{"lat":"37.892153546","long":"126.75859539","items":[{"name":"마정슈퍼","tel":"031-952-5784","addr":"경기도 파주시 문산읍 마정리 536-2","category":"유통업 영리 - 슈퍼마켓"}]},{"lat":"37.891931021","long":"126.7599035","items":[{"name":"마정초등학교병설유치원[아이행복]","tel":"031-953-4085","addr":"경기도 파주시 문산읍 마정리 540번지","category":"학원 - 유치원"}]},{"lat":"37.890707889","long":"126.73993347","items":[{"name":"모자전문점","tel":"031-954-6464","addr":"경기도 파주시 문산읍 마정리 1360-50번지 임진각휴게소내모자전문점","category":"의류 - 기타의류"},{"name":"임진각휴게소3호점","tel":"031-952-2878","addr":"경기도 파주시 문산읍 마정리 1360-50","category":"일반휴게음식 - 일반한식"},{"name":"임진각휴게소7호점","tel":"031-954-8777","addr":"경기도 파주시 문산읍 마정리 1360-50번지","category":"일반휴게음식 - 일반한식"},{"name":"임진각휴게소스넥코너2호","tel":"031-953-0937","addr":"경기도 파주시 문산읍 마정리 1360-50 휴게소스넥코너2호","category":"일반휴게음식 - 스넥"}]},{"lat":"37.890070135","long":"126.74078835","items":[{"name":"밀레니엄휴게소","tel":"031-954-0842","addr":"경기도 파주시 문산읍 마정리 1325-6번지","category":"일반휴게음식 - 일반한식"},{"name":"평화휴게소","tel":"031-954-2805","addr":"경기도 파주시 문산읍 마정리 1325-6번지","category":"음료식품 - 기타음료식품"}]},{"lat":"37.886435917","long":"126.76018301","items":[{"name":"샘뜰두부집","tel":"031-952-8010","addr":"경기도 파주시 문산읍 마정리 686-10번지","category":"일반휴게음식 - 일반한식"}]},{"lat":"37.890325045","long":"126.74198111","items":[{"name":"스터레트후드","tel":"031-953-6737","addr":"경기도 파주시 문산읍 마정리 1320-1","category":"음료식품 - 기타음료식품"}]},{"lat":"37.89287497","long":"126.75892269","items":[{"name":"아이넬","tel":"031-952-3446","addr":"경기도 파주시 문산읍 마정리 518-1번지","category":"광학제품 - 사진관"}]},{"lat":"37.894990254","long":"126.74534122","items":[{"name":"아이지에이마트 평화누리캠핑장점","tel":"031-000-0000","addr":"경기도 파주시 문산읍 마정리 1153-3번지","category":"유통업 영리 - 편 의 점"}]},{"lat":"37.889491998","long":"126.74009695","items":[{"name":"예성","tel":"031-952-0088","addr":"경기도 파주시 문산읍 마정리 1325-1번지","category":"신변잡화 - 기념품점"}]},{"lat":"37.891597716","long":"126.75559597","items":[{"name":"요술나라","tel":"031-952-1415","addr":"경기도 파주시 문산읍 마정리 911-9번지","category":"일반휴게음식 - 일반한식"}]},{"lat":"37.886937968","long":"126.75898775","items":[{"name":"임진강","tel":"031-952-4047","addr":"경기도 파주시 문산읍 마정리 643-2번지","category":"일반휴게음식 - 일반한식"}]},{"lat":"37.896350548","long":"126.76232197","items":[{"name":"주식회사 원에너지","tel":"031-952-9270","addr":"경기도 파주시 문산읍 마정리 216-6번지","category":"전기제품 - 기타전기제품"},{"name":"주식회사 인크르스","tel":"031-953-7010","addr":"경기도 파주시 문산읍 마정리 216-6번지","category":"자동차정비 유지 - 자동차부품"},{"name":"한국수소에너지개발원","tel":"031-953-7010","addr":"경기도 파주시 문산읍 마정리 216-6번지","category":"전기제품 - 기타전기제품"}]},{"lat":"37.894823992","long":"126.76479399","items":[{"name":"진사랑요양원","tel":"031-954-2017","addr":"경기도 파주시 문산읍 마정리 201번지","category":"기타의료기관 - 기타의료기관 및 기타"}]},{"lat":"37.88943308","long":"126.74196152","items":[{"name":"통일열차","tel":"","addr":"경기도 파주시 문산읍 마정리 1325-5번지","category":"신변잡화 - 기념품점"}]},{"lat":"37.893687238","long":"126.7640132","items":[{"name":"파주 미래 DMZ","tel":"031-952-8998","addr":"경기도 파주시 문산읍 마정리 144-2번지","category":"일반휴게음식 - 서양음식"}]},{"lat":"37.891515509","long":"126.75506193","items":[{"name":"플라츠907(Platz907)","tel":"","addr":"경기도 파주시 문산읍 마정리 907-8번지","category":"일반휴게음식 - 서양음식"}]},{"lat":"37.886102738","long":"126.76026368","items":[{"name":"행복마트","tel":"031-952-9116","addr":"경기도 파주시 문산읍 마정리 698-2번지","category":"유통업 영리 - 슈퍼마켓"}]}]