[{"lat":"37.12872495","long":"126.90835409","items":[{"name":"(주)경기인쇄기획","tel":"031-352-5252","addr":"경기도 화성시 향남읍 평리 172번지 107호","category":"건축자재 - 인테리어전문"},{"name":"노블프랜드","tel":"031-352-0387","addr":"경기도 화성시 향남읍 평리 172번지 외2필지 이샵플러스 101호,102호","category":"문화.취미 - 애완동물"},{"name":"리뷰티샵(LEE뷰티샵)","tel":"031-352-3666","addr":"경기도 화성시 향남읍 평리 172번지 105호","category":"보건위생 - 피부미용실"},{"name":"수천작명철학원","tel":"031-353-2259","addr":"경기도 화성시 향남읍 평리 172번지 1층 114호","category":"가구 - 기타가구"},{"name":"에이스존상가관리단","tel":"031-000-0000","addr":"경기도 화성시 향남읍 평리 172번지","category":"자동차정비 유지 - 주차장"},{"name":"우리미디어스","tel":"031-352-8709","addr":"경기도 화성시 향남읍 평리 172번지 B동 1층 103,104호","category":"보건위생 - 기타대인서비스"},{"name":"원할머니보쌈(화성향남점)","tel":"031-354-8383","addr":"경기도 화성시 향남읍 평리 172번지 206호","category":"일반휴게음식 - 일반한식"},{"name":"주식회사 엔자힘","tel":"070-8947-4490","addr":"경기도 화성시 향남읍 평리 172번지 304호","category":"음료식품 - 기타음료식품"}]},{"lat":"37.130725278","long":"126.9083516","items":[{"name":"(주)아시아레스토랑 화성향남지점","tel":"031-352-8684","addr":"경기도 화성시 향남읍 평리 78-5번지 101호","category":"일반휴게음식 - 서양음식"},{"name":"다모아","tel":"031-353-3570","addr":"경기도 화성시 향남읍 평리 78-5번지","category":"일반휴게음식 - 일반한식"}]},{"lat":"37.134025577","long":"126.91148739","items":[{"name":"(주)케이에스씨","tel":"031-1577-3208","addr":"경기도 화성시 향남읍 평리 40번지 (지하층101호)","category":"레져용품 - 스포츠·레져용품"},{"name":"LLP향남발안점","tel":"031-111-1111","addr":"경기도 화성시 향남읍 평리 40번지","category":"의류 - 정장"},{"name":"봉수종합주방","tel":"031-352-9976","addr":"경기도 화성시 향남읍 평리 40번지","category":"주방용구 - 주방용구"}]},{"lat":"37.13383666","long":"126.91188151","items":[{"name":"(주)태평건설중기","tel":"031-353-0304","addr":"경기도 화성시 향남읍 평리 42-3번지 102호","category":"기타 - 기계공구"},{"name":"비디하우스","tel":"031-466-9024","addr":"경기도 화성시 향남읍 평리 42-3번지","category":"일반휴게음식 - 스넥"}]},{"lat":"37.131364219","long":"126.90734922","items":[{"name":"153만세수산","tel":"031-354-7858","addr":"경기도 화성시 향남읍 평리 116-8번지 1층","category":"음료식품 - 농·축·수산품"}]},{"lat":"37.132860412","long":"126.90791004","items":[{"name":"777 양꼬치","tel":"031-7537-9222","addr":"경기도 화성시 향남읍 평리 90-12번지","category":"일반휴게음식 - 일반한식"},{"name":"미국가주우육면대왕","tel":"031-366-6088","addr":"경기도 화성시 향남읍 평리 90-12번지 외1필지","category":"일반휴게음식 - 일반한식"}]},{"lat":"37.131196199","long":"126.91137825","items":[{"name":"WALLACE&GROMIT&FRIENDS/(주)아이지엔씨에","tel":"","addr":"경기도 화성시 향남읍 평리 73-1번지 영암문화재단빌딩 3층","category":"용역 서비스 - 사무서비스"}]},{"lat":"37.132030995","long":"126.90734838","items":[{"name":"가마솥국밥","tel":"031-352-8211","addr":"경기도 화성시 향남읍 평리 103번지","category":"일반휴게음식 - 일반한식"},{"name":"명성숯불양꼬치구이","tel":"031-354-5446","addr":"경기도 화성시 향남읍 평리 103","category":"일반휴게음식 - 일반한식"}]},{"lat":"37.131581256","long":"126.90832802","items":[{"name":"가위손미용실","tel":"031-353-9020","addr":"경기도 화성시 향남읍 평리 113-1번지 1층","category":"보건위생 - 미용원"}]},{"lat":"37.134034091","long":"126.91084589","items":[{"name":"가은식당","tel":"031-353-2768","addr":"경기도 화성시 향남읍 평리 30-17번지","category":"일반휴게음식 - 일반한식"},{"name":"화성기획(주)","tel":"031-352-9479","addr":"경기도 화성시 향남읍 평리 30-17번지 서봉빌딩 101호","category":"용역 서비스 - 종합용역"}]},{"lat":"37.132255948","long":"126.90696547","items":[{"name":"감미옥","tel":"031-353-0204","addr":"경기도 화성시 향남읍 평리 96-2","category":"일반휴게음식 - 일반한식"},{"name":"배터지는생동까스이레칡냉면","tel":"031-353-0582","addr":"경기도 화성시 향남읍 평리 96-2번지","category":"일반휴게음식 - 일반한식"}]},{"lat":"37.1312845","long":"126.90907114","items":[{"name":"감탄떡볶이발안만세시장점","tel":"031-353-7578","addr":"경기도 화성시 향남읍 평리 81-40번지 1층","category":"일반휴게음식 - 스넥"},{"name":"대왕슈즈","tel":"031-353-0578","addr":"경기도 화성시 향남읍 평리 81-40번지","category":"신변잡화 - 신발"}]},{"lat":"37.134087874","long":"126.9104857","items":[{"name":"강남스타일","tel":"031-352-7173","addr":"경기도 화성시 향남읍 평리 30-25번지","category":"보건위생 - 미용원"},{"name":"컴앤폰","tel":"031-354-2886","addr":"경기도 화성시 향남읍 평리 30-25번지","category":"수리서비스 - 사무·통신기기수리"},{"name":"한방왕족발","tel":"031-352-1546","addr":"경기도 화성시 향남읍 평리 30-25번지 1층","category":"일반휴게음식 - 일반한식"}]},{"lat":"37.131638781","long":"126.91277318","items":[{"name":"경수사미용재료","tel":"031-375-9002","addr":"경기도 화성시 향남읍 평리 70-1","category":"보건위생 - 미용재료"},{"name":"부동산(유재홍)","tel":"031-354-8818","addr":"경기도 화성시 향남읍 평리 70-1번지 스마츠빌 1층","category":"회원제형태 - 기타4"},{"name":"센스클럽","tel":"070-8947-4490","addr":"경기도 화성시 향남읍 평리 70-1번지 스마츠빌 1층","category":"의류 - 정장"},{"name":"스마츠고시텔","tel":"","addr":"경기도 화성시 향남읍 평리 70-1번지 스마츠빌 4동","category":"학원 - 독서실"}]},{"lat":"37.131644813","long":"126.90893565","items":[{"name":"고쟁이","tel":"031-000-0000","addr":"경기도 화성시 향남읍 평리 80-9번지","category":"의류 - 내의판매"},{"name":"발안건해","tel":"031-352-3449","addr":"경기도 화성시 향남읍 평리 80-9번지","category":"음료식품 - 농·축·수산품"},{"name":"발안상회","tel":"031-366-6564","addr":"경기도 화성시 향남읍 평리 80-9번지","category":"보건위생 - 화장품"},{"name":"케밥하우스","tel":"031-354-1997","addr":"경기도 화성시 향남읍 평리 80-9번지 2층","category":"일반휴게음식 - 서양음식"}]},{"lat":"37.131807153","long":"126.90912676","items":[{"name":"고향","tel":"031-354-7462","addr":"경기도 화성시 향남읍 평리 80-38번지 2층","category":"일반휴게음식 - 일반한식"}]},{"lat":"37.133753879","long":"126.90970957","items":[{"name":"고향마트","tel":"031-297-6055","addr":"경기도 화성시 향남읍 평리 32-1번지 1층 104호","category":"유통업 영리 - 슈퍼마켓"},{"name":"김밥천국","tel":"031-353-7788","addr":"경기도 화성시 향남읍 평리 32-1","category":"일반휴게음식 - 일반한식"},{"name":"쏭네일","tel":"031-359-9574","addr":"경기도 화성시 향남읍 평리 32-1번지","category":"보건위생 - 피부미용실"},{"name":"아시안푸드","tel":"","addr":"경기도 화성시 향남읍 평리 32-1번지","category":"음료식품 - 농·축·수산품"}]},{"lat":"37.133808444","long":"126.91035099","items":[{"name":"골든타즈마할(Golden taj Mahal)","tel":"070-4255-1786","addr":"경기도 화성시 향남읍 평리 30-23번지 지하1층","category":"일반휴게음식 - 서양음식"},{"name":"왕돼지축산","tel":"","addr":"경기도 화성시 향남읍 평리 30-23번지","category":"음료식품 - 정육점"},{"name":"잭라이브","tel":"031-354-4621","addr":"경기도 화성시 향남읍 평리 30-23번지 지하1층","category":"일반휴게음식 - 서양음식"},{"name":"주식회사 히말리안트레이딩","tel":"","addr":"경기도 화성시 향남읍 평리 30-23번지 지하1층","category":"일반휴게음식 - 일반한식"},{"name":"평리식당","tel":"031-366-3697","addr":"경기도 화성시 향남읍 평리 30-23번지 4층","category":"일반휴게음식 - 일반한식"}]},{"lat":"37.13161014","long":"126.91068002","items":[{"name":"광택외형복원전무세덴화성향남점","tel":"031-352-9170","addr":"경기도 화성시 향남읍 평리 81-72","category":"자동차정비 유지 - 카인테리어"},{"name":"푸켓타이레스토랑","tel":"031-352-5289","addr":"경기도 화성시 향남읍 평리 81-72번지 1층","category":"일반휴게음식 - 서양음식"}]},{"lat":"37.131581695","long":"126.90887946","items":[{"name":"구성DC마트","tel":"03-111-1111","addr":"경기도 화성시 향남읍 평리 80-13번지","category":"신변잡화 - 기타잡화"},{"name":"김해뒷고기식당","tel":"031-353-2119","addr":"경기도 화성시 향남읍 평리 80-13번지","category":"일반휴게음식 - 일반한식"}]},{"lat":"37.129698921","long":"126.9094107","items":[{"name":"국수잔치","tel":"031-353-5727","addr":"경기도 화성시 향남읍 평리 137-9번지 1층 1호","category":"일반휴게음식 - 일반한식"},{"name":"국제유리","tel":"031-353-6204","addr":"경기도 화성시 향남읍 평리 137-9","category":"건축자재 - 유리"},{"name":"팡팡노래연습장","tel":"031-352-0377","addr":"경기도 화성시 향남읍 평리 137-9번지 지층 1-1호","category":"레저업소 - 노 래 방"},{"name":"하나로한의원","tel":"031-353-3390","addr":"경기도 화성시 향남읍 평리 137-9번지 2층","category":"의원 - 한의원"}]},{"lat":"37.133366366","long":"126.90963127","items":[{"name":"굿마트 화성발안점","tel":"031-353-1802","addr":"경기도 화성시 향남읍 평리 35-14번지 외2필지 1층 102호","category":"유통업 영리 - 슈퍼마켓"},{"name":"브릴리언트","tel":"031-252-2763","addr":"경기도 화성시 향남읍 평리 35-14번지","category":"자동차정비 유지 - 자동차부품"},{"name":"비디하우스 무슬림미트","tel":"031-353-4282","addr":"경기도 화성시 향남읍 평리 35-14번지 지하1층","category":"음료식품 - 정육점"},{"name":"세븐일레븐화성발안점","tel":"031-1577-0711","addr":"경기도 화성시 향남읍 평리 35-14번지 외 2필지 1층 102호","category":"유통업 영리 - 편 의 점"},{"name":"수정매점","tel":"031-353-1802","addr":"경기도 화성시 향남읍 평리 35-14번지 2층","category":"음료식품 - 기타음료식품"},{"name":"케이스위스 발안점","tel":"031-352-5354","addr":"경기도 화성시 향남읍 평리 35-14번지","category":"의류 - 스포츠의류"},{"name":"파리바게트 화성발안점","tel":"031-359-8644","addr":"경기도 화성시 향남읍 평리 35-14번지 1층","category":"음료식품 - 제과점"},{"name":"향남사우나","tel":"031-353-1802","addr":"경기도 화성시 향남읍 평리 35-14번지 외2필지","category":"보건위생 - 사우나"},{"name":"향남샵(화장품판매)","tel":"031-352-7393","addr":"경기도 화성시 향남읍 평리 35-14번지 104호","category":"보건위생 - 화장품"},{"name":"향남스파 내 매점","tel":"031-353-1802","addr":"경기도 화성시 향남읍 평리 35-14번지","category":"음료식품 - 기타음료식품"},{"name":"향남스파랜드(향남사우나찜질방)","tel":"031-353-1802","addr":"경기도 화성시 향남읍 평리 35-14","category":"보건위생 - 사우나"}]},{"lat":"37.13219332","long":"126.90751699","items":[{"name":"그리로","tel":"031-353-3773","addr":"경기도 화성시 향남읍 평리 101-9번지","category":"일반휴게음식 - 일반한식"},{"name":"두여자","tel":"070-8947-4490","addr":"경기도 화성시 향남읍 평리 101-9번지 1층","category":"일반휴게음식 - 일반한식"},{"name":"스타노래방","tel":"031-353-5432","addr":"경기도 화성시 향남읍 평리 101-9번지","category":"레저업소 - 노 래 방"},{"name":"올인소주방","tel":"031-352-9440","addr":"경기도 화성시 향남읍 평리 101-9번지","category":"일반휴게음식 - 일반한식"}]},{"lat":"37.130977058","long":"126.90770983","items":[{"name":"금다방","tel":"031-353-8936","addr":"경기도 화성시 향남읍 평리 118-22번지","category":"일반휴게음식 - 서양음식"},{"name":"나들목까페","tel":"031-353-3863","addr":"경기도 화성시 향남읍 평리 118-22번지","category":"일반휴게음식 - 일반한식"}]},{"lat":"37.131522326","long":"126.91367362","items":[{"name":"금성열쇠","tel":"031-353-5513","addr":"경기도 화성시 향남읍 평리 68-5번지 이레하우스 1동 101호","category":"건축자재 - 목재·석재·철물"},{"name":"항아리보쌈","tel":"031-353-3581","addr":"경기도 화성시 향남읍 평리 68-5번지 1동 102호","category":"일반휴게음식 - 일반한식"}]},{"lat":"37.131699098","long":"126.90921693","items":[{"name":"기찬두부","tel":"031-353-6061","addr":"경기도 화성시 향남읍 평리 80-1","category":"음료식품 - 기타음료식품"},{"name":"진영맛집","tel":"031-353-6644","addr":"경기도 화성시 향남읍 평리 80-1번지","category":"일반휴게음식 - 일반한식"}]},{"lat":"37.132888063","long":"126.90868652","items":[{"name":"김관호한의원","tel":"031-353-8275","addr":"경기도 화성시 향남읍 평리 86-2번지","category":"의원 - 한의원"}]},{"lat":"37.131193931","long":"126.90848606","items":[{"name":"김밥매니아","tel":"031-354-0320","addr":"경기도 화성시 향남읍 평리 80-5번지","category":"일반휴게음식 - 일반한식"},{"name":"대박타운","tel":"031-354-7063","addr":"경기도 화성시 향남읍 평리 80-5번지 에쓰뻬랑스 104호","category":"의류 - 정장"},{"name":"리틀양꼬치","tel":"","addr":"경기도 화성시 향남읍 평리 80-5번지 에쓰뻬랑스 101호","category":"일반휴게음식 - 중국식"},{"name":"맥향원 만두집","tel":"031-227-2163","addr":"경기도 화성시 향남읍 평리 80-5번지 에쓰뻬랑스 105호","category":"일반휴게음식 - 일반한식"},{"name":"세븐일레븐.발안에스뻬랑스점","tel":"02-2127-5857","addr":"경기도 화성시 향남읍 평리 80-5번지 에스뻬랑스 104호","category":"유통업 영리 - 편 의 점"},{"name":"신발가게(B. S)","tel":"031-352-0751","addr":"경기도 화성시 향남읍 평리 80-5번지 (에쓰뻬랑스101호,평리80-5외10필지)","category":"신변잡화 - 제화"},{"name":"썬","tel":"031-352-2636","addr":"경기도 화성시 향남읍 평리 80-5번지 에쓰뻬랑스 501호","category":"보건위생 - 화장품"},{"name":"썬","tel":"031-352-2636","addr":"경기도 화성시 향남읍 평리 80-5번지 에쓰뻬랑스 607호","category":"보건위생 - 화장품"},{"name":"아닐사레스토랑","tel":"","addr":"경기도 화성시 향남읍 평리 80-5번지 에쓰뻬랑스 108호","category":"일반휴게음식 - 서양음식"},{"name":"원앙금침","tel":"031-8059-2859","addr":"경기도 화성시 향남읍 평리 80-5번지 에쓰뻬랑스 103호","category":"직물 - 침구·수예점"},{"name":"참숯양꼬치","tel":"070-8947-4490","addr":"경기도 화성시 향남읍 평리 80-5번지 에쓰뻬랑스 1층 106호","category":"일반휴게음식 - 중국식"},{"name":"타이스파","tel":"031-352-1673","addr":"경기도 화성시 향남읍 평리 80-5번지 에쓰뻬랑스 615호","category":"신변잡화 - 기타잡화"}]},{"lat":"37.13192334","long":"126.90793372","items":[{"name":"김창숙헤어클럽","tel":"031-353-5397","addr":"경기도 화성시 향남읍 평리 109-6","category":"보건위생 - 미용원"},{"name":"프랜드편의점","tel":"031-352-1673","addr":"경기도 화성시 향남읍 평리 109-6번지","category":"유통업 영리 - 편 의 점"}]},{"lat":"37.132617129","long":"126.90791034","items":[{"name":"까웅낀텍","tel":"","addr":"경기도 화성시 향남읍 평리 90-7번지 2층 일부","category":"일반휴게음식 - 일반한식"},{"name":"세븐","tel":"031-352-6515","addr":"경기도 화성시 향남읍 평리 90-7번지","category":"일반휴게음식 - 일반한식"},{"name":"소주대출","tel":"070-8947-4490","addr":"경기도 화성시 향남읍 평리 90-7번지 1층","category":"일반휴게음식 - 일반한식"},{"name":"탄바이얀 (TANBAYAN) 2","tel":"","addr":"경기도 화성시 향남읍 평리 90-7번지","category":"음료식품 - 기타음료식품"},{"name":"하트다방","tel":"031-111-1111","addr":"경기도 화성시 향남읍 평리 90-7번지 1층","category":"일반휴게음식 - 서양음식"}]},{"lat":"37.131449766","long":"126.9130435","items":[{"name":"깔구덮구","tel":"031-352-4476","addr":"경기도 화성시 향남읍 평리 69-8번지","category":"직물 - 침구·수예점"},{"name":"네네치킨","tel":"031-366-6200","addr":"경기도 화성시 향남읍 평리 69-8번지 B-6호","category":"일반휴게음식 - 스넥"},{"name":"대산스포츠","tel":"031-352-8379","addr":"경기도 화성시 향남읍 평리 69-8번지","category":"레져용품 - 스포츠·레져용품"},{"name":"라미야전자담배화성점","tel":"031-353-0666","addr":"경기도 화성시 향남읍 평리 69-8번지 B동 102호","category":"기타 - 기타 전문점"},{"name":"미래중고알뜰매장","tel":"031-354-9656","addr":"경기도 화성시 향남읍 평리 69-8번지","category":"전기제품 - 가전제품"},{"name":"오성대리","tel":"","addr":"경기도 화성시 향남읍 평리 69-8번지 외2필지","category":"보건위생 - 기타대인서비스"},{"name":"중앙낚시","tel":"031-353-5764","addr":"경기도 화성시 향남읍 평리 69-8번지 B동 1호","category":"레져용품 - 스포츠·레져용품"},{"name":"진바이크","tel":"031-8059-5282","addr":"경기도 화성시 향남읍 평리 69-8번지","category":"레져용품 - 스포츠·레져용품"}]},{"lat":"37.131473898","long":"126.90929598","items":[{"name":"나비까페","tel":"070-6789-1088","addr":"경기도 화성시 향남읍 평리 80-19번지 1층 2호","category":"일반휴게음식 - 서양음식"},{"name":"주면야주","tel":"","addr":"경기도 화성시 향남읍 평리 80-19번지","category":"일반휴게음식 - 일반한식"}]},{"lat":"37.130806327","long":"126.90829523","items":[{"name":"나비다방","tel":"031-352-1180","addr":"경기도 화성시 향남읍 평리 78-2번지 1층","category":"일반휴게음식 - 서양음식"},{"name":"뜨락식당","tel":"031-353-1507","addr":"경기도 화성시 향남읍 평리 78-2번지 1층","category":"일반휴게음식 - 일반한식"},{"name":"아지트","tel":"031-352-1609","addr":"경기도 화성시 향남읍 평리 78-2번지","category":"일반휴게음식 - 일반한식"}]},{"lat":"37.134394476","long":"126.91080044","items":[{"name":"나이스가이남성커트전문점","tel":"031-8059-3189","addr":"경기도 화성시 향남읍 평리 30-40번지 1층","category":"보건위생 - 미용원"}]},{"lat":"37.130725412","long":"126.9085204","items":[{"name":"낙원","tel":"031-353-8876","addr":"경기도 화성시 향남읍 평리 77번지","category":"일반휴게음식 - 일반한식"},{"name":"두루터","tel":"031-352-7302","addr":"경기도 화성시 향남읍 평리 77번지","category":"일반휴게음식 - 일반한식"}]},{"lat":"37.130338639","long":"126.90937615","items":[{"name":"낙타","tel":"031-353-2116","addr":"경기도 화성시 향남읍 평리 76-11번지","category":"일반휴게음식 - 일반한식"},{"name":"코원어린이집[아이행복]","tel":"031-353-8293","addr":"경기도 화성시 향남읍 평리 76-11번지","category":"학원 - 유아원"}]},{"lat":"37.132032938","long":"126.90979046","items":[{"name":"남도포차","tel":"070-8947-4490","addr":"경기도 화성시 향남읍 평리 82-16번지 1층","category":"일반휴게음식 - 일반한식"},{"name":"백악관","tel":"031-353-5602","addr":"경기도 화성시 향남읍 평리 82-16번지 2층","category":"보건위생 - 화장품"},{"name":"애경","tel":"031-353-5602","addr":"경기도 화성시 향남읍 평리 82-16번지","category":"보건위생 - 화장품"}]},{"lat":"37.132473599","long":"126.90870955","items":[{"name":"내고향식품","tel":"031-1111-111","addr":"경기도 화성시 향남읍 평리 110-3번지","category":"음료식품 - 기타음료식품"},{"name":"콤마","tel":"031-353-9924","addr":"경기도 화성시 향남읍 평리 110-3번지","category":"서적문구 - 문구용품"},{"name":"피자스쿨발안점","tel":"031-8059-8338","addr":"경기도 화성시 향남읍 평리 110-3","category":"일반휴게음식 - 서양음식"}]},{"lat":"37.128895726","long":"126.90782497","items":[{"name":"넝쿨공방","tel":"070-3820-9290","addr":"경기도 화성시 향남읍 평리 161-1번지 3호","category":"문화.취미 - 문화취미기타"},{"name":"네일은","tel":"","addr":"경기도 화성시 향남읍 평리 161-1번지 205호","category":"보건위생 - 피부미용실"},{"name":"도기살롱","tel":"031-000-0000","addr":"경기도 화성시 향남읍 평리 161-1번지 에이스존 1층 112호","category":"문화.취미 - 애완동물"},{"name":"동인정육식당","tel":"031--353-7316","addr":"경기도 화성시 향남읍 평리 161-1번지 에이스존 106,107호","category":"일반휴게음식 - 일반한식"},{"name":"드론탑","tel":"031-353-8994","addr":"경기도 화성시 향남읍 평리 161-1번지 301-1호","category":"광학제품 - 기타광학제품"},{"name":"마실방","tel":"031-377-1002","addr":"경기도 화성시 향남읍 평리 161-1번지 108호","category":"의류 - 내의판매"},{"name":"발안점머리염색체험방","tel":"031-8057-5965","addr":"경기도 화성시 향남읍 평리 161-1번지 에이스존 109호","category":"보건위생 - 화장품"},{"name":"야야코","tel":"031-352-1723","addr":"경기도 화성시 향남읍 평리 161-1번지 1층103,104,105호","category":"일반휴게음식 - 서양음식"},{"name":"토속미꾸라지매운탕","tel":"031-252-3474","addr":"경기도 화성시 향남읍 평리 161-1번지 1층","category":"일반휴게음식 - 일반한식"},{"name":"트라이엄프발안점","tel":"031-354-4689","addr":"경기도 화성시 향남읍 평리 161-1번지 에이스존 109호","category":"의류 - 내의판매"}]},{"lat":"37.132311526","long":"126.90885605","items":[{"name":"네팔식당","tel":"031-366-3616","addr":"경기도 화성시 향남읍 평리 85-5번지","category":"일반휴게음식 - 일반한식"},{"name":"파도수산","tel":"","addr":"경기도 화성시 향남읍 평리 85-5번지","category":"음료식품 - 농·축·수산품"}]},{"lat":"37.13131202","long":"126.90969006","items":[{"name":"노다지시골밥상","tel":"031-366-6197","addr":"경기도 화성시 향남읍 평리 81-124번지","category":"일반휴게음식 - 일반한식"},{"name":"화성농약사","tel":"031-352-4780","addr":"경기도 화성시 향남읍 평리 81-124번지","category":"농업 - 비료,사료,종자"}]},{"lat":"37.13430402","long":"126.91035038","items":[{"name":"노루사","tel":"031-354-1161","addr":"경기도 화성시 향남읍 평리 30-36번지","category":"음료식품 - 농·축·수산품"},{"name":"발안인도네시아","tel":"070-8844-0340","addr":"경기도 화성시 향남읍 평리 30-36번지 2층","category":"일반휴게음식 - 일반한식"},{"name":"채비","tel":"050-5299-3401","addr":"경기도 화성시 향남읍 평리 30-36번지 2동","category":"의류 - 정장"},{"name":"파도음향영상이벤트","tel":"031-354-4789","addr":"경기도 화성시 향남읍 평리 30-36번지 1층","category":"레져용품 - 악기점"},{"name":"포린푸드마트","tel":"031-0000-0000","addr":"경기도 화성시 향남읍 평리 30-36번지","category":"유통업 영리 - 슈퍼마켓"}]},{"lat":"37.130670611","long":"126.90759767","items":[{"name":"농장골","tel":"031-8059-1531","addr":"경기도 화성시 향남읍 평리 121-5번지","category":"일반휴게음식 - 일반한식"},{"name":"딸기노래연습장","tel":"070-8947-4490","addr":"경기도 화성시 향남읍 평리 121-5번지 라임테라스 2층 202호","category":"레저업소 - 노 래 방"},{"name":"에스비에스(SBS)당구클럽","tel":"031-354-3550","addr":"경기도 화성시 향남읍 평리 121-5번지 3층","category":"레저업소 - 당 구 장"},{"name":"황실체형관리","tel":"031-359-8821","addr":"경기도 화성시 향남읍 평리 121-5번지 지하1층(라임테라스)","category":"보건위생 - 피부미용실"}]},{"lat":"37.131581408","long":"126.90851934","items":[{"name":"뉴월드마트 형제축산","tel":"031-8059-5815","addr":"경기도 화성시 향남읍 평리 80-36번지 아시아나빌딩 1층","category":"음료식품 - 정육점"},{"name":"대박축산","tel":"","addr":"경기도 화성시 향남읍 평리 80-36번지 아시아나빌딩 1층 3,4호","category":"음료식품 - 정육점"},{"name":"발안고기부페","tel":"031-354-9934","addr":"경기도 화성시 향남읍 평리 80-36번지 아시아나빌딩 1층 일부","category":"일반휴게음식 - 일반한식"},{"name":"발안하이리빙텔","tel":"031-359-9272","addr":"경기도 화성시 향남읍 평리 80-36번지 5층","category":"학원 - 독서실"},{"name":"투투노래연습장","tel":"031-352-2955","addr":"경기도 화성시 향남읍 평리 80-36번지 아시아나빌딩 202호","category":"레저업소 - 노 래 방"}]},{"lat":"37.132310166","long":"126.90715672","items":[{"name":"늑대카페","tel":"070-8947-4490","addr":"경기도 화성시 향남읍 평리 99-3번지 1층 일부","category":"일반휴게음식 - 주점"}]},{"lat":"37.133194571","long":"126.90887746","items":[{"name":"늘푸른축산","tel":"031-353-0374","addr":"경기도 화성시 향남읍 평리 88-3","category":"음료식품 - 정육점"},{"name":"채플린II노래연습장","tel":"031-366-4541","addr":"경기도 화성시 향남읍 평리 88-3번지 향남빌딩 302호","category":"레저업소 - 노 래 방"},{"name":"채플린노래연습장","tel":"031-354-4541","addr":"경기도 화성시 향남읍 평리 88-3번지 향남빌딩 301호","category":"레저업소 - 노 래 방"},{"name":"채플린당구장","tel":"031-354-4543","addr":"경기도 화성시 향남읍 평리 88-3번지 향남빌딩 2층","category":"레저업소 - 당 구 장"},{"name":"채플린레스토랑호프","tel":"031-366-5392","addr":"경기도 화성시 향남읍 평리 88-3","category":"일반휴게음식 - 서양음식"}]},{"lat":"37.131753028","long":"126.90904805","items":[{"name":"다정노래연습장","tel":"031-352-1252","addr":"경기도 화성시 향남읍 평리 80-8번지","category":"레저업소 - 노 래 방"},{"name":"베이징","tel":"070-8621-6886","addr":"경기도 화성시 향남읍 평리 80-8번지","category":"레저업소 - 헬스클럽"}]},{"lat":"37.129257096","long":"126.90901737","items":[{"name":"대건약국","tel":"031-352-4242","addr":"경기도 화성시 향남읍 평리 137-21번지","category":"약국 - 약국"}]},{"lat":"37.132087371","long":"126.91026305","items":[{"name":"대박수산","tel":"031-223-4048","addr":"경기도 화성시 향남읍 평리 81-19번지 2층","category":"음료식품 - 농·축·수산품"},{"name":"한영주유소","tel":"031-353-3570","addr":"경기도 화성시 향남읍 평리 81-19번지","category":"연료판매점 - 주유소"}]},{"lat":"37.131832674","long":"126.9072361","items":[{"name":"대성인터내셔널","tel":"031-354-6183","addr":"경기도 화성시 향남읍 평리 104-7번지","category":"신변잡화 - 기타잡화"},{"name":"서울정육점","tel":"031-352-3752","addr":"경기도 화성시 향남읍 평리 104-7","category":"음료식품 - 정육점"},{"name":"연변보신탕","tel":"031-366-0428","addr":"경기도 화성시 향남읍 평리 104-7번지","category":"일반휴게음식 - 일반한식"},{"name":"원마트","tel":"","addr":"경기도 화성시 향남읍 평리 104-7번지","category":"유통업 영리 - 슈퍼마켓"}]},{"lat":"37.129311798","long":"126.90982755","items":[{"name":"대신조경","tel":"031-352-2336","addr":"경기도 화성시 향남읍 평리 137-12","category":"건축자재 - 인테리어전문"}]},{"lat":"37.131526435","long":"126.90738278","items":[{"name":"대지다방","tel":"031-353-0257","addr":"경기도 화성시 향남읍 평리 106-6번지","category":"일반휴게음식 - 서양음식"},{"name":"스마일다방","tel":"070-8947-4490","addr":"경기도 화성시 향남읍 평리 106-6번지 지하1층","category":"일반휴게음식 - 서양음식"},{"name":"원앙새","tel":"031-366-0472","addr":"경기도 화성시 향남읍 평리 106-6번지","category":"일반휴게음식 - 일반한식"}]},{"lat":"37.129977962","long":"126.90905024","items":[{"name":"대천매운탕","tel":"031-354-0687","addr":"경기도 화성시 향남읍 평리 131-14번지","category":"일반휴게음식 - 일반한식"},{"name":"별궁카페","tel":"031-366-0790","addr":"경기도 화성시 향남읍 평리 131-14번지 1층","category":"일반휴게음식 - 일반한식"},{"name":"조벤다","tel":"","addr":"경기도 화성시 향남읍 평리 131-14번지","category":"의류 - 정장"}]},{"lat":"37.132807316","long":"126.90912553","items":[{"name":"더블유","tel":"031-354-1522","addr":"경기도 화성시 향남읍 평리 86-1번지","category":"신변잡화 - 액세서리"},{"name":"발안터미널약국","tel":"031-354-8873","addr":"경기도 화성시 향남읍 평리 86-1번지","category":"약국 - 약국"},{"name":"월드미트(world meat)","tel":"031-111-1111","addr":"경기도 화성시 향남읍 평리 86-1번지 이편한치과 3호","category":"음료식품 - 정육점"},{"name":"주식회사 논곡아시아트레이더스","tel":"02-000-0000","addr":"경기도 화성시 향남읍 평리 86-1번지 이편한치과 1층 1호","category":"음료식품 - 기타음료식품"},{"name":"큰맘할매순대국","tel":"070-8962-5778","addr":"경기도 화성시 향남읍 평리 86-1번지 1층","category":"일반휴게음식 - 일반한식"},{"name":"핸섬보이","tel":"070-4177-2796","addr":"경기도 화성시 향남읍 평리 86-1번지","category":"보건위생 - 미용원"}]},{"lat":"37.129004427","long":"126.90854504","items":[{"name":"동원세차장","tel":"031-353-1817","addr":"경기도 화성시 향남읍 평리 137-19번지","category":"자동차정비 유지 - 세차장"}]},{"lat":"37.130752641","long":"126.90876795","items":[{"name":"동현까페","tel":"070-8947-4490","addr":"경기도 화성시 향남읍 평리 81-7번지","category":"일반휴게음식 - 일반한식"},{"name":"여원카페","tel":"031-352-8998","addr":"경기도 화성시 향남읍 평리 81-7번지 1층 일부","category":"일반휴게음식 - 일반한식"}]},{"lat":"37.132221617","long":"126.90910374","items":[{"name":"동현카페","tel":"031-366-1155","addr":"경기도 화성시 향남읍 평리 85-6번지","category":"일반휴게음식 - 주점"}]},{"lat":"37.133916262","long":"126.90995696","items":[{"name":"둘군(DULGUUN)","tel":"","addr":"경기도 화성시 향남읍 평리 31-1번지","category":"일반휴게음식 - 서양음식"},{"name":"발안왕파전","tel":"031-353-5929","addr":"경기도 화성시 향남읍 평리 31-1번지","category":"일반휴게음식 - 일반한식"},{"name":"발안타일","tel":"031-353-1205","addr":"경기도 화성시 향남읍 평리 31-1번지","category":"건축자재 - 기타건축자재"},{"name":"쿠아타이","tel":"031-258-7524","addr":"경기도 화성시 향남읍 평리 31-1번지 2층","category":"일반휴게음식 - 서양음식"}]},{"lat":"37.130780436","long":"126.90973572","items":[{"name":"둘마니치킨발안점","tel":"031-353-9912","addr":"경기도 화성시 향남읍 평리 76-26번지","category":"일반휴게음식 - 스넥"},{"name":"중국식품","tel":"031-352-4040","addr":"경기도 화성시 향남읍 평리 76-26번지 1층 A호","category":"유통업 영리 - 슈퍼마켓"}]},{"lat":"37.131220567","long":"126.90799086","items":[{"name":"둥지까페","tel":"031-366-2632","addr":"경기도 화성시 향남읍 평리 118-13번지","category":"일반휴게음식 - 일반한식"},{"name":"러브커피숍","tel":"031-352-2029","addr":"경기도 화성시 향남읍 평리 118-13번지 2층 일부","category":"일반휴게음식 - 서양음식"},{"name":"장성인테리어","tel":"031-234-5678","addr":"경기도 화성시 향남읍 평리 118-13번지 2층","category":"건축자재 - 인테리어전문"}]},{"lat":"37.130950297","long":"126.90804747","items":[{"name":"또올래","tel":"031-352-6278","addr":"경기도 화성시 향남읍 평리 81-34번지 1층","category":"일반휴게음식 - 일반한식"},{"name":"미팅카페","tel":"031-352-0078","addr":"경기도 화성시 향남읍 평리 81-34번지","category":"일반휴게음식 - 일반한식"}]},{"lat":"37.132351485","long":"126.91393149","items":[{"name":"뚱이네 공방","tel":"031-293-2957","addr":"경기도 화성시 향남읍 평리 61-10번지 향남맨션 나동 501호","category":"문화.취미 - 화랑"}]},{"lat":"37.131284634","long":"126.90923994","items":[{"name":"뜨는다방","tel":"031-366-6122","addr":"경기도 화성시 향남읍 평리 81-42번지 2층","category":"일반휴게음식 - 서양음식"},{"name":"미스터컷트점","tel":"070-7074-4116","addr":"경기도 화성시 향남읍 평리 81-42번지 1층 1호","category":"보건위생 - 이용원"},{"name":"약속다방","tel":"031-354-4141","addr":"경기도 화성시 향남읍 평리 81-42번지 2층","category":"일반휴게음식 - 서양음식"},{"name":"윙크카페","tel":"031-359-8717","addr":"경기도 화성시 향남읍 평리 81-42번지 104,105","category":"일반휴게음식 - 서양음식"},{"name":"터미널통닭","tel":"031-353-8749","addr":"경기도 화성시 향남읍 평리 81-42번지","category":"일반휴게음식 - 스넥"}]},{"lat":"37.132418428","long":"126.90732539","items":[{"name":"라니마라탕","tel":"031-354-3213","addr":"경기도 화성시 향남읍 평리 99-2번지 1층","category":"일반휴게음식 - 중국식"}]},{"lat":"37.130472335","long":"126.90754165","items":[{"name":"라벤다테라스","tel":"031-353-0677","addr":"경기도 화성시 향남읍 평리 122-1","category":"학원 - 독서실"},{"name":"씨앤비","tel":"031-234-5678","addr":"경기도 화성시 향남읍 평리 122-1번지","category":"일반휴게음식 - 일반한식"},{"name":"오페라노래연습장","tel":"031-354-3771","addr":"경기도 화성시 향남읍 평리 122-1번지 라벤다테라스빌딩 301호","category":"레저업소 - 노 래 방"},{"name":"포유25발안2호점","tel":"031-352-1613","addr":"경기도 화성시 향남읍 평리 122-1번지 라벤다테라스1층101호102호","category":"유통업 영리 - 슈퍼마켓"}]},{"lat":"37.131609233","long":"126.90952089","items":[{"name":"라이컨비니언스스토어(Lye convenience sto","tel":"070-4042-6438","addr":"경기도 화성시 향남읍 평리 81-57번지","category":"유통업 영리 - 슈퍼마켓"},{"name":"몽로종점","tel":"","addr":"경기도 화성시 향남읍 평리 81-57번지 2층","category":"일반휴게음식 - 중국식"},{"name":"뮤직뱅크","tel":"031-352-6446","addr":"경기도 화성시 향남읍 평리 81-57번지","category":"레저업소 - 노 래 방"},{"name":"뮤직뱅크노래연습장","tel":"031-359-9370","addr":"경기도 화성시 향남읍 평리 81-57번지 4층","category":"레저업소 - 노 래 방"},{"name":"샤흐리삽스","tel":"031-000-0000","addr":"경기도 화성시 향남읍 평리 81-57번지","category":"일반휴게음식 - 서양음식"},{"name":"야샹거","tel":"031-352-3885","addr":"경기도 화성시 향남읍 평리 81-57번지 1층","category":"일반휴게음식 - 일반한식"}]},{"lat":"37.131420296","long":"126.90988124","items":[{"name":"라이프축산물정육도매시장","tel":"031-353-6680","addr":"경기도 화성시 향남읍 평리 81-49번지","category":"음료식품 - 정육점"}]},{"lat":"37.132193726","long":"126.90802341","items":[{"name":"랄리구라스 스포츠 하우스","tel":"031-999-8888","addr":"경기도 화성시 향남읍 평리 109-11번지 2층","category":"레저업소 - 당 구 장"}]},{"lat":"37.131887657","long":"126.90838391","items":[{"name":"랄리구라스레스토랑","tel":"031-8059-3125","addr":"경기도 화성시 향남읍 평리 85-3번지 2층","category":"일반휴게음식 - 서양음식"},{"name":"발안이불","tel":"031-111-1111","addr":"경기도 화성시 향남읍 평리 85-3번지","category":"직물 - 침구·수예점"},{"name":"보떼 발안만세점","tel":"031-353-9700","addr":"경기도 화성시 향남읍 평리 85-3번지","category":"보건위생 - 화장품"},{"name":"빤쮸가게","tel":"031-366-6564","addr":"경기도 화성시 향남읍 평리 85-3","category":"의류 - 내의판매"}]},{"lat":"37.132060822","long":"126.91088204","items":[{"name":"럭셔리 뷰티향남점","tel":"031-353-8825","addr":"경기도 화성시 향남읍 평리 81-70번지 발안중앙빌딩 6층 2호","category":"보건위생 - 화장품"},{"name":"럭셔리뷰티 (김정단)","tel":"031-353-8825","addr":"경기도 화성시 향남읍 평리 81-70번지 발안중앙빌딩 602호","category":"보건위생 - 화장품"},{"name":"럭셔리뷰티향남점","tel":"031-000-0000","addr":"경기도 화성시 향남읍 평리 81-70번지 중앙빌딩 602호","category":"보건위생 - 화장품"},{"name":"마일드","tel":"031-354-8798","addr":"경기도 화성시 향남읍 평리 81-70번지 중앙빌딩 204호","category":"보건위생 - 피부미용실"},{"name":"발안종합동물병원","tel":"031-353-0213","addr":"경기도 화성시 향남읍 평리 81-70번지","category":"기타의료기관 - 동물병원"},{"name":"오휘 발안점","tel":"031-353-8825","addr":"경기도 화성시 향남읍 평리 81-70번지 중앙빌딩 602호","category":"보건위생 - 화장품"},{"name":"오휘 발안점","tel":"031-353-8825","addr":"경기도 화성시 향남읍 평리 81-70번지 발안중앙빌딩 602호","category":"보건위생 - 화장품"},{"name":"오휘발안점","tel":"031-353-8825","addr":"경기도 화성시 향남읍 평리 81-70번지 발안중앙빌딩 602호","category":"보건위생 - 화장품"},{"name":"오휘발안점","tel":"031-366-0628","addr":"경기도 화성시 향남읍 평리 81-70번지 발안중앙빌딩 602호","category":"보건위생 - 화장품"},{"name":"오휘발안점","tel":"031-352-8825","addr":"경기도 화성시 향남읍 평리 81-70번지 발안중앙빌딩6층, 평리81-70","category":"보건위생 - 화장품"},{"name":"오휘발안점","tel":"031-353-8825","addr":"경기도 화성시 향남읍 평리 81-70번지 (발안중앙빌딩602호,평리81-70)","category":"보건위생 - 화장품"},{"name":"오휘발안점","tel":"031-353-8825","addr":"경기도 화성시 향남읍 평리 81-70번지 발안중앙빌딩 602호","category":"보건위생 - 화장품"},{"name":"오휘발안점","tel":"031-353-8825","addr":"경기도 화성시 향남읍 평리 81-70번지 발안중앙빌딩 602호","category":"보건위생 - 화장품"},{"name":"오휘발안점 (이선미)","tel":"","addr":"경기도 화성시 향남읍 평리 81-70번지 중앙빌딩 602호","category":"보건위생 - 화장품"},{"name":"오휘발안점(송지선)","tel":"031-353-5077","addr":"경기도 화성시 향남읍 평리 81-70번지 중앙빌딩 602호","category":"보건위생 - 화장품"},{"name":"이편한치과의원","tel":"031-353-2842","addr":"경기도 화성시 향남읍 평리 81-70번지 발안중앙빌딩 302호","category":"의원 - 치과의원"},{"name":"카페아르모니아","tel":"031-352-3689","addr":"경기도 화성시 향남읍 평리 81-70번지 1층 102호 ,103,104호","category":"일반휴게음식 - 서양음식"},{"name":"하하호호아동발달센터","tel":"070-8803-2277","addr":"경기도 화성시 향남읍 평리 81-70번지 중앙빌딩 3동 301층","category":"학원 - 기타 교육기관"}]},{"lat":"37.131582546","long":"126.90995982","items":[{"name":"롯데리아 화성발안점","tel":"031-352-9382","addr":"경기도 화성시 향남읍 평리 81-88번지","category":"일반휴게음식 - 서양음식"},{"name":"발안상사","tel":"031-353-2672","addr":"경기도 화성시 향남읍 평리 81-88번지","category":"회원제형태 - 레져업소"},{"name":"엔제리너스 화성발안점","tel":"031-352-9396","addr":"경기도 화성시 향남읍 평리 81-88번지 1층","category":"일반휴게음식 - 서양음식"},{"name":"우리가족치과의원","tel":"031-8059-2428","addr":"경기도 화성시 향남읍 평리 81-88번지 301호","category":"의원 - 치과의원"},{"name":"웅이텔레콤","tel":"031-8047-0391","addr":"경기도 화성시 향남읍 평리 81-88번지 1층 102호","category":"사무통신 - 통신기기"},{"name":"하얀얼굴","tel":"031-354-6321","addr":"경기도 화성시 향남읍 평리 81-88번지","category":"회원제형태 - 기타4"},{"name":"한빛약국","tel":"031-353-3823","addr":"경기도 화성시 향남읍 평리 81-88번지 1층","category":"약국 - 약국"}]},{"lat":"37.131419488","long":"126.90885715","items":[{"name":"루나","tel":"031-352-8276","addr":"경기도 화성시 향남읍 평리 80-3번지","category":"의류 - 정장"}]},{"lat":"37.133582838","long":"126.90991235","items":[{"name":"루비스","tel":"031-366-5416","addr":"경기도 화성시 향남읍 평리 30-4번지","category":"의류 - 정장"},{"name":"사마르칸 카페","tel":"031-353-4550","addr":"경기도 화성시 향남읍 평리 30-4번지","category":"일반휴게음식 - 서양음식"},{"name":"애플노래연습장","tel":"031-352-7560","addr":"경기도 화성시 향남읍 평리 30-4번지 2층","category":"레저업소 - 노 래 방"},{"name":"제일식당","tel":"031-353-9870","addr":"경기도 화성시 향남읍 평리 30-4","category":"일반휴게음식 - 일반한식"},{"name":"화성무역","tel":"031-359-9370","addr":"경기도 화성시 향남읍 평리 30-4번지","category":"음료식품 - 기타음료식품"}]},{"lat":"37.131140074","long":"126.90874496","items":[{"name":"리기자헤어샵","tel":"031-353-0501","addr":"경기도 화성시 향남읍 평리 81-45번지","category":"보건위생 - 미용원"}]},{"lat":"37.131366339","long":"126.91001635","items":[{"name":"마녀네일","tel":"070-8947-4490","addr":"경기도 화성시 향남읍 평리 81-30번지 2층","category":"보건위생 - 피부미용실"},{"name":"포근한이불나라","tel":"031-354-5539","addr":"경기도 화성시 향남읍 평리 81-30번지 1층","category":"직물 - 침구·수예점"}]},{"lat":"37.131752563","long":"126.90846286","items":[{"name":"막끌리나","tel":"031-353-7924","addr":"경기도 화성시 향남읍 평리 85-15번지 외1필지 1층","category":"일반휴게음식 - 주점"},{"name":"만세포차","tel":"031-8059-4255","addr":"경기도 화성시 향남읍 평리 85-15번지","category":"일반휴게음식 - 일반한식"}]},{"lat":"37.132581796","long":"126.90879944","items":[{"name":"만세정보통신","tel":"031-8059-6188","addr":"경기도 화성시 향남읍 평리 110-1번지 1층 1호","category":"사무통신 - 통신기기"},{"name":"슈즈홀릭","tel":"031-8059-6188","addr":"경기도 화성시 향남읍 평리 110-1번지 1층 1호","category":"신변잡화 - 신발"},{"name":"토니모리","tel":"080-356-2222","addr":"경기도 화성시 향남읍 평리 110-1번지","category":"보건위생 - 화장품"}]},{"lat":"37.132617372","long":"126.9082142","items":[{"name":"만세폰","tel":"031-353-1256","addr":"경기도 화성시 향남읍 평리 89-15번지 1층 108호","category":"사무통신 - 통신기기"},{"name":"빈티지뱅구제샵","tel":"","addr":"경기도 화성시 향남읍 평리 89-15번지 1층","category":"의류 - 기타의류"},{"name":"야망","tel":"031-354-1131","addr":"경기도 화성시 향남읍 평리 89-15번지 2층","category":"일반휴게음식 - 일반한식"},{"name":"체이스컬트 발안점","tel":"031-495-8794","addr":"경기도 화성시 향남읍 평리 89-15번지 1층 104호","category":"의류 - 정장"},{"name":"한양상회","tel":"031-353-0839","addr":"경기도 화성시 향남읍 평리 89-15번지","category":"음료식품 - 농·축·수산품"}]},{"lat":"37.131671316","long":"126.90827164","items":[{"name":"만세푸드협동조합","tel":"031-351-8333","addr":"경기도 화성시 향남읍 평리 112-3번지 3층","category":"음료식품 - 기타음료식품"},{"name":"세븐당구클럽","tel":"031-354-8689","addr":"경기도 화성시 향남읍 평리 112-3번지","category":"레저업소 - 당 구 장"}]},{"lat":"37.132166469","long":"126.9077421","items":[{"name":"머루와다래","tel":"031-353-7818","addr":"경기도 화성시 향남읍 평리 101-5번지","category":"일반휴게음식 - 칵테일바"},{"name":"메밀꽃","tel":"031-352-4558","addr":"경기도 화성시 향남읍 평리 101-5번지","category":"일반휴게음식 - 일반한식"},{"name":"태양소주방","tel":"031-352-4553","addr":"경기도 화성시 향남읍 평리 101-5번지","category":"일반휴게음식 - 일반한식"},{"name":"태양소주방","tel":"031-352-4553","addr":"경기도 화성시 향남읍 평리 101-5번지 101호","category":"일반휴게음식 - 일반한식"}]},{"lat":"37.131339703","long":"126.9105228","items":[{"name":"머스보이타이","tel":"","addr":"경기도 화성시 향남읍 평리 81-22번지 2층","category":"일반휴게음식 - 서양음식"},{"name":"본죽(발안점)","tel":"031-366-2688","addr":"경기도 화성시 향남읍 평리 81-22번지 1층","category":"일반휴게음식 - 일반한식"},{"name":"에프에이산업","tel":"031-686-9561","addr":"경기도 화성시 향남읍 평리 81-22번지","category":"건축자재 - 기타건축자재"},{"name":"중앙의료기","tel":"031-352-9133","addr":"경기도 화성시 향남읍 평리 81-22번지","category":"보건위생 - 의료용품"},{"name":"한마음동물병원","tel":"031-366-0990","addr":"경기도 화성시 향남읍 평리 81-22","category":"기타의료기관 - 동물병원"},{"name":"화성독일보청기","tel":"","addr":"경기도 화성시 향남읍 평리 81-22번지","category":"보건위생 - 의료용품"}]},{"lat":"37.129895601","long":"126.9074636","items":[{"name":"모텔프리마","tel":"031-359-8995","addr":"경기도 화성시 향남읍 평리 146-4번지","category":"숙박업 - 여관/기타숙박업"}]},{"lat":"37.130914651","long":"126.90854267","items":[{"name":"물망초","tel":"031-353-0338","addr":"경기도 화성시 향남읍 평리 81-54번지","category":"일반휴게음식 - 일반한식"},{"name":"토담","tel":"031-353-9669","addr":"경기도 화성시 향남읍 평리 81-54번지","category":"일반휴게음식 - 일반한식"}]},{"lat":"37.132310971","long":"126.90815831","items":[{"name":"미르정보통신","tel":"031-366-5803","addr":"경기도 화성시 향남읍 평리 109-10번지","category":"사무통신 - 통신기기"},{"name":"왕만두&도나스","tel":"031-1111-1111","addr":"경기도 화성시 향남읍 평리 109-10번지","category":"일반휴게음식 - 스넥"}]},{"lat":"37.133141148","long":"126.90968781","items":[{"name":"미얀마마을","tel":"","addr":"경기도 화성시 향남읍 평리 35-4번지","category":"일반휴게음식 - 일반한식"},{"name":"발안락볼링장","tel":"031-111-1111","addr":"경기도 화성시 향남읍 평리 35-4번지","category":"레저업소 - 볼 링 장"},{"name":"발안매점","tel":"031-353-7200","addr":"경기도 화성시 향남읍 평리 35-4번지 2층","category":"음료식품 - 기타음료식품"},{"name":"에드윈 발안","tel":"02-1111-1111","addr":"경기도 화성시 향남읍 평리 35-4번지 1층 101호","category":"의류 - 정장"},{"name":"홈픽스365(homefix365)","tel":"031-354-8905","addr":"경기도 화성시 향남읍 평리 35-4번지 1층 동편1실","category":"용역 서비스 - 기타용역서비스"}]},{"lat":"37.132338949","long":"126.90935118","items":[{"name":"미인","tel":"070-8947-4490","addr":"경기도 화성시 향남읍 평리 85-10번지 1층 상가","category":"일반휴게음식 - 일반한식"}]},{"lat":"37.131311931","long":"126.90957752","items":[{"name":"민속전집","tel":"031-366-3486","addr":"경기도 화성시 향남읍 평리 81-58번지","category":"일반휴게음식 - 일반한식"}]},{"lat":"37.134222909","long":"126.91032797","items":[{"name":"밀레니엄컴퓨터","tel":"031-353-1956","addr":"경기도 화성시 향남읍 평리 30-8번지","category":"사무통신 - 컴퓨터"},{"name":"서진인쇄","tel":"031-366-6475","addr":"경기도 화성시 향남읍 평리 30-8번지 44","category":"서적문구 - 출판 및 인쇄물"},{"name":"진 아트","tel":"","addr":"경기도 화성시 향남읍 평리 30-8번지","category":"신변잡화 - 액세서리"}]},{"lat":"37.131671226","long":"126.90815911","items":[{"name":"박가네김밥","tel":"031-353-0067","addr":"경기도 화성시 향남읍 평리 112-4","category":"일반휴게음식 - 스넥"}]},{"lat":"37.133673181","long":"126.9102161","items":[{"name":"발리","tel":"031-354-4423","addr":"경기도 화성시 향남읍 평리 30-21번지 2층","category":"보건위생 - 이용원"}]},{"lat":"37.134250282","long":"126.91076685","items":[{"name":"발안 회 수산","tel":"031-353-8438","addr":"경기도 화성시 향남읍 평리 30-20","category":"일반휴게음식 - 일반한식"}]},{"lat":"37.133142359","long":"126.91124086","items":[{"name":"발안F4세탁학원","tel":"031-353-7858","addr":"경기도 화성시 향남읍 평리 81-15번지 3층 301호","category":"학원 - 기능학원"},{"name":"발안식당","tel":"070-8947-4490","addr":"경기도 화성시 향남읍 평리 81-15번지","category":"일반휴게음식 - 일반한식"},{"name":"비현시스템","tel":"031-8059-1323","addr":"경기도 화성시 향남읍 평리 81-15번지 1층","category":"사무통신 - 컴퓨터"},{"name":"주식회사공감디자인","tel":"031-892-9114","addr":"경기도 화성시 향남읍 평리 81-15번지 반석빌딩 3층 301호","category":"서적문구 - 출판 및 인쇄물"},{"name":"착한헤어","tel":"031-352-7338","addr":"경기도 화성시 향남읍 평리 81-15번지 101호","category":"보건위생 - 미용원"},{"name":"태훈전기","tel":"031-353-8431","addr":"경기도 화성시 향남읍 평리 81-15번지","category":"전기제품 - 기타전기제품"}]},{"lat":"37.13139291","long":"126.90943112","items":[{"name":"발안만세협동조합","tel":"070-4422-7005","addr":"경기도 화성시 향남읍 평리 81-51번지 2층","category":"일반휴게음식 - 일반한식"}]},{"lat":"37.133610476","long":"126.91068885","items":[{"name":"발안머홈크마에","tel":"031-366-1622","addr":"경기도 화성시 향남읍 평리 35-1번지 지하1층","category":"일반휴게음식 - 서양음식"},{"name":"보이타이마트 (PLOY THAI)","tel":"070-8171-6701","addr":"경기도 화성시 향남읍 평리 35-1번지 1층 회춘빌딩","category":"유통업 영리 - 슈퍼마켓"},{"name":"뽄르소페아뜨라","tel":"031-366-1622","addr":"경기도 화성시 향남읍 평리 35-1번지 지하1층","category":"일반휴게음식 - 서양음식"},{"name":"수코타이","tel":"031-506-8067","addr":"경기도 화성시 향남읍 평리 35-1번지","category":"일반휴게음식 - 서양음식"}]},{"lat":"37.130582338","long":"126.90990477","items":[{"name":"발안송월다올","tel":"031-352-4118","addr":"경기도 화성시 향남읍 평리 76-3번지","category":"직물 - 옷감·직물"},{"name":"발안화원","tel":"031-352-4111","addr":"경기도 화성시 향남읍 평리 76-3번지","category":"문화.취미 - 화원"}]},{"lat":"37.131977448","long":"126.90798992","items":[{"name":"발안스튜디오","tel":"031-353-2111","addr":"경기도 화성시 향남읍 평리 109-5","category":"광학제품 - 사진관"}]},{"lat":"37.130923598","long":"126.90846389","items":[{"name":"발안인쇄광고","tel":"031-352-5252","addr":"경기도 화성시 향남읍 평리 81-28","category":"서적문구 - 출판 및 인쇄물"},{"name":"왕비","tel":"031-352-4356","addr":"경기도 화성시 향남읍 평리 81-28번지 1층","category":"일반휴게음식 - 일반한식"}]},{"lat":"37.13364554","long":"126.90943961","items":[{"name":"발안장수흑염소","tel":"031-352-7922","addr":"경기도 화성시 향남읍 평리 33/3","category":"건강식품 - 기타건강식품"},{"name":"쌈마을","tel":"031-352-9878","addr":"경기도 화성시 향남읍 평리 33-3번지 1층","category":"일반휴게음식 - 일반한식"},{"name":"향남노래연습장","tel":"070-8947-4490","addr":"경기도 화성시 향남읍 평리 33-3번지","category":"레저업소 - 노 래 방"}]},{"lat":"37.131310852","long":"126.90821582","items":[{"name":"발안점PC존","tel":"","addr":"경기도 화성시 향남읍 평리 118-10번지 2층","category":"레저업소 - 기타레져업소"},{"name":"베트남 HOF & BEER","tel":"031-354-1480","addr":"경기도 화성시 향남읍 평리 118-10번지 1층 101호","category":"일반휴게음식 - 일반한식"},{"name":"샤넬피부샵","tel":"070-4152-3300","addr":"경기도 화성시 향남읍 평리 118-10번지 502호","category":"보건위생 - 피부미용실"},{"name":"신세계당구광장","tel":"031-352-1673","addr":"경기도 화성시 향남읍 평리 118-10번지 5층 501호","category":"레저업소 - 당 구 장"},{"name":"유니베라화성중앙대리점","tel":"031-354-4552","addr":"경기도 화성시 향남읍 평리 118-10번지 회춘프라자 702호","category":"보건위생 - 화장품"},{"name":"자연의원","tel":"031-353-5936","addr":"경기도 화성시 향남읍 평리 118-10번지 회춘프라자 301호","category":"의원 - 의원"},{"name":"하만","tel":"031-297-7327","addr":"경기도 화성시 향남읍 평리 118-10번지 회춘플라자 1층 102호","category":"음료식품 - 정육점"},{"name":"하얀의원","tel":"031-353-7999","addr":"경기도 화성시 향남읍 평리 118-10번지 화춘프라자 302호","category":"의원 - 의원"},{"name":"한누리인테리어","tel":"031-366-3635","addr":"경기도 화성시 향남읍 평리 118-10번지 101호(외7필지회춘프라자)","category":"건축자재 - 인테리어전문"}]},{"lat":"37.132832373","long":"126.91848876","items":[{"name":"발안중학교","tel":"031-8077-2700","addr":"경기도 화성시 향남읍 평리 63-18번지 발안중학교","category":"학원 - 초중고교육기관"}]},{"lat":"37.131527828","long":"126.90912711","items":[{"name":"발안한의원","tel":"031-352-7574","addr":"경기도 화성시 향남읍 평리 80-15번지","category":"의원 - 한의원"}]},{"lat":"37.130581531","long":"126.90888069","items":[{"name":"백년부양꼬치","tel":"070-8970-4016","addr":"경기도 화성시 향남읍 평리 76-18번지","category":"일반휴게음식 - 일반한식"}]},{"lat":"37.130671938","long":"126.90926321","items":[{"name":"별다방","tel":"031-352-5070","addr":"경기도 화성시 향남읍 평리 76-15번지","category":"일반휴게음식 - 서양음식"},{"name":"평양맥주","tel":"070-8947-4490","addr":"경기도 화성시 향남읍 평리 76-15번지 1층","category":"일반휴게음식 - 주점"}]},{"lat":"37.132139058","long":"126.90726947","items":[{"name":"보리","tel":"031-354-5516","addr":"경기도 화성시 향남읍 평리 98-1번지","category":"일반휴게음식 - 일반한식"}]},{"lat":"37.1333661","long":"126.90929365","items":[{"name":"보물마트","tel":"031-354-5419","addr":"경기도 화성시 향남읍 평리 88-8","category":"유통업 영리 - 슈퍼마켓"}]},{"lat":"37.131059194","long":"126.90901515","items":[{"name":"브리즈번","tel":"070-5710-7458","addr":"경기도 화성시 향남읍 평리 81-46번지 지하1층","category":"음료식품 - 제과점"}]},{"lat":"37.130807318","long":"126.90954438","items":[{"name":"비겐의료기 화성홈센터","tel":"031-366-1760","addr":"경기도 화성시 향남읍 평리 76-41번지 2층","category":"보건위생 - 의료용품"},{"name":"서경상회","tel":"031-377-3492","addr":"경기도 화성시 향남읍 평리 76-41번지 4층","category":"음료식품 - 기타음료식품"},{"name":"소람우렁이쌈밥","tel":"031-366-3465","addr":"경기도 화성시 향남읍 평리 76-41번지","category":"일반휴게음식 - 일반한식"},{"name":"품미향","tel":"031-111-1111","addr":"경기도 화성시 향남읍 평리 76-41번지 103호","category":"일반휴게음식 - 중국식"},{"name":"향남한의원","tel":"031-000-0000","addr":"경기도 화성시 향남읍 평리 76-41번지 3층","category":"의원 - 한의원"},{"name":"화성축산물도소매유통센타","tel":"031-353-4363","addr":"경기도 화성시 향남읍 평리 76-41번지","category":"음료식품 - 정육점"}]},{"lat":"37.128978489","long":"126.90992924","items":[{"name":"비너스","tel":"031-354-0157","addr":"경기도 화성시 향남읍 평리 152번지","category":"보건위생 - 화장품"},{"name":"에스통신","tel":"","addr":"경기도 화성시 향남읍 평리 152번지 하나로마트 휴대폰코너","category":"사무통신 - 통신기기"},{"name":"하나로제과점","tel":"","addr":"경기도 화성시 향남읍 평리 152번지 발안농협 1동 1층 일부","category":"음료식품 - 제과점"}]},{"lat":"37.130221334","long":"126.90916248","items":[{"name":"비센가","tel":"031-0000-0000","addr":"경기도 화성시 향남읍 평리 76-37번지 2층","category":"일반휴게음식 - 일반한식"},{"name":"야화","tel":"031-8059-6019","addr":"경기도 화성시 향남읍 평리 76-37번지 1층","category":"일반휴게음식 - 주점"},{"name":"크로바소주타운","tel":"070-8944-3432","addr":"경기도 화성시 향남읍 평리 76-37번지 1층","category":"일반휴게음식 - 주점"},{"name":"크로바소주타운","tel":"031-0000-0000","addr":"경기도 화성시 향남읍 평리 76-37번지 103호","category":"일반휴게음식 - 주점"}]},{"lat":"37.130779161","long":"126.90812646","items":[{"name":"사계절","tel":"031-353-1020","addr":"경기도 화성시 향남읍 평리 78-8","category":"일반휴게음식 - 일반한식"},{"name":"킹호프","tel":"031-000-0000","addr":"경기도 화성시 향남읍 평리 78-8번지 1층","category":"일반휴게음식 - 주점"}]},{"lat":"37.131032757","long":"126.90976918","items":[{"name":"산까치노래연습장","tel":"031-353-7297","addr":"경기도 화성시 향남읍 평리 81-25번지","category":"레저업소 - 노 래 방"},{"name":"삼천리자전거발안점","tel":"031-353-2000","addr":"경기도 화성시 향남읍 평리 81-25","category":"레져용품 - 스포츠·레져용품"},{"name":"하정다방","tel":"031-354-0232","addr":"경기도 화성시 향남읍 평리 81-25번지 2층","category":"일반휴게음식 - 서양음식"},{"name":"현다방","tel":"031-366-5280","addr":"경기도 화성시 향남읍 평리 81-25번지 2층","category":"일반휴게음식 - 서양음식"}]},{"lat":"37.129283087","long":"126.90771195","items":[{"name":"삼화산업","tel":"031-353-1504","addr":"경기도 화성시 향남읍 평리 149번지","category":"건축자재 - 기타건축자재"}]},{"lat":"37.130284247","long":"126.90895984","items":[{"name":"새롬다방","tel":"031-359-8768","addr":"경기도 화성시 향남읍 평리 76-25번지","category":"일반휴게음식 - 서양음식"},{"name":"평리이용원","tel":"031-352-5762","addr":"경기도 화성시 향남읍 평리 76-25번지","category":"보건위생 - 이용원"}]},{"lat":"37.127750896","long":"126.90720747","items":[{"name":"색동면옥","tel":"031-351-2239","addr":"경기도 화성시 향남읍 평리 221-107번지 1층","category":"일반휴게음식 - 일반한식"}]},{"lat":"37.132229026","long":"126.90710055","items":[{"name":"서산해장국집","tel":"031-353-8900","addr":"경기도 화성시 향남읍 평리 98-5","category":"일반휴게음식 - 일반한식"}]},{"lat":"37.131859995","long":"126.90759618","items":[{"name":"선창수산","tel":"031-354-2545","addr":"경기도 화성시 향남읍 평리 108-4번지","category":"음료식품 - 농·축·수산품"},{"name":"풍년지물포","tel":"031-352-4700","addr":"경기도 화성시 향남읍 평리 108-4번지","category":"직물 - 카페트,커튼,천막,지물"}]},{"lat":"37.134142095","long":"126.9106882","items":[{"name":"세계건강","tel":"031-297-6055","addr":"경기도 화성시 향남읍 평리 30-42번지 해피하우스 1층","category":"건강식품 - 기타건강식품"}]},{"lat":"37.133916631","long":"126.91042963","items":[{"name":"세기축산시스템","tel":"031-353-6361","addr":"경기도 화성시 향남읍 평리 30-24번지 4통2반","category":"농업 - 농기계"}]},{"lat":"37.132751096","long":"126.90643591","items":[{"name":"소담뜰","tel":"031-8059-7667","addr":"경기도 화성시 향남읍 평리 94-2번지","category":"일반휴게음식 - 일반한식"},{"name":"소담축산","tel":"031-8059-7667","addr":"경기도 화성시 향남읍 평리 94-2번지","category":"음료식품 - 정육점"}]},{"lat":"37.132248827","long":"126.90932879","items":[{"name":"소풍카페","tel":"070-8947-4490","addr":"경기도 화성시 향남읍 평리 85-11번지","category":"일반휴게음식 - 주점"}]},{"lat":"37.132337669","long":"126.90774188","items":[{"name":"솔마루","tel":"031-353-0181","addr":"경기도 화성시 향남읍 평리 101-4번지 104호","category":"일반휴게음식 - 일반한식"}]},{"lat":"37.132474866","long":"126.91031885","items":[{"name":"수경손세차장","tel":"031-354-0460","addr":"경기도 화성시 향남읍 평리 82-9번지","category":"자동차정비 유지 - 세차장"},{"name":"유신카센타","tel":"031-353-4683","addr":"경기도 화성시 향남읍 평리 82-9","category":"자동차정비 유지 - 자동차정비"}]},{"lat":"37.130951005","long":"126.90893651","items":[{"name":"수인","tel":"031-366-1934","addr":"경기도 화성시 향남읍 평리 81-68번지","category":"일반휴게음식 - 일반한식"}]},{"lat":"37.131386906","long":"126.91332492","items":[{"name":"술향기","tel":"070-8947-4490","addr":"경기도 화성시 향남읍 평리 69-10번지","category":"일반휴게음식 - 일반한식"}]},{"lat":"37.13291496","long":"126.90851768","items":[{"name":"슈퍼","tel":"031-000-0000","addr":"경기도 화성시 향남읍 평리 89-8번지","category":"유통업 영리 - 슈퍼마켓"},{"name":"태극쿵푸마라탕","tel":"031-359-9292","addr":"경기도 화성시 향남읍 평리 89-8번지","category":"일반휴게음식 - 중국식"}]},{"lat":"37.132419141","long":"126.90821444","items":[{"name":"시로네(SHIRONE)","tel":"031-8059-4366","addr":"경기도 화성시 향남읍 평리 109-9번지","category":"신변잡화 - 가방"},{"name":"칸티뿌르레스토랑 주식회사 (발안지점)","tel":"031-359-9866","addr":"경기도 화성시 향남읍 평리 109-9번지 2층","category":"일반휴게음식 - 서양음식"},{"name":"탄삭","tel":"070-4642-9463","addr":"경기도 화성시 향남읍 평리 109-9번지","category":"일반휴게음식 - 일반한식"},{"name":"플러스건강","tel":"031-8059-5922","addr":"경기도 화성시 향남읍 평리 109-9번지","category":"건강식품 - 기타건강식품"}]},{"lat":"37.13153126","long":"126.91357233","items":[{"name":"시루향기","tel":"031-8059-0944","addr":"경기도 화성시 향남읍 평리 68-5번지 1층","category":"일반휴게음식 - 일반한식"}]},{"lat":"37.132474169","long":"126.90942979","items":[{"name":"신개념중국정통반신욕건강체험방","tel":"031-353-7600","addr":"경기도 화성시 향남읍 평리 85-9번지 2층","category":"회원제형태 - 기타4"}]},{"lat":"37.131553801","long":"126.90779913","items":[{"name":"신발백화점","tel":"031-352-0457","addr":"경기도 화성시 향남읍 평리 115-5번지","category":"신변잡화 - 신발"}]},{"lat":"37.132365303","long":"126.90849586","items":[{"name":"신발할인매장","tel":"031-353-1549","addr":"경기도 화성시 향남읍 평리 110-5번지","category":"신변잡화 - 신발"},{"name":"이불나라","tel":"031-8059-3064","addr":"경기도 화성시 향남읍 평리 110-5번지","category":"직물 - 침구·수예점"},{"name":"정강축산","tel":"031-972-8070","addr":"경기도 화성시 향남읍 평리 110-5","category":"음료식품 - 정육점"}]},{"lat":"37.132312139","long":"126.90963256","items":[{"name":"썬다방","tel":"031-354-0664","addr":"경기도 화성시 향남읍 평리 84-8번지 2층","category":"일반휴게음식 - 서양음식"}]},{"lat":"37.131141857","long":"126.9110182","items":[{"name":"쑥뜸장이","tel":"031-352-8335","addr":"경기도 화성시 향남읍 평리 73-7번지 3층 쑥뜸장이","category":"보건위생 - 피부미용실"},{"name":"중앙메디컬약국","tel":"031-354-6632","addr":"경기도 화성시 향남읍 평리 73-7번지","category":"약국 - 약국"}]},{"lat":"37.128589765","long":"126.90832049","items":[{"name":"씨유발안행운로드점","tel":"080-080-3663","addr":"경기도 화성시 향남읍 평리 172-3번지 1층","category":"유통업 영리 - 편 의 점"}]},{"lat":"37.133305652","long":"126.91268118","items":[{"name":"씨유화성평리점","tel":"031-377-5231","addr":"경기도 화성시 향남읍 평리 81-175번지","category":"유통업 영리 - 편 의 점"}]},{"lat":"37.131169488","long":"126.91179467","items":[{"name":"아그집쭈꾸미볶음","tel":"031-000-0000","addr":"경기도 화성시 향남읍 평리 71-6번지 1층","category":"일반휴게음식 - 일반한식"}]},{"lat":"37.131472842","long":"126.90796804","items":[{"name":"안경을찾는사람들","tel":"031-353-4828","addr":"경기도 화성시 향남읍 평리 118-5번지","category":"보건위생 - 안경"}]},{"lat":"37.132609264","long":"126.90935085","items":[{"name":"압사라","tel":"031-366-4717","addr":"경기도 화성시 향남읍 평리 85-1번지 2층","category":"일반휴게음식 - 일반한식"},{"name":"천산양꼬치","tel":"031-352-3989","addr":"경기도 화성시 향남읍 평리 85-1번지 외1필지","category":"일반휴게음식 - 일반한식"}]},{"lat":"37.132140656","long":"126.90927265","items":[{"name":"애림","tel":"070-8947-4490","addr":"경기도 화성시 향남읍 평리 85-12번지","category":"일반휴게음식 - 일반한식"},{"name":"왕다방","tel":"001-0000-0000","addr":"경기도 화성시 향남읍 평리 85-12번지","category":"일반휴게음식 - 서양음식"}]},{"lat":"37.13208551","long":"126.90791101","items":[{"name":"에뛰드하우스(향남점)","tel":"031-366-1525","addr":"경기도 화성시 향남읍 평리 109-12번지","category":"보건위생 - 화장품"}]},{"lat":"37.133059832","long":"126.90940657","items":[{"name":"에스마켓 화성발안점","tel":"031-494-8793","addr":"경기도 화성시 향남읍 평리 87번지 외1필지","category":"의류 - 정장"},{"name":"월드푸드마트","tel":"031-366-6667","addr":"경기도 화성시 향남읍 평리 87번지 외1필지","category":"유통업 영리 - 슈퍼마켓"}]},{"lat":"37.134277418","long":"126.91090187","items":[{"name":"에스티코(STCO)","tel":"031-8059-8846","addr":"경기도 화성시 향남읍 평리 30-11번지 2,3,4층","category":"레져용품 - 스포츠·레져용품"}]},{"lat":"37.13139488","long":"126.91196321","items":[{"name":"여로집","tel":"031-366-5349","addr":"경기도 화성시 향남읍 평리 71-5번지","category":"일반휴게음식 - 일반한식"}]},{"lat":"37.132085753","long":"126.90821486","items":[{"name":"여우야","tel":"031-353-6078","addr":"경기도 화성시 향남읍 평리 109-18","category":"의류 - 정장"},{"name":"현대치과","tel":"031-353-5321","addr":"경기도 화성시 향남읍 평리 109-18번지","category":"의원 - 치과의원"}]},{"lat":"37.132111753","long":"126.90693189","items":[{"name":"연길꼬치","tel":"031-366-6025","addr":"경기도 화성시 향남읍 평리 97-1번지 1층","category":"일반휴게음식 - 일반한식"}]},{"lat":"37.13308589","long":"126.90817985","items":[{"name":"연길초두부","tel":"031-359-8081","addr":"경기도 화성시 향남읍 평리 89-3번지","category":"일반휴게음식 - 일반한식"},{"name":"장미커피숍","tel":"031-353-7785","addr":"경기도 화성시 향남읍 평리 89-3번지 1층","category":"일반휴게음식 - 서양음식"},{"name":"정성꽃원예","tel":"031-352-0222","addr":"경기도 화성시 향남읍 평리 89-3번지","category":"문화.취미 - 화원"},{"name":"촌장작은양꼬치","tel":"","addr":"경기도 화성시 향남읍 평리 89-3번지 1층","category":"일반휴게음식 - 일반한식"}]},{"lat":"37.131256275","long":"126.90757443","items":[{"name":"연지커피숍","tel":"031-366-2139","addr":"경기도 화성시 향남읍 평리 117-3번지","category":"일반휴게음식 - 서양음식"},{"name":"폭스컴퓨터","tel":"031-353-0521","addr":"경기도 화성시 향남읍 평리 117-3","category":"수리서비스 - 사무·통신기기수리"}]},{"lat":"37.130833717","long":"126.90874534","items":[{"name":"오아시스","tel":"","addr":"경기도 화성시 향남읍 평리 81-160번지 1층","category":"일반휴게음식 - 주점"}]},{"lat":"37.133503203","long":"126.91179187","items":[{"name":"오아시스전산","tel":"031-353-6536","addr":"경기도 화성시 향남읍 평리 81-11번지 명성로즈빌 C동 503호","category":"사무통신 - 기타 사무용품"}]},{"lat":"37.130805904","long":"126.90776631","items":[{"name":"왔다야식포차","tel":"070-8947-4490","addr":"경기도 화성시 향남읍 평리 119-1번지 1층","category":"일반휴게음식 - 일반한식"}]},{"lat":"37.132360182","long":"126.91351508","items":[{"name":"외식의최강자","tel":"031-352-6341","addr":"경기도 화성시 향남읍 평리 60-2","category":"일반휴게음식 - 일반한식"}]},{"lat":"37.132365383","long":"126.90859714","items":[{"name":"월드푸드시티","tel":"031-8059-1877","addr":"경기도 화성시 향남읍 평리 110-4번지 1층","category":"음료식품 - 기타음료식품"},{"name":"편의점사랑(향남평리점)","tel":"031-353-3492","addr":"경기도 화성시 향남읍 평리 110-4번지","category":"유통업 영리 - 슈퍼마켓"}]},{"lat":"37.132390814","long":"126.90660518","items":[{"name":"윌로펌프화성대리점","tel":"031-352-0116","addr":"경기도 화성시 향남읍 평리 95-1번지","category":"건축자재 - 보일러·펌프·샷시"},{"name":"캐츠독","tel":"031-8059-3635","addr":"경기도 화성시 향남읍 평리 95-1번지","category":"문화.취미 - 애완동물"}]},{"lat":"37.131526833","long":"126.90787794","items":[{"name":"유리패션","tel":"031-353-0942","addr":"경기도 화성시 향남읍 평리 114-4번지","category":"의류 - 정장"}]},{"lat":"37.132031753","long":"126.9082937","items":[{"name":"윤헤어모드","tel":"031-352-2267","addr":"경기도 화성시 향남읍 평리 110-9번지","category":"보건위생 - 미용원"}]},{"lat":"37.130724963","long":"126.90795772","items":[{"name":"은하수다방","tel":"031-352-3454","addr":"경기도 화성시 향남읍 평리 120-3번지","category":"일반휴게음식 - 서양음식"}]},{"lat":"37.130617662","long":"126.90899319","items":[{"name":"음식이야기","tel":"070-8947-4490","addr":"경기도 화성시 향남읍 평리 76-8번지","category":"일반휴게음식 - 일반한식"}]},{"lat":"37.131086118","long":"126.90888007","items":[{"name":"이석민 피자","tel":"031-353-7046","addr":"경기도 화성시 향남읍 평리 81-205번지 1층","category":"일반휴게음식 - 일반한식"}]},{"lat":"37.131616875","long":"126.90779905","items":[{"name":"이은희헤어","tel":"031-353-0157","addr":"경기도 화성시 향남읍 평리 115-19번지","category":"보건위생 - 미용원"},{"name":"행운호프","tel":"070-8947-4490","addr":"경기도 화성시 향남읍 평리 115-19번지","category":"일반휴게음식 - 주점"}]},{"lat":"37.132003809","long":"126.9071571","items":[{"name":"일미집","tel":"070-8947-4490","addr":"경기도 화성시 향남읍 평리 98-2번지 1층","category":"일반휴게음식 - 일반한식"}]},{"lat":"37.133112768","long":"126.9079885","items":[{"name":"일품향 오리목왕","tel":"031-366-3945","addr":"경기도 화성시 향남읍 평리 90-14번지","category":"일반휴게음식 - 일반한식"}]},{"lat":"37.131780299","long":"126.90935187","items":[{"name":"장터순대국","tel":"031-366-0282","addr":"경기도 화성시 향남읍 평리 80-22","category":"일반휴게음식 - 일반한식"},{"name":"카리브","tel":"031-297-6055","addr":"경기도 화성시 향남읍 평리 80-22번지","category":"일반휴게음식 - 일반한식"}]},{"lat":"37.132444464","long":"126.90609868","items":[{"name":"제이다방","tel":"070-2456-9644","addr":"경기도 화성시 향남읍 평리 95-3번지 1층","category":"일반휴게음식 - 서양음식"}]},{"lat":"37.13270026","long":"126.91048738","items":[{"name":"조이펫","tel":"","addr":"경기도 화성시 향남읍 평리 81-80번지","category":"문화.취미 - 애완동물"}]},{"lat":"37.130922995","long":"126.90770989","items":[{"name":"중국식품","tel":"031-366-4818","addr":"경기도 화성시 향남읍 평리 118-23번지","category":"음료식품 - 기타음료식품"}]},{"lat":"37.131033346","long":"126.91052317","items":[{"name":"중앙마트","tel":"031-352-5337","addr":"경기도 화성시 향남읍 평리 74-12번지 내매점","category":"음료식품 - 기타음료식품"}]},{"lat":"37.1306448","long":"126.9091282","items":[{"name":"촉도대하 발안점","tel":"031-352-8835","addr":"경기도 화성시 향남읍 평리 76-16번지 1층","category":"일반휴게음식 - 일반한식"}]},{"lat":"37.131727303","long":"126.91071364","items":[{"name":"카라인","tel":"031-8059-4141","addr":"경기도 화성시 향남읍 평리 81-150번지","category":"자동차정비 유지 - 자동차부품"}]},{"lat":"37.132030394","long":"126.90660563","items":[{"name":"태광유리","tel":"031-353-0613","addr":"경기도 화성시 향남읍 평리 222-34번지 1층","category":"건축자재 - 유리"}]},{"lat":"37.132031375","long":"126.90782104","items":[{"name":"토모헤어","tel":"070-8947-4490","addr":"경기도 화성시 향남읍 평리 109-21번지","category":"보건위생 - 미용원"}]},{"lat":"37.133221781","long":"126.90910251","items":[{"name":"토탈샵","tel":"070-8738-4960","addr":"경기도 화성시 향남읍 평리 88-9","category":"의류 - 정장"}]},{"lat":"37.130166932","long":"126.90873491","items":[{"name":"평리장식","tel":"031-353-1219","addr":"경기도 화성시 향남읍 평리 131-1번지","category":"직물 - 카페트,커튼,천막,지물"}]},{"lat":"37.131364419","long":"126.9075968","items":[{"name":"평양다방","tel":"031-352-8026","addr":"경기도 화성시 향남읍 평리 115-13번지 2층","category":"일반휴게음식 - 서양음식"}]},{"lat":"37.132004281","long":"126.9077423","items":[{"name":"포맨클럽","tel":"031-352-7908","addr":"경기도 화성시 향남읍 평리 223-12번지 2호","category":"보건위생 - 이용원"}]},{"lat":"37.131859977","long":"126.90757367","items":[{"name":"풍년지물포","tel":"031-352-4700","addr":"경기도 화성시 향남읍 평리 108-5번지","category":"직물 - 카페트,커튼,천막,지물"}]},{"lat":"37.131113701","long":"126.90957776","items":[{"name":"프랜즈","tel":"031-353-2172","addr":"경기도 화성시 향남읍 평리 81-95번지","category":"일반휴게음식 - 스넥"},{"name":"향남일미떡","tel":"031-352-5480","addr":"경기도 화성시 향남읍 평리 81-95번지 1층","category":"음료식품 - 제과점"}]},{"lat":"37.133529031","long":"126.91023879","items":[{"name":"하나유통","tel":"031-352-1673","addr":"경기도 화성시 향남읍 평리 34-1번지","category":"음료식품 - 기타음료식품"}]},{"lat":"37.134637907","long":"126.91099147","items":[{"name":"핫포(Hot pho)","tel":"070-8947-4490","addr":"경기도 화성시 향남읍 평리 30-6번지","category":"일반휴게음식 - 일반한식"}]},{"lat":"37.132144413","long":"126.91415681","items":[{"name":"해봄어린이집[아이행복]","tel":"031-8047-0224","addr":"경기도 화성시 향남읍 평리 61-12번지 1층 101호","category":"학원 - 유아원"}]},{"lat":"37.129752074","long":"126.90826278","items":[{"name":"해피모멘츠(Happy Moments)","tel":"","addr":"경기도 화성시 향남읍 평리 132-3번지","category":"광학제품 - 사진관"}]},{"lat":"37.131589617","long":"126.90751774","items":[{"name":"향기다방","tel":"031-354-5530","addr":"경기도 화성시 향남읍 평리 116-11번지","category":"일반휴게음식 - 서양음식"}]},{"lat":"37.131391676","long":"126.90787811","items":[{"name":"향남장식","tel":"031-352-7655","addr":"경기도 화성시 향남읍 평리 118-11번지","category":"직물 - 카페트,커튼,천막,지물"}]},{"lat":"37.13095129","long":"126.90929662","items":[{"name":"허흑오리발안점","tel":"031-354-3573","addr":"경기도 화성시 향남읍 평리 81-69번지 1층","category":"일반휴게음식 - 일반한식"}]},{"lat":"37.129139781","long":"126.90879245","items":[{"name":"현대아울렛디씨백화점","tel":"031-426-8212","addr":"경기도 화성시 향남읍 평리 137-3번지 137-48,137-58","category":"유통업 영리 - 슈퍼마켓"},{"name":"화성수원중고가전가구 리싸리클시티향남점","tel":"031-351-8425","addr":"경기도 화성시 향남읍 평리 137-3번지","category":"가구 - 일반가구"}]},{"lat":"37.130193722","long":"126.90843103","items":[{"name":"호텔투데이","tel":"031-352-7977","addr":"경기도 화성시 향남읍 평리 131-3번지 1층","category":"숙박업 - 여관/기타숙박업"}]},{"lat":"37.131942621","long":"126.90952048","items":[{"name":"홍보석","tel":"031-354-0405","addr":"경기도 화성시 향남읍 평리 80-23번지","category":"일반휴게음식 - 중국식"}]},{"lat":"37.132833091","long":"126.90754995","items":[{"name":"홍한왕","tel":"031-352-5532","addr":"경기도 화성시 향남읍 평리 91-1번지 102,103호","category":"일반휴게음식 - 서양음식"},{"name":"화룡장국","tel":"031-8059-0979","addr":"경기도 화성시 향남읍 평리 91-1번지 1동 1호","category":"일반휴게음식 - 일반한식"}]},{"lat":"37.131720937","long":"126.91417981","items":[{"name":"화성유사사유도관","tel":"031-352-4758","addr":"경기도 화성시 향남읍 평리 67-1번지 1동 4층","category":"학원 - 예·체능계학원"}]},{"lat":"37.131249026","long":"126.90979142","items":[{"name":"효자떡","tel":"031-353-4799","addr":"경기도 화성시 향남읍 평리 81-23번지 1층","category":"음료식품 - 제과점"}]}]