[{"lat":"37.27896492","long":"127.2953607","items":[{"name":"(주)에이치앤지텍/원격지","tel":"031-927-9253","addr":"경기도 광주시 도척면 추곡리 174-3번지","category":"기타 - 기타 전문점"}]},{"lat":"37.27457751","long":"127.2914539","items":[{"name":"(주)힐링코리아","tel":"031-761-0206","addr":"경기도 광주시 도척면 추곡리 287-4번지","category":"레져용품 - 스포츠·레져용품"}]},{"lat":"37.28890856","long":"127.2819456","items":[{"name":"가래실랜드","tel":"031-762-0822","addr":"경기도 광주시 도척면 추곡리 428번지","category":"일반휴게음식 - 일반한식"}]},{"lat":"37.27843201","long":"127.2958886","items":[{"name":"도서출판다밋","tel":"02-1111-1111","addr":"경기도 광주시 도척면 추곡리 177-2번지 1층","category":"서적문구 - 출판 및 인쇄물"}]},{"lat":"37.27649549","long":"127.2956105","items":[{"name":"미소딸기체험농장","tel":"070-4219-0063","addr":"경기도 광주시 도척면 추곡리 147번지","category":"음료식품 - 농·축·수산품"}]},{"lat":"37.27699414","long":"127.2943609","items":[{"name":"미소한근","tel":"031-762-5475","addr":"경기도 광주시 도척면 추곡리 156-7번지","category":"일반휴게음식 - 일반한식"},{"name":"참좋은한우채","tel":"031-762-5475","addr":"경기도 광주시 도척면 추곡리 156-7","category":"음료식품 - 정육점"}]},{"lat":"37.28043542","long":"127.298253","items":[{"name":"복천자원","tel":"","addr":"경기도 광주시 도척면 추곡리 57-2번지","category":"신변잡화 - 기타잡화"}]},{"lat":"37.27687762","long":"127.2941124","items":[{"name":"의류구제점","tel":"031-797-0440","addr":"경기도 광주시 도척면 추곡리 156-5번지","category":"의류 - 기타의류"}]},{"lat":"37.29135025","long":"127.2819772","items":[{"name":"태화농장개발","tel":"031-764-7999","addr":"경기도 광주시 도척면 추곡리 산54-4번지","category":"레저업소 - 기타레져업소"}]},{"lat":"37.28157706","long":"127.3028919","items":[{"name":"탱크뱅크","tel":"031-896-1725","addr":"경기도 광주시 도척면 추곡리 47-2","category":"서적문구 - 출판 및 인쇄물"}]}]