[{"lat":"37.916493683","long":"127.21124438","items":[{"name":"(주)더웰타운","tel":"031-536-2236","addr":"경기도 포천시 신북면 가채리 250번지","category":"음료식품 - 미곡상"}]},{"lat":"37.921026912","long":"127.21540829","items":[{"name":"(주)포천자동차","tel":"031-535-4921","addr":"경기도 포천시 신북면 가채리 337-2번지","category":"자동차정비 유지 - 자동차정비"},{"name":"포천자동차공업사","tel":"535-4921","addr":"경기도 포천시 신북면 가채리 337-2번지","category":"서비스 - 자동차 수리"},{"name":"포천자동차공업사","tel":"031-536-8582","addr":"경기도 포천시 신북면 가채리 337-2번지","category":"자동차정비 유지 - 자동차정비"}]},{"lat":"37.904523036","long":"127.20452483","items":[{"name":"D&D Food(디&디 푸드)","tel":"031-535-9590","addr":"경기도 포천시 신북면 가채리 815-47번지","category":"음료식품 - 기타음료식품"},{"name":"씨유포천신북가나안점","tel":"031-532-2226","addr":"경기도 포천시 신북면 가채리 815-47번지 1동 1층","category":"유통업 영리 - 편 의 점"},{"name":"화련침구","tel":"031-534-2226","addr":"경기도 포천시 신북면 가채리 815-47번지","category":"직물 - 침구·수예점"}]},{"lat":"37.920025471","long":"127.22110317","items":[{"name":"K-마트","tel":"533-2665","addr":"경기도 포천시 신북면 가채리 23-2번지","category":"소매업 - 슈퍼마켓"},{"name":"까망깨돈","tel":"031-532-6999","addr":"경기도 포천시 신북면 가채리 23-2번지 B동 1층","category":"일반휴게음식 - 일반한식"},{"name":"까망깨돈정육부","tel":"031-532-6999","addr":"경기도 포천시 신북면 가채리 23-2번지","category":"음료식품 - 정육점"}]},{"lat":"37.904362249","long":"127.20371709","items":[{"name":"MG포천1호점","tel":"031-536-5301","addr":"경기도 포천시 신북면 가채리 817번지","category":"서적문구 - 문구용품"}]},{"lat":"37.920548868","long":"127.21571398","items":[{"name":"가채리식당","tel":"532-1589","addr":"경기도 포천시 신북면 가채리 303-8","category":"음식 - 한식"},{"name":"가채리식당","tel":"031-532-1589","addr":"경기도 포천시 신북면 가채리 303-8","category":"일반휴게음식 - 일반한식"},{"name":"뉴트라 원(NUTRA ONE)","tel":"031-1111-1111","addr":"경기도 포천시 신북면 가채리 303-8번지","category":"건강식품 - 기타건강식품"},{"name":"세븐일레븐(가채리점)","tel":"534-2048","addr":"경기도 포천시 신북면 가채리 303-8번지","category":"소매업 - 편의점"}]},{"lat":"37.903273946","long":"127.207887","items":[{"name":"강산광고기획","tel":"031-535-8844","addr":"경기도 포천시 신북면 가채리 802-3 1호","category":"용역 서비스 - 종합용역"},{"name":"멀티사운드","tel":"031-532-7755","addr":"경기도 포천시 신북면 가채리 802-3번지","category":"전기제품 - 가전제품"},{"name":"솔광고기획","tel":"031-531-7200","addr":"경기도 포천시 신북면 가채리 802-3번지 103호","category":"건축자재 - 인테리어전문"},{"name":"솔광고기획","tel":"531-7200","addr":"경기도 포천시 신북면 가채리 802-3번지","category":"제조업 - 간판및 광고물"},{"name":"아름건축인테리어","tel":"031-533-1128","addr":"경기도 포천시 신북면 가채리 802-3번지 102호","category":"용역 서비스 - 기타용역서비스"},{"name":"옛날통닭","tel":"031-531-9985","addr":"경기도 포천시 신북면 가채리 802-3번지","category":"일반휴게음식 - 스넥"},{"name":"추억의옛날통닭","tel":"531-9985","addr":"경기도 포천시 신북면 가채리 802-3번지","category":"음식 - 치킨등"},{"name":"포천에이스볼링장센타","tel":"031-536-6066","addr":"경기도 포천시 신북면 가채리 802-3번지 2층","category":"레저업소 - 볼 링 장"}]},{"lat":"37.920331827","long":"127.22108133","items":[{"name":"건창자동차공업사","tel":"535-7109","addr":"경기도 포천시 신북면 가채리 23번지","category":"서비스 - 자동차 수리"},{"name":"에셀세차장","tel":"031-533-7717","addr":"경기도 포천시 신북면 가채리 23번지","category":"자동차정비 유지 - 세차장"},{"name":"에셀세차장","tel":"","addr":"경기도 포천시 신북면 가채리 23번지","category":"서비스 - 세차장"}]},{"lat":"37.920354874","long":"127.21835192","items":[{"name":"국제종합기계(주)포천대","tel":"031-533-4744","addr":"경기도 포천시 신북면 가채리 12-4번지 제가동호","category":"농업 - 농기계"}]},{"lat":"37.921494898","long":"127.21568259","items":[{"name":"군내종합설비","tel":"031-535-8221","addr":"경기도 포천시 신북면 가채리 337-11번지","category":"기타 - 기계공구"},{"name":"만나식당","tel":"031-111-1111","addr":"경기도 포천시 신북면 가채리 337-11번지 1동","category":"일반휴게음식 - 일반한식"}]},{"lat":"37.913803967","long":"127.21402289","items":[{"name":"그린자동차공업사","tel":"534-5774","addr":"경기도 포천시 신북면 가채리 190번지","category":"서비스 - 자동차 수리"},{"name":"마로시스템","tel":"031-543-1788","addr":"경기도 포천시 신북면 가채리 190번지","category":"사무통신 - 컴퓨터"},{"name":"마로시스템","tel":"535-5038","addr":"경기도 포천시 신북면 가채리 190번지","category":"도소매 - 컴퓨터주변기기외"}]},{"lat":"37.911745842","long":"127.21624582","items":[{"name":"금강수자원","tel":"031-536-8225","addr":"경기도 포천시 신북면 가채리 168-12번지","category":"용역 서비스 - 기타용역서비스"}]},{"lat":"37.903804977","long":"127.2081841","items":[{"name":"금성모타","tel":"031-533-9715","addr":"경기도 포천시 신북면 가채리 804-6번지","category":"기타 - 기계공구"}]},{"lat":"37.907048504","long":"127.21318489","items":[{"name":"농업회사법인㈜흙농원","tel":"535-6085","addr":"경기도 포천시 신북면 가채리 124-7번지","category":"건설업 - 조경공사"},{"name":"농업회사법인주식회사흙농원","tel":"031-535-6085","addr":"경기도 포천시 신북면 가채리 124-7번지","category":"건축자재 - 인테리어전문"}]},{"lat":"37.908911232","long":"127.19330217","items":[{"name":"대금소리","tel":"031-111-1111","addr":"경기도 포천시 신북면 가채리 886-4번지","category":"일반휴게음식 - 일반한식"},{"name":"에이밀","tel":"","addr":"경기도 포천시 신북면 가채리 886-4번지 1층","category":"음식 - 양식"}]},{"lat":"37.904580078","long":"127.20277394","items":[{"name":"대범상사","tel":"031-533-9600","addr":"경기도 포천시 신북면 가채리 819-18번지 A동 403호","category":"자동차정비 유지 - 윤활유 전문 판매"}]},{"lat":"37.903941935","long":"127.20713841","items":[{"name":"대북유통","tel":"031-796-2554","addr":"경기도 포천시 신북면 가채리 809-11번지 골든주택 D동 301호","category":"음료식품 - 농·축·수산품"},{"name":"대승","tel":"02-935-8246","addr":"경기도 포천시 신북면 가채리 809-10번지 골든빌라 D","category":"회원제형태 - 기타4"}]},{"lat":"37.922186849","long":"127.21163575","items":[{"name":"대한그라스","tel":"031-533-9881","addr":"경기도 포천시 신북면 가채리 327-3번지","category":"건축자재 - 유리"}]},{"lat":"37.906357203","long":"127.20669026","items":[{"name":"더착한커피(포천왕방점)","tel":"","addr":"경기도 포천시 신북면 가채리 773번지 2층","category":"일반휴게음식 - 서양음식"},{"name":"더착한커피(포천왕방점)","tel":"-","addr":"경기도 포천시 신북면 가채리 773번지 2층","category":"음식 - 커피 등"},{"name":"아란","tel":"","addr":"경기도 포천시 신북면 가채리 773번지","category":"문화.취미 - 문화취미기타"}]},{"lat":"37.903303774","long":"127.20627251","items":[{"name":"돈킹수제족발","tel":"534-5859","addr":"경기도 포천시 신북면 가채리 812-3번지","category":"음식 - 한식"},{"name":"재성기획","tel":"031-535-6884","addr":"경기도 포천시 신북면 가채리 812-3번지","category":"서적문구 - 출판 및 인쇄물"},{"name":"황금족발","tel":"031-534-3969","addr":"경기도 포천시 신북면 가채리 812-3번지 1층","category":"일반휴게음식 - 일반한식"}]},{"lat":"37.903723536","long":"127.20838854","items":[{"name":"동네방네식당","tel":"031-535-7701","addr":"경기도 포천시 신북면 가채리 803-2번지","category":"일반휴게음식 - 일반한식"},{"name":"마이클린 경기북부지사","tel":"031-533-5455","addr":"경기도 포천시 신북면 가채리 803-2번지","category":"용역 서비스 - 종합용역"},{"name":"평양갈비","tel":"533-5455","addr":"경기도 포천시 신북면 가채리 803-2번지","category":"음식 - 한식"}]},{"lat":"37.906667151","long":"127.20977258","items":[{"name":"동영주유소","tel":"532-5457","addr":"경기도 포천시 신북면 가채리 793-2번지","category":"소매업 - 주유소"}]},{"lat":"37.904604811","long":"127.20932336","items":[{"name":"동일공업사","tel":"031-535-4290","addr":"경기도 포천시 신북면 가채리 799","category":"건축자재 - 기타건축자재"}]},{"lat":"37.91122104","long":"127.21249174","items":[{"name":"동해포장종합상사","tel":"031-531-6009","addr":"경기도 포천시 신북면 가채리 147-2번지 좌측매장 1층","category":"직물 - 카페트,커튼,천막,지물"},{"name":"천호자동차공업사","tel":"534-5177","addr":"경기도 포천시 신북면 가채리 147-2","category":"서비스 - 자동차 수리"}]},{"lat":"37.919713215","long":"127.21944183","items":[{"name":"로맨스다육","tel":"031-534-1080","addr":"경기도 포천시 신북면 가채리 17-5번지","category":"문화.취미 - 화원"}]},{"lat":"37.905964729","long":"127.20960006","items":[{"name":"르노삼성자동차지정정비코너 신읍점","tel":"031-532-1335","addr":"경기도 포천시 신북면 가채리 797-4","category":"자동차정비 유지 - 자동차정비"},{"name":"아이원종합공구","tel":"534-0989","addr":"경기도 포천시 신북면 가채리 797-4","category":"소매업 - 공구 등"}]},{"lat":"37.914607092","long":"127.21329738","items":[{"name":"마포소금구이","tel":"031-534-3344","addr":"경기도 포천시 신북면 가채리 233번지","category":"일반휴게음식 - 일반한식"}]},{"lat":"37.914276367","long":"127.20668936","items":[{"name":"모세건설","tel":"031-1111-1111","addr":"경기도 포천시 신북면 가채리 537번지","category":"용역 서비스 - 기타용역서비스"}]},{"lat":"37.905910807","long":"127.19899112","items":[{"name":"미래사","tel":"","addr":"경기도 포천시 신북면 가채리 820-21번지","category":"신변잡화 - 기념품점"},{"name":"제일어패럴","tel":"031-536-3764","addr":"경기도 포천시 신북면 가채리 820-21번지","category":"신변잡화 - 기타잡화"}]},{"lat":"37.918666153","long":"127.22051916","items":[{"name":"바다야","tel":"031-535-0361","addr":"경기도 포천시 신북면 가채리 29-5번지 1층","category":"일반휴게음식 - 일식·회집"},{"name":"치킨플러스","tel":"535-7773","addr":"경기도 포천시 신북면 가채리 29-5번지","category":"음식 - 치킨"},{"name":"치킨플러스","tel":"031-535-7773","addr":"경기도 포천시 신북면 가채리 29-5번지","category":"일반휴게음식 - 스넥"}]},{"lat":"37.905333962","long":"127.20966652","items":[{"name":"부광상사","tel":"031-535-0909","addr":"경기도 포천시 신북면 가채리 799-3","category":"자동차정비 유지 - 자동차정비"},{"name":"포천부분정비공업사","tel":"031-535-0909","addr":"경기도 포천시 신북면 가채리 799-3번지 1층","category":"자동차정비 유지 - 자동차정비"},{"name":"포천부분정비공업사","tel":"535-0909","addr":"경기도 포천시 신북면 가채리 799-3번지","category":"서비스 - 자동차 수리"}]},{"lat":"37.904803931","long":"127.20880088","items":[{"name":"북부중장비종합센타","tel":"031-536-8291","addr":"경기도 포천시 신북면 가채리 804-1번지","category":"기타 - 기계공구"},{"name":"신포천자동차공업사","tel":"535-2642","addr":"경기도 포천시 신북면 가채리 804-1번지","category":"서비스 - 자동차 수리"},{"name":"정통중화요리황제짬뽕","tel":"031-533-8219","addr":"경기도 포천시 신북면 가채리 804-1번지","category":"일반휴게음식 - 중국식"},{"name":"포천자동차공업사","tel":"031-535-2642","addr":"경기도 포천시 신북면 가채리 804-1번지","category":"자동차정비 유지 - 자동차정비"},{"name":"현대차유리","tel":"031-535-3621","addr":"경기도 포천시 신북면 가채리 804-1번지","category":"자동차정비 유지 - 자동차부품"}]},{"lat":"37.910826238","long":"127.20116473","items":[{"name":"뽕잎가든","tel":"031-535-6684","addr":"경기도 포천시 신북면 가채리 649번지","category":"일반휴게음식 - 일반한식"}]},{"lat":"37.920804626","long":"127.21873991","items":[{"name":"삼광중고타이어","tel":"031-535-0442","addr":"경기도 포천시 신북면 가채리 12-1번지","category":"자동차정비 유지 - 자동차시트·타이어"},{"name":"삼광타이어","tel":"535-0442","addr":"경기도 포천시 신북면 가채리 12-1번지","category":"소매업 - 휠.타이어"}]},{"lat":"37.91388824","long":"127.20710905","items":[{"name":"삼무식품","tel":"031-534-4939","addr":"경기도 포천시 신북면 가채리 563번지 1층","category":"음료식품 - 기타음료식품"}]},{"lat":"37.904720869","long":"127.2047414","items":[{"name":"삼순이방앗간","tel":"536-1741","addr":"경기도 포천시 신북면 가채리 815-46","category":"소매업 - 방앗간"},{"name":"삼순이방앗간","tel":"031-536-1741","addr":"경기도 포천시 신북면 가채리 815-46","category":"음료식품 - 기타음료식품"}]},{"lat":"37.914191425","long":"127.21398988","items":[{"name":"상일세차장","tel":"031-533-0909","addr":"경기도 포천시 신북면 가채리 185","category":"자동차정비 유지 - 세차장"},{"name":"천호식당","tel":"031-534-7668","addr":"경기도 포천시 신북면 가채리 185번지","category":"일반휴게음식 - 일반한식"},{"name":"천호식당","tel":"534-7668","addr":"경기도 포천시 신북면 가채리 185","category":"음식 - 한식"}]},{"lat":"37.914250284","long":"127.21129491","items":[{"name":"샛별잡화","tel":"031-111-1111","addr":"경기도 포천시 신북면 가채리 211번지 세종빌라 B동 2호","category":"신변잡화 - 기타잡화"}]},{"lat":"37.905358571","long":"127.2058802","items":[{"name":"샤론어린이집[아이행복]","tel":"031-536-2013","addr":"경기도 포천시 신북면 가채리 768-7번지","category":"학원 - 유아원"}]},{"lat":"37.909770836","long":"127.21232842","items":[{"name":"샤방샤방세차장","tel":"535-8771","addr":"경기도 포천시 신북면 가채리 149-7번지","category":"서비스 - 세차장"},{"name":"애니카랜드신북점","tel":"031-535-8771","addr":"경기도 포천시 신북면 가채리 149-7번지","category":"자동차정비 유지 - 자동차정비"},{"name":"애니카신북","tel":"535-8771","addr":"경기도 포천시 신북면 가채리 149-7번지","category":"서비스  - 자동차 수리"}]},{"lat":"37.909361392","long":"127.21457875","items":[{"name":"선 디자인","tel":"031-532-4550","addr":"경기도 포천시 신북면 가채리 155-6번지 1층","category":"용역 서비스 - 사무서비스"},{"name":"선디자인","tel":"532-4550","addr":"경기도 포천시 신북면 가채리 155-6번지","category":"제조업 - 판촉,인쇄"}]},{"lat":"37.920467538","long":"127.21585022","items":[{"name":"성우상사","tel":"031-531-7775","addr":"경기도 포천시 신북면 가채리 303-6","category":"건축자재 - 보일러·펌프·샷시"},{"name":"피앙새","tel":"031-535-6560","addr":"경기도 포천시 신북면 가채리 303-6번지","category":"가구 - 일반가구"}]},{"lat":"37.920631444","long":"127.2198312","items":[{"name":"세경에프에스","tel":"031-532-9100","addr":"경기도 포천시 신북면 가채리 18번지 1층","category":"음료식품 - 정육점"}]},{"lat":"37.904521905","long":"127.20518431","items":[{"name":"소크나악기사","tel":"","addr":"경기도 포천시 신북면 가채리 815-17번지","category":"소매업 - 악기"},{"name":"소크나악기사","tel":"031-000-0000","addr":"경기도 포천시 신북면 가채리 815-17번지","category":"레져용품 - 악기점"},{"name":"소크나한양음악학원","tel":"070-4383-5770","addr":"경기도 포천시 신북면 가채리 815-17번지","category":"교육서비스 - 학원"},{"name":"소크나한양음악학원","tel":"070-4383-5770","addr":"경기도 포천시 신북면 가채리 815-17","category":"학원 - 예·체능계학원"}]},{"lat":"37.912381662","long":"127.20304522","items":[{"name":"수유","tel":"031-985-6777","addr":"경기도 포천시 신북면 가채리 580-2번지","category":"음료식품 - 농·축·수산품"}]},{"lat":"37.905912268","long":"127.20347115","items":[{"name":"신진","tel":"","addr":"경기도 포천시 신북면 가채리 828-5번지","category":"주방용구 - 주방용식기"}]},{"lat":"37.920305207","long":"127.21594073","items":[{"name":"아름다운시스템","tel":"031-535-4204","addr":"경기도 포천시 신북면 가채리 303-7","category":"용역 서비스 - 기타용역서비스"}]},{"lat":"37.905442951","long":"127.20916652","items":[{"name":"에이스냉동공조","tel":"031-536-3319","addr":"경기도 포천시 신북면 가채리 804-3번지","category":"전기제품 - 냉열기기"},{"name":"한일모터","tel":"031-535-2757","addr":"경기도 포천시 신북면 가채리 804-3","category":"건축자재 - 보일러·펌프·샷시"}]},{"lat":"37.906273547","long":"127.20293771","items":[{"name":"에이플러스 학원","tel":"031-532-1189","addr":"경기도 포천시 신북면 가채리 834-13번지","category":"학원 - 보습학원"}]},{"lat":"37.905333693","long":"127.20462937","items":[{"name":"왕방구이마당","tel":"031-532-1002","addr":"경기도 포천시 신북면 가채리 816-2번지","category":"일반휴게음식 - 일반한식"}]},{"lat":"37.904834032","long":"127.20177403","items":[{"name":"왕방초등학교","tel":"031-536-9538","addr":"경기도 포천시 신북면 가채리 819-15번지 왕방초등학교","category":"학원 - 초중고교육기관"},{"name":"왕방초등학교병설유치원[아이행복]","tel":"031-536-9573","addr":"경기도 포천시 신북면 가채리 819-15번지 왕방초등학교","category":"학원 - 유치원"}]},{"lat":"37.916549901","long":"127.21507698","items":[{"name":"월드애견","tel":"031-533-2893","addr":"경기도 포천시 신북면 가채리 287-6","category":"문화.취미 - 애완동물"}]},{"lat":"37.917690117","long":"127.22215391","items":[{"name":"은미포차","tel":"031-533-7722","addr":"경기도 포천시 신북면 가채리 929번지 신아포미재아파트 111동 101호","category":"일반휴게음식 - 일반한식"}]},{"lat":"37.918357265","long":"127.22190569","items":[{"name":"이모네떡튀순","tel":"031-536-2918","addr":"경기도 포천시 신북면 가채리 30-12번지 2층","category":"일반휴게음식 - 스넥"}]},{"lat":"37.905606628","long":"127.20830281","items":[{"name":"이석골프샵","tel":"031-534-6070","addr":"경기도 포천시 신북면 가채리 807-2번지","category":"레져용품 - 골프용품 전문점"}]},{"lat":"37.904248979","long":"127.20671856","items":[{"name":"주식회사 청마에이아이씨산업","tel":"031-534-0233","addr":"경기도 포천시 신북면 가채리 809-5번지","category":"학원 - 예·체능계학원"},{"name":"주식회사양지에프씨","tel":"070-5022-4846","addr":"경기도 포천시 신북면 가채리 809-5번지","category":"레저업소 - 기타레져업소"}]},{"lat":"37.919027299","long":"127.22009943","items":[{"name":"진스디저트카페","tel":"535-1634","addr":"경기도 포천시 신북면 가채리 27번지","category":"음식 - 제빵"},{"name":"진스디저트카페Jin's dessert&coffee","tel":"031-535-1634","addr":"경기도 포천시 신북면 가채리 27번지 1층","category":"음료식품 - 제과점"}]},{"lat":"37.910358762","long":"127.20585982","items":[{"name":"최진경/하얀집","tel":"070-4202-3280","addr":"경기도 포천시 신북면 가채리 711-1번지","category":"숙박업 - 여관/기타숙박업"}]},{"lat":"37.905357373","long":"127.2065738","items":[{"name":"카페더불어숲","tel":"031-532-1978","addr":"경기도 포천시 신북면 가채리 770번지 3층","category":"일반휴게음식 - 서양음식"},{"name":"카페더불어숲(포천지역자활센터)","tel":"532-1978","addr":"경기도 포천시 신북면 가채리 770번지 3층","category":"음식 - 커피"},{"name":"카페더불어숲2호점","tel":"031-532-1978","addr":"경기도 포천시 신북면 가채리 770번지 3층","category":"일반휴게음식 - 서양음식"}]},{"lat":"37.904215433","long":"127.20527443","items":[{"name":"탑종합설비","tel":"","addr":"경기도 포천시 신북면 가채리 815-28번지 삼성아트빌라 401호","category":"수리서비스 - 기타수리서비스"}]},{"lat":"37.905438218","long":"127.21184995","items":[{"name":"포천가설산업","tel":"031-535-9757","addr":"경기도 포천시 신북면 가채리 122번지","category":"건축자재 - 기타건축자재"}]},{"lat":"37.90538576","long":"127.20049064","items":[{"name":"포천여자중학교","tel":"031-534-6302","addr":"경기도 포천시 신북면 가채리 821번지 포천여중","category":"학원 - 초중고교육기관"}]},{"lat":"37.904190725","long":"127.20912891","items":[{"name":"포천제일농기계","tel":"031-535-2808","addr":"경기도 포천시 신북면 가채리 799-16번지","category":"농업 - 농기계"}]},{"lat":"37.907104556","long":"127.20166643","items":[{"name":"포천중학교","tel":"031-534-6902","addr":"경기도 포천시 신북면 가채리 841-1번지 포천중학교","category":"학원 - 초중고교육기관"}]},{"lat":"37.909383984","long":"127.21202031","items":[{"name":"포천충전소","tel":"533-6331","addr":"경기도 포천시 신북면 가채리 153-2번지","category":"도소매 - 충전소"}]},{"lat":"37.904748851","long":"127.20418433","items":[{"name":"포천표구사","tel":"031-534-8522","addr":"경기도 포천시 신북면 가채리 816-8번지","category":"문화.취미 - 화방·표구점"},{"name":"포천표구사","tel":"534-8522","addr":"경기도 포천시 신북면 가채리 816-8번지","category":"소매업 - 표구.액자"}]},{"lat":"37.922185678","long":"127.21229539","items":[{"name":"하나C&G","tel":"031-531-8823","addr":"경기도 포천시 신북면 가채리 328번지","category":"건축자재 - 조명기구"}]},{"lat":"37.916328161","long":"127.20802557","items":[{"name":"해뜨는집","tel":"031-535-5076","addr":"경기도 포천시 신북면 가채리 486","category":"기타의료기관 - 기타의료기관 및 기타"}]},{"lat":"37.912277243","long":"127.21632696","items":[{"name":"현대테크","tel":"","addr":"경기도 포천시 신북면 가채리 172-2번지","category":"전기제품 - 기타전기제품"}]}]