[{"lat":"37.619556177","long":"126.83242373","items":[{"name":"골목길","tel":"031-972-3037","addr":"경기도 고양시 덕양구 행신로","category":"일반휴게음식 - 일반한식"}]},{"lat":"37.612722424","long":"126.82340132","items":[{"name":"동막골풀잎사랑","tel":"031-978-4245","addr":"경기도 고양시 덕양구 행신로","category":"문화.취미 - 화원"}]},{"lat":"37.619249618","long":"126.83226586","items":[{"name":"따봉","tel":"031-979-2299","addr":"경기도 고양시 덕양구 행신로","category":"레저업소 - 노 래 방"}]},{"lat":"37.617636225","long":"126.82571145","items":[{"name":"소리샘피아노학원","tel":"031-974-8700","addr":"경기도 고양시 덕양구 행신로","category":"학원 - 예·체능계학원"}]},{"lat":"37.61074644","long":"126.82153735","items":[{"name":"씨엠컴퍼니(CM company)","tel":"02-2677-8888","addr":"경기도 고양시 덕양구 행신로","category":"의류 - 아동의류"}]},{"lat":"37.619610725","long":"126.83276341","items":[{"name":"엄지검지네일#","tel":"031-979-4153","addr":"경기도 고양시 덕양구 행신로","category":"보건위생 - 피부미용실"}]},{"lat":"37.621637135","long":"126.84517339","items":[{"name":"짠","tel":"031-978-2594","addr":"경기도 고양시 덕양구 행신로","category":"일반휴게음식 - 일반한식"}]},{"lat":"37.619500862","long":"126.84445299","items":[{"name":"참나라","tel":"031-972-2230","addr":"경기도 고양시 덕양구 행신로","category":"일반휴게음식 - 일반한식"}]},{"lat":"37.620690706","long":"126.84486956","items":[{"name":"청풍명월","tel":"031-943-6265","addr":"경기도 고양시 덕양구 행신로","category":"일반휴게음식 - 일반한식"}]},{"lat":"37.619357292","long":"126.83195978","items":[{"name":"플렉스짐","tel":"031-974-9682","addr":"경기도 고양시 덕양구 행신로","category":"회원제형태 - 레져업소"}]},{"lat":"37.619195838","long":"126.83245853","items":[{"name":"해법북경중국어교습소","tel":"031-974-5153","addr":"경기도 고양시 덕양구 행신로","category":"회원제형태 - 학원"}]}]