[{"lat":"37.396245045","long":"126.91415134","items":[{"name":"글라스스토리안경콘택트 안양점","tel":"031-445-9613","addr":"경기도 안양시 만안구 양화로","category":"보건위생 - 안경"}]},{"lat":"37.403773838","long":"126.90943273","items":[{"name":"금사랑","tel":"031-466-1418","addr":"경기도 안양시 만안구 양화로","category":"신변잡화 - 귀금속"}]},{"lat":"37.40474646","long":"126.90884421","items":[{"name":"금성노래연습장","tel":"031-447-6466","addr":"경기도 안양시 만안구 양화로","category":"레저업소 - 노 래 방"}]},{"lat":"37.404827533","long":"126.90882152","items":[{"name":"나무야","tel":"031-464-5218","addr":"경기도 안양시 만안구 양화로","category":"의류 - 아동의류"}]},{"lat":"37.40685422","long":"126.90809612","items":[{"name":"대청마루","tel":"031-468-2345","addr":"경기도 안양시 만안구 양화로","category":"일반휴게음식 - 일반한식"}]},{"lat":"37.40410738","long":"126.90964691","items":[{"name":"류당구클럽","tel":"031-466-7884","addr":"경기도 안양시 만안구 양화로","category":"레저업소 - 당 구 장"}]},{"lat":"37.396523177","long":"126.91259255","items":[{"name":"맘스터치(연성대점)","tel":"","addr":"경기도 안양시 만안구 양화로","category":"일반휴게음식 - 서양음식"}]},{"lat":"37.405251131","long":"126.90897912","items":[{"name":"미성","tel":"031-443-7866","addr":"경기도 안양시 만안구 양화로","category":"건축자재 - 페인트"}]},{"lat":"37.405610985","long":"126.9082897","items":[{"name":"박달호치과의원","tel":"031-445-2875","addr":"경기도 안양시 만안구 양화로","category":"의원 - 치과의원"}]},{"lat":"37.3975237","long":"126.91312214","items":[{"name":"오성인테리어","tel":"031-444-9540","addr":"경기도 안양시 만안구 양화로","category":"직물 - 카페트,커튼,천막,지물"}]},{"lat":"37.394966664","long":"126.91556447","items":[{"name":"왕도돼지갈비","tel":"031-466-1063","addr":"경기도 안양시 만안구 양화로","category":"일반휴게음식 - 일반한식"}]},{"lat":"37.398667748","long":"126.91281585","items":[{"name":"웰덤치킨","tel":"031-445-8288","addr":"경기도 안양시 만안구 양화로","category":"일반휴게음식 - 서양음식"}]},{"lat":"37.398829912","long":"126.91279307","items":[{"name":"윌프로덕츠(W.I.L Products)","tel":"070-8870-0518","addr":"경기도 안양시 만안구 양화로","category":"사무통신 - 통신기기"}]},{"lat":"37.406160354","long":"126.90798405","items":[{"name":"진영설비","tel":"031-466-8804","addr":"경기도 안양시 만안구 양화로","category":"용역 서비스 - 기타용역서비스"}]},{"lat":"37.40677273","long":"126.90759926","items":[{"name":"참우곱창구이산숯불꼼장어","tel":"031-442-8677","addr":"경기도 안양시 만안구 양화로","category":"일반휴게음식 - 일반한식"}]},{"lat":"37.404665387","long":"126.9088669","items":[{"name":"해동검도","tel":"031-444-2942","addr":"경기도 안양시 만안구 양화로","category":"레저업소 - 기타레져업소"}]},{"lat":"37.404251497","long":"126.90959026","items":[{"name":"홍두깨칼국수","tel":"031-449-3663","addr":"경기도 안양시 만안구 양화로","category":"일반휴게음식 - 일반한식"}]}]