[{"lat":"36.929672637","long":"127.22457826","items":[{"name":"(주)남안성종합폐차장","tel":"031-674-5665","addr":"경기도 안성시 서운면 현매리 229-12번지","category":"자동차정비 유지 - 가타자동차서비스"}]},{"lat":"36.933282998","long":"127.22616015","items":[{"name":"(주)에이치티에스/원격지","tel":"031-672-0323","addr":"경기도 안성시 서운면 현매리 261-1","category":"기타 - 기타 전문점"}]},{"lat":"36.93705701","long":"127.22213013","items":[{"name":"광훈농장","tel":"031-672-9293","addr":"경기도 안성시 서운면 현매리 444번지","category":"음료식품 - 농·축·수산품"},{"name":"북골농장","tel":"070-1111-1111","addr":"경기도 안성시 서운면 현매리 444번지","category":"음료식품 - 농·축·수산품"}]},{"lat":"36.934116551","long":"127.21380426","items":[{"name":"대한테크","tel":"070-8842-5865","addr":"경기도 안성시 서운면 현매리 733-1번지 1층","category":"용역 서비스 - 기타용역서비스"}]},{"lat":"36.929008535","long":"127.22312846","items":[{"name":"바론","tel":"031-225-2300","addr":"경기도 안성시 서운면 현매리 231-7번지","category":"자동차정비 유지 - 카인테리어"},{"name":"주식회사한중특장","tel":"031-284-6060","addr":"경기도 안성시 서운면 현매리 231-7번지","category":"자동차판매 - 기타운송"},{"name":"하늘그래픽","tel":"031-677-9230","addr":"경기도 안성시 서운면 현매리 231-7번지","category":"건축자재 - 인테리어전문"},{"name":"한중특장 서비스","tel":"031-671-4301","addr":"경기도 안성시 서운면 현매리 231-7번지 1층","category":"자동차정비 유지 - 중장비수리"}]},{"lat":"36.928893439","long":"127.22685445","items":[{"name":"삼삼추어탕","tel":"031-673-3057","addr":"경기도 안성시 서운면 현매리 223번지","category":"일반휴게음식 - 일반한식"}]},{"lat":"36.936391971","long":"127.23077145","items":[{"name":"안성싱싱대추농원","tel":"031-675-9044","addr":"경기도 안성시 서운면 현매리 126-4번지","category":"음료식품 - 농·축·수산품"}]},{"lat":"36.928470844","long":"127.22637059","items":[{"name":"일품짜장","tel":"","addr":"경기도 안성시 서운면 현매리 224-19번지 1층","category":"일반휴게음식 - 중국식"}]},{"lat":"36.932835991","long":"127.22427314","items":[{"name":"주식회사 스카이젠 (SKYZEN Co.Ltd.)","tel":"031-677-5684","addr":"경기도 안성시 서운면 현매리 267-1번지","category":"건축자재 - 보일러·펌프·샷시"}]},{"lat":"36.939591329","long":"127.22574076","items":[{"name":"푸드홈미","tel":"031-672-1789","addr":"경기도 안성시 서운면 현매리 325-3번지","category":"음료식품 - 기타음료식품"}]},{"lat":"36.935699371","long":"127.23012957","items":[{"name":"현매초등학교","tel":"031-673-2386","addr":"경기도 안성시 서운면 현매리 193번지 현매초등학교","category":"학원 - 초중고교육기관"}]},{"lat":"36.945451025","long":"127.2290808","items":[{"name":"현철농장","tel":"031-672-9560","addr":"경기도 안성시 서운면 현매리 37-1번지","category":"음료식품 - 농·축·수산품"}]},{"lat":"36.93620253","long":"127.23088313","items":[{"name":"황금포도원","tel":"031-677-9057","addr":"경기도 안성시 서운면 현매리 126-3번지","category":"음료식품 - 농·축·수산품"}]}]