[{"lat":"37.813261631","long":"127.4442477","items":[{"name":"가평두밀리청정잣","tel":"031-581-4061","addr":"경기도 가평군 가평읍 두밀리 252-7번지 1층","category":"음료식품 - 농·축·수산품"},{"name":"대금산건강즙","tel":"031-581-4061","addr":"경기도 가평군 가평읍 두밀리 252-7번지 1층","category":"건강식품 - 기타건강식품"}]},{"lat":"37.815204391","long":"127.4546165","items":[{"name":"그라티아 글램핑장","tel":"031-581-5817","addr":"경기도 가평군 가평읍 두밀리 216번지","category":"숙박업 - 여관/기타숙박업"}]},{"lat":"37.815154679","long":"127.45583136","items":[{"name":"그라티아펜션","tel":"031-581-5817","addr":"경기도 가평군 가평읍 두밀리 40번지","category":"숙박업 - 여관/기타숙박업"}]},{"lat":"37.814905314","long":"127.466664","items":[{"name":"남이섬소나기펜션","tel":"031-581-0583","addr":"경기도 가평군 가평읍 두밀리 2-19 46/1","category":"숙박업 - 여관/기타숙박업"}]},{"lat":"37.813293714","long":"127.44289648","items":[{"name":"농업회사법인 주식회사 두밀","tel":"","addr":"경기도 가평군 가평읍 두밀리 283-2번지","category":"숙박업 - 여관/기타숙박업"}]},{"lat":"37.821846138","long":"127.44702464","items":[{"name":"농업회사법인 주식회사 솔다람웰빙","tel":"031-581-9339","addr":"경기도 가평군 가평읍 두밀리 144-8번지 A,B동","category":"레저업소 - 기타레져업소"}]},{"lat":"37.814481971","long":"127.42594826","items":[{"name":"대금산농원","tel":"031-581-3326","addr":"경기도 가평군 가평읍 두밀리 595-4번지","category":"음료식품 - 농·축·수산품"}]},{"lat":"37.812210031","long":"127.43383919","items":[{"name":"두밀농원","tel":"031-582-1749","addr":"경기도 가평군 가평읍 두밀리 509-3번지","category":"음료식품 - 농·축·수산품"}]},{"lat":"37.816093551","long":"127.46000502","items":[{"name":"두밀연수원","tel":"031-581-1253","addr":"경기도 가평군 가평읍 두밀리 11-2번지","category":"학원 - 기타 교육기관"}]},{"lat":"37.81792668","long":"127.45891469","items":[{"name":"라움펜션","tel":"031-582-5769","addr":"경기도 가평군 가평읍 두밀리 17-9번지","category":"숙박업 - 여관/기타숙박업"}]},{"lat":"37.823653765","long":"127.44788732","items":[{"name":"루루","tel":"032-666-0000","addr":"경기도 가평군 가평읍 두밀리 114-2번지 A동,B동","category":"숙박업 - 여관/기타숙박업"}]},{"lat":"37.816402143","long":"127.45708823","items":[{"name":"리프레쉬","tel":"031-581-1310","addr":"경기도 가평군 가평읍 두밀리 28-1번지","category":"유통업 영리 - 슈퍼마켓"}]},{"lat":"37.816508982","long":"127.45741823","items":[{"name":"리프레쉬","tel":"031-581-1310","addr":"경기도 가평군 가평읍 두밀리 28-6번지","category":"숙박업 - 여관/기타숙박업"}]},{"lat":"37.818567297","long":"127.45866878","items":[{"name":"마리누스","tel":"031-5175-8853","addr":"경기도 가평군 가평읍 두밀리 52번지","category":"숙박업 - 여관/기타숙박업"}]},{"lat":"37.816152964","long":"127.45394087","items":[{"name":"멀리가는향기","tel":"031-581-5955","addr":"경기도 가평군 가평읍 두밀리 209-1","category":"숙박업 - 여관/기타숙박업"}]},{"lat":"37.817897407","long":"127.44050476","items":[{"name":"모짜르트","tel":"031-582-3585","addr":"경기도 가평군 가평읍 두밀리 351","category":"숙박업 - 여관/기타숙박업"}]},{"lat":"37.815319288","long":"127.46678016","items":[{"name":"시크릿문 펜션","tel":"031-582-0001","addr":"경기도 가평군 가평읍 두밀리 2-23번지","category":"숙박업 - 여관/기타숙박업"}]},{"lat":"37.814817635","long":"127.4660502","items":[{"name":"아이디펜션","tel":"031-581-6356","addr":"경기도 가평군 가평읍 두밀리 2-26","category":"숙박업 - 여관/기타숙박업"}]},{"lat":"37.815985761","long":"127.44336673","items":[{"name":"에일린","tel":"031-581-4422","addr":"경기도 가평군 가평읍 두밀리 337-3번지","category":"숙박업 - 여관/기타숙박업"}]},{"lat":"37.816121663","long":"127.44316312","items":[{"name":"에일린","tel":"031-581-4422","addr":"경기도 가평군 가평읍 두밀리 337번지","category":"숙박업 - 여관/기타숙박업"}]},{"lat":"37.812014656","long":"127.4305902","items":[{"name":"여우가달을사랑할때","tel":"031-582-4240","addr":"경기도 가평군 가평읍 두밀리 593번지","category":"숙박업 - 여관/기타숙박업"}]},{"lat":"37.818454347","long":"127.45758915","items":[{"name":"오나르펜션","tel":"031-582-1124","addr":"경기도 가평군 가평읍 두밀리 56-3번지","category":"숙박업 - 여관/기타숙박업"}]},{"lat":"37.81476157","long":"127.46656089","items":[{"name":"온워드펜션","tel":"031-000-0000","addr":"경기도 가평군 가평읍 두밀리 2-32번지","category":"숙박업 - 여관/기타숙박업"}]},{"lat":"37.828151855","long":"127.43758935","items":[{"name":"올가펜션","tel":"031-581-5704","addr":"경기도 가평군 가평읍 두밀리 448번지","category":"숙박업 - 여관/기타숙박업"}]},{"lat":"37.815176125","long":"127.46652942","items":[{"name":"위드펜션","tel":"031-582-6674","addr":"경기도 가평군 가평읍 두밀리 2-22번지","category":"숙박업 - 여관/기타숙박업"}]},{"lat":"37.812375413","long":"127.44272069","items":[{"name":"천수바이오(주)","tel":"070-4274-0186","addr":"경기도 가평군 가평읍 두밀리 285-2번지","category":"음료식품 - 기타음료식품"}]},{"lat":"37.814593344","long":"127.46581031","items":[{"name":"카라펜션","tel":"031-581-9130","addr":"경기도 가평군 가평읍 두밀리 2-16번지","category":"숙박업 - 여관/기타숙박업"}]},{"lat":"37.811153191","long":"127.42964268","items":[{"name":"카밍힐","tel":"","addr":"경기도 가평군 가평읍 두밀리 602-2번지","category":"숙박업 - 여관/기타숙박업"}]},{"lat":"37.817543019","long":"127.45794699","items":[{"name":"쿠잉 펜션 편의점","tel":"","addr":"경기도 가평군 가평읍 두밀리 19-3번지","category":"음료식품 - 기타음료식품"}]},{"lat":"37.815987563","long":"127.46177602","items":[{"name":"퀸마리펜션","tel":"031-581-5075","addr":"경기도 가평군 가평읍 두밀리 4-10","category":"숙박업 - 여관/기타숙박업"}]},{"lat":"37.815427533","long":"127.45750245","items":[{"name":"테라스펜션","tel":"031-581-7707","addr":"경기도 가평군 가평읍 두밀리 215-12","category":"숙박업 - 여관/기타숙박업"}]}]