[{"lat":"37.064513766","long":"126.85374386","items":[{"name":"(주)대성버켓","tel":"031-358-4894","addr":"경기도 화성시 장안면 독정리 364-7번지","category":"기타 - 기계공구"}]},{"lat":"37.085566963","long":"126.85019358","items":[{"name":"(주)서울렌탈","tel":"031-292-1007","addr":"경기도 화성시 장안면 독정리 737-22번지","category":"용역 서비스 - 종합용역"}]},{"lat":"37.082590307","long":"126.85479936","items":[{"name":"(주)엘스","tel":"031-8059-8900","addr":"경기도 화성시 장안면 독정리 698-32번지","category":"전기제품 - 냉열기기"}]},{"lat":"37.07987246","long":"126.86504984","items":[{"name":"(주)제이앤씨미디어센터","tel":"031-358-8600","addr":"경기도 화성시 장안면 독정리 76-3번지 3층","category":"용역 서비스 - 종합용역"},{"name":"제이앤씨드라마캠프(주)","tel":"031-358-8600","addr":"경기도 화성시 장안면 독정리 76-3번지","category":"용역 서비스 - 종합용역"}]},{"lat":"37.079424017","long":"126.85921396","items":[{"name":"24시 지게차","tel":"031-358-6620","addr":"경기도 화성시 장안면 독정리 665-5번지","category":"자동차판매 - 기타운송"}]},{"lat":"37.072174027","long":"126.85475215","items":[{"name":"GS25화성독정점","tel":"","addr":"경기도 화성시 장안면 독정리 547-3번지","category":"유통업 영리 - 편 의 점"}]},{"lat":"37.080066524","long":"126.85414075","items":[{"name":"GS25화성장안로점","tel":"","addr":"경기도 화성시 장안면 독정리 708-6번지","category":"유통업 영리 - 편 의 점"}]},{"lat":"37.072868695","long":"126.85543675","items":[{"name":"JJ모터스","tel":"031-351-4728","addr":"경기도 화성시 장안면 독정리 470번지","category":"자동차정비 유지 - 자동차정비"},{"name":"제이제이(JJ)카세탁","tel":"02-000-0000","addr":"경기도 화성시 장안면 독정리 470번지","category":"자동차정비 유지 - 세차장"}]},{"lat":"37.079423143","long":"126.85849422","items":[{"name":"건강종합약국","tel":"031-358-3707","addr":"경기도 화성시 장안면 독정리 660-13번지","category":"약국 - 약국"},{"name":"성원식당","tel":"031-351-8311","addr":"경기도 화성시 장안면 독정리 660-13","category":"일반휴게음식 - 일반한식"}]},{"lat":"37.083786505","long":"126.86035289","items":[{"name":"대박식당","tel":"031-351-9393","addr":"경기도 화성시 장안면 독정리 115-13번지","category":"일반휴게음식 - 일반한식"},{"name":"스타마트","tel":"031-358-5737","addr":"경기도 화성시 장안면 독정리 115-13번지","category":"유통업 영리 - 슈퍼마켓"}]},{"lat":"37.067869083","long":"126.84932952","items":[{"name":"댕댕라운지","tel":"","addr":"경기도 화성시 장안면 독정리 947-2번지","category":"일반휴게음식 - 서양음식"}]},{"lat":"37.083975361","long":"126.86004888","items":[{"name":"더킷캠핑","tel":"","addr":"경기도 화성시 장안면 독정리 115-4번지","category":"레져용품 - 스포츠·레져용품"}]},{"lat":"37.061622584","long":"126.85471645","items":[{"name":"동아특장","tel":"031-372-9491","addr":"경기도 화성시 장안면 독정리 356-1번지","category":"자동차판매 - 기타운송"}]},{"lat":"37.066843098","long":"126.8502761","items":[{"name":"두오즈","tel":"031-358-3670","addr":"경기도 화성시 장안면 독정리 952-4번지","category":"일반휴게음식 - 일반한식"}]},{"lat":"37.077006652","long":"126.85713808","items":[{"name":"뜰","tel":"031-351-8258","addr":"경기도 화성시 장안면 독정리 628-24번지 외1필지","category":"일반휴게음식 - 스넥"},{"name":"모이세 기사 식당","tel":"070-4652-2867","addr":"경기도 화성시 장안면 독정리 628-24번지 1층","category":"일반휴게음식 - 일반한식"},{"name":"세븐일레븐독정수정로점","tel":"031-1577-0711","addr":"경기도 화성시 장안면 독정리 628-24번지","category":"유통업 영리 - 편 의 점"},{"name":"조암순대국","tel":"","addr":"경기도 화성시 장안면 독정리 628-24번지 2동 1층","category":"일반휴게음식 - 일반한식"}]},{"lat":"37.069408384","long":"126.84816823","items":[{"name":"만나한식","tel":"031-366-0290","addr":"경기도 화성시 장안면 독정리 928-2번지 2동 1층","category":"일반휴게음식 - 일반한식"}]},{"lat":"37.082975624","long":"126.86041064","items":[{"name":"만세푸드협동조합(장안지점)","tel":"031-351-8333","addr":"경기도 화성시 장안면 독정리 115-15번지","category":"일반휴게음식 - 서양음식"},{"name":"에이치푸드","tel":"031-351-2928","addr":"경기도 화성시 장안면 독정리 115-15번지","category":"일반휴게음식 - 일반한식"},{"name":"치킨&피자포스","tel":"031-358-9293","addr":"경기도 화성시 장안면 독정리 115-15번지 A동 1층(외1필지)","category":"일반휴게음식 - 서양음식"}]},{"lat":"37.077036381","long":"126.86700047","items":[{"name":"매크로드","tel":"","addr":"경기도 화성시 장안면 독정리 227-6번지","category":"건축자재 - 기타건축자재"},{"name":"바두자동차정비기기","tel":"031-529-5247","addr":"경기도 화성시 장안면 독정리 227-6번지","category":"기타 - 기계공구"}]},{"lat":"37.076726118","long":"126.85616024","items":[{"name":"명동식당","tel":"031-358-5208","addr":"경기도 화성시 장안면 독정리 599-16번지 1층","category":"일반휴게음식 - 일반한식"}]},{"lat":"37.06911943","long":"126.84769654","items":[{"name":"명성카","tel":"031-358-3436","addr":"경기도 화성시 장안면 독정리 928-2번지","category":"자동차정비 유지 - 자동차정비"},{"name":"종합카센타","tel":"031-358-8982","addr":"경기도 화성시 장안면 독정리 928-2번지","category":"자동차정비 유지 - 자동차시트·타이어"}]},{"lat":"37.073871562","long":"126.84358236","items":[{"name":"모던","tel":"031-358-1468","addr":"경기도 화성시 장안면 독정리 795-4번지 A동,B동","category":"수리서비스 - 세탁소"}]},{"lat":"37.077420417","long":"126.85655251","items":[{"name":"밥이조암","tel":"031-358-0067","addr":"경기도 화성시 장안면 독정리 628-20번지","category":"일반휴게음식 - 일반한식"}]},{"lat":"37.078925456","long":"126.85677453","items":[{"name":"밥향기푸드","tel":"031-351-2240","addr":"경기도 화성시 장안면 독정리 635-2번지 1동 1층","category":"일반휴게음식 - 일반한식"}]},{"lat":"37.082921358","long":"126.86024205","items":[{"name":"붕붕모터스","tel":"031-358-6665","addr":"경기도 화성시 장안면 독정리 115-8","category":"자동차정비 유지 - 자동차정비"}]},{"lat":"37.06040334","long":"126.87557499","items":[{"name":"뻔뻔농원 (Fun Fun Farm)","tel":"031-000-0000","addr":"경기도 화성시 장안면 독정리 1664번지","category":"음료식품 - 농·축·수산품"}]},{"lat":"37.079703616","long":"126.85943836","items":[{"name":"삼영볼트공업사","tel":"031-358-7285","addr":"경기도 화성시 장안면 독정리 120-3번지 1층","category":"기타 - 기계공구"}]},{"lat":"37.070346594","long":"126.84902092","items":[{"name":"세븐일레븐화성독정대로점","tel":"031-1577-0711","addr":"경기도 화성시 장안면 독정리 803-36번지","category":"유통업 영리 - 편 의 점"},{"name":"장안루","tel":"031-351-0066","addr":"경기도 화성시 장안면 독정리 803-36번지","category":"일반휴게음식 - 중국식"},{"name":"정원","tel":"031-358-8598","addr":"경기도 화성시 장안면 독정리 803-36번지 7호,8호","category":"일반휴게음식 - 일반한식"}]},{"lat":"37.080678294","long":"126.85338606","items":[{"name":"소반한식뷔페","tel":"031-351-6014","addr":"경기도 화성시 장안면 독정리 721번지","category":"일반휴게음식 - 일반한식"}]},{"lat":"37.083980702","long":"126.84988185","items":[{"name":"승골농장","tel":"031-000-0000","addr":"경기도 화성시 장안면 독정리 755번지","category":"음료식품 - 농·축·수산품"}]},{"lat":"37.086149833","long":"126.84802174","items":[{"name":"시골집","tel":"031-351-0045","addr":"경기도 화성시 장안면 독정리 767-8번지","category":"일반휴게음식 - 일반한식"}]},{"lat":"37.078033951","long":"126.85721483","items":[{"name":"씨유화성에이스점","tel":"031-351-4531","addr":"경기도 화성시 장안면 독정리 628-18번지 1층","category":"유통업 영리 - 편 의 점"},{"name":"표가네왕족발","tel":"031-358-8292","addr":"경기도 화성시 장안면 독정리 628-18번지","category":"일반휴게음식 - 일반한식"}]},{"lat":"37.070982286","long":"126.86788837","items":[{"name":"에스제이이엔지","tel":"031-351-5878","addr":"경기도 화성시 장안면 독정리 276-85","category":"기타 - 기계공구"}]},{"lat":"37.080118441","long":"126.85971873","items":[{"name":"에프엘뱅크","tel":"031-366-0456","addr":"경기도 화성시 장안면 독정리 119-4번지","category":"자동차정비 유지 - 자동차부품"}]},{"lat":"37.075842401","long":"126.85561092","items":[{"name":"엑스오자원","tel":"031-351-6311","addr":"경기도 화성시 장안면 독정리 599-14번지","category":"건축자재 - 목재·석재·철물"}]},{"lat":"37.078256311","long":"126.86227504","items":[{"name":"용이네한식전문","tel":"031-111-1111","addr":"경기도 화성시 장안면 독정리 177-1번지","category":"일반휴게음식 - 일반한식"}]},{"lat":"37.066068868","long":"126.85080612","items":[{"name":"우진산업주식회사","tel":"031-658-2053","addr":"경기도 화성시 장안면 독정리 952-9번지","category":"전기제품 - 가전제품"}]},{"lat":"37.070092643","long":"126.84775078","items":[{"name":"원창버켓","tel":"031-378-5486","addr":"경기도 화성시 장안면 독정리 803-6번지","category":"수리서비스 - 기타수리서비스"}]},{"lat":"37.07070757","long":"126.84944749","items":[{"name":"이모네한식부페","tel":"031-358-0092","addr":"경기도 화성시 장안면 독정리 1153번지","category":"일반휴게음식 - 일반한식"}]},{"lat":"37.07822609","long":"126.85960983","items":[{"name":"일품정육식당","tel":"031-358-5827","addr":"경기도 화성시 장안면 독정리 166-2번지","category":"일반휴게음식 - 일반한식"},{"name":"일품정육식당","tel":"031-358-5827","addr":"경기도 화성시 장안면 독정리 166-2번지","category":"음료식품 - 정육점"}]},{"lat":"37.065846039","long":"126.85271804","items":[{"name":"장미푸드","tel":"031-351-2660","addr":"경기도 화성시 장안면 독정리 950-14번지 1층","category":"일반휴게음식 - 일반한식"}]},{"lat":"37.077231915","long":"126.85713765","items":[{"name":"전설의짬뽕","tel":"031-351-7449","addr":"경기도 화성시 장안면 독정리 628-2번지","category":"일반휴게음식 - 중국식"}]},{"lat":"37.073399238","long":"126.84753039","items":[{"name":"주식회사 새론특장","tel":"031-8059-4412","addr":"경기도 화성시 장안면 독정리 518-5번지","category":"자동차판매 - 기타운송"}]},{"lat":"37.083061379","long":"126.85683408","items":[{"name":"주식회사 정운식품","tel":"031-000-0000","addr":"경기도 화성시 장안면 독정리 698-23번지","category":"음료식품 - 기타음료식품"}]},{"lat":"37.083896758","long":"126.84768892","items":[{"name":"주식회사 코리아바이트공구","tel":"031-239-1179","addr":"경기도 화성시 장안면 독정리 763-17번지","category":"기타 - 기계공구"}]},{"lat":"37.065484313","long":"126.84478052","items":[{"name":"찬우물가든","tel":"031-353-0563","addr":"경기도 화성시 장안면 독정리 895-1","category":"일반휴게음식 - 일반한식"}]},{"lat":"37.073120346","long":"126.85491899","items":[{"name":"창무금속","tel":"031-351-5862","addr":"경기도 화성시 장안면 독정리 471-4","category":"기타 - 기계공구"}]},{"lat":"37.08328437","long":"126.86241196","items":[{"name":"천광금속","tel":"070-7584-8953","addr":"경기도 화성시 장안면 독정리 112-1","category":"기타 - 기계공구"}]},{"lat":"37.082926005","long":"126.84952408","items":[{"name":"태성에너지","tel":"031-351-9331","addr":"경기도 화성시 장안면 독정리 758-10","category":"연료판매점 - LPG 취급점"}]},{"lat":"37.061596728","long":"126.85566094","items":[{"name":"토리밸리","tel":"070-7862-1697","addr":"경기도 화성시 장안면 독정리 355-10번지 C동 1층","category":"일반휴게음식 - 일반한식"}]},{"lat":"37.071397327","long":"126.85332557","items":[{"name":"한터가든","tel":"031-351-7855","addr":"경기도 화성시 장안면 독정리 478-2번지","category":"일반휴게음식 - 일반한식"}]},{"lat":"37.079261636","long":"126.85905683","items":[{"name":"해태카센타","tel":"031-351-5109","addr":"경기도 화성시 장안면 독정리 662-3","category":"자동차정비 유지 - 자동차정비"}]},{"lat":"37.079643508","long":"126.85452394","items":[{"name":"현대독정카센타","tel":"031-351-5399","addr":"경기도 화성시 장안면 독정리 708-3번지","category":"자동차정비 유지 - 자동차정비"}]},{"lat":"37.075424797","long":"126.86043602","items":[{"name":"현대산업","tel":"031-8050-7310","addr":"경기도 화성시 장안면 독정리 461-27번지","category":"유통업 영리 - 기타유통업"}]},{"lat":"37.07553628","long":"126.85580268","items":[{"name":"화성목재","tel":"031-358-5671","addr":"경기도 화성시 장안면 독정리 599-26번지","category":"건축자재 - 목재·석재·철물"}]},{"lat":"37.076456122","long":"126.86390897","items":[{"name":"화성양계장","tel":"031-351-3014","addr":"경기도 화성시 장안면 독정리 221-1번지","category":"음료식품 - 농·축·수산품"}]}]