[{"lat":"37.012127617","long":"126.90793688","items":[{"name":"Cafe산책","tel":"031-683-0101","addr":"경기도 평택시 안중읍 덕우리 540-15번지 A동","category":"일반휴게음식 - 서양음식"}]},{"lat":"37.010180528","long":"126.91884928","items":[{"name":"골드모터스","tel":"031-683-7658","addr":"경기도 평택시 안중읍 덕우리 427-1 6~8호","category":"자동차정비 유지 - 자동차부품"},{"name":"살살녹소","tel":"031-681-0230","addr":"경기도 평택시 안중읍 덕우리 427-1번지 B동 101호","category":"일반휴게음식 - 일반한식"},{"name":"자성화코다리맛집","tel":"031-684-9592","addr":"경기도 평택시 안중읍 덕우리 427-1번지 A동 3호,4호","category":"일반휴게음식 - 일반한식"},{"name":"차이나스토리","tel":"031-681-0866","addr":"경기도 평택시 안중읍 덕우리 427-1번지 101호","category":"일반휴게음식 - 중국식"},{"name":"청북타일","tel":"031-681-1411","addr":"경기도 평택시 안중읍 덕우리 427-1번지 B동 108호","category":"건축자재 - 건축용 요업제품"},{"name":"푸른","tel":"031-681-1152","addr":"경기도 평택시 안중읍 덕우리 427-1번지 B동 8호","category":"건축자재 - 기타건축자재"},{"name":"하우스토리","tel":"031-682-6742","addr":"경기도 평택시 안중읍 덕우리 427-1번지 B동 6호","category":"건축자재 - 인테리어전문"}]},{"lat":"37.014486366","long":"126.91708042","items":[{"name":"까오짜장","tel":"","addr":"경기도 평택시 안중읍 덕우리 395-25번지","category":"일반휴게음식 - 중국식"}]},{"lat":"37.01215304","long":"126.91768979","items":[{"name":"보쉬카서비스 바른차","tel":"031-686-8297","addr":"경기도 평택시 안중읍 덕우리 380-17번지","category":"자동차정비 유지 - 자동차정비"},{"name":"보쉬카서비스바른차","tel":"031-682-4976","addr":"경기도 평택시 안중읍 덕우리 380-17번지","category":"서비스업 - 자동차정비"}]},{"lat":"37.002855739","long":"126.92012687","items":[{"name":"상전특장(상전자동차중기공장)","tel":"031-681-5001","addr":"경기도 평택시 안중읍 덕우리 94-20번지","category":"기타 - 기타 전문점"}]},{"lat":"37.013791752","long":"126.91599127","items":[{"name":"서평택공조","tel":"031-682-4338","addr":"경기도 평택시 안중읍 덕우리 439번지","category":"전기제품 - 가전제품"}]},{"lat":"37.014243135","long":"126.91715935","items":[{"name":"애니카랜드청북점","tel":"031-681-0981","addr":"경기도 평택시 안중읍 덕우리 395-27번지","category":"자동차정비 유지 - 자동차정비"},{"name":"프로세차장","tel":"031-282-6003","addr":"경기도 평택시 안중읍 덕우리 395-27번지","category":"자동차정비 유지 - 세차장"}]},{"lat":"37.001297257","long":"126.92065658","items":[{"name":"와인리","tel":"070-8870-3274","addr":"경기도 평택시 안중읍 덕우리 87-13번지 (주)밀진인터내셔날 A동 1층","category":"음료식품 - 주류 판매점"}]},{"lat":"37.013101964","long":"126.90944133","items":[{"name":"주식회사붉은노을/노을과오리","tel":"031-684-5295","addr":"경기도 평택시 안중읍 덕우리 474-3","category":"일반휴게음식 - 일반한식"}]},{"lat":"37.00501798","long":"126.91966389","items":[{"name":"현민산업개발","tel":"031-684-7755","addr":"경기도 평택시 안중읍 덕우리 139-2번지","category":"건축자재 - 인테리어전문"}]}]