[{"lat":"38.03761344","long":"127.0340134","items":[{"name":"4H상사","tel":"031-865-7807","addr":"경기도 연천군 군남면 황지리 450번지","category":"연료판매점 - 기타연료"}]},{"lat":"38.04789038","long":"127.0421748","items":[{"name":"경기가스","tel":"031-832-5944","addr":"경기도 연천군 군남면 황지리 212-2번지","category":"연료판매점 - LPG 취급점"}]},{"lat":"38.02953075","long":"127.0393176","items":[{"name":"기사님식당","tel":"031-833-2552","addr":"경기도 연천군 군남면 황지리 350-6번지","category":"일반휴게음식 - 일반한식"}]},{"lat":"38.02939509","long":"127.0409804","items":[{"name":"농업회사법인 반디농부주식회사","tel":"031-866-0339","addr":"경기도 연천군 군남면 황지리 899번지","category":"음료식품 - 농·축·수산품"}]},{"lat":"38.0495296","long":"127.0434517","items":[{"name":"농업회사법인 주식회사 이경","tel":"031-832-3886","addr":"경기도 연천군 군남면 황지리 230번지","category":"음료식품 - 농·축·수산품"}]},{"lat":"38.03114264","long":"127.0416419","items":[{"name":"모아베리교육농장","tel":"031-832-8694","addr":"경기도 연천군 군남면 황지리 892번지","category":"음료식품 - 농·축·수산품"}]},{"lat":"38.03764168","long":"127.0290583","items":[{"name":"물꽃캠핑장","tel":"070-4247-2787","addr":"경기도 연천군 군남면 황지리 634-1번지","category":"레저업소 - 기타레져업소"}]},{"lat":"38.02975611","long":"127.0388963","items":[{"name":"빈트리이백이십오","tel":"031-832-3863","addr":"경기도 연천군 군남면 황지리 346-2번지 군남교회1층","category":"일반휴게음식 - 스넥"}]},{"lat":"38.03673053","long":"127.0340928","items":[{"name":"얼큰 참 메기","tel":"031-833-8834","addr":"경기도 연천군 군남면 황지리 447번지","category":"일반휴게음식 - 일반한식"},{"name":"얼큰참메기","tel":"031-833-8834","addr":"경기도 연천군 군남면 황지리 447번지","category":"일반휴게음식 - 일반한식"},{"name":"전곡낚시 캠핑용품","tel":"031-835-8833","addr":"경기도 연천군 군남면 황지리 447번지","category":"레져용품 - 스포츠·레져용품"},{"name":"전곡낚시터매점관리실","tel":"031-000-0000","addr":"경기도 연천군 군남면 황지리 447번지","category":"레져용품 - 스포츠·레져용품"}]},{"lat":"38.02667184","long":"127.048029","items":[{"name":"연천 맑은물","tel":"","addr":"경기도 연천군 군남면 황지리 111-10번지","category":"유통업 영리 - 기타유통업"}]},{"lat":"38.03497549","long":"127.0266768","items":[{"name":"임진강모텔","tel":"031-835-9070","addr":"경기도 연천군 군남면 황지리 646-2번지","category":"숙박업 - 여관/기타숙박업"}]},{"lat":"38.04278581","long":"127.0293677","items":[{"name":"지오낚시터","tel":"031-833-0008","addr":"경기도 연천군 군남면 황지리 529번지","category":"레저업소 - 기타레져업소"},{"name":"황지레저낚시","tel":"031-833-1411","addr":"경기도 연천군 군남면 황지리 529","category":"음료식품 - 기타음료식품"}]}]