[{"lat":"37.123283748","long":"127.01384194","items":[{"name":"(주) 재운환경산업","tel":"031-665-0451","addr":"경기도 평택시 서탄면 내천리 206-4번지","category":"용역 서비스 - 종합용역"}]},{"lat":"37.123256839","long":"127.01242412","items":[{"name":"(주)대화","tel":"031-664-6260","addr":"경기도 평택시 서탄면 내천리 206-5번지","category":"기타 - 기타 전문점"}]},{"lat":"37.130977984","long":"127.02003256","items":[{"name":"그린 종합상사","tel":"031-663-7704","addr":"경기도 평택시 서탄면 내천리 8번지 외 4필지","category":"건축자재 - 인테리어전문"},{"name":"세븐일레븐발안로점","tel":"031-1577-0711","addr":"경기도 평택시 서탄면 내천리 8번지","category":"유통업 영리 - 편 의 점"}]},{"lat":"37.126951078","long":"127.01323481","items":[{"name":"금손 엔지니어링","tel":"031-666-0529","addr":"경기도 평택시 서탄면 내천리 121-8번지","category":"기타 - 기계공구"}]},{"lat":"37.125978367","long":"127.00550392","items":[{"name":"남촌가마솥순대국집","tel":"031-665-7784","addr":"경기도 평택시 서탄면 내천리 642-6번지","category":"일반휴게음식 - 일반한식"}]},{"lat":"37.125419734","long":"127.00440112","items":[{"name":"내쇼날티엠","tel":"031-667-5516","addr":"경기도 평택시 서탄면 내천리 593-1번지","category":"유통업 영리 - 기타유통업"}]},{"lat":"37.12625682","long":"127.01751083","items":[{"name":"내천리한식뷔페","tel":"031-666-7247","addr":"경기도 평택시 서탄면 내천리 38번지 1층","category":"일반휴게음식 - 일반한식"},{"name":"모범가든","tel":"031-664-4565","addr":"경기도 평택시 서탄면 내천리 38번지","category":"일반휴게음식 - 일반한식"}]},{"lat":"37.125644043","long":"127.01800584","items":[{"name":"노벨컨설팅부동산","tel":"031-665-8940","addr":"경기도 평택시 서탄면 내천리 38-3번지 103호","category":"용역 서비스 - 부동산 중개·임대"}]},{"lat":"37.12580717","long":"127.00534637","items":[{"name":"더미상회","tel":"031-666-1135","addr":"경기도 평택시 서탄면 내천리 642-5번지","category":"유통업 영리 - 슈퍼마켓"},{"name":"송탄참작부대찌개","tel":"031-665-6424","addr":"경기도 평택시 서탄면 내천리 642-5번지","category":"일반휴게음식 - 일반한식"}]},{"lat":"37.128501031","long":"127.01140073","items":[{"name":"더차이나(THE차이나)","tel":"031-663-8886","addr":"경기도 평택시 서탄면 내천리 133-8번지","category":"일반휴게음식 - 중국식"}]},{"lat":"37.128644078","long":"127.02128115","items":[{"name":"동양ENG","tel":"031-662-7538","addr":"경기도 평택시 서탄면 내천리 30-18번지","category":"기타 - 기계공구"}]},{"lat":"37.127501066","long":"127.00786713","items":[{"name":"디와이에스엠 평택대리점","tel":"031-668-5803","addr":"경기도 평택시 서탄면 내천리 624-1번지 1동","category":"용역 서비스 - 기타용역서비스"}]},{"lat":"37.130563466","long":"127.02028005","items":[{"name":"맛있는 밥상","tel":"070-4323-7054","addr":"경기도 평택시 서탄면 내천리 15-6번지","category":"일반휴게음식 - 일반한식"}]},{"lat":"37.123806564","long":"127.01131018","items":[{"name":"벤투스(VENTUS)","tel":"","addr":"경기도 평택시 서탄면 내천리 240-2번지","category":"자동차정비 유지 - 자동차부품"}]},{"lat":"37.126140545","long":"127.00595404","items":[{"name":"서해배관","tel":"031-664-0270","addr":"경기도 평택시 서탄면 내천리 640번지","category":"건축자재 - 기타건축자재"}]},{"lat":"37.124113159","long":"126.99908985","items":[{"name":"수원유통생고기집","tel":"031-353-2349","addr":"경기도 평택시 서탄면 내천리 662-3번지","category":"일반휴게음식 - 일반한식"},{"name":"전훈식당","tel":"031-353-5416","addr":"경기도 평택시 서탄면 내천리 662-3번지","category":"일반휴게음식 - 일반한식"}]},{"lat":"37.124031472","long":"127.01533865","items":[{"name":"씨유평택내천점","tel":"080-080-3663","addr":"경기도 평택시 서탄면 내천리 64-7번지 1층(상가)","category":"유통업 영리 - 편 의 점"}]},{"lat":"37.128807264","long":"127.01297623","items":[{"name":"왕대박칼국수","tel":"031-666-2928","addr":"경기도 평택시 서탄면 내천리 101-4번지","category":"일반휴게음식 - 일반한식"}]},{"lat":"37.127699239","long":"127.00909374","items":[{"name":"정진카센타","tel":"031-663-5684","addr":"경기도 평택시 서탄면 내천리 143-4번지","category":"자동차정비 유지 - 자동차정비"}]},{"lat":"37.126338768","long":"127.00623537","items":[{"name":"제이원FA","tel":"031-293-7871","addr":"경기도 평택시 서탄면 내천리 639-1번지","category":"전기제품 - 기타전기제품"},{"name":"짬뽕의대가","tel":"031-611-8861","addr":"경기도 평택시 서탄면 내천리 639-1번지","category":"일반휴게음식 - 중국식"}]},{"lat":"37.126752256","long":"127.01861373","items":[{"name":"조이자동차","tel":"031-663-0951","addr":"경기도 평택시 서탄면 내천리 36-1번지","category":"자동차정비 유지 - 자동차정비"}]},{"lat":"37.123644105","long":"127.0145059","items":[{"name":"주식회사 동양이노텍","tel":"031-612-3000","addr":"경기도 평택시 서탄면 내천리 206-3번지","category":"주방용구 - 주방용구"}]},{"lat":"37.122139842","long":"127.00714663","items":[{"name":"주식회사 제이티커스텀","tel":"031-662-4789","addr":"경기도 평택시 서탄면 내천리 612-2번지","category":"자동차판매 - 기타운송"}]},{"lat":"37.127645305","long":"127.00572904","items":[{"name":"주원산업","tel":"031-657-0478","addr":"경기도 평택시 서탄면 내천리 644-1번지","category":"용역 서비스 - 기타용역서비스"}]},{"lat":"37.127564111","long":"127.00850857","items":[{"name":"중앙알뜰매장","tel":"031-611-4482","addr":"경기도 평택시 서탄면 내천리 144-1번지 1층","category":"신변잡화 - 기타잡화"},{"name":"진수성찬 한식기사뷔페 서탄4호점","tel":"","addr":"경기도 평택시 서탄면 내천리 144-1번지","category":"일반휴게음식 - 일반한식"}]},{"lat":"37.129365133","long":"127.01984089","items":[{"name":"진텍코리아","tel":"031-668-8775","addr":"경기도 평택시 서탄면 내천리 14-3번지 주건축물 1동","category":"건축자재 - 목재·석재·철물"}]},{"lat":"37.122446182","long":"127.00761925","items":[{"name":"케이엔씨정공","tel":"031-662-6780","addr":"경기도 평택시 서탄면 내천리 613-2번지","category":"자동차판매 - 기타운송"}]},{"lat":"37.122256918","long":"127.00858694","items":[{"name":"콩콩이자연미술체험장","tel":"031-664-0999","addr":"경기도 평택시 서탄면 내천리 248번지","category":"학원 - 기타 교육기관"}]}]