[{"lat":"37.291455382","long":"126.94012261","items":[{"name":"(주)고택","tel":"031-415-5503","addr":"경기도 수원시 권선구 당수동 261-2번지 기와프라자 201호","category":"수리서비스 - 기타수리서비스"},{"name":"김밥나라","tel":"031-419-2800","addr":"경기도 수원시 권선구 당수동 261-2번지 기와프라자","category":"일반휴게음식 - 스넥"},{"name":"까망머리","tel":"070-8961-7040","addr":"경기도 수원시 권선구 당수동 261-2번지 기와프라자 1층 6호","category":"보건위생 - 미용원"},{"name":"까망블럭","tel":"070-4259-3777","addr":"경기도 수원시 권선구 당수동 261-2번지 기와프라자 202호","category":"학원 - 기타 교육기관"},{"name":"꼬치잠자리","tel":"031-416-9202","addr":"경기도 수원시 권선구 당수동 261-2번지 기와프라자 104호","category":"일반휴게음식 - 주점"},{"name":"당수성모내과의원","tel":"031-419-0377","addr":"경기도 수원시 권선구 당수동 261-2,기와프라자301호~302호","category":"의원 - 의원"},{"name":"당수휘트니스","tel":"031-419-9058","addr":"경기도 수원시 권선구 당수동 261-2번지 기와프라자 801호","category":"레저업소 - 헬스클럽"},{"name":"또봉이통닭 당수점","tel":"","addr":"경기도 수원시 권선구 당수동 261-2번지 기와프라자 1동 101호","category":"일반휴게음식 - 스넥"},{"name":"라비쌍뜨","tel":"031-501-0506","addr":"경기도 수원시 권선구 당수동 261-2번지 기와프라자 205호","category":"보건위생 - 미용원"},{"name":"류지숙요가원","tel":"031-291-8749","addr":"경기도 수원시 권선구 당수동 261-2번지 기와프라자 602호","category":"회원제형태 - 레져업소"},{"name":"명지태권도","tel":"031-8753-8237","addr":"경기도 수원시 권선구 당수동 261-2번지 기와프라자 603호","category":"학원 - 예·체능계학원"},{"name":"미치과","tel":"031-419-7676","addr":"경기도 수원시 권선구 당수동 261-2번지 기와프라자 403호","category":"의원 - 치과의원"},{"name":"비비피아노음악교습소","tel":"031-415-1216","addr":"경기도 수원시 권선구 당수동 261-2번지 기와프라자 2층 206호","category":"학원 - 예·체능계학원"},{"name":"세창한의원","tel":"031-419-7510","addr":"경기도 수원시 권선구 당수동 261-2번지 기와프라자 3층 304호","category":"의원 - 한의원"},{"name":"슬림바디챌린지클럽","tel":"031-419-3831","addr":"경기도 수원시 권선구 당수동 261-2번지 기와프라자 601호","category":"회원제형태 - 기타4"},{"name":"이해법셀파수학뮤엠영어학원","tel":"031-419-1909","addr":"경기도 수원시 권선구 당수동 261-2번지 기와프라자 501호","category":"학원 - 보습학원"},{"name":"정성약국","tel":"031-419-9931","addr":"경기도 수원시 권선구 당수동 261-2번지 기와프라자 103호","category":"약국 - 약국"},{"name":"천불사","tel":"031-406-2400","addr":"경기도 수원시 권선구 당수동 261-2번지 기와프라자 401호","category":"보건위생 - 기타대인서비스"},{"name":"토스피아","tel":"031-415-8595","addr":"경기도 수원시 권선구 당수동 261-2번지 기와프라자 105호","category":"일반휴게음식 - 서양음식"},{"name":"파리바게뜨(당수점)","tel":"031-419-8904","addr":"경기도 수원시 권선구 당수동 261-2번지 기와프라자 108,109호","category":"음료식품 - 제과점"}]},{"lat":"37.293701762","long":"126.94570328","items":[{"name":"(주)온씨드마트","tel":"070-5102-7143","addr":"경기도 수원시 권선구 당수동 79번지","category":"농업 - 비료,사료,종자"}]},{"lat":"37.291590356","long":"126.93978417","items":[{"name":"59쌀피자","tel":"031-408-5954","addr":"경기도 수원시 권선구 당수동 261-7번지 101호","category":"일반휴게음식 - 스넥"},{"name":"Ricoco(리코코)","tel":"031-509-3911","addr":"경기도 수원시 권선구 당수동 261-7번지 1동 105층","category":"의류 - 정장"},{"name":"나무","tel":"031-520-1486","addr":"경기도 수원시 권선구 당수동 261-7번지","category":"사무통신 - 통신기기"},{"name":"다인축산","tel":"031-419-0393","addr":"경기도 수원시 권선구 당수동 261-7번지 1층 102호","category":"음료식품 - 정육점"},{"name":"떡마을","tel":"031-419-8025","addr":"경기도 수원시 권선구 당수동 261-7번지","category":"음료식품 - 제과점"},{"name":"바운플러스","tel":"031-411-5546","addr":"경기도 수원시 권선구 당수동 261-7번지 2층 203호","category":"음료식품 - 기타음료식품"},{"name":"바운플러스","tel":"031-411-5546","addr":"경기도 수원시 권선구 당수동 261-7번지 2층 203호","category":"문화.취미 - 티켓"},{"name":"베스트헤어","tel":"031-415-3366","addr":"경기도 수원시 권선구 당수동 261-7번지","category":"보건위생 - 미용원"},{"name":"부(Boo)","tel":"031-506-5655","addr":"경기도 수원시 권선구 당수동 261-7번지 2층","category":"일반휴게음식 - 일반한식"},{"name":"진수성찬","tel":"031-242-7336","addr":"경기도 수원시 권선구 당수동 261-7번지 1층 105호","category":"음료식품 - 기타음료식품"}]},{"lat":"37.291932315","long":"126.93898318","items":[{"name":"A-ONE PC","tel":"","addr":"경기도 수원시 권선구 당수동 273-3번지 한스프라자 2층 201,204호","category":"레저업소 - 기타레져업소"},{"name":"강원도할매떡볶이","tel":"031-419-0379","addr":"경기도 수원시 권선구 당수동 273-3번지 한스프라자 105호","category":"일반휴게음식 - 스넥"},{"name":"당수재래식불가마","tel":"031-419-9042","addr":"경기도 수원시 권선구 당수동 273-3한스프라자301호,401호","category":"보건위생 - 사우나"},{"name":"뚱댕이정육점","tel":"031-419-2556","addr":"경기도 수원시 권선구 당수동 273-3번지 한스프라자 114호","category":"음료식품 - 정육점"},{"name":"밀라노","tel":"031-419-9788","addr":"경기도 수원시 권선구 당수동 273-3번지 한스프라자 103호","category":"의류 - 정장"},{"name":"밥앤스낵","tel":"031-875-2018","addr":"경기도 수원시 권선구 당수동 273-3번지 한스프라자 1층 107호","category":"일반휴게음식 - 일반한식"},{"name":"온스킨","tel":"031-506-2020","addr":"경기도 수원시 권선구 당수동 273-3번지 한스프라자 1층 111호","category":"보건위생 - 피부미용실"},{"name":"우리인테리어","tel":"031-419-2492","addr":"경기도 수원시 권선구 당수동 273-3번지 한스프라자 113호","category":"건축자재 - 인테리어전문"},{"name":"윈스메디텍","tel":"031-438-5892","addr":"경기도 수원시 권선구 당수동 273-3번지 한스프라자 1층 112호","category":"보건위생 - 의료용품"},{"name":"춘우통상","tel":"031-416-8956","addr":"경기도 수원시 권선구 당수동 273-3번지 한스프라자 B101호","category":"의류 - 아동의류"},{"name":"크린라이프체인점","tel":"031-417-1233","addr":"경기도 수원시 권선구 당수동 273-3번지 한스프라자 101호","category":"수리서비스 - 세탁소"},{"name":"하얀세상치과의원","tel":"031-416-7528","addr":"경기도 수원시 권선구 당수동 273-3번지 한스프라자 202호 202~203호","category":"의원 - 치과의원"}]},{"lat":"37.289817594","long":"126.94417251","items":[{"name":"GS25권선삼정점","tel":"","addr":"경기도 수원시 권선구 당수동 216번지 가동 1호","category":"유통업 영리 - 편 의 점"},{"name":"더(THE)203","tel":"031-111-1111","addr":"경기도 수원시 권선구 당수동 216번지 가동 1층","category":"일반휴게음식 - 서양음식"},{"name":"붕붕셀프세차장","tel":"","addr":"경기도 수원시 권선구 당수동 216번지","category":"자동차정비 유지 - 세차장"},{"name":"예쁜머리","tel":"031-415-8864","addr":"경기도 수원시 권선구 당수동 216번지 1층","category":"보건위생 - 미용원"},{"name":"오토샤인(AUTO SHINE)","tel":"031-415-8234","addr":"경기도 수원시 권선구 당수동 216번지 A-3","category":"자동차정비 유지 - 카인테리어"},{"name":"오토코디(AUTOCODY)","tel":"031-416-7870","addr":"경기도 수원시 권선구 당수동 216번지","category":"자동차정비 유지 - 세차장"},{"name":"토마토헤어클럽","tel":"031-416-5568","addr":"경기도 수원시 권선구 당수동 216번지","category":"보건위생 - 미용원"}]},{"lat":"37.290680531","long":"126.94017964","items":[{"name":"GS25수원당수점","tel":"","addr":"경기도 수원시 권선구 당수동 232-6번지 104~105호","category":"유통업 영리 - 편 의 점"},{"name":"대양전기조명","tel":"031-419-0912","addr":"경기도 수원시 권선구 당수동 232-6번지 삼성프라자 1층 103호","category":"건축자재 - 조명기구"},{"name":"데이데이(DayDay)","tel":"","addr":"경기도 수원시 권선구 당수동 232-6번지 102호","category":"일반휴게음식 - 서양음식"},{"name":"양지네국수","tel":"031-416-1689","addr":"경기도 수원시 권선구 당수동 232-6번지 외2필지 1층 106호","category":"일반휴게음식 - 일반한식"},{"name":"용인대천성태권도","tel":"031-416-1399","addr":"경기도 수원시 권선구 당수동 232-6 삼성프라자301호~302호","category":"학원 - 예·체능계학원"},{"name":"이(E)루다헤어","tel":"031-416-1400","addr":"경기도 수원시 권선구 당수동 232-6번지 1층","category":"보건위생 - 미용원"},{"name":"푸른나무음악학원","tel":"033-391-0333","addr":"경기도 수원시 권선구 당수동 232-6번지 삼성프라자 2층 201호","category":"학원 - 예·체능계학원"},{"name":"프라우드어학원","tel":"031-419-8205","addr":"경기도 수원시 권선구 당수동 232-6번지 202호","category":"학원 - 외국어학원"}]},{"lat":"37.290761973","long":"126.94084494","items":[{"name":"SB유통","tel":"031-415-9710","addr":"경기도 수원시 권선구 당수동 232-2번지 당수프라자 105호","category":"음료식품 - 농·축·수산품"},{"name":"고향식당","tel":"031-419-2700","addr":"경기도 수원시 권선구 당수동 232-2번지 당수프라자 1층 107호","category":"일반휴게음식 - 일반한식"},{"name":"낭만소주","tel":"031-297-1383","addr":"경기도 수원시 권선구 당수동 232-2번지 당수프라자 1층 109호","category":"일반휴게음식 - 일반한식"},{"name":"당수 당구장","tel":"031-406-8259","addr":"경기도 수원시 권선구 당수동 232-2번지 당수프라자 303호","category":"레저업소 - 당 구 장"},{"name":"대한F&B","tel":"031-415-8839","addr":"경기도 수원시 권선구 당수동 232-2번지 당수프라자 1층 113호","category":"음료식품 - 기타음료식품"},{"name":"비전과학수원/원격지","tel":"031-291-0881","addr":"경기도 수원시 권선구 당수동 232-2번지 당수프라자 304호","category":"기타 - 기타 전문점"},{"name":"삼.일.오(3.1.5)포차","tel":"","addr":"경기도 수원시 권선구 당수동 232-2번지 당수프라자 110호","category":"일반휴게음식 - 일반한식"},{"name":"성균관스포츠센터","tel":"031-269-3334","addr":"경기도 수원시 권선구 당수동 232-2번지 당수프라자 4층","category":"학원 - 예·체능계학원"},{"name":"안경세상","tel":"031-406-9937","addr":"경기도 수원시 권선구 당수동 232-2번지 당수프라자 108호","category":"보건위생 - 안경"},{"name":"원샷","tel":"031-409-6312","addr":"경기도 수원시 권선구 당수동 232-2번지 당수프라자 111호","category":"일반휴게음식 - 주점"},{"name":"통닭원5900당수점","tel":"031-419-2494","addr":"경기도 수원시 권선구 당수동 232-2번지 당수프라자 112호","category":"일반휴게음식 - 스넥"},{"name":"향기테라피","tel":"","addr":"경기도 수원시 권선구 당수동 232-2번지 당수프라자 3층 301호","category":"보건위생 - 피부미용실"}]},{"lat":"37.293870437","long":"126.94070706","items":[{"name":"TBX서수원점","tel":"031-419-0476","addr":"경기도 수원시 권선구 당수동 140-1","category":"자동차정비 유지 - 자동차시트·타이어"},{"name":"삼익","tel":"031-419-0479","addr":"경기도 수원시 권선구 당수동 140-1번지","category":"자동차정비 유지 - 자동차시트·타이어"},{"name":"서수원카센터","tel":"031-419-0476","addr":"경기도 수원시 권선구 당수동 140-1","category":"자동차정비 유지 - 자동차정비"}]},{"lat":"37.291707284","long":"126.93940064","items":[{"name":"강남동태찜,탕전문점","tel":"031-419-3970","addr":"경기도 수원시 권선구 당수동 274-2번지","category":"일반휴게음식 - 일반한식"}]},{"lat":"37.292735347","long":"126.94109143","items":[{"name":"갯마을바지락칼국수","tel":"031-415-9300","addr":"경기도 수원시 권선구 당수동 152-1번지 1층","category":"일반휴게음식 - 일반한식"},{"name":"공간아트인테리어","tel":"031-419-1904","addr":"경기도 수원시 권선구 당수동 152-1번지","category":"건축자재 - 인테리어전문"},{"name":"윤가네칼국수","tel":"031-419-5355","addr":"경기도 수원시 권선구 당수동 152-1번지","category":"일반휴게음식 - 일반한식"}]},{"lat":"37.290536587","long":"126.94059703","items":[{"name":"겨자씨의꿈","tel":"031-419-1939","addr":"경기도 수원시 권선구 당수동 232-15번지 우진프라자 401호","category":"학원 - 보습학원"},{"name":"당초고추치킨","tel":"031-419-7664","addr":"경기도 수원시 권선구 당수동 232-15번지 우진프라자 102호","category":"일반휴게음식 - 스넥"},{"name":"최고당돈까스 권선구당수점","tel":"031-502-9006","addr":"경기도 수원시 권선구 당수동 232-15번지","category":"일반휴게음식 - 서양음식"}]},{"lat":"37.295735188","long":"126.94000628","items":[{"name":"경기대명고등학교","tel":"070-4466-8260","addr":"경기도 수원시 권선구 당수동 122번지 경기대명고등학교","category":"학원 - 초중고교육기관"},{"name":"경기대명고등학교_수업료","tel":"070-4466-8260","addr":"경기도 수원시 권선구 당수동 122번지 경기대명고등학교","category":"학원 - 초중고교육기관"}]},{"lat":"37.291175649","long":"126.9393447","items":[{"name":"광시스템","tel":"031-506-1969","addr":"경기도 수원시 권선구 당수동 260-6번지 유천프라자 202호","category":"광학제품 - 기타광학제품"},{"name":"나성켄터키당수점","tel":"031-415-8294","addr":"경기도 수원시 권선구 당수동 260-6번지 108,109호","category":"일반휴게음식 - 일반한식"},{"name":"도시여행","tel":"031-213-8898","addr":"경기도 수원시 권선구 당수동 260-6번지 유천프라자 104호","category":"음료식품 - 농·축·수산품"},{"name":"마술피리음악학원","tel":"031-504-1002","addr":"경기도 수원시 권선구 당수동 260-6번지 유천프라자 301호","category":"학원 - 예·체능계학원"},{"name":"씨유수원당수점","tel":"031-419-2622","addr":"경기도 수원시 권선구 당수동 260-6번지 유천프라자 101, 102호","category":"유통업 영리 - 편 의 점"},{"name":"아이엔맘","tel":"031-418-6673","addr":"경기도 수원시 권선구 당수동 260-6번지 107호","category":"의류 - 정장"},{"name":"오늘네일 코스메틱","tel":"031-415-8788","addr":"경기도 수원시 권선구 당수동 260-6번지 유천프라자 104호","category":"보건위생 - 화장품"},{"name":"지비독서토론논술교습소","tel":"031-415-8836","addr":"경기도 수원시 권선구 당수동 260-6번지 유천빌딩 202호","category":"학원 - 보습학원"},{"name":"프라미스당수영어전문학원","tel":"031-362-8704","addr":"경기도 수원시 권선구 당수동 260-6번지 4층","category":"학원 - 외국어학원"},{"name":"헤어샵포시즌","tel":"031-419-5111","addr":"경기도 수원시 권선구 당수동 260-6번지 유천빌딩 103호","category":"보건위생 - 미용원"}]},{"lat":"37.291069242","long":"126.94262653","items":[{"name":"그리니타일","tel":"","addr":"경기도 수원시 권선구 당수동 170-3번지","category":"용역 서비스 - 기타용역서비스"}]},{"lat":"37.29334598","long":"126.93725648","items":[{"name":"그림그리는날 미술교습소","tel":"031-365-3364","addr":"경기도 수원시 권선구 당수동 282-52번지 102호","category":"학원 - 예·체능계학원"},{"name":"카페풀문 (cafe fullmoon)","tel":"031-5001-1002","addr":"경기도 수원시 권선구 당수동 282-52번지 1층 103호","category":"일반휴게음식 - 서양음식"}]},{"lat":"37.291093556","long":"126.93750654","items":[{"name":"금도음료","tel":"031-415-9481","addr":"경기도 수원시 권선구 당수동 288-8번지","category":"유통업 영리 - 기타유통업"}]},{"lat":"37.29131968","long":"126.93909647","items":[{"name":"까까머리헤어샵","tel":"031-419-7333","addr":"경기도 수원시 권선구 당수동 260-1번지 정진빌딩 1층","category":"보건위생 - 미용원"},{"name":"방방스타","tel":"031-407-2634","addr":"경기도 수원시 권선구 당수동 260-1번지 정진빌딩 202호","category":"레저업소 - 기타레져업소"},{"name":"비경화장품","tel":"031-416-8200","addr":"경기도 수원시 권선구 당수동 260-1번지","category":"보건위생 - 화장품"},{"name":"아리음악학원","tel":"031-406-4425","addr":"경기도 수원시 권선구 당수동 260-1번지 정진빌딩 1층 104호","category":"학원 - 예·체능계학원"},{"name":"이화아카데미학원","tel":"031-416-9963","addr":"경기도 수원시 권선구 당수동 260-1번지 정진빌딩 2층","category":"학원 - 기타 교육기관"},{"name":"하람태권도장","tel":"031-407-3193","addr":"경기도 수원시 권선구 당수동 260-1번지 정진빌딩 3층","category":"학원 - 예·체능계학원"}]},{"lat":"37.291150075","long":"126.94211898","items":[{"name":"꼬망새어린이집[아이행복]","tel":"031-416-4176","addr":"경기도 수원시 권선구 당수동 169-2번지","category":"학원 - 유아원"},{"name":"꼬맹새어린이집","tel":"031-416-4176","addr":"경기도 수원시 권선구 당수동 169-2번지","category":"기타 - 비영리/대상"}]},{"lat":"37.291760907","long":"126.93858861","items":[{"name":"꼼지락 쿡","tel":"","addr":"경기도 수원시 권선구 당수동 273-5번지 한스프라자 108호","category":"음료식품 - 기타음료식품"},{"name":"이숙경헤어플러스","tel":"031-419-1298","addr":"경기도 수원시 권선구 당수동 273-5번지 103호","category":"보건위생 - 미용원"},{"name":"잉글리쉬존영어교습소","tel":"031-252-7508","addr":"경기도 수원시 권선구 당수동 273-5번지 1층 101호","category":"학원 - 외국어학원"}]},{"lat":"37.290509627","long":"126.94073238","items":[{"name":"나만알고싶은#","tel":"031-226-6404","addr":"경기도 수원시 권선구 당수동 232-39번지 1층,2층","category":"일반휴게음식 - 서양음식"}]},{"lat":"37.289959633","long":"126.94003364","items":[{"name":"나산식당","tel":"031-419-3655","addr":"경기도 수원시 권선구 당수동 241-2번지","category":"일반휴게음식 - 일반한식"},{"name":"나산축산","tel":"031-296-6384","addr":"경기도 수원시 권선구 당수동 241-2번지 102동 103호","category":"음료식품 - 농·축·수산품"}]},{"lat":"37.290205035","long":"126.94417221","items":[{"name":"나영''s quilt","tel":"031-225-0770","addr":"경기도 수원시 권선구 당수동 224-8번지","category":"신변잡화 - 액세서리"},{"name":"나인기획","tel":"031-265-9909","addr":"경기도 수원시 권선구 당수동 224-8번지","category":"전기제품 - 냉열기기"},{"name":"네일별","tel":"","addr":"경기도 수원시 권선구 당수동 224-8번지","category":"보건위생 - 피부미용실"},{"name":"문담","tel":"031-417-5597","addr":"경기도 수원시 권선구 당수동 224-8번지 1층","category":"건축자재 - 인테리어전문"},{"name":"주식회사 코스비","tel":"070-7548-5224","addr":"경기도 수원시 권선구 당수동 224-8번지 1층","category":"유통업 영리 - 슈퍼마켓"}]},{"lat":"37.290788552","long":"126.93998784","items":[{"name":"낙원떡집","tel":"031-419-9292","addr":"경기도 수원시 권선구 당수동 234외3필지","category":"음료식품 - 제과점"},{"name":"농업회사법인 루하 주식회사","tel":"","addr":"경기도 수원시 권선구 당수동 234번지 1층 103호","category":"음료식품 - 기타음료식품"},{"name":"벽지세상","tel":"031-438-5066","addr":"경기도 수원시 권선구 당수동 234번지 102호","category":"직물 - 카페트,커튼,천막,지물"},{"name":"비니비니","tel":"031-405-4404","addr":"경기도 수원시 권선구 당수동 234번지 101호","category":"일반휴게음식 - 서양음식"},{"name":"소문난떡볶이","tel":"031-419-7654","addr":"경기도 수원시 권선구 당수동 234번지 103호","category":"일반휴게음식 - 일반한식"}]},{"lat":"37.291230168","long":"126.94020174","items":[{"name":"네일드레스","tel":"031-501-7292","addr":"경기도 수원시 권선구 당수동 158-2번지 영송프라자 102호","category":"의류 - 정장"},{"name":"리나헤어","tel":"031-419-5050","addr":"경기도 수원시 권선구 당수동 158-2번지 영송프라자 1층 103호","category":"보건위생 - 미용원"},{"name":"명송당구클럽","tel":"031-419-7511","addr":"경기도 수원시 권선구 당수동 158-2번지 2층","category":"레저업소 - 당 구 장"},{"name":"수예","tel":"031-502-5421","addr":"경기도 수원시 권선구 당수동 158-2번지 영송프라자 201호","category":"보건위생 - 화장품"},{"name":"아카데미창 호매실 퍼스트논술학원","tel":"031-501-7773","addr":"경기도 수원시 권선구 당수동 158-2번지 영송프라자 402호","category":"학원 - 보습학원"},{"name":"에이펙스어학원","tel":"031-419-0567","addr":"경기도 수원시 권선구 당수동 158-2번지 영송프라자 401호","category":"학원 - 외국어학원"},{"name":"예감음악학원","tel":"031-419-0611","addr":"경기도 수원시 권선구 당수동 158-2번지 영송프라자 301호","category":"학원 - 예·체능계학원"},{"name":"카페라니","tel":"031-416-5333","addr":"경기도 수원시 권선구 당수동 158-2번지 영송프라자 106호","category":"일반휴게음식 - 서양음식"},{"name":"톡톡창의스쿨","tel":"031-407-3557","addr":"경기도 수원시 권선구 당수동 158-2번지 영송프라자 302호","category":"회원제형태 - 서적"},{"name":"힐링로또마트","tel":"070-5022-4846","addr":"경기도 수원시 권선구 당수동 158-2번지 영송프라자 1층 104호","category":"음료식품 - 기타음료식품"}]},{"lat":"37.27862521","long":"126.94095639","items":[{"name":"놋그릇","tel":"","addr":"경기도 수원시 권선구 당수동 693번지","category":"일반휴게음식 - 일반한식"}]},{"lat":"37.29159868","long":"126.93850981","items":[{"name":"뉴마트","tel":"031-419-8915","addr":"경기도 수원시 권선구 당수동 276-19번지","category":"유통업 영리 - 슈퍼마켓"},{"name":"토담","tel":"031-509-4055","addr":"경기도 수원시 권선구 당수동 276-19번지 1층","category":"일반휴게음식 - 일반한식"},{"name":"한올입시학원","tel":"031-520-8501","addr":"경기도 수원시 권선구 당수동 276-19번지 2층","category":"학원 - 보습학원"}]},{"lat":"37.291042949","long":"126.94409262","items":[{"name":"늘푸른식당","tel":"031-419-8141","addr":"경기도 수원시 권선구 당수동 225-1번지","category":"일반휴게음식 - 일반한식"},{"name":"아멜리에","tel":"031-419-0205","addr":"경기도 수원시 권선구 당수동 225-1번지","category":"의류 - 정장"}]},{"lat":"37.291042463","long":"126.94312276","items":[{"name":"다산산업","tel":"031-419-7013","addr":"경기도 수원시 권선구 당수동 170-1번지","category":"주방용구 - 주방용구"}]},{"lat":"37.291816607","long":"126.94167862","items":[{"name":"다원LED조명","tel":"031-294-8018","addr":"경기도 수원시 권선구 당수동 160-4번지","category":"건축자재 - 조명기구"},{"name":"쎄쎄노래연습장","tel":"031-419-1929","addr":"경기도 수원시 권선구 당수동 160-4번지","category":"레저업소 - 노 래 방"}]},{"lat":"37.290682167","long":"126.94334859","items":[{"name":"다원불교","tel":"031-406-5796","addr":"경기도 수원시 권선구 당수동 228번지","category":"신변잡화 - 기념품점"}]},{"lat":"37.298593035","long":"126.94309423","items":[{"name":"당수농장","tel":"031-406-2129","addr":"경기도 수원시 권선구 당수동 27-7번지","category":"음료식품 - 정육점"}]},{"lat":"37.291841883","long":"126.93837427","items":[{"name":"당수아이비디어학원","tel":"031-419-0588","addr":"경기도 수원시 권선구 당수동 276-7번지 반석빌딩 3층","category":"회원제형태 - 학원"},{"name":"당수홈인테리어","tel":"031-419-0052","addr":"경기도 수원시 권선구 당수동 276-7번지","category":"직물 - 카페트,커튼,천막,지물"},{"name":"숨쉬는자동차","tel":"031-419-5428","addr":"경기도 수원시 권선구 당수동 276-7번지 반석빌딩 104호","category":"자동차정비 유지 - 카인테리어"},{"name":"주식회사 탑건(TOP GUN CO.,LTD)","tel":"031-407-9911","addr":"경기도 수원시 권선구 당수동 276-7번지 반석빌딩 104호","category":"자동차정비 유지 - 자동차부품"},{"name":"티에스 앤 파크","tel":"031-291-8784","addr":"경기도 수원시 권선구 당수동 276-7번지 반석빌딩 101호","category":"직물 - 카페트,커튼,천막,지물"}]},{"lat":"37.301284372","long":"126.93792632","items":[{"name":"당수암","tel":"031-419-9581","addr":"경기도 수원시 권선구 당수동 105-10번지","category":"기타 - 비영리/대상"}]},{"lat":"37.291040701","long":"126.93972825","items":[{"name":"당수왕갈비","tel":"031-419-3988","addr":"경기도 수원시 권선구 당수동 158-1번지 1층 101호","category":"일반휴게음식 - 일반한식"},{"name":"코리안숯불닭바베큐","tel":"031-416-5888","addr":"경기도 수원시 권선구 당수동 158-1번지 명송프라자 1층 5-6호","category":"일반휴게음식 - 일반한식"}]},{"lat":"37.2895908","long":"126.94115039","items":[{"name":"당수초등학교","tel":"031-416-1847","addr":"경기도 수원시 권선구 당수동 244-3번지 당수초등학교","category":"학원 - 초중고교육기관"},{"name":"당수초등학교병설유치원[아이행복]","tel":"031-419-0128","addr":"경기도 수원시 권선구 당수동 244-3번지 당수초등학교","category":"학원 - 유치원"}]},{"lat":"37.292843168","long":"126.94051618","items":[{"name":"당수카센타","tel":"031-419-2458","addr":"경기도 수원시 권선구 당수동 148-3시티프라자A동104호~105호","category":"자동차정비 유지 - 자동차부품"},{"name":"디오","tel":"031-408-5678","addr":"경기도 수원시 권선구 당수동 148-3번지 씨티프플라자 101호-103호","category":"일반휴게음식 - 일반한식"},{"name":"미라클써모텍(Miracle Thermotec)","tel":"031-000-0000","addr":"경기도 수원시 권선구 당수동 148-3번지 씨티플라자1 401호","category":"전기제품 - 기타전기제품"},{"name":"족발공방","tel":"031-111-1111","addr":"경기도 수원시 권선구 당수동 148-3번지 107,108호","category":"일반휴게음식 - 일반한식"}]},{"lat":"37.289842386","long":"126.93981947","items":[{"name":"더키즈","tel":"","addr":"경기도 수원시 권선구 당수동 251-1번지","category":"학원 - 기타 교육기관"}]},{"lat":"37.291237445","long":"126.93701021","items":[{"name":"드림유치원[아이행복]","tel":"031-415-3191","addr":"경기도 수원시 권선구 당수동 288-5","category":"학원 - 유치원"}]},{"lat":"37.291598876","long":"126.93887069","items":[{"name":"뚱스쿠키","tel":"031-415-8268","addr":"경기도 수원시 권선구 당수동 273-20번지 101호","category":"음료식품 - 제과점"}]},{"lat":"37.294484434","long":"126.94323281","items":[{"name":"만물상회","tel":"","addr":"경기도 수원시 권선구 당수동 85-4번지","category":"신변잡화 - 기타잡화"}]},{"lat":"37.290897474","long":"126.9415102","items":[{"name":"맑은샘어린이집[아이행복]","tel":"031-419-9091","addr":"경기도 수원시 권선구 당수동 169-6번지","category":"학원 - 유아원"}]},{"lat":"37.290258906","long":"126.94378874","items":[{"name":"명가디자인하우스","tel":"031-419-2666","addr":"경기도 수원시 권선구 당수동 221-4번지 삼정아파트 상가 102호","category":"직물 - 카페트,커튼,천막,지물"},{"name":"페리카나(당수점)","tel":"031-419-8450","addr":"경기도 수원시 권선구 당수동 221-4번지 삼정 상가 105호","category":"일반휴게음식 - 스넥"}]},{"lat":"37.290734376","long":"126.93977361","items":[{"name":"명성디앤피","tel":"031-407-6595","addr":"경기도 수원시 권선구 당수동 236-2번지 은광아트빌라 104동 402호","category":"유통업 영리 - 기타유통업"}]},{"lat":"37.291679876","long":"126.93870146","items":[{"name":"모리안","tel":"031-419-9788","addr":"경기도 수원시 권선구 당수동 275-1번지 외1필지 모리안 101호","category":"의류 - 정장"}]},{"lat":"37.291535877","long":"126.93900607","items":[{"name":"미술로동고동락교습소","tel":"031-409-0906","addr":"경기도 수원시 권선구 당수동 273-4번지 101호","category":"학원 - 예·체능계학원"}]},{"lat":"37.291286035","long":"126.94370899","items":[{"name":"믿음철물건재","tel":"031-419-5351","addr":"경기도 수원시 권선구 당수동 172-3번지","category":"건축자재 - 목재·석재·철물"}]},{"lat":"37.282542191","long":"126.93637505","items":[{"name":"밀앤보리","tel":"031-419-3505","addr":"경기도 수원시 권선구 당수동 530번지 1층","category":"일반휴게음식 - 일반한식"}]},{"lat":"37.291735415","long":"126.94148696","items":[{"name":"범우자동차정비","tel":"031-419-7229","addr":"경기도 수원시 권선구 당수동 160번지","category":"자동차정비 유지 - 자동차정비"}]},{"lat":"37.29284235","long":"126.93898241","items":[{"name":"비발디피아노학원","tel":"031-419-7760","addr":"경기도 수원시 권선구 당수동 742 한라비발디@2단지상가 2층","category":"학원 - 예·체능계학원"}]},{"lat":"37.290896818","long":"126.94025841","items":[{"name":"삼성영어당수학원","tel":"031-409-0554","addr":"경기도 수원시 권선구 당수동 233번지 2층","category":"학원 - 외국어학원"},{"name":"하누샵","tel":"031-418-1616","addr":"경기도 수원시 권선구 당수동 233번지 상가 1층 101호","category":"일반휴게음식 - 일반한식"}]},{"lat":"37.290429555","long":"126.94270598","items":[{"name":"삼정야채","tel":"031-419-3028","addr":"경기도 수원시 권선구 당수동 218-1번지 삼정아파트","category":"음료식품 - 농·축·수산품"}]},{"lat":"37.290898605","long":"126.94373185","items":[{"name":"삼천리자전거","tel":"031-438-3001","addr":"경기도 수원시 권선구 당수동 224-4번지","category":"레져용품 - 스포츠·레져용품"}]},{"lat":"37.290230018","long":"126.94018002","items":[{"name":"상상톡톡미술교습소","tel":"031-294-3265","addr":"경기도 수원시 권선구 당수동 242-4번지","category":"학원 - 예·체능계학원"},{"name":"픽미픽미아이스크림할인점","tel":"","addr":"경기도 수원시 권선구 당수동 242-4번지 1층 102호","category":"음료식품 - 기타음료식품"}]},{"lat":"37.297458753","long":"126.94512524","items":[{"name":"상은농장","tel":"031-243-0128","addr":"경기도 수원시 권선구 당수동 44","category":"음료식품 - 농·축·수산품"}]},{"lat":"37.288708211","long":"126.94195179","items":[{"name":"새아침식물원","tel":"031-419-2221","addr":"경기도 수원시 권선구 당수동 339-5번지","category":"문화.취미 - 화원"},{"name":"새아침원예","tel":"031-419-2287","addr":"경기도 수원시 권선구 당수동 339-5번지","category":"문화.취미 - 화원"}]},{"lat":"37.290401475","long":"126.94067608","items":[{"name":"샵(#)감동","tel":"031-409-1009","addr":"경기도 수원시 권선구 당수동 232-7번지 1층 103호","category":"보건위생 - 미용원"},{"name":"수력수학교습소","tel":"031-507-0650","addr":"경기도 수원시 권선구 당수동 232-7번지 외1필지 104호","category":"학원 - 보습학원"},{"name":"커피마마","tel":"031-419-0345","addr":"경기도 수원시 권선구 당수동 232-7번지","category":"일반휴게음식 - 서양음식"}]},{"lat":"37.291707405","long":"126.93962619","items":[{"name":"서울가정의학과의원","tel":"031-416-1275","addr":"경기도 수원시 권선구 당수동 261-13번지 3층","category":"의원 - 의원"},{"name":"씨유당수한라점","tel":"031-415-9822","addr":"경기도 수원시 권선구 당수동 261-13번지","category":"유통업 영리 - 편 의 점"},{"name":"아가페약국","tel":"031-416-6651","addr":"경기도 수원시 권선구 당수동 261-13번지","category":"약국 - 약국"},{"name":"파티시에르","tel":"031-419-0875","addr":"경기도 수원시 권선구 당수동 261-13번지 1층","category":"음료식품 - 제과점"},{"name":"합기도검도","tel":"031-419-5357","addr":"경기도 수원시 권선구 당수동 261-13번지 성원상가 19-9 ,301호","category":"학원 - 예·체능계학원"}]},{"lat":"37.290484353","long":"126.94417199","items":[{"name":"서울기획","tel":"031-419-1586","addr":"경기도 수원시 권선구 당수동 224-21번지","category":"용역 서비스 - 종합용역"}]},{"lat":"37.291762311","long":"126.94122756","items":[{"name":"서해칼국수","tel":"031-419-6490","addr":"경기도 수원시 권선구 당수동 159-2번지","category":"일반휴게음식 - 일반한식"}]},{"lat":"37.279706045","long":"126.94020002","items":[{"name":"석현농원","tel":"031-419-5802","addr":"경기도 수원시 권선구 당수동 694-2번지 산78,산72-1(일부)","category":"문화.취미 - 화원"},{"name":"수원화훼영농조합법인","tel":"031-429-5802","addr":"경기도 수원시 권선구 당수동 694-2번지","category":"문화.취미 - 화원"}]},{"lat":"37.291984955","long":"126.93640057","items":[{"name":"성도그린","tel":"031-419-3422","addr":"경기도 수원시 권선구 당수동 745번지 서수원1차쌍용 상가 205호","category":"용역 서비스 - 기타용역서비스"},{"name":"연합메디칼","tel":"","addr":"경기도 수원시 권선구 당수동 745번지 서수원1차쌍용스윗닷홈 2층 202호","category":"보건위생 - 의료용품"},{"name":"영(Young)에스테틱","tel":"031-417-3887","addr":"경기도 수원시 권선구 당수동 745번지 서수원1차쌍용스윗닷홈 상가동 301호","category":"보건위생 - 피부미용실"},{"name":"클라라음악학원","tel":"031-416-3650","addr":"경기도 수원시 권선구 당수동 745번지 서수원1차쌍용스윗닷홈 상가동 3층 302호","category":"학원 - 예·체능계학원"},{"name":"헤어토픽","tel":"031-438-8701","addr":"경기도 수원시 권선구 당수동 745번지 서수원1차쌍용스윗닷홈 상가동 105호","category":"보건위생 - 미용원"}]},{"lat":"37.286206076","long":"126.9474794","items":[{"name":"수목식당","tel":"031-416-3341","addr":"경기도 수원시 권선구 당수동 405-5","category":"일반휴게음식 - 일반한식"},{"name":"황토목","tel":"031-419-7607","addr":"경기도 수원시 권선구 당수동 405-5번지","category":"음료식품 - 농·축·수산품"}]},{"lat":"37.292679681","long":"126.93809161","items":[{"name":"수연헤어","tel":"031-419-5024","addr":"경기도 수원시 권선구 당수동 282-18번지 평산빌딩 102호","category":"보건위생 - 미용원"},{"name":"아리랑농원과일","tel":"","addr":"경기도 수원시 권선구 당수동 282-18번지 평산빌딩 101,102호","category":"음료식품 - 농·축·수산품"},{"name":"아리랑농원과일","tel":"","addr":"경기도 수원시 권선구 당수동 282-18번지 평산빌딩 102,102호","category":"음료식품 - 농·축·수산품"},{"name":"정솔어학원","tel":"031-419-0572","addr":"경기도 수원시 권선구 당수동 282-18번지 평산빌딩 2층","category":"학원 - 외국어학원"},{"name":"평산독서실","tel":"031-416-8300","addr":"경기도 수원시 권선구 당수동 282-18번지 ,3,4층","category":"학원 - 독서실"}]},{"lat":"37.292257733","long":"126.94095649","items":[{"name":"수원농원","tel":"070-8825-4848","addr":"경기도 수원시 권선구 당수동 153번지","category":"문화.취미 - 화원"}]},{"lat":"37.292653906","long":"126.94042611","items":[{"name":"순희에부엌","tel":"031-419-1385","addr":"경기도 수원시 권선구 당수동 148-5번지","category":"일반휴게음식 - 일반한식"}]},{"lat":"37.289599283","long":"126.94014671","items":[{"name":"스쿨존","tel":"02-1111-1111","addr":"경기도 수원시 권선구 당수동 243번지 은광아트빌 1층","category":"일반휴게음식 - 스넥"},{"name":"일레체","tel":"031-415-9088","addr":"경기도 수원시 권선구 당수동 243번지 1층","category":"일반휴게음식 - 일반한식"}]},{"lat":"37.290790091","long":"126.9429538","items":[{"name":"시립당수동어린이집[아이행복]","tel":"031-416-1235","addr":"경기도 수원시 권선구 당수동 227번지","category":"학원 - 유아원"}]},{"lat":"37.291761224","long":"126.93917504","items":[{"name":"아름다운코어 이리스","tel":"031-416-5750","addr":"경기도 수원시 권선구 당수동 274번지 D동 403호","category":"보건위생 - 기타대인서비스"},{"name":"으뜸수학교습소","tel":"","addr":"경기도 수원시 권선구 당수동 274번지 101호","category":"학원 - 보습학원"}]},{"lat":"37.291481907","long":"126.93917528","items":[{"name":"아시아기업","tel":"031-1899-1781","addr":"경기도 수원시 권선구 당수동 273-22번지 C동 401호","category":"전기제품 - 냉열기기"}]},{"lat":"37.292093424","long":"126.93702074","items":[{"name":"아이모듈러스","tel":"02-1111-1111","addr":"경기도 수원시 권선구 당수동 745번지 서수원1차쌍용스윗닷홈 101동 3층","category":"신변잡화 - 기타잡화"}]},{"lat":"37.291481651","long":"126.93870162","items":[{"name":"아이엔지(ING)","tel":"031-419-0120","addr":"경기도 수원시 권선구 당수동 276-28번지 1층","category":"서적문구 - 문구용품"},{"name":"창의미술학원","tel":"070-4100-8648","addr":"경기도 수원시 권선구 당수동 276-28번지 201호","category":"학원 - 예·체능계학원"}]},{"lat":"37.289932488","long":"126.93981939","items":[{"name":"아쿠아파크","tel":"031-317-1102","addr":"경기도 수원시 권선구 당수동 241번지 상가 1층 101호","category":"기타 - 기계공구"},{"name":"울집꼬맹이","tel":"031-503-0950","addr":"경기도 수원시 권선구 당수동 241번지 1층 101호","category":"문화.취미 - 애완동물"}]},{"lat":"37.291760544","long":"126.93792324","items":[{"name":"야데카헤어","tel":"031-416-0153","addr":"경기도 수원시 권선구 당수동 287번지 인정아 상가 206호","category":"보건위생 - 미용원"},{"name":"하오츠","tel":"031-419-7884","addr":"경기도 수원시 권선구 당수동 287번지 인정프린스아파트","category":"일반휴게음식 - 중국식"}]},{"lat":"37.290373378","long":"126.93868001","items":[{"name":"야베스어린이집[아이행복]","tel":"031-419-0127","addr":"경기도 수원시 권선구 당수동 743번지 한라비발디아파트1단지","category":"학원 - 유아원"}]},{"lat":"37.291509783","long":"126.94076539","items":[{"name":"어사출도","tel":"031-419-5475","addr":"경기도 수원시 권선구 당수동 159-5번지 가동 1층","category":"일반휴게음식 - 일식·회집"}]},{"lat":"37.291176356","long":"126.94067544","items":[{"name":"엄마손맛반찬","tel":"031-408-4232","addr":"경기도 수원시 권선구 당수동 158-6번지","category":"음료식품 - 기타음료식품"},{"name":"에스피모바일 3호점","tel":"031-415-8843","addr":"경기도 수원시 권선구 당수동 158-6번지 가동","category":"사무통신 - 통신기기"}]},{"lat":"37.291777852","long":"126.93663758","items":[{"name":"에코비어린이집[아이행복]","tel":"031-501-7070","addr":"경기도 수원시 권선구 당수동 745번지 서수원1차쌍용스윗닷홈 103동 104호","category":"학원 - 유아원"}]},{"lat":"37.282596731","long":"126.93723199","items":[{"name":"오룡골농장","tel":"031-415-9945","addr":"경기도 수원시 권선구 당수동 453번지","category":"음료식품 - 농·축·수산품"}]},{"lat":"37.290508933","long":"126.9394242","items":[{"name":"온솔","tel":"031-501-6058","addr":"경기도 수원시 권선구 당수동 239번지 1층 102호","category":"서적문구 - 과학기자재"}]},{"lat":"37.290428196","long":"126.94008963","items":[{"name":"우리수학학원","tel":"","addr":"경기도 수원시 권선구 당수동 236-10번지 1층 일부","category":"학원 - 보습학원"},{"name":"이디야커피 당수점","tel":"031-419-2968","addr":"경기도 수원시 권선구 당수동 236-10번지 지하1층","category":"일반휴게음식 - 서양음식"}]},{"lat":"37.29253976","long":"126.94636954","items":[{"name":"원일꽃농원","tel":"031-406-4667","addr":"경기도 수원시 권선구 당수동 187-2","category":"문화.취미 - 화원"}]},{"lat":"37.285485413","long":"126.94781823","items":[{"name":"웰다육농장","tel":"031-407-5656","addr":"경기도 수원시 권선구 당수동 398-2번지 373-1","category":"문화.취미 - 화원"}]},{"lat":"37.290790651","long":"126.94407026","items":[{"name":"정우","tel":"031-416-5326","addr":"경기도 수원시 권선구 당수동 224-19번지","category":"수리서비스 - 세탁소"}]},{"lat":"37.293312424","long":"126.94190296","items":[{"name":"조선옥","tel":"031-419-7778","addr":"경기도 수원시 권선구 당수동 135-13번지","category":"일반휴게음식 - 일반한식"}]},{"lat":"37.298565336","long":"126.94178593","items":[{"name":"주식회사 멍파크","tel":"031-8876-9843","addr":"경기도 수원시 권선구 당수동 101-5번지","category":"문화.취미 - 애완동물"}]},{"lat":"37.291870767","long":"126.94187029","items":[{"name":"주식회사 핌(FYM CO,.LTD)","tel":"070-4888-2270","addr":"경기도 수원시 권선구 당수동 160-1번지 1층","category":"용역 서비스 - 사무서비스"},{"name":"지장수본가전주콩나물국밥","tel":"031-419-3510","addr":"경기도 수원시 권선구 당수동 160-1번지 1층","category":"일반휴게음식 - 일반한식"}]},{"lat":"37.290735834","long":"126.94257041","items":[{"name":"초목공방","tel":"02-0000-0000","addr":"경기도 수원시 권선구 당수동 230-4번지","category":"의류 - 정장"}]},{"lat":"37.290286116","long":"126.94414959","items":[{"name":"춘향골황금추어탕","tel":"031-419-7505","addr":"경기도 수원시 권선구 당수동 224-6번지 1층","category":"일반휴게음식 - 일반한식"}]},{"lat":"37.284732838","long":"126.93845927","items":[{"name":"칠보산횡성한우마을","tel":"031-419-4848","addr":"경기도 수원시 권선구 당수동 471번지","category":"음료식품 - 정육점"}]},{"lat":"37.295402326","long":"126.94098775","items":[{"name":"토닥플랜트(Todoc Plant)","tel":"","addr":"경기도 수원시 권선구 당수동 130번지 3층","category":"문화.취미 - 화원"}]},{"lat":"37.29748529","long":"126.94412144","items":[{"name":"풀내음농장","tel":"031-278-0857","addr":"경기도 수원시 권선구 당수동 45번지","category":"음료식품 - 농·축·수산품"}]},{"lat":"37.290284847","long":"126.94164603","items":[{"name":"플로라21","tel":"031-406-8991","addr":"경기도 수원시 권선구 당수동 219-11번지 1층","category":"일반휴게음식 - 서양음식"}]},{"lat":"37.290598975","long":"126.93931135","items":[{"name":"피카소미술학원","tel":"031-419-0960","addr":"경기도 수원시 권선구 당수동 237번지 202호","category":"학원 - 예·체능계학원"},{"name":"하이클라스미용실","tel":"031-415-8957","addr":"경기도 수원시 권선구 당수동 237번지 성원프라자 103호","category":"보건위생 - 미용원"},{"name":"해창인테리어","tel":"031-415-9915","addr":"경기도 수원시 권선구 당수동 237번지 성원프라자 102호","category":"건축자재 - 인테리어전문"}]},{"lat":"37.28993268","long":"126.94018026","items":[{"name":"해담유치원[아이행복]","tel":"031-419-5656","addr":"경기도 수원시 권선구 당수동 242-2번지","category":"학원 - 유치원"}]},{"lat":"37.291707758","long":"126.94029157","items":[{"name":"형제농수산물직판장","tel":"031-406-7351","addr":"경기도 수원시 권선구 당수동 261-8번지","category":"음료식품 - 농·축·수산품"}]},{"lat":"37.28267958","long":"126.94047946","items":[{"name":"황금유통","tel":"","addr":"경기도 수원시 권선구 당수동 586-3번지","category":"음료식품 - 농·축·수산품"}]},{"lat":"37.282514515","long":"126.93523618","items":[{"name":"희망농수산","tel":"031-509-5093","addr":"경기도 수원시 권선구 당수동 535-3번지","category":"음료식품 - 농·축·수산품"}]}]