[{"lat":"37.294071665","long":"127.45888017","items":[{"name":"(이천이마트점)이가자헤어비스","tel":"031-634-8321","addr":"경기도 이천시 증포동 47-4번지 3층","category":"보건위생 - 미용원"},{"name":"(주)이천이마트안경","tel":"031-636-8850","addr":"경기도 이천시 증포동 47-4번지 이천이마트 2층","category":"보건위생 - 안경"},{"name":"국대떡볶이 이마트이천점","tel":"031-635-2144","addr":"경기도 이천시 증포동 47-4번지 이마트(이천점) 1동","category":"일반휴게음식 - 스넥"},{"name":"뉴욕버거","tel":"031-634-2464","addr":"경기도 이천시 증포동 47-4번지 1층","category":"일반휴게음식 - 서양음식"},{"name":"앤티앤스/(주)재원푸드 이천","tel":"02-587-0955","addr":"경기도 이천시 증포동 47-4번지","category":"일반휴게음식 - 서양음식"},{"name":"이디야커피 이천이마트점","tel":"031-635-8599","addr":"경기도 이천시 증포동 47-4번지 1층","category":"일반휴게음식 - 서양음식"},{"name":"이천스피드서비스","tel":"031-631-1318","addr":"경기도 이천시 증포동 47-4번지","category":"건축자재 - 목재·석재·철물"}]},{"lat":"37.296435366","long":"127.46042826","items":[{"name":"(주)그린첨단과학온실","tel":"02-1544-4934","addr":"경기도 이천시 증포동 33-3번지","category":"농업 - 기타농업관련"}]},{"lat":"37.288322787","long":"127.45191015","items":[{"name":"(주)더스쿨","tel":"031-631-0584","addr":"경기도 이천시 증포동 148-4번지 금장빌딩 3층 장태훈영어학원","category":"회원제형태 - 학원"},{"name":"(주)아이케어코리아","tel":"031-694-6113","addr":"경기도 이천시 증포동 148-4번지 장미빌딩","category":"전기제품 - 기타전기제품"},{"name":"경기종합OA/특별할부","tel":"031-636-9636","addr":"경기도 이천시 증포동 148-4번지 금장빌딩 4층","category":"사무통신 - 사무용 OA기기"},{"name":"기린약국","tel":"031-631-7221","addr":"경기도 이천시 증포동 148-4번지","category":"약국 - 약국"},{"name":"꽃삼겹","tel":"","addr":"경기도 이천시 증포동 148-4번지 1층","category":"일반휴게음식 - 일반한식"},{"name":"베토벤피아노","tel":"031-633-4050","addr":"경기도 이천시 증포동 148-4번지","category":"레져용품 - 피아노대리점"},{"name":"비에이치씨(BHC)이천중앙점","tel":"031-638-8866","addr":"경기도 이천시 증포동 148-4번지 장미빌딩 1층","category":"일반휴게음식 - 스넥"},{"name":"증포을태칸도장","tel":"031-637-0131","addr":"경기도 이천시 증포동 148-4번지 장미빌딩","category":"레저업소 - 헬스클럽"},{"name":"파씨헬스클럽","tel":"031-638-8859","addr":"경기도 이천시 증포동 148-4번지","category":"레저업소 - 헬스클럽"},{"name":"판야커피(PANYA Coffee)","tel":"","addr":"경기도 이천시 증포동 148-4번지 장미빌딩","category":"일반휴게음식 - 서양음식"},{"name":"해피로PC방 이천증포점","tel":"","addr":"경기도 이천시 증포동 148-4번지 장미빌딩 3층 1호","category":"레저업소 - 기타레져업소"},{"name":"헬스기구할인마트","tel":"031-637-8452","addr":"경기도 이천시 증포동 148-4번지","category":"레져용품 - 스포츠·레져용품"}]},{"lat":"37.288852113","long":"127.4595704","items":[{"name":"(주)삼일통신","tel":"031-635-4000","addr":"경기도 이천시 증포동 101-5번지 1층","category":"용역 서비스 - 기타용역서비스"},{"name":"소리모아음악학원","tel":"031-638-5072","addr":"경기도 이천시 증포동 101-5번지 2층","category":"학원 - 예·체능계학원"}]},{"lat":"37.28552568","long":"127.45057418","items":[{"name":"(주)하이고속관광","tel":"031-635-8251","addr":"경기도 이천시 증포동 388번지 2층","category":"여행 - 관광여행"}]},{"lat":"37.28880076","long":"127.44701876","items":[{"name":"2000 오브제","tel":"031-111-1111","addr":"경기도 이천시 증포동 351-9번지 B층 03호","category":"의류 - 정장"},{"name":"남다인미용실","tel":"","addr":"경기도 이천시 증포동 351-9번지 1동 1층 102호","category":"보건위생 - 미용원"},{"name":"라라음악학원","tel":"031-631-7974","addr":"경기도 이천시 증포동 351-9번지 증포로자벨프라자 1동 305호","category":"학원 - 예·체능계학원"},{"name":"마마몽떼 이천센터","tel":"031-111-1111","addr":"경기도 이천시 증포동 351-9번지 303호","category":"학원 - 기타 교육기관"},{"name":"바이더룩","tel":"","addr":"경기도 이천시 증포동 351-9번지 1동 202호","category":"용역 서비스 - 사무서비스"},{"name":"수자인 과일","tel":"031-637-0511","addr":"경기도 이천시 증포동 351-9번지 B04호","category":"음료식품 - 농·축·수산품"},{"name":"안녕.조이","tel":"","addr":"경기도 이천시 증포동 351-9번지 202호","category":"보건위생 - 피부미용실"},{"name":"점핑스타 이천점","tel":"031-1111-1111","addr":"경기도 이천시 증포동 351-9번지 3층 301호","category":"레저업소 - 헬스클럽"},{"name":"큐리키즈카페","tel":"031-637-8899","addr":"경기도 이천시 증포동 351-9번지 401호","category":"레저업소 - 기타레져업소"},{"name":"한솔플러스영어수학바른학원","tel":"031-634-9807","addr":"경기도 이천시 증포동 351-9번지 3층 304호","category":"학원 - 보습학원"}]},{"lat":"37.289383385","long":"127.45496127","items":[{"name":"2000스크린골프","tel":"031-631-5800","addr":"경기도 이천시 증포동 157-5번지","category":"회원제형태 - 레져업소"},{"name":"건강한 미래교육센터","tel":"031-637-2353","addr":"경기도 이천시 증포동 157-5번지 하니빌딩","category":"학원 - 기타 교육기관"},{"name":"레고교육센터학원","tel":"031-631-8341","addr":"경기도 이천시 증포동 157-5번지 하나빌딩 2층","category":"학원 - 기타 교육기관"},{"name":"어린왕자유니랭스미술영어학원","tel":"031-633-0955","addr":"경기도 이천시 증포동 157-5번지","category":"학원 - 보습학원"},{"name":"왕뚝배기감자탕","tel":"031-636-2255","addr":"경기도 이천시 증포동 157-5번지 하니빌딩","category":"일반휴게음식 - 일반한식"},{"name":"하니당구클럽","tel":"031-633-0919","addr":"경기도 이천시 증포동 157-5번지 지하층","category":"레저업소 - 당 구 장"}]},{"lat":"37.285550424","long":"127.45355133","items":[{"name":"21세기정보통신","tel":"031-635-2300","addr":"경기도 이천시 증포동 480번지 설봉2차푸르지오 207동 1401호","category":"사무통신 - 통신기기"}]},{"lat":"37.293822844","long":"127.45563067","items":[{"name":"59쌀피자(증포점)","tel":"031-634-5915","addr":"경기도 이천시 증포동 210-1번지 흥인프라자 109호","category":"일반휴게음식 - 서양음식"},{"name":"뉴페이스안경","tel":"031-636-4800","addr":"경기도 이천시 증포동 210-1번지 흥인프라자 106호","category":"보건위생 - 안경"},{"name":"로뎀문구","tel":"031-636-7020","addr":"경기도 이천시 증포동 210-1번지 흥인프라자 108호","category":"서적문구 - 문구용품"},{"name":"로뎀미술음악교습소","tel":"031-636-7030","addr":"경기도 이천시 증포동 210-1번지 흥인프라자 406호","category":"학원 - 예·체능계학원"},{"name":"로뎀음악교습소","tel":"031-636-7030","addr":"경기도 이천시 증포동 210-1번지 흥인프라자 4층 406호","category":"학원 - 예·체능계학원"},{"name":"리틀브러쉬심리미술교습소","tel":"031-634-0816","addr":"경기도 이천시 증포동 210-1번지 흥인프라자 502호","category":"학원 - 예·체능계학원"},{"name":"뮤엠영어증포학원","tel":"031-637-7853","addr":"경기도 이천시 증포동 210-1번지 흥인프라자 6층 606호","category":"회원제형태 - 학원"},{"name":"민치과의원","tel":"031-633-7294","addr":"경기도 이천시 증포동 210-1번지 흥인프라자 305호","category":"의원 - 의원"},{"name":"베이비플러스 이천점","tel":"031-631-6589","addr":"경기도 이천시 증포동 210-1번지 흥인프라자 301호 302호","category":"의류 - 아동의류"},{"name":"본죽증포점","tel":"031-637-6288","addr":"경기도 이천시 증포동 210-1번지 흥인프라자 107호","category":"일반휴게음식 - 일반한식"},{"name":"생각의깊이언송국어입시전문학원","tel":"031-638-2076","addr":"경기도 이천시 증포동 210-1번지 흥인프라자 203호","category":"학원 - 보습학원"},{"name":"승혜계절요가","tel":"031-636-5327","addr":"경기도 이천시 증포동 210-1번지 흥인프라자 503호","category":"레저업소 - 헬스클럽"},{"name":"승혜계절요가(증포점)","tel":"031-636-5327","addr":"경기도 이천시 증포동 210-1번지 흥인프라자 503호","category":"레저업소 - 헬스클럽"},{"name":"영수공감","tel":"031-633-8409","addr":"경기도 이천시 증포동 210-1번지 흥인프라자 604호","category":"회원제형태 - 학원"},{"name":"예스증포영어학원","tel":"031-636-0910","addr":"경기도 이천시 증포동 210-1번지 흥인프라자 605호","category":"학원 - 외국어학원"},{"name":"용인대태권도","tel":"031-637-3663","addr":"경기도 이천시 증포동 210-1번지 흥인프라자 201호","category":"학원 - 예·체능계학원"},{"name":"웰(WELL)영어교습소","tel":"031-633-5046","addr":"경기도 이천시 증포동 210-1번지 흥인프라자 404호","category":"학원 - 외국어학원"},{"name":"이삭토스트","tel":"031-638-1199","addr":"경기도 이천시 증포동 210-1번지 흥인프라자 1층 109호","category":"일반휴게음식 - 서양음식"},{"name":"이지학원","tel":"031-632-6687","addr":"경기도 이천시 증포동 210-1번지 흥인프라자 3층 306호","category":"학원 - 보습학원"},{"name":"증포삼성영어","tel":"031-638-2073","addr":"경기도 이천시 증포동 210-1번지 흥인프라자 205호","category":"학원 - 외국어학원"},{"name":"증포온누리약국","tel":"031-631-1363","addr":"경기도 이천시 증포동 210-1번지 흥인프라자 105호","category":"약국 - 약국"},{"name":"참사랑내과의원","tel":"031-631-2282","addr":"경기도 이천시 증포동 210-1흥인프라자303.304","category":"의원 - 의원"},{"name":"크린토피아","tel":"031-631-7292","addr":"경기도 이천시 증포동 210-1번지 109동 2호","category":"수리서비스 - 세탁소"},{"name":"탑 케이 짐","tel":"","addr":"경기도 이천시 증포동 210-1번지 흥인프라자 4층 401호 ,402,403호","category":"레저업소 - 헬스클럽"},{"name":"통큰할매토종순대국증포점(고풍)","tel":"031-638-9234","addr":"경기도 이천시 증포동 210-1번지","category":"일반휴게음식 - 일반한식"},{"name":"파리바게뜨이천증포점","tel":"031-634-7442","addr":"경기도 이천시 증포동 210-1번지 흥인프라자 103호","category":"음료식품 - 제과점"},{"name":"하버드독서실","tel":"031-634-8666","addr":"경기도 이천시 증포동 210-1흥인프라자602호603호","category":"학원 - 독서실"},{"name":"한국외대이천중국어교습소","tel":"070-5022-4846","addr":"경기도 이천시 증포동 210-1번지 601-2호","category":"학원 - 외국어학원"},{"name":"해법프라임보습학원","tel":"031-633-6110","addr":"경기도 이천시 증포동 210-1번지 흥인프라자 504호","category":"학원 - 보습학원"},{"name":"훌랄라 (증포1호점)","tel":"031-635-9585","addr":"경기도 이천시 증포동 210-1번지 홍인프라자 104호","category":"일반휴게음식 - 스넥"}]},{"lat":"37.297130018","long":"127.45551515","items":[{"name":"BHC 증포점","tel":"031-637-6282","addr":"경기도 이천시 증포동 237-2번지","category":"일반휴게음식 - 스넥"},{"name":"봄#","tel":"031-633-9189","addr":"경기도 이천시 증포동 237-2번지 1-4호","category":"보건위생 - 미용원"}]},{"lat":"37.285049514","long":"127.45021051","items":[{"name":"CHERISH","tel":"","addr":"경기도 이천시 증포동 387-4번지 비츠타워 1층 102호","category":"보건위생 - 피부미용실"},{"name":"금호타이어뉴니모터스","tel":"031-636-7901","addr":"경기도 이천시 증포동 387-4번지","category":"자동차정비 유지 - 자동차시트·타이어"},{"name":"샤인개러지","tel":"031-631-8191","addr":"경기도 이천시 증포동 387-4번지","category":"자동차정비 유지 - 세차장"},{"name":"설봉낚시","tel":"031-636-2977","addr":"경기도 이천시 증포동 387-4","category":"레져용품 - 스포츠·레져용품"},{"name":"애니카랜드 증포점","tel":"031-636-7951","addr":"경기도 이천시 증포동 387-4","category":"자동차정비 유지 - 자동차정비"},{"name":"이군세차","tel":"","addr":"경기도 이천시 증포동 387-4번지","category":"자동차정비 유지 - 세차장"}]},{"lat":"37.291242778","long":"127.44934498","items":[{"name":"ESSE(에쎄)","tel":"031-637-2370","addr":"경기도 이천시 증포동 362-21번지","category":"일반휴게음식 - 일반한식"}]},{"lat":"37.290798726","long":"127.45476675","items":[{"name":"GOLD 인테리어","tel":"031-636-8903","addr":"경기도 이천시 증포동 177-6번지","category":"건축자재 - 인테리어전문"}]},{"lat":"37.287968459","long":"127.45739989","items":[{"name":"GS25이천신한점","tel":"","addr":"경기도 이천시 증포동 94-3번지 상가동 110,111호","category":"유통업 영리 - 편 의 점"},{"name":"냠냠반찬","tel":"031-635-8561","addr":"경기도 이천시 증포동 94-3번지 신한아파트 상가동 109호","category":"음료식품 - 기타음료식품"},{"name":"슈필렌음악학원","tel":"031-636-3307","addr":"경기도 이천시 증포동 94-3.신한@상가303호","category":"학원 - 예·체능계학원"},{"name":"신한공조냉난방","tel":"070-5211-3937","addr":"경기도 이천시 증포동 94-3번지 신한상가 지하1층 B04호","category":"용역 서비스 - 기타용역서비스"},{"name":"조윤주영어학원","tel":"031-631-2669","addr":"경기도 이천시 증포동 94-3번지 신한아파트 206동 207호","category":"학원 - 외국어학원"},{"name":"헤어스케치","tel":"031-638-2455","addr":"경기도 이천시 증포동 94-3번지 신한1차 상가 203호","category":"보건위생 - 미용원"}]},{"lat":"37.290356819","long":"127.44773837","items":[{"name":"GS25이천한양점","tel":"","addr":"경기도 이천시 증포동 491번지 이천증포신도시한양수자인5블럭 상가동동 101호","category":"유통업 영리 - 편 의 점"},{"name":"미래연수자인어린이집[아이행복]","tel":"031-637-2242","addr":"경기도 이천시 증포동 491번지 한양수자인아파트 5블록","category":"학원 - 유아원"},{"name":"주니헤어","tel":"070-8616-2223","addr":"경기도 이천시 증포동 491번지 한양수자인근린생활시설 상가동 204호","category":"보건위생 - 미용원"},{"name":"토킹스타영어교습소","tel":"031-694-9559","addr":"경기도 이천시 증포동 491번지 한양수자인아파트 5블록 202호","category":"학원 - 외국어학원"}]},{"lat":"37.290883314","long":"127.44909475","items":[{"name":"GTS 골프 아카데미","tel":"031-633-6241","addr":"경기도 이천시 증포동 362-6번지 4층","category":"레저업소 - 스크린골프"},{"name":"아이센스리그PC 이천증포점","tel":"","addr":"경기도 이천시 증포동 362-6번지 2층","category":"레저업소 - 기타레져업소"},{"name":"원뷰티","tel":"031-633-8833","addr":"경기도 이천시 증포동 362-6번지 3층","category":"보건위생 - 피부미용실"},{"name":"이마트24 이천KH점","tel":"","addr":"경기도 이천시 증포동 362-6번지","category":"유통업 영리 - 편 의 점"},{"name":"이천테크노본가","tel":"031-634-0112","addr":"경기도 이천시 증포동 362-6번지 362-27,362-114","category":"사무통신 - 통신기기"},{"name":"청춘핏피트니스","tel":"031-634-7717","addr":"경기도 이천시 증포동 362-6번지 외3필지","category":"레저업소 - 헬스클럽"}]},{"lat":"37.289580724","long":"127.45754492","items":[{"name":"HAFELE&샤인가구","tel":"031-636-1199","addr":"경기도 이천시 증포동 165-7번지","category":"가구 - 기타가구"},{"name":"스타덤PC이천본점","tel":"070-5476-6278","addr":"경기도 이천시 증포동 165-7번지 외1필지","category":"레저업소 - 기타레져업소"}]},{"lat":"37.293406141","long":"127.45621461","items":[{"name":"J&ONE태권도스쿨","tel":"031-634-1964","addr":"경기도 이천시 증포동 207-10번지","category":"학원 - 예·체능계학원"},{"name":"미스터헤어","tel":"031-634-2845","addr":"경기도 이천시 증포동 207-10번지","category":"보건위생 - 미용원"},{"name":"청춘마차","tel":"031-632-5896","addr":"경기도 이천시 증포동 207-10번지 홍인프라지 204호","category":"일반휴게음식 - 주점"},{"name":"코스트커피 증포점 COSTCOFFEE","tel":"031-633-7872","addr":"경기도 이천시 증포동 207-10번지","category":"일반휴게음식 - 서양음식"},{"name":"피아노데이음악학원","tel":"031-636-0081","addr":"경기도 이천시 증포동 207-10번지 1층","category":"학원 - 예·체능계학원"}]},{"lat":"37.286546152","long":"127.44996","items":[{"name":"JDS GYM(제이디에스 짐)","tel":"031-635-1111","addr":"경기도 이천시 증포동 375-25번지 2층 202호","category":"레저업소 - 헬스클럽"},{"name":"빽쌤수학교습소","tel":"070-7420-9201","addr":"경기도 이천시 증포동 375-25번지 201호","category":"학원 - 보습학원"},{"name":"이화수전통육개장 이천증포점","tel":"031-633-0232","addr":"경기도 이천시 증포동 375-25번지 1층","category":"일반휴게음식 - 일반한식"}]},{"lat":"37.287630312","long":"127.45393587","items":[{"name":"K 디자인","tel":"031-633-0666","addr":"경기도 이천시 증포동 135-18번지","category":"용역 서비스 - 종합용역"}]},{"lat":"37.289880401","long":"127.45221261","items":[{"name":"LG오휘이천중앙지사","tel":"031-886-7015","addr":"경기도 이천시 증포동 182-9번지 쌍용봉빌딩 3층 오휘이천중앙지사","category":"보건위생 - 화장품"},{"name":"엘지오휘화장품","tel":"031-635-1104","addr":"경기도 이천시 증포동 182-9번지 쌍용봉빌딩 3층","category":"보건위생 - 화장품"},{"name":"오휘화장품","tel":"031-635-1104","addr":"경기도 이천시 증포동 182-9번지 쌍용빌딩 3층","category":"보건위생 - 화장품"},{"name":"오휘화장품","tel":"031-635-1103","addr":"경기도 이천시 증포동 182-9번지 쌍용봉빌딩 3층","category":"보건위생 - 화장품"},{"name":"오휘화장품","tel":"031-635-1103","addr":"경기도 이천시 증포동 182-9번지","category":"보건위생 - 화장품"},{"name":"요가 나마스떼","tel":"031-632-6388","addr":"경기도 이천시 증포동 182-9번지","category":"레저업소 - 헬스클럽"},{"name":"케이티엔 114","tel":"031-634-3114","addr":"경기도 이천시 증포동 182-9번지","category":"용역 서비스 - 종합용역"},{"name":"태후미용재료","tel":"031-632-1654","addr":"경기도 이천시 증포동 182-9번지 1층","category":"보건위생 - 미용재료"}]},{"lat":"37.290103865","long":"127.45740146","items":[{"name":"NKIDS태권도스쿨","tel":"031-633-4988","addr":"경기도 이천시 증포동 78-15번지 3층","category":"학원 - 예·체능계학원"},{"name":"라온어린이집[아이행복]","tel":"031-8011-2377","addr":"경기도 이천시 증포동 78-15번지","category":"학원 - 유아원"},{"name":"엔키즈어린이집","tel":"031-635-7441","addr":"경기도 이천시 증포동 78-15번지","category":"학원 - 유아원"},{"name":"엔키즈주식회사","tel":"031-631-7441","addr":"경기도 이천시 증포동 78-15번지","category":"학원 - 기타 교육기관"},{"name":"엘, S다온베이킹","tel":"031-633-1448","addr":"경기도 이천시 증포동 78-15번지 1층","category":"음료식품 - 제과점"},{"name":"이성민피아노교습소","tel":"031-631-4744","addr":"경기도 이천시 증포동 78-15번지 1층","category":"학원 - 예·체능계학원"},{"name":"쭌바이크","tel":"031-637-0700","addr":"경기도 이천시 증포동 78-15번지 A동 1층","category":"자동차판매 - 이륜차판매"}]},{"lat":"37.295327522","long":"127.45798551","items":[{"name":"S.B무에타이키즈클럽","tel":"031-631-0908","addr":"경기도 이천시 증포동 49-8번지 신세기타운 A동 203호","category":"회원제형태 - 레져업소"},{"name":"까페S","tel":"031-631-6780","addr":"경기도 이천시 증포동 49-8번지 신세기타운 A동 206호","category":"음료식품 - 기타음료식품"},{"name":"느티나무 심리상담센터","tel":"031-631-8473","addr":"경기도 이천시 증포동 49-8번지 신세기타운 A동 401호","category":"보건위생 - 기타대인서비스"},{"name":"다이어트아일랜드","tel":"031-638-3785","addr":"경기도 이천시 증포동 49-8번지 신세기타운 A동 201호","category":"회원제형태 - 레져업소"},{"name":"민속관","tel":"031-631-3974","addr":"경기도 이천시 증포동 49-8번지 신세기타운 B동 102호","category":"의류 - 정장"},{"name":"베데스다(Bethesda)","tel":"031-635-6235","addr":"경기도 이천시 증포동 49-8번지 신세기타운4층 A동 4층","category":"보건위생 - 피부미용실"},{"name":"보석이용원","tel":"031-631-0057","addr":"경기도 이천시 증포동 49-8번지 신세기타운","category":"보건위생 - 이용원"},{"name":"소울뮤직","tel":"031-635-7744","addr":"경기도 이천시 증포동 49-8번지 신세기타운B동103-1.2호","category":"레져용품 - 악기점"},{"name":"소울실용음악학원","tel":"031-638-4070","addr":"경기도 이천시 증포동 49-8번지 신세기타운 A동 401호","category":"회원제형태 - 학원"},{"name":"신세기타운","tel":"031-633-1681","addr":"경기도 이천시 증포동 49-8번지","category":"자동차정비 유지 - 주차장"},{"name":"엘지전자(주) 이천서비스센터","tel":"02-3777-1114","addr":"경기도 이천시 증포동 49-8번지 LGBESTSH오피스텔","category":"수리서비스 - 가정용품수리"},{"name":"운동화빨래방","tel":"031-637-9284","addr":"경기도 이천시 증포동 49-8 신세기타운 A-106","category":"수리서비스 - 세탁소"},{"name":"이좋은치과의원","tel":"031-638-1365","addr":"경기도 이천시 증포동 49-8신세기타운2층A","category":"의원 - 치과의원"},{"name":"이천보석사우나","tel":"031-631-0057","addr":"경기도 이천시 증포동 49-8번지","category":"보건위생 - 사우나"},{"name":"이천보석사우나스넥코너","tel":"031-631-0057","addr":"경기도 이천시 증포동 49-8번지 지하1층","category":"일반휴게음식 - 일반한식"}]},{"lat":"37.28729846","long":"127.44637843","items":[{"name":"bbq이천증포점","tel":"031-632-8292","addr":"경기도 이천시 증포동 404-9번지","category":"일반휴게음식 - 일반한식"}]},{"lat":"37.290184352","long":"127.45046645","items":[{"name":"coffee sweet","tel":"031-631-1123","addr":"경기도 이천시 증포동 362-48번지 1층","category":"일반휴게음식 - 서양음식"},{"name":"문태호수학교실교습소","tel":"031-635-9413","addr":"경기도 이천시 증포동 362-48번지 3층","category":"학원 - 보습학원"},{"name":"뮤엠영어","tel":"031-631-0200","addr":"경기도 이천시 증포동 362-48번지","category":"학원 - 외국어학원"}]},{"lat":"37.288851155","long":"127.45981849","items":[{"name":"jyj헤어갤러리","tel":"031-635-1314","addr":"경기도 이천시 증포동 100번지 203호","category":"보건위생 - 미용원"}]},{"lat":"37.286384185","long":"127.44990266","items":[{"name":"mer unie(메르위니)","tel":"031-635-3355","addr":"경기도 이천시 증포동 397-2번지","category":"일반휴게음식 - 일반한식"},{"name":"라메종109","tel":"031-635-3355","addr":"경기도 이천시 증포동 397-2번지","category":"일반휴게음식 - 서양음식"}]},{"lat":"37.290243238","long":"127.45157197","items":[{"name":"가본먹물순대국","tel":"032-638-6007","addr":"경기도 이천시 증포동 369-3번지","category":"일반휴게음식 - 일반한식"},{"name":"온스팀세차장","tel":"","addr":"경기도 이천시 증포동 369-3번지","category":"자동차정비 유지 - 세차장"}]},{"lat":"37.286659196","long":"127.45812501","items":[{"name":"가이젤","tel":"031-633-0584","addr":"경기도 이천시 증포동 121-5번지 2층","category":"학원 - 보습학원"},{"name":"이천구피공방","tel":"","addr":"경기도 이천시 증포동 121-5번지","category":"문화.취미 - 수족관"},{"name":"포샵(4#)","tel":"","addr":"경기도 이천시 증포동 121-5번지 1층","category":"의류 - 정장"}]},{"lat":"37.295962594","long":"127.45685025","items":[{"name":"거산학원","tel":"031-637-7707","addr":"경기도 이천시 증포동 215-7번지 우리타워 6층","category":"학원 - 보습학원"},{"name":"골드치과의원","tel":"031-637-2824","addr":"경기도 이천시 증포동 215-7번지","category":"의원 - 치과의원"},{"name":"깍지헤어샵","tel":"031-638-3385","addr":"경기도 이천시 증포동 215-7번지","category":"보건위생 - 미용원"},{"name":"다짐독서실","tel":"031-8011-9119","addr":"경기도 이천시 증포동 215-7번지 우리타워 4층 403,404호","category":"학원 - 독서실"},{"name":"디자인맥터","tel":"031-633-6864","addr":"경기도 이천시 증포동 215-7번지 우리타워 108호","category":"용역 서비스 - 종합용역"},{"name":"뚜레쥬르 이천증포점","tel":"031-633-4458","addr":"경기도 이천시 증포동 215-7번지 우리타워 1층","category":"음료식품 - 제과점"},{"name":"라보떼","tel":"031-634-4401","addr":"경기도 이천시 증포동 215-7번지 504호","category":"보건위생 - 화장품"},{"name":"소담촌 이천점","tel":"031-634-3129","addr":"경기도 이천시 증포동 215-7번지 증포도으우리타워 503호","category":"일반휴게음식 - 일반한식"},{"name":"아수카일본어교실","tel":"031-632-1521","addr":"경기도 이천시 증포동 215-7번지 우리타워 4층 409호","category":"회원제형태 - 학원"},{"name":"우리당구클럽","tel":"02-1577-0000","addr":"경기도 이천시 증포동 215-7번지 2층 201호","category":"레저업소 - 당 구 장"},{"name":"우리타워","tel":"031-631-0030","addr":"경기도 이천시 증포동 215-7번지 우리타워","category":"자동차정비 유지 - 주차장"},{"name":"웰빙김밥나라","tel":"031-636-6449","addr":"경기도 이천시 증포동 215-7번지 우리타워 101호","category":"일반휴게음식 - 일반한식"},{"name":"잉글리쉬무무보습학원","tel":"031-638-9905","addr":"경기도 이천시 증포동 215-7번지 410동 411호","category":"학원 - 보습학원"},{"name":"참다한흑홍삼(이천점)","tel":"031-632-4567","addr":"경기도 이천시 증포동 215-7번지 우리타워 1층 104호","category":"건강식품 - 기타건강식품"},{"name":"카이로봇","tel":"031-633-5005","addr":"경기도 이천시 증포동 215-7번지 우리타워 6동 603층","category":"서적문구 - 일반서적"},{"name":"폭스21","tel":"031-637-6984","addr":"경기도 이천시 증포동 215-7번지 우리타워 1층 107호","category":"일반휴게음식 - 일반한식"},{"name":"필라테스 율","tel":"070-8806-0513","addr":"경기도 이천시 증포동 215-7번지 3층 304호","category":"레저업소 - 헬스클럽"},{"name":"형제닭갈비","tel":"070-4388-6677","addr":"경기도 이천시 증포동 215-7번지 102호","category":"일반휴게음식 - 일반한식"},{"name":"황족","tel":"031-635-3232","addr":"경기도 이천시 증포동 215-7 103-1호","category":"일반휴게음식 - 일반한식"},{"name":"힘찬gym","tel":"031-633-0177","addr":"경기도 이천시 증포동 215-7번지 우리타워 6층 602호","category":"레저업소 - 헬스클럽"}]},{"lat":"37.289608303","long":"127.45268463","items":[{"name":"게랑회랑","tel":"031-638-8811","addr":"경기도 이천시 증포동 150번지 1층","category":"일반휴게음식 - 일반한식"},{"name":"속초수산물센타","tel":"031-638-8811","addr":"경기도 이천시 증포동 150번지 가게앞수족관","category":"음료식품 - 농·축·수산품"}]},{"lat":"37.289269916","long":"127.46103895","items":[{"name":"경기네비","tel":"031-636-1160","addr":"경기도 이천시 증포동 104-8번지","category":"자동차정비 유지 - 자동차부품"},{"name":"백두모터스","tel":"031-637-6878","addr":"경기도 이천시 증포동 104-8번지","category":"자동차정비 유지 - 카인테리어"},{"name":"백두모터스","tel":"031-636-1160","addr":"경기도 이천시 증포동 104-8번지","category":"자동차정비 유지 - 자동차부품"}]},{"lat":"37.28916394","long":"127.45343755","items":[{"name":"경동이천대리점","tel":"031-635-3915","addr":"경기도 이천시 증포동 152번지","category":"건축자재 - 보일러·펌프·샷시"},{"name":"비엘리","tel":"031-633-9171","addr":"경기도 이천시 증포동 152번지","category":"자동차정비 유지 - 자동차부품"},{"name":"성민인테리어","tel":"031-635-9377","addr":"경기도 이천시 증포동 152번지","category":"건축자재 - 인테리어전문"},{"name":"이천여주교차로","tel":"031-637-6321","addr":"경기도 이천시 증포동 152번지","category":"서적문구 - 정기간행물"}]},{"lat":"37.289159174","long":"127.4523211","items":[{"name":"경성곱창막창","tel":"031-633-4385","addr":"경기도 이천시 증포동 149-5번지 B동 1층","category":"일반휴게음식 - 일반한식"},{"name":"덴트카마스타","tel":"031-631-9363","addr":"경기도 이천시 증포동 149-5번지","category":"자동차정비 유지 - 카인테리어"},{"name":"제주흑돼지(흑다돈이천증포점)","tel":"031-631-7709","addr":"경기도 이천시 증포동 149-5번지","category":"일반휴게음식 - 일반한식"},{"name":"호남식당","tel":"031-633-0098","addr":"경기도 이천시 증포동 149-5번지","category":"일반휴게음식 - 일반한식"}]},{"lat":"37.293239524","long":"127.45501818","items":[{"name":"경원대 석사태권도","tel":"031-636-3365","addr":"경기도 이천시 증포동 210-5번지","category":"학원 - 예·체능계학원"},{"name":"김가네증포점","tel":"","addr":"경기도 이천시 증포동 210-5번지 1층","category":"일반휴게음식 - 일반한식"},{"name":"김효선음악학원","tel":"031-634-8088","addr":"경기도 이천시 증포동 210-5번지","category":"학원 - 예·체능계학원"},{"name":"더 스크린골프","tel":"031-633-3314","addr":"경기도 이천시 증포동 210-5번지","category":"레저업소 - 스크린골프"},{"name":"롯데리아 증포점","tel":"031-637-7009","addr":"경기도 이천시 증포동 210-5번지 1층 C","category":"일반휴게음식 - 서양음식"},{"name":"미래전기","tel":"031-635-3838","addr":"경기도 이천시 증포동 210-5번지","category":"전기제품 - 기타전기제품"},{"name":"서울외대영어교습소","tel":"031-694-9501","addr":"경기도 이천시 증포동 210-5","category":"회원제형태 - 학원"},{"name":"오토크린","tel":"031-631-5513","addr":"경기도 이천시 증포동 210-5","category":"자동차정비 유지 - 카인테리어"},{"name":"우리베이커리","tel":"031-631-3964","addr":"경기도 이천시 증포동 210-5","category":"음료식품 - 제과점"},{"name":"우리열쇠","tel":"","addr":"경기도 이천시 증포동 210-5번지","category":"수리서비스 - 기타수리서비스"},{"name":"잡스네Phone Cafe","tel":"031-634-2431","addr":"경기도 이천시 증포동 210-5번지 우리마트(주)내","category":"사무통신 - 통신기기"},{"name":"증포백상미술학원","tel":"031-635-8561","addr":"경기도 이천시 증포동 210-5번지","category":"학원 - 예·체능계학원"},{"name":"증포화원","tel":"031-633-7070","addr":"경기도 이천시 증포동 210-5번지","category":"문화.취미 - 화원"},{"name":"츄츄리안","tel":"031-633-7537","addr":"경기도 이천시 증포동 210-5","category":"의류 - 내의판매"},{"name":"탐엔탐스","tel":"031-631-9390","addr":"경기도 이천시 증포동 210-5번지 1동 1,2층","category":"일반휴게음식 - 서양음식"},{"name":"페이지1(Page1)","tel":"","addr":"경기도 이천시 증포동 210-5번지","category":"의류 - 정장"},{"name":"헤어스튜디오 머리빨","tel":"031-638-6984","addr":"경기도 이천시 증포동 210-5번지 A동 103호","category":"보건위생 - 미용원"}]},{"lat":"37.286662596","long":"127.4525205","items":[{"name":"고기한판","tel":"031-633-4116","addr":"경기도 이천시 증포동 137-3번지","category":"일반휴게음식 - 일반한식"}]},{"lat":"37.289217485","long":"127.4535732","items":[{"name":"광어일번지","tel":"031-633-5525","addr":"경기도 이천시 증포동 153-5번지","category":"일반휴게음식 - 일식·회집"},{"name":"교촌치킨","tel":"031-637-8292","addr":"경기도 이천시 증포동 153-5번지","category":"일반휴게음식 - 스넥"},{"name":"다온만두","tel":"031-638-8258","addr":"경기도 이천시 증포동 153-5번지","category":"일반휴게음식 - 일반한식"}]},{"lat":"37.28704841","long":"127.45057192","items":[{"name":"괜찮아 심리상담센터","tel":"031-632-2837","addr":"경기도 이천시 증포동 376번지 2동 103호","category":"보건위생 - 기타대인서비스"},{"name":"오드","tel":"031-631-5220","addr":"경기도 이천시 증포동 376번지 1동 101호","category":"건축자재 - 건축용 요업제품"},{"name":"우연히, 봄","tel":"031-631-0000","addr":"경기도 이천시 증포동 376번지 1동 102호","category":"문화.취미 - 화원"},{"name":"채움(Chaeum Beauty)뷰티","tel":"","addr":"경기도 이천시 증포동 376번지 2동 104호","category":"보건위생 - 화장품"},{"name":"헤어(J)","tel":"","addr":"경기도 이천시 증포동 376번지 2동 102호","category":"보건위생 - 미용원"}]},{"lat":"37.2919946","long":"127.44828934","items":[{"name":"국보종합광고","tel":"031-638-2704","addr":"경기도 이천시 증포동 341-1번지","category":"용역 서비스 - 종합용역"},{"name":"알로 와이키키","tel":"","addr":"경기도 이천시 증포동 341-1번지 1층","category":"일반휴게음식 - 주점"}]},{"lat":"37.287852833","long":"127.4593501","items":[{"name":"국선생이천증포점","tel":"031-633-6455","addr":"경기도 이천시 증포동 486번지 설봉3차푸르지오 116동 1층 103호","category":"음료식품 - 기타음료식품"},{"name":"깔롱헤어","tel":"031-634-7876","addr":"경기도 이천시 증포동 486번지 이천설봉3차푸르지오 상가동 116동 102호","category":"보건위생 - 미용원"},{"name":"세븐일레븐이천푸르지오점","tel":"031-1577-0711","addr":"경기도 이천시 증포동 486번지 이천설봉3차푸르지오 상가동 105호","category":"유통업 영리 - 편 의 점"},{"name":"신통치킨","tel":"031-635-8998","addr":"경기도 이천시 증포동 486번지 상가동 104호","category":"일반휴게음식 - 스넥"},{"name":"지오숲어린이집[아이행복]","tel":"031-633-7525","addr":"경기도 이천시 증포동 486번지 센트럴푸르지오 관리동","category":"학원 - 유아원"},{"name":"한솔플러스 푸르지오3차","tel":"070-4922-1261","addr":"경기도 이천시 증포동 486번지 센트럴푸르지오 107동 1604호","category":"학원 - 기타 교육기관"}]},{"lat":"37.291295566","long":"127.4544314","items":[{"name":"굽네치킨이천점","tel":"031-638-0655","addr":"경기도 이천시 증포동 178-14번지","category":"일반휴게음식 - 일반한식"},{"name":"서울중앙의원","tel":"031-631-8275","addr":"경기도 이천시 증포동 178-14번지","category":"의원 - 의원"}]},{"lat":"37.290438762","long":"127.44990409","items":[{"name":"그림아트스튜디오이천증포학원","tel":"031-634-1398","addr":"경기도 이천시 증포동 362-59번지 3층","category":"학원 - 예·체능계학원"},{"name":"수담고등수학학원","tel":"031-634-1312","addr":"경기도 이천시 증포동 362-59번지 3층","category":"학원 - 보습학원"}]},{"lat":"37.295934752","long":"127.45470724","items":[{"name":"그림이야기","tel":"031-634-8971","addr":"경기도 이천시 증포동 475번지 증포동한솔솔파크 202호","category":"학원 - 예·체능계학원"},{"name":"숙명음악학원","tel":"","addr":"경기도 이천시 증포동 475번지 한솔솔파크 상가 2층 201호","category":"학원 - 예·체능계학원"},{"name":"쥬얼리 헤어샵","tel":"031-637-2119","addr":"경기도 이천시 증포동 475번지 증포동한솔솔파크 상가동 102호","category":"보건위생 - 미용원"},{"name":"한솔마트","tel":"031-634-2657","addr":"경기도 이천시 증포동 475번지 증포동한솔솔파크","category":"유통업 영리 - 슈퍼마켓"}]},{"lat":"37.290606008","long":"127.4533221","items":[{"name":"금강어린이집[아이행복]","tel":"031-635-5084","addr":"경기도 이천시 증포동 180-3번지 금강유치원","category":"학원 - 유아원"},{"name":"지예슬유치원[아이행복]","tel":"031-635-5084","addr":"경기도 이천시 증포동 180-3번지","category":"학원 - 유치원"}]},{"lat":"37.289384972","long":"127.45690094","items":[{"name":"금성광고기업","tel":"031-637-8383","addr":"경기도 이천시 증포동 159-19번지","category":"건축자재 - 인테리어전문"},{"name":"민 당구클럽","tel":"","addr":"경기도 이천시 증포동 159-19번지 2층","category":"레저업소 - 당 구 장"}]},{"lat":"37.289966961","long":"127.45076965","items":[{"name":"김명자낙지마당","tel":"031-631-6308","addr":"경기도 이천시 증포동 367-1번지","category":"일반휴게음식 - 일반한식"},{"name":"메이저수학","tel":"031-632-8563","addr":"경기도 이천시 증포동 367-1번지 3층","category":"학원 - 보습학원"},{"name":"캠든학원","tel":"031-633-3384","addr":"경기도 이천시 증포동 367-1번지 3층","category":"학원 - 보습학원"},{"name":"휘가로클래식","tel":"031-634-7932","addr":"경기도 이천시 증포동 367-1번지","category":"가구 - 일반가구"}]},{"lat":"37.293770164","long":"127.45526946","items":[{"name":"김숙현피아노증포음악학원","tel":"031-634-1696","addr":"경기도 이천시 증포동 211-1번지 1층","category":"학원 - 예·체능계학원"},{"name":"맥플러스수학교습소","tel":"031-637-7489","addr":"경기도 이천시 증포동 211-1번지 맥플러스수학교 2층 2호","category":"학원 - 보습학원"},{"name":"박호창미술학원","tel":"031-634-5349","addr":"경기도 이천시 증포동 211-1번지 2층","category":"학원 - 예·체능계학원"},{"name":"뽀까헤어샵","tel":"031-631-4001","addr":"경기도 이천시 증포동 211-1번지","category":"보건위생 - 미용원"},{"name":"성문영재종합학원","tel":"031-636-4066","addr":"경기도 이천시 증포동 211-1번지 1,3층","category":"학원 - 보습학원"},{"name":"와우분식","tel":"031-631-3688","addr":"경기도 이천시 증포동 211-1번지 2층","category":"일반휴게음식 - 일반한식"},{"name":"줌스독서실","tel":"031-634-8558","addr":"경기도 이천시 증포동 211-1번지 4층","category":"학원 - 독서실"},{"name":"푸른나무어린이집[아이행복]","tel":"031-634-1446","addr":"경기도 이천시 증포동 211-1번지 1층","category":"학원 - 유아원"}]},{"lat":"37.286824048","long":"127.45271317","items":[{"name":"깐부치킨 이천증포점","tel":"031-634-7799","addr":"경기도 이천시 증포동 137-2","category":"일반휴게음식 - 스넥"}]},{"lat":"37.289352917","long":"127.4582089","items":[{"name":"꽃밭에가자","tel":"031-636-0641","addr":"경기도 이천시 증포동 94번지","category":"문화.취미 - 화원"},{"name":"제이미","tel":"031-636-5700","addr":"경기도 이천시 증포동 94번지","category":"의류 - 정장"}]},{"lat":"37.297494494","long":"127.45914895","items":[{"name":"꽃씨네앞뜰","tel":"031-631-1536","addr":"경기도 이천시 증포동 21","category":"문화.취미 - 화원"},{"name":"원진공업사","tel":"031-632-6504","addr":"경기도 이천시 증포동 21번지","category":"용역 서비스 - 기타용역서비스"},{"name":"통나무자동차","tel":"031-634-9123","addr":"경기도 이천시 증포동 21번지","category":"자동차정비 유지 - 자동차정비"}]},{"lat":"37.29288145","long":"127.45440704","items":[{"name":"꿈나라도서","tel":"031-638-8369","addr":"경기도 이천시 증포동 191-7 (1차관리동1층)","category":"회원제형태 - 서적"},{"name":"멕시칸치킨","tel":"031-638-7495","addr":"경기도 이천시 증포동 191-7번지","category":"일반휴게음식 - 주점"}]},{"lat":"37.293155157","long":"127.45587478","items":[{"name":"나래자동차공업사","tel":"031-638-8812","addr":"경기도 이천시 증포동 206-2","category":"자동차정비 유지 - 자동차정비"}]},{"lat":"37.290025116","long":"127.45443508","items":[{"name":"뉴모텍복원배터리","tel":"031-631-8539","addr":"경기도 이천시 증포동 177-21번지 외1필지 1층","category":"자동차정비 유지 - 자동차부품"},{"name":"명품카오디오","tel":"031-637-7530","addr":"경기도 이천시 증포동 177-21번지","category":"자동차정비 유지 - 자동차부품"},{"name":"이천해장국","tel":"031-632-8500","addr":"경기도 이천시 증포동 177-21번지","category":"일반휴게음식 - 일반한식"},{"name":"코스트커피(COSTCOFFEE)","tel":"031-632-7855","addr":"경기도 이천시 증포동 177-21번지","category":"주방용구 - 주방용구"}]},{"lat":"37.287188737","long":"127.45395579","items":[{"name":"달꽈배기","tel":"031-885-2418","addr":"경기도 이천시 증포동 135-6번지","category":"일반휴게음식 - 일반한식"},{"name":"세븐일레븐이천증포본점","tel":"","addr":"경기도 이천시 증포동 135-6번지 미래타워 101호","category":"유통업 영리 - 편 의 점"},{"name":"쌤과통하는수학학원","tel":"031-635-7796","addr":"경기도 이천시 증포동 135-6번지 2층","category":"학원 - 보습학원"}]},{"lat":"37.292766217","long":"127.45626716","items":[{"name":"대동교육사","tel":"031-631-5888","addr":"경기도 이천시 증포동 203-4번지","category":"서적문구 - 일반서적"}]},{"lat":"37.288099846","long":"127.45129987","items":[{"name":"대림도기","tel":"031-633-1400","addr":"경기도 이천시 증포동 380-8번지","category":"건축자재 - 인테리어전문"},{"name":"만덕상사","tel":"031-633-7400","addr":"경기도 이천시 증포동 380-8번지","category":"자동차정비 유지 - 자동차부품"},{"name":"위드미 이천증포점","tel":"02-6916-1500","addr":"경기도 이천시 증포동 380-8번지","category":"유통업 영리 - 편 의 점"},{"name":"캐리어 에어컨 공조시스템","tel":"031-638-7900","addr":"경기도 이천시 증포동 380-8번지 가동 1호","category":"용역 서비스 - 기타용역서비스"},{"name":"한일전기조명","tel":"031-632-6361","addr":"경기도 이천시 증포동 380-8번지","category":"건축자재 - 조명기구"}]},{"lat":"37.29065564","long":"127.44973622","items":[{"name":"대원종합타일설비","tel":"031-637-8887","addr":"경기도 이천시 증포동 362-43번지","category":"건축자재 - 보일러·펌프·샷시"}]},{"lat":"37.289603157","long":"127.45874043","items":[{"name":"대일냉동","tel":"031-638-6467","addr":"경기도 이천시 증포동 93번지","category":"전기제품 - 냉열기기"},{"name":"천수상사","tel":"031-633-4672","addr":"경기도 이천시 증포동 93번지 창고","category":"자동차정비 유지 - 자동차부품"}]},{"lat":"37.296295313","long":"127.45702142","items":[{"name":"대한특공무술고덕체육관","tel":"031-636-3009","addr":"경기도 이천시 증포동 215-2번지 1호","category":"학원 - 예·체능계학원"},{"name":"뮤직노래연습장","tel":"031-637-7804","addr":"경기도 이천시 증포동 215-2번지 2층","category":"레저업소 - 노 래 방"},{"name":"본스치킨앤비어","tel":"031-637-0246","addr":"경기도 이천시 증포동 215-2번지","category":"일반휴게음식 - 일반한식"},{"name":"이천당구클럽","tel":"031-637-5599","addr":"경기도 이천시 증포동 215-2번지","category":"레저업소 - 당 구 장"},{"name":"이천주짓수","tel":"031-694-7318","addr":"경기도 이천시 증포동 215-2번지 2층","category":"회원제형태 - 레져업소"},{"name":"한솔세탁소","tel":"031-631-3321","addr":"경기도 이천시 증포동 215-2번지","category":"수리서비스 - 세탁소"}]},{"lat":"37.290241141","long":"127.45449276","items":[{"name":"더 캠프 PC방 증포점","tel":"","addr":"경기도 이천시 증포동 177-5번지 2층","category":"레저업소 - 기타레져업소"},{"name":"이천본가","tel":"031-632-3134","addr":"경기도 이천시 증포동 177-5번지","category":"사무통신 - 통신기기"}]},{"lat":"37.290106851","long":"127.45662335","items":[{"name":"데이비드영어교습소","tel":"","addr":"경기도 이천시 증포동 164-4번지 1층 102호","category":"학원 - 외국어학원"},{"name":"한교전기(주)/비씨","tel":"031-636-2900","addr":"경기도 이천시 증포동 164-4번지 101호","category":"별도관리 - 자체물품대금"}]},{"lat":"37.287072494","long":"127.45135016","items":[{"name":"델리퀸이천점","tel":"031-637-6631","addr":"경기도 이천시 증포동 377-6번지","category":"음료식품 - 정육점"}]},{"lat":"37.290488942","long":"127.45093062","items":[{"name":"도가","tel":"031-636-5333","addr":"경기도 이천시 증포동 367번지 1동 1층","category":"일반휴게음식 - 일반한식"},{"name":"비오비(BOB)","tel":"031-632-9007","addr":"경기도 이천시 증포동 367번지 2층","category":"사무통신 - 컴퓨터"},{"name":"아이니","tel":"031-638-1222","addr":"경기도 이천시 증포동 367번지 1층","category":"일반휴게음식 - 중국식"}]},{"lat":"37.289354952","long":"127.45296505","items":[{"name":"도지울순대국","tel":"031-631-1670","addr":"경기도 이천시 증포동 151번지 1층","category":"일반휴게음식 - 일반한식"}]},{"lat":"37.28885585","long":"127.4586006","items":[{"name":"돈탑(이천직영점)","tel":"031-633-0550","addr":"경기도 이천시 증포동 93-1번지","category":"일반휴게음식 - 일반한식"},{"name":"선 필라테스","tel":"031-633-1051","addr":"경기도 이천시 증포동 93-1번지 3층","category":"레저업소 - 헬스클럽"},{"name":"유나이티드 다온 태권도장","tel":"031-637-4577","addr":"경기도 이천시 증포동 93-1번지 1동 2층 202호","category":"학원 - 예·체능계학원"},{"name":"주식회사 유정","tel":"031-622-9879","addr":"경기도 이천시 증포동 93-1번지","category":"레저업소 - 당 구 장"}]},{"lat":"37.28938544","long":"127.45912254","items":[{"name":"돌체.비비드가구 이천점","tel":"031-637-8881","addr":"경기도 이천시 증포동 93-5번지 1,2층","category":"가구 - 일반가구"},{"name":"사보갤러리","tel":"031-635-2894","addr":"경기도 이천시 증포동 93-5번지","category":"가구 - 일반가구"}]},{"lat":"37.29060175","long":"127.45679548","items":[{"name":"동진공사","tel":"031-631-8257","addr":"경기도 이천시 증포동 172-14번지 동진공사","category":"건축자재 - 기타건축자재"}]},{"lat":"37.285962984","long":"127.45168187","items":[{"name":"드레스 코드","tel":"031-633-3403","addr":"경기도 이천시 증포동 142번지 102호","category":"의류 - 정장"},{"name":"엠씨수학학원","tel":"031-633-4863","addr":"경기도 이천시 증포동 142번지 2층 201호","category":"학원 - 보습학원"},{"name":"조을","tel":"031-632-3082","addr":"경기도 이천시 증포동 142번지 103호","category":"일반휴게음식 - 서양음식"},{"name":"캔비어","tel":"031-635-9004","addr":"경기도 이천시 증포동 142번지","category":"음료식품 - 기타음료식품"}]},{"lat":"37.288850607","long":"127.46228815","items":[{"name":"드림하우징","tel":"031-637-2747","addr":"경기도 이천시 증포동 109-1번지 101호","category":"용역 서비스 - 기타용역서비스"},{"name":"비전플러스보습학원","tel":"031-638-8215","addr":"경기도 이천시 증포동 109-1번지 3층 2호","category":"학원 - 기타 교육기관"},{"name":"행복나무음악학원","tel":"031-638-0933","addr":"경기도 이천시 증포동 109-1번지 4층","category":"학원 - 예·체능계학원"}]},{"lat":"37.2909692","long":"127.45021172","items":[{"name":"등촌샤브칼국수","tel":"031-637-3751","addr":"경기도 이천시 증포동 362-17번지","category":"일반휴게음식 - 일반한식"},{"name":"제이부띠 이천점","tel":"031-694-8542","addr":"경기도 이천시 증포동 362-17번지 102호","category":"보건위생 - 화장품"}]},{"lat":"37.286079259","long":"127.4519081","items":[{"name":"디어스윗(Dear sweet)","tel":"031-631-9997","addr":"경기도 이천시 증포동 143번지 102호","category":"일반휴게음식 - 서양음식"},{"name":"프랜드","tel":"070-7012-1355","addr":"경기도 이천시 증포동 143번지","category":"유통업 영리 - 편 의 점"}]},{"lat":"37.294766819","long":"127.45617766","items":[{"name":"또봉이통닭 이천증포점","tel":"031-638-2513","addr":"경기도 이천시 증포동 210-6번지","category":"일반휴게음식 - 일반한식"},{"name":"한국타이어 증포점","tel":"031-634-2773","addr":"경기도 이천시 증포동 210-6번지","category":"자동차정비 유지 - 자동차시트·타이어"}]},{"lat":"37.287884523","long":"127.45342993","items":[{"name":"라띠에르","tel":"031-635-7768","addr":"경기도 이천시 증포동 134-3번지","category":"일반휴게음식 - 서양음식"},{"name":"스태미나 장어하우스","tel":"031-631-9392","addr":"경기도 이천시 증포동 134-3번지","category":"일반휴게음식 - 일반한식"},{"name":"안현주경희한의원","tel":"031-637-7582","addr":"경기도 이천시 증포동 134-3번지","category":"의원 - 한의원"},{"name":"장어 하우스","tel":"031-631-9397","addr":"경기도 이천시 증포동 134-3번지 1층","category":"음료식품 - 농·축·수산품"},{"name":"제이스크린골프","tel":"031-635-0742","addr":"경기도 이천시 증포동 134-3번지","category":"레저업소 - 스크린골프"}]},{"lat":"37.291466325","long":"127.45454519","items":[{"name":"리멤버피부과 이천점","tel":"031-994-4005","addr":"경기도 이천시 증포동 178-4번지 2층","category":"의원 - 의원"}]},{"lat":"37.290575061","long":"127.44960041","items":[{"name":"리오토스","tel":"031-635-8846","addr":"경기도 이천시 증포동 362-66번지","category":"자동차정비 유지 - 자동차부품"}]},{"lat":"37.294689008","long":"127.45532008","items":[{"name":"마미찬","tel":"031-638-4505","addr":"경기도 이천시 증포동 212번지","category":"음료식품 - 기타음료식품"},{"name":"에이스탑학원","tel":"031-637-4697","addr":"경기도 이천시 증포동 212번지","category":"회원제형태 - 학원"},{"name":"오늘&네일","tel":"031-633-0127","addr":"경기도 이천시 증포동 212번지","category":"보건위생 - 피부미용실"}]},{"lat":"37.295741468","long":"127.4604579","items":[{"name":"만수네정육식당","tel":"031-637-4569","addr":"경기도 이천시 증포동 30-1번지","category":"일반휴게음식 - 일반한식"},{"name":"만수네정육식당","tel":"031-637-4569","addr":"경기도 이천시 증포동 30-1번지","category":"음료식품 - 정육점"}]},{"lat":"37.289323878","long":"127.45165673","items":[{"name":"맘스매니저 이천지사","tel":"031-638-7325","addr":"경기도 이천시 증포동 371-1번지","category":"보건위생 - 기타대인서비스"},{"name":"토사랑","tel":"031-635-4613","addr":"경기도 이천시 증포동 371동 1호","category":"일반휴게음식 - 일반한식"}]},{"lat":"37.292964998","long":"127.45612174","items":[{"name":"맥스웰벤더","tel":"031-633-7528","addr":"경기도 이천시 증포동 206-4번지","category":"기타 - 기타 전문점"},{"name":"아트플랜","tel":"031-637-0051","addr":"경기도 이천시 증포동 206-4","category":"용역 서비스 - 종합용역"}]},{"lat":"37.300098818","long":"127.45434867","items":[{"name":"먹는샘물경기남부총판","tel":"031-631-1352","addr":"경기도 이천시 증포동 227-85","category":"음료식품 - 기타음료식품"}]},{"lat":"37.287358766","long":"127.45426128","items":[{"name":"메밀밭막국수","tel":"031-637-2743","addr":"경기도 이천시 증포동 132-1번지","category":"일반휴게음식 - 일반한식"}]},{"lat":"37.287802943","long":"127.45118534","items":[{"name":"명태명가","tel":"031-634-0728","addr":"경기도 이천시 증포동 379-3번지 1층","category":"일반휴게음식 - 일반한식"}]},{"lat":"37.287574659","long":"127.45198464","items":[{"name":"명품세차장","tel":"031-631-7612","addr":"경기도 이천시 증포동 381번지","category":"자동차정비 유지 - 세차장"},{"name":"에듀케이EVS수학영재외국어보습학원","tel":"031-634-4742","addr":"경기도 이천시 증포동 381번지","category":"학원 - 외국어학원"},{"name":"페트라실용음악학원","tel":"031-631-2473","addr":"경기도 이천시 증포동 381번지","category":"학원 - 예·체능계학원"},{"name":"풀잎문화센터이천지부","tel":"031-631-5579","addr":"경기도 이천시 증포동 381번지","category":"문화.취미 - 문화취미기타"}]},{"lat":"37.288440092","long":"127.4542339","items":[{"name":"모모투썬팅","tel":"031-638-5507","addr":"경기도 이천시 증포동 156-3번지","category":"자동차정비 유지 - 카인테리어"},{"name":"폰스토어","tel":"02-2614-8016","addr":"경기도 이천시 증포동 156-3번지","category":"사무통신 - 통신기기"}]},{"lat":"37.288300441","long":"127.45304899","items":[{"name":"모아고시텔","tel":"031-631-4000","addr":"경기도 이천시 증포동 155-20번지","category":"학원 - 독서실"},{"name":"모아휘트니스클럽","tel":"031-635-0705","addr":"경기도 이천시 증포동 155-20번지 외2필지","category":"회원제형태 - 레져업소"},{"name":"수인테리어","tel":"031-631-9477","addr":"경기도 이천시 증포동 155-20번지","category":"직물 - 카페트,커튼,천막,지물"},{"name":"유별난닭갈비","tel":"031-635-7772","addr":"경기도 이천시 증포동 155-20번지 1층","category":"일반휴게음식 - 일반한식"},{"name":"채선당 이천증포점","tel":"031-636-3037","addr":"경기도 이천시 증포동 155-20번지","category":"일반휴게음식 - 일반한식"}]},{"lat":"37.289213653","long":"127.44743844","items":[{"name":"몽블","tel":"031-542-7844","addr":"경기도 이천시 증포동 351-5번지 대호3차아파트 102동 506호","category":"문화.취미 - 민예·공예품"}]},{"lat":"37.289488934","long":"127.45798417","items":[{"name":"문스시","tel":"031-634-1653","addr":"경기도 이천시 증포동 165-3번지 2층","category":"일반휴게음식 - 일식·회집"},{"name":"행복맞이","tel":"031-635-1185","addr":"경기도 이천시 증포동 165-3번지","category":"유통업 영리 - 기타유통업"}]},{"lat":"37.28932546","long":"127.46065586","items":[{"name":"미래윤활유","tel":"031-635-5151","addr":"경기도 이천시 증포동 105번지","category":"연료판매점 - 유류판매"},{"name":"빨간펜수학의달인교습소","tel":"031-637-6162","addr":"경기도 이천시 증포동 105번지","category":"회원제형태 - 학원"},{"name":"수내닭꼬치 증포점","tel":"070-7614-3579","addr":"경기도 이천시 증포동 105번지","category":"일반휴게음식 - 일반한식"},{"name":"한내반점","tel":"031-631-0084","addr":"경기도 이천시 증포동 105번지","category":"일반휴게음식 - 중국식"}]},{"lat":"37.286997077","long":"127.4498499","items":[{"name":"바빈스커피 (이천교육청점)","tel":"031-636-8998","addr":"경기도 이천시 증포동 375-15번지 1동 1층","category":"일반휴게음식 - 서양음식"},{"name":"이천한우","tel":"031-635-6998","addr":"경기도 이천시 증포동 375-15번지","category":"음료식품 - 정육점"},{"name":"이천한우 (주)","tel":"031-635-6998","addr":"경기도 이천시 증포동 375-15번지","category":"일반휴게음식 - 일반한식"}]},{"lat":"37.291849379","long":"127.44857042","items":[{"name":"바이크스토리","tel":"031-631-5448","addr":"경기도 이천시 증포동 357-1번지","category":"자동차판매 - 이륜차판매"}]},{"lat":"37.289576124","long":"127.46107463","items":[{"name":"백두세차장","tel":"031-634-1160","addr":"경기도 이천시 증포동 104-24번지 2층","category":"자동차정비 유지 - 세차장"}]},{"lat":"37.28937908","long":"127.4584346","items":[{"name":"백상미술학원","tel":"031-637-3808","addr":"경기도 이천시 증포동 94-1번지 3층","category":"학원 - 예·체능계학원"},{"name":"참소리피아노학원","tel":"031-633-7974","addr":"경기도 이천시 증포동 94-1번지 2층 참소리피아노학원","category":"학원 - 예·체능계학원"},{"name":"코인워시 이천증포신한점","tel":"031-631-2957","addr":"경기도 이천시 증포동 94-1번지","category":"수리서비스 - 세탁소"},{"name":"토마토","tel":"031-638-3386","addr":"경기도 이천시 증포동 94-1번지","category":"학원 - 외국어학원"}]},{"lat":"37.288802382","long":"127.45373988","items":[{"name":"벨리향댄스학원","tel":"031-636-4447","addr":"경기도 이천시 증포동 155-11번지","category":"학원 - 예·체능계학원"}]},{"lat":"37.290384784","long":"127.45462895","items":[{"name":"보루네오가구","tel":"031-633-9696","addr":"경기도 이천시 증포동 177번지","category":"가구 - 일반가구"}]},{"lat":"37.294239759","long":"127.45499033","items":[{"name":"블러썸","tel":"02-0000-0000","addr":"경기도 이천시 증포동 212-3번지","category":"의류 - 정장"}]},{"lat":"37.297690877","long":"127.45493203","items":[{"name":"비 캘리 (B kelly)","tel":"","addr":"경기도 이천시 증포동 235-6번지 1층 102호","category":"의류 - 정장"},{"name":"아린메이드","tel":"","addr":"경기도 이천시 증포동 235-6번지 201호","category":"신변잡화 - 액세서리"}]},{"lat":"37.287942142","long":"127.45249429","items":[{"name":"삼백식당","tel":"031-637-9230","addr":"경기도 이천시 증포동 146-1번지","category":"일반휴게음식 - 일반한식"},{"name":"쎄듀영어학원","tel":"031-638-7016","addr":"경기도 이천시 증포동 146-1번지 3층","category":"학원 - 보습학원"},{"name":"위니아딤채이천점","tel":"031-636-0004","addr":"경기도 이천시 증포동 146-1번지 지1층 지상","category":"전기제품 - 가전제품"},{"name":"이천동물의료센터","tel":"031-632-7510","addr":"경기도 이천시 증포동 146-1번지","category":"문화.취미 - 애완동물"},{"name":"이천로타리클럽","tel":"031-635-2841","addr":"경기도 이천시 증포동 146-1번지","category":"기타 - 비영리/대상"},{"name":"펫더월드","tel":"031-633-0071","addr":"경기도 이천시 증포동 146-1번지","category":"문화.취미 - 애완동물"}]},{"lat":"37.296893602","long":"127.45607764","items":[{"name":"샘물 여주,장호원 가맹점","tel":"031-887-0678","addr":"경기도 이천시 증포동 479번지 한솔솔파크 305동 1302호","category":"유통업 영리 - 기타유통업"}]},{"lat":"37.291023899","long":"127.45004288","items":[{"name":"설맥(이천증포점)","tel":"031-633-7810","addr":"경기도 이천시 증포동 362-3번지","category":"일반휴게음식 - 주점"},{"name":"증포(JP) Clean","tel":"","addr":"경기도 이천시 증포동 362-3번지","category":"자동차정비 유지 - 세차장"},{"name":"증포셀프세차장","tel":"031-631-2003","addr":"경기도 이천시 증포동 362-3번지","category":"자동차정비 유지 - 세차장"}]},{"lat":"37.297935093","long":"127.45468537","items":[{"name":"성주농산","tel":"","addr":"경기도 이천시 증포동 233-3번지 301호","category":"음료식품 - 농·축·수산품"},{"name":"성주수산","tel":"070-8990-5231","addr":"경기도 이천시 증포동 233-3번지 301호","category":"음료식품 - 농·축·수산품"}]},{"lat":"37.288995076","long":"127.45754139","items":[{"name":"셀렉토커피 이천증포점","tel":"031-631-5090","addr":"경기도 이천시 증포동 94-8번지","category":"일반휴게음식 - 일반한식"}]},{"lat":"37.285352399","long":"127.4511257","items":[{"name":"솔라룩스(이천점)","tel":"031-638-5507","addr":"경기도 이천시 증포동 385-7번지","category":"자동차정비 유지 - 자동차부품"}]},{"lat":"37.29693559","long":"127.4545215","items":[{"name":"수민퍼니처","tel":"031-632-8255","addr":"경기도 이천시 증포동 234-5번지 B동 203호","category":"주방용구 - 주방용구"}]},{"lat":"37.286937772","long":"127.45123659","items":[{"name":"수학1번가자유자재수학학원","tel":"031-635-0314","addr":"경기도 이천시 증포동 377-10번지 2층","category":"학원 - 보습학원"}]},{"lat":"37.285128387","long":"127.45079735","items":[{"name":"스튜디오에이","tel":"02-000-0000","addr":"경기도 이천시 증포동 386-2번지 2층","category":"광학제품 - 사진관"}]},{"lat":"37.287215714","long":"127.4515991","items":[{"name":"스푼더마켓이천점","tel":"031-634-5242","addr":"경기도 이천시 증포동 381-2번지 TH빌딩","category":"일반휴게음식 - 일반한식"},{"name":"홀인원골프존","tel":"031-634-7218","addr":"경기도 이천시 증포동 381-2번지 지하1층","category":"일반휴게음식 - 일반한식"}]},{"lat":"37.289409232","long":"127.45762283","items":[{"name":"스피드메이트대동점","tel":"031-631-2164","addr":"경기도 이천시 증포동 165-5번지","category":"자동차정비 유지 - 자동차정비"}]},{"lat":"37.291410026","long":"127.45513128","items":[{"name":"신동부상사","tel":"031-638-5318","addr":"경기도 이천시 증포동 172-16번지","category":"자동차판매 - 중고자동차판매"}]},{"lat":"37.288219051","long":"127.45312744","items":[{"name":"실로모아빌딩","tel":"031-635-1990","addr":"경기도 이천시 증포동 155-7번지 ***연번지,13,20","category":"직물 - 기타직물"}]},{"lat":"37.2918416","long":"127.45537069","items":[{"name":"싱싱야채","tel":"","addr":"경기도 이천시 증포동 204-13번지 혜인빌리지 9동 102호","category":"음료식품 - 농·축·수산품"}]},{"lat":"37.287020166","long":"127.4532669","items":[{"name":"쓰담쓰담","tel":"031-637-5999","addr":"경기도 이천시 증포동 138-1번지","category":"문화.취미 - 애완동물"}]},{"lat":"37.287145417","long":"127.4463437","items":[{"name":"씨유이천고점","tel":"080-080-3663","addr":"경기도 이천시 증포동 404-2번지 하이힐파크 101동 102호","category":"유통업 영리 - 편 의 점"}]},{"lat":"37.293771456","long":"127.45493114","items":[{"name":"씨유이천대우점","tel":"031-633-1749","addr":"경기도 이천시 증포동 201-11번지 외2필지","category":"유통업 영리 - 편 의 점"}]},{"lat":"37.29063468","long":"127.45051423","items":[{"name":"아리솔밭가든","tel":"031-637-2897","addr":"경기도 이천시 증포동 362-49번지","category":"일반휴게음식 - 일반한식"}]},{"lat":"37.298939084","long":"127.45837946","items":[{"name":"아리수꽃집","tel":"031-632-9788","addr":"경기도 이천시 증포동 227-2","category":"문화.취미 - 화원"}]},{"lat":"37.294363183","long":"127.45570157","items":[{"name":"아소비교육원 이천증포점","tel":"","addr":"경기도 이천시 증포동 478번지 한솔솔파크 201동 1003호","category":"학원 - 기타 교육기관"}]},{"lat":"37.285218914","long":"127.45068512","items":[{"name":"아이엠수학학원","tel":"031-634-2181","addr":"경기도 이천시 증포동 386-11번지 2층","category":"회원제형태 - 학원"}]},{"lat":"37.291595969","long":"127.44647132","items":[{"name":"안심치킨증포동점","tel":"031-633-7000","addr":"경기도 이천시 증포동 498번지 대원칸타빌아파트","category":"일반휴게음식 - 스넥"}]},{"lat":"37.291245158","long":"127.44871346","items":[{"name":"알파오메가","tel":"031-633-5775","addr":"경기도 이천시 증포동 359-6번지","category":"신변잡화 - 기타잡화"}]},{"lat":"37.299850878","long":"127.45320804","items":[{"name":"에스비푸드 (SB FOOD)","tel":"","addr":"경기도 이천시 증포동 290-2번지","category":"음료식품 - 기타음료식품"}]},{"lat":"37.290663792","long":"127.45470955","items":[{"name":"오아시스PC클럽","tel":"031-635-3843","addr":"경기도 이천시 증포동 177-9번지","category":"레저업소 - 기타레져업소"},{"name":"참소리음악미술학원","tel":"031-636-7982","addr":"경기도 이천시 증포동 177-9번지","category":"학원 - 예·체능계학원"}]},{"lat":"37.289350443","long":"127.45885168","items":[{"name":"오토박스","tel":"031-637-1345","addr":"경기도 이천시 증포동 93-11번지","category":"자동차정비 유지 - 자동차부품"}]},{"lat":"37.289463527","long":"127.45520985","items":[{"name":"와이즈멘이천클럽","tel":"031-638-2070","addr":"경기도 이천시 증포동 157-4","category":"기타 - 비영리/비대상"}]},{"lat":"37.294857341","long":"127.45370834","items":[{"name":"우리세탁전문점","tel":"031-637-9896","addr":"경기도 이천시 증포동 244-3번지 대우2차 상가 204호","category":"수리서비스 - 세탁소"}]},{"lat":"37.29749104","long":"127.45770531","items":[{"name":"우일홈우드","tel":"031-634-8284","addr":"경기도 이천시 증포동 227-10번지","category":"건축자재 - 보일러·펌프·샷시"}]},{"lat":"37.287164154","long":"127.44615211","items":[{"name":"유니북스이천지사","tel":"031-632-6365","addr":"경기도 이천시 증포동 404-2번지 1층 하이힐파크 튼튼영어 이천지사","category":"서적문구 - 출판 및 인쇄물"}]},{"lat":"37.289189583","long":"127.45143039","items":[{"name":"유라하우스","tel":"031-633-8831","addr":"경기도 이천시 증포동 371-13","category":"용역 서비스 - 기타용역서비스"}]},{"lat":"37.289358051","long":"127.46154695","items":[{"name":"윤선생영어아이지에스이한내학원","tel":"031-631-0509","addr":"경기도 이천시 증포동 104-7번지 3층","category":"학원 - 보습학원"},{"name":"주식회사 에이앤제이산업개발","tel":"031-634-1987","addr":"경기도 이천시 증포동 104-7번지","category":"건축자재 - 기타건축자재"},{"name":"한내태권도","tel":"031-635-4111","addr":"경기도 이천시 증포동 104-7번지 2층","category":"학원 - 예·체능계학원"},{"name":"한내피아노학원","tel":"031-632-0181","addr":"경기도 이천시 증포동 104-7번지 1층","category":"학원 - 예·체능계학원"}]},{"lat":"37.287913927","long":"127.44803975","items":[{"name":"이천고등학교","tel":"031-645-0800","addr":"경기도 이천시 증포동 402번지 이천고등학교","category":"학원 - 초중고교육기관"},{"name":"이천고등학교매점","tel":"031-645-0885","addr":"경기도 이천시 증포동 402번지","category":"음료식품 - 기타음료식품"}]},{"lat":"37.291162007","long":"127.45401334","items":[{"name":"이천마트 생선가게","tel":"031-637-1754","addr":"경기도 이천시 증포동 178-5번지 이천마트내","category":"음료식품 - 농·축·수산품"},{"name":"축산물백화점","tel":"031-637-0506","addr":"경기도 이천시 증포동 178-5번지","category":"음료식품 - 정육점"}]},{"lat":"37.28575066","long":"127.45302252","items":[{"name":"이천삼사랑협동조합","tel":"031-635-1345","addr":"경기도 이천시 증포동 480번지 설봉2차푸르지오 204동 301호","category":"건강식품 - 인삼제품"}]},{"lat":"37.289303103","long":"127.45710344","items":[{"name":"이천중앙라이온스클럽","tel":"031-635-4049","addr":"경기도 이천시 증포동 163-1번지","category":"기타 - 비영리/대상"}]},{"lat":"37.290298366","long":"127.45129036","items":[{"name":"이천증포동우편취급소","tel":"031-635-2001","addr":"경기도 이천시 증포동 368번지","category":"용역 서비스 - 공공요금대행서비스/소"},{"name":"커피디","tel":"070-7773-9959","addr":"경기도 이천시 증포동 368번지 나동 1층","category":"일반휴게음식 - 서양음식"},{"name":"클로이 by JIYU","tel":"","addr":"경기도 이천시 증포동 368번지","category":"의류 - 정장"}]},{"lat":"37.291686052","long":"127.44887395","items":[{"name":"이천카멘즈","tel":"","addr":"경기도 이천시 증포동 360-1번지","category":"자동차정비 유지 - 카인테리어"}]},{"lat":"37.291549221","long":"127.45407204","items":[{"name":"이천한사랑의원","tel":"031-638-5544","addr":"경기도 이천시 증포동 178-2번지","category":"의원 - 의원"}]},{"lat":"37.288635232","long":"127.4502994","items":[{"name":"이천화원(푸른식물원)","tel":"031-633-5577","addr":"경기도 이천시 증포동 485번지 이천설봉KCC스위첸아파트","category":"문화.취미 - 화원"}]},{"lat":"37.289357089","long":"127.46179504","items":[{"name":"정민피아노교습소","tel":"080-8835-5656","addr":"경기도 이천시 증포동 104-10번지","category":"학원 - 예·체능계학원"},{"name":"한솔플러스 영어수학 한내학원","tel":"031-631-0519","addr":"경기도 이천시 증포동 104-10번지 1층","category":"학원 - 보습학원"},{"name":"효음바이올린교습소","tel":"","addr":"경기도 이천시 증포동 104-10번지 1층","category":"학원 - 예·체능계학원"}]},{"lat":"37.297303347","long":"127.45730944","items":[{"name":"정상아카데미","tel":"031-637-0509","addr":"경기도 이천시 증포동 479번지 한솔솔파크 301동 101호","category":"학원 - 기타 교육기관"}]},{"lat":"37.286743946","long":"127.45007394","items":[{"name":"제이아이에스어학원","tel":"031-631-5740","addr":"경기도 이천시 증포동 375-23번지 3층","category":"학원 - 외국어학원"}]},{"lat":"37.288238872","long":"127.45265393","items":[{"name":"종로엠학원","tel":"031-631-8811","addr":"경기도 이천시 증포동 152-4번지 3층","category":"학원 - 보습학원"}]},{"lat":"37.298689216","long":"127.45540043","items":[{"name":"주식회사 제이엠컴퍼니","tel":"02-1599-7848","addr":"경기도 이천시 증포동 227-37번지","category":"의류 - 정장"}]},{"lat":"37.288441285","long":"127.45154999","items":[{"name":"중부종합광고","tel":"031-635-7820","addr":"경기도 이천시 증포동 371-24번지","category":"용역 서비스 - 종합용역"}]},{"lat":"37.289437756","long":"127.45251446","items":[{"name":"증포 인테리어 장식","tel":"031-635-9428","addr":"경기도 이천시 증포동 149-1번지","category":"직물 - 카페트,커튼,천막,지물"},{"name":"짱노래연습장","tel":"031-635-4706","addr":"경기도 이천시 증포동 149-1번지 2층","category":"레저업소 - 노 래 방"}]},{"lat":"37.297603016","long":"127.45434504","items":[{"name":"증포동새마을협의회","tel":"031-644-8743","addr":"경기도 이천시 증포동 234-66번지 2층","category":"기타 - 비영리/대상"}]},{"lat":"37.296967494","long":"127.4556044","items":[{"name":"증포동이마트앞평창송어횟집","tel":"031-635-8843","addr":"경기도 이천시 증포동 241-4번지","category":"일반휴게음식 - 일반한식"}]},{"lat":"37.290302199","long":"127.45265493","items":[{"name":"증포동이천쌀문화축제추진위원회","tel":"031-644-8742","addr":"경기도 이천시 증포동 182-5번지","category":"음료식품 - 미곡상"}]},{"lat":"37.287659894","long":"127.45562757","items":[{"name":"증포중학교","tel":"031-638-2736","addr":"경기도 이천시 증포동 476번지 증포중학교","category":"학원 - 초중고교육기관"}]},{"lat":"37.293881033","long":"127.45690541","items":[{"name":"증포초등학교","tel":"031-637-2064","addr":"경기도 이천시 증포동 477번지 증포초등학교","category":"학원 - 초중고교육기관"},{"name":"증포초병설유치원[아이행복]","tel":"031-637-2065","addr":"경기도 이천시 증포동 477번지","category":"학원 - 유치원"}]},{"lat":"37.296823436","long":"127.45792685","items":[{"name":"증포타이어","tel":"031-633-2558","addr":"경기도 이천시 증포동 26-10번지","category":"자동차정비 유지 - 자동차시트·타이어"}]},{"lat":"37.286771912","long":"127.44982602","items":[{"name":"진국어학원","tel":"070-8615-8799","addr":"경기도 이천시 증포동 375-14번지 401-1호","category":"학원 - 보습학원"}]},{"lat":"37.290079476","long":"127.45198825","items":[{"name":"차돌풍 이천점","tel":"031-637-9233","addr":"경기도 이천시 증포동 182-2번지","category":"일반휴게음식 - 일반한식"}]},{"lat":"37.291993623","long":"127.44854871","items":[{"name":"차병원카센터","tel":"031-636-9972","addr":"경기도 이천시 증포동 341-15번지","category":"자동차정비 유지 - 자동차정비"}]},{"lat":"37.294577911","long":"127.45609759","items":[{"name":"춘천우미닭갈비","tel":"031-632-7379","addr":"경기도 이천시 증포동 210-9번지","category":"일반휴게음식 - 일반한식"}]},{"lat":"37.289294448","long":"127.45465626","items":[{"name":"카-메이트","tel":"031-635-0045","addr":"경기도 이천시 증포동 157-8번지","category":"자동차정비 유지 - 카인테리어"}]},{"lat":"37.289378342","long":"127.4586263","items":[{"name":"코코쌤의 놀이수학학원","tel":"","addr":"경기도 이천시 증포동 93-4번지 3층","category":"학원 - 보습학원"},{"name":"크리아트창의미술학원","tel":"","addr":"경기도 이천시 증포동 93-4번지","category":"학원 - 예·체능계학원"},{"name":"하바놀이어린이집[아이행복]","tel":"031-635-5511","addr":"경기도 이천시 증포동 93-4번지","category":"학원 - 유아원"}]},{"lat":"37.289767802","long":"127.45101656","items":[{"name":"큐당구장","tel":"031-635-2000","addr":"경기도 이천시 증포동 367-7번지","category":"레저업소 - 당 구 장"},{"name":"한돈가츠","tel":"050-3816-6887","addr":"경기도 이천시 증포동 367-7번지","category":"일반휴게음식 - 스넥"}]},{"lat":"37.289740132","long":"127.45118556","items":[{"name":"프랜즈어학원","tel":"031-635-1304","addr":"경기도 이천시 증포동 371번지 2층","category":"학원 - 외국어학원"}]},{"lat":"37.28966268","long":"127.45731987","items":[{"name":"프리미엄영어학원","tel":"031-633-1990","addr":"경기도 이천시 증포동 165-2번지 1동 202호","category":"학원 - 외국어학원"}]},{"lat":"37.289551928","long":"127.44613228","items":[{"name":"하나미찌","tel":"031-631-6662","addr":"경기도 이천시 증포동 489번지 한양수자인아파트 3블록","category":"일반휴게음식 - 일식·회집"}]},{"lat":"37.297488637","long":"127.45362254","items":[{"name":"하늘빛어린이집","tel":"031-631-7145","addr":"경기도 이천시 증포동 234-25번지","category":"학원 - 유아원"},{"name":"하늘빛어린이집[아이행복]","tel":"031-631-7144","addr":"경기도 이천시 증포동 234-25번지","category":"학원 - 유아원"}]},{"lat":"37.290052299","long":"127.46142711","items":[{"name":"한내초등학교","tel":"031-636-9384","addr":"경기도 이천시 증포동 70-5번지 한내초등학교","category":"학원 - 초중고교육기관"},{"name":"한내초등학교병설유치원[아이행복]","tel":"031-636-9384","addr":"경기도 이천시 증포동 70-5번지 한내초등학교","category":"학원 - 유치원"}]},{"lat":"37.292885592","long":"127.45568144","items":[{"name":"한솔플러스수학교습소","tel":"031-631-5578","addr":"경기도 이천시 증포동 202-2 2층","category":"학원 - 보습학원"}]},{"lat":"37.289351352","long":"127.45626922","items":[{"name":"한양추어정","tel":"031-635-1125","addr":"경기도 이천시 증포동 159-12번지","category":"일반휴게음식 - 일반한식"}]},{"lat":"37.297189029","long":"127.45657566","items":[{"name":"행복꽃화원","tel":"031-635-6649","addr":"경기도 이천시 증포동 479번지 증포동한솔솔파크 1층","category":"문화.취미 - 화원"}]},{"lat":"37.287191485","long":"127.45323409","items":[{"name":"헤어바이주","tel":"031-636-2466","addr":"경기도 이천시 증포동 136","category":"보건위생 - 미용원"}]},{"lat":"37.28935213","long":"127.45606624","items":[{"name":"현대모터스","tel":"031-638-8550","addr":"경기도 이천시 증포동 159-11번지","category":"자동차정비 유지 - 자동차정비"},{"name":"현대모터스","tel":"031-638-8550","addr":"경기도 이천시 증포동 159-11번지","category":"자동차정비 유지 - 자동차정비"}]}]