[{"lat":"37.930235637","long":"126.9845464","items":[{"name":"감악산육류백화점","tel":"031-862-7044","addr":"경기도 양주시 남면 황방리 282","category":"음료식품 - 정육점"},{"name":"감악산폭포산장","tel":"031-862-7044","addr":"경기도 양주시 남면 황방리 282번지","category":"일반휴게음식 - 일반한식"}]},{"lat":"37.923047246","long":"126.99296441","items":[{"name":"묵향","tel":"031-866-6006","addr":"경기도 양주시 남면 황방리 221번지","category":"유통업 영리 - 슈퍼마켓"}]},{"lat":"37.921660097","long":"126.997184","items":[{"name":"봉암낚시터","tel":"031-853-7679","addr":"경기도 양주시 남면 황방리 141","category":"레저업소 - 기타레져업소"}]},{"lat":"37.922352659","long":"126.98545821","items":[{"name":"양명농원","tel":"031-858-1004","addr":"경기도 양주시 남면 황방리 355-3","category":"음료식품 - 농·축·수산품"}]},{"lat":"37.919073541","long":"126.9873241","items":[{"name":"원당낚시터","tel":"031-865-5206","addr":"경기도 양주시 남면 황방리 403-2","category":"레저업소 - 기타레져업소"}]},{"lat":"37.928327019","long":"126.9984915","items":[{"name":"천하기계","tel":"031-863-0430","addr":"경기도 양주시 남면 황방리 33번지","category":"기타 - 기계공구"}]},{"lat":"37.922209675","long":"126.99743417","items":[{"name":"청솔아로니아","tel":"","addr":"경기도 양주시 남면 황방리 131-11번지","category":"음료식품 - 농·축·수산품"}]},{"lat":"37.927795479","long":"126.99870764","items":[{"name":"초록밥상","tel":"031-859-9924","addr":"경기도 양주시 남면 황방리 71-2번지","category":"일반휴게음식 - 일반한식"}]}]