[{"lat":"37.114406765","long":"127.62347258","items":[{"name":"2S모텔","tel":"031-642-7536","addr":"경기도 이천시 장호원읍 진암리 22-4번지","category":"숙박업 - 여관/기타숙박업"},{"name":"2S모텔","tel":"031-642-0090","addr":"경기도 이천시 장호원읍 진암리 22-4번지","category":"숙박업 - 여관/기타숙박업"}]},{"lat":"37.115464274","long":"127.60889968","items":[{"name":"GS25장호원진암점","tel":"","addr":"경기도 이천시 장호원읍 진암리 306-1번지","category":"유통업 영리 - 편 의 점"}]},{"lat":"37.115879604","long":"127.62611739","items":[{"name":"GS25장호원초교점","tel":"","addr":"경기도 이천시 장호원읍 진암리 34-10번지 1층","category":"유통업 영리 - 편 의 점"},{"name":"리틀캠프","tel":"031-642-7954","addr":"경기도 이천시 장호원읍 진암리 34-10번지 삼우빌딩 4층","category":"일반휴게음식 - 일반한식"},{"name":"토스피아","tel":"031-641-8595","addr":"경기도 이천시 장호원읍 진암리 34-10번지","category":"일반휴게음식 - 서양음식"},{"name":"현진헬스클럽","tel":"031-642-7776","addr":"경기도 이천시 장호원읍 진암리 34-10번지 삼우빌딩 2층","category":"회원제형태 - 레져업소"}]},{"lat":"37.113410975","long":"127.61744523","items":[{"name":"깜헤어포즈","tel":"031-694-5117","addr":"경기도 이천시 장호원읍 진암리 780번지 이천장호원코아루1단지 상가동 101호","category":"보건위생 - 미용원"},{"name":"세븐일레븐장호원코아루점","tel":"031-1577-0711","addr":"경기도 이천시 장호원읍 진암리 780번지 이천장호원코아루1단지 상가동 1층 102호","category":"유통업 영리 - 편 의 점"}]},{"lat":"37.112799206","long":"127.60850716","items":[{"name":"꿈꾸는 유니팜","tel":"","addr":"경기도 이천시 장호원읍 진암리 541-3번지","category":"음료식품 - 기타음료식품"}]},{"lat":"37.115799401","long":"127.62594796","items":[{"name":"나고야","tel":"031-642-7160","addr":"경기도 이천시 장호원읍 진암리 34-11번지","category":"일반휴게음식 - 일반한식"},{"name":"제일창호","tel":"031-642-1363","addr":"경기도 이천시 장호원읍 진암리 34-11","category":"건축자재 - 보일러·펌프·샷시"},{"name":"플러스아이티학원","tel":"031-641-3758","addr":"경기도 이천시 장호원읍 진암리 34-11 2층","category":"회원제형태 - 학원"}]},{"lat":"37.114046569","long":"127.61650529","items":[{"name":"남촌이락","tel":"031-643-0609","addr":"경기도 이천시 장호원읍 진암리 17-19번지","category":"일반휴게음식 - 일반한식"},{"name":"뒷고기랑막창","tel":"031-641-8692","addr":"경기도 이천시 장호원읍 진암리 17-19번지","category":"일반휴게음식 - 일반한식"},{"name":"밥집풍경","tel":"031-641-3849","addr":"경기도 이천시 장호원읍 진암리 17-19번지 밥집풍경","category":"일반휴게음식 - 일반한식"},{"name":"신그린골드세탁소","tel":"031-643-1104","addr":"경기도 이천시 장호원읍 진암리 17-19번지","category":"수리서비스 - 세탁소"},{"name":"우리마트","tel":"031-642-0032","addr":"경기도 이천시 장호원읍 진암리 17-19","category":"유통업 영리 - 슈퍼마켓"}]},{"lat":"37.115266479","long":"127.62448095","items":[{"name":"농협화장품종합메리야스","tel":"031-642-6206","addr":"경기도 이천시 장호원읍 진암리 30번지 장호원농협하나로마트","category":"보건위생 - 화장품"},{"name":"안경1988","tel":"031-641-4555","addr":"경기도 이천시 장호원읍 진암리 30번지","category":"보건위생 - 안경"},{"name":"해피월드","tel":"031-4755-4786","addr":"경기도 이천시 장호원읍 진암리 30번지","category":"직물 - 침구·수예점"}]},{"lat":"37.115488247","long":"127.62514658","items":[{"name":"농협회사법인 케이스카이드론 주식회사","tel":"031-641-5209","addr":"경기도 이천시 장호원읍 진암리 32-1번지 태광빌딩","category":"광학제품 - 기타광학제품"},{"name":"이천,장호원 가구단지","tel":"054-554-8865","addr":"경기도 이천시 장호원읍 진암리 32-1번지","category":"가구 - 일반가구"},{"name":"장호원종합무도관","tel":"031-642-2442","addr":"경기도 이천시 장호원읍 진암리 1리32-1 2층","category":"학원 - 예·체능계학원"},{"name":"튼튼영어마스터클럽학원","tel":"031-641-7942","addr":"경기도 이천시 장호원읍 진암리 32-1번지 태광빌딩 202호","category":"학원 - 보습학원"}]},{"lat":"37.114850431","long":"127.60203161","items":[{"name":"대동공업","tel":"031-642-7234","addr":"경기도 이천시 장호원읍 진암리 524-3번지","category":"농업 - 농기계"}]},{"lat":"37.115792595","long":"127.62381018","items":[{"name":"대림SD","tel":"031-641-5255","addr":"경기도 이천시 장호원읍 진암리 9-16번지","category":"건축자재 - 인테리어전문"},{"name":"장원급제로또복권방","tel":"031-642-7100","addr":"경기도 이천시 장호원읍 진암리 9-16번지","category":"신변잡화 - 신발"}]},{"lat":"37.129797481","long":"127.60758477","items":[{"name":"대림농자재","tel":"031-642-2988","addr":"경기도 이천시 장호원읍 진암리 384-2번지","category":"농업 - 농기계"}]},{"lat":"37.130624614","long":"127.60617342","items":[{"name":"대성떡방앗간","tel":"031-641-3508","addr":"경기도 이천시 장호원읍 진암리 387-11번지","category":"음료식품 - 제과점"}]},{"lat":"37.115626057","long":"127.62291997","items":[{"name":"대성모터스","tel":"031-641-0205","addr":"경기도 이천시 장호원읍 진암리 9-3","category":"자동차정비 유지 - 자동차정비"},{"name":"타이어테크","tel":"031-641-7770","addr":"경기도 이천시 장호원읍 진암리 9-3 일부","category":"자동차정비 유지 - 자동차시트·타이어"}]},{"lat":"37.115323487","long":"127.62391886","items":[{"name":"대원세탁소","tel":"031-642-2676","addr":"경기도 이천시 장호원읍 진암리 26-4번지 1층","category":"수리서비스 - 세탁소"},{"name":"라우트커피","tel":"","addr":"경기도 이천시 장호원읍 진암리 26-4번지 가동 1층","category":"일반휴게음식 - 서양음식"},{"name":"백두항공여행사","tel":"031-643-3355","addr":"경기도 이천시 장호원읍 진암리 26-4번지","category":"여행 - 관광여행"},{"name":"법무사 김영록사무소","tel":"031-643-0123","addr":"경기도 이천시 장호원읍 진암리 26-4번지 2층","category":"용역 서비스 - 법률회계서비스(개인)"},{"name":"부동산랜드공인중개사사무소","tel":"031-641-7888","addr":"경기도 이천시 장호원읍 진암리 26-4번지","category":"용역 서비스 - 부동산 중개·임대"},{"name":"점핑에어로빅운동센타","tel":"031-882-6915","addr":"경기도 이천시 장호원읍 진암리 26-4번지","category":"레저업소 - 헬스클럽"}]},{"lat":"37.109047553","long":"127.61091859","items":[{"name":"델리지오","tel":"031-643-9131","addr":"경기도 이천시 장호원읍 진암리 636-4번지","category":"일반휴게음식 - 서양음식"},{"name":"에코랜드","tel":"031-643-9132","addr":"경기도 이천시 장호원읍 진암리 636-4번지","category":"일반휴게음식 - 일반한식"}]},{"lat":"37.108105709","long":"127.61008981","items":[{"name":"도담도담","tel":"031-641-3742","addr":"경기도 이천시 장호원읍 진암리 686-2번지","category":"일반휴게음식 - 일반한식"},{"name":"별빛마루","tel":"031-643-0365","addr":"경기도 이천시 장호원읍 진암리 686-2번지 1동 1층","category":"일반휴게음식 - 서양음식"}]},{"lat":"37.116213565","long":"127.62600761","items":[{"name":"도야족발","tel":"031-641-9291","addr":"경기도 이천시 장호원읍 진암리 35-10번지","category":"일반휴게음식 - 일반한식"},{"name":"영구스 까사맘 피자","tel":"031-641-9292","addr":"경기도 이천시 장호원읍 진암리 35-10번지 (제1호)","category":"일반휴게음식 - 서양음식"}]},{"lat":"37.113521647","long":"127.62559178","items":[{"name":"도월정","tel":"031-642-4072","addr":"경기도 이천시 장호원읍 진암리 45번지","category":"일반휴게음식 - 일반한식"}]},{"lat":"37.116075748","long":"127.60914083","items":[{"name":"동양기계상사","tel":"031-643-8588","addr":"경기도 이천시 장호원읍 진암리 309-4번지","category":"수리서비스 - 기타수리서비스"},{"name":"브라보타석스크린 연습장","tel":"031-642-3601","addr":"경기도 이천시 장호원읍 진암리 309-4번지","category":"레저업소 - 스크린골프"},{"name":"썬골프존","tel":"031-641-0782","addr":"경기도 이천시 장호원읍 진암리 309-4번지","category":"레져용품 - 골프용품 전문점"}]},{"lat":"37.125734084","long":"127.61280746","items":[{"name":"동원가설산업","tel":"031-642-0990","addr":"경기도 이천시 장호원읍 진암리 371-7번지","category":"건축자재 - 기타건축자재"}]},{"lat":"37.115877454","long":"127.62309079","items":[{"name":"두레박맛나식당","tel":"031-642-1228","addr":"경기도 이천시 장호원읍 진암리 9-10번지 9-13","category":"일반휴게음식 - 일반한식"}]},{"lat":"37.114882346","long":"127.60106427","items":[{"name":"똑순이네감자탕","tel":"031-643-2468","addr":"경기도 이천시 장호원읍 진암리 522번지","category":"일반휴게음식 - 일반한식"},{"name":"용골반계탕","tel":"031-642-2434","addr":"경기도 이천시 장호원읍 진암리 522번지","category":"일반휴게음식 - 일반한식"}]},{"lat":"37.114936706","long":"127.62722352","items":[{"name":"모닝글로리","tel":"031-641-5300","addr":"경기도 이천시 장호원읍 진암리 38-3번지","category":"서적문구 - 문구용품"}]},{"lat":"37.102682953","long":"127.6080329","items":[{"name":"무량사","tel":"031-641-4026","addr":"경기도 이천시 장호원읍 진암리 산112","category":"보건위생 - 기타대인서비스"}]},{"lat":"37.113081101","long":"127.61676752","items":[{"name":"미소에어시스템","tel":"031-000-0000","addr":"경기도 이천시 장호원읍 진암리 780번지 이천장호원코아루1단지 106동 401호","category":"용역 서비스 - 기타용역서비스"}]},{"lat":"37.115299048","long":"127.62342361","items":[{"name":"바우갈비","tel":"031-642-4288","addr":"경기도 이천시 장호원읍 진암리 25-2번지 1층","category":"일반휴게음식 - 일반한식"}]},{"lat":"37.104657593","long":"127.62000692","items":[{"name":"산촌농원","tel":"031-641-2715","addr":"경기도 이천시 장호원읍 진암리 142번지","category":"음료식품 - 농·축·수산품"}]},{"lat":"37.115818918","long":"127.62394541","items":[{"name":"삼우건재","tel":"031-641-2321","addr":"경기도 이천시 장호원읍 진암리 7-3번지","category":"건축자재 - 기타건축자재"}]},{"lat":"37.115985567","long":"127.62481311","items":[{"name":"서울건재공구철물","tel":"031-642-0984","addr":"경기도 이천시 장호원읍 진암리 5-18번지","category":"건축자재 - 목재·석재·철물"}]},{"lat":"37.105990863","long":"127.61484283","items":[{"name":"서울농원","tel":"","addr":"경기도 이천시 장호원읍 진암리 산 56-1","category":"음료식품 - 농·축·수산품"}]},{"lat":"37.116266502","long":"127.62622182","items":[{"name":"세일전기조명","tel":"031-641-3988","addr":"경기도 이천시 장호원읍 진암리 35-21번지","category":"건축자재 - 조명기구"}]},{"lat":"37.115687067","long":"127.62331426","items":[{"name":"스피드메이트장호원점","tel":"031-643-0005","addr":"경기도 이천시 장호원읍 진암리 9-13번지 외1필지","category":"자동차정비 유지 - 자동차정비"}]},{"lat":"37.115791869","long":"127.62566662","items":[{"name":"승리태권도체육관","tel":"031-641-0502","addr":"경기도 이천시 장호원읍 진암리 34-4번지","category":"학원 - 예·체능계학원"},{"name":"정원종합기계","tel":"031-643-0991","addr":"경기도 이천시 장호원읍 진암리 34-4번지 정원종합기계","category":"농업 - 농기계"},{"name":"행복한아이들 줄넘기클럽","tel":"031-643-4023","addr":"경기도 이천시 장호원읍 진암리 34-4번지","category":"학원 - 기타 교육기관"}]},{"lat":"37.114792885","long":"127.61156083","items":[{"name":"시골집","tel":"031-642-2535","addr":"경기도 이천시 장호원읍 진암리 561-46번지","category":"일반휴게음식 - 일반한식"}]},{"lat":"37.116160392","long":"127.62583841","items":[{"name":"신광지업사","tel":"031-642-5847","addr":"경기도 이천시 장호원읍 진암리 35-11번지","category":"직물 - 카페트,커튼,천막,지물"}]},{"lat":"37.116073364","long":"127.62525263","items":[{"name":"애견방","tel":"031-641-0222","addr":"경기도 이천시 장호원읍 진암리 5-5","category":"문화.취미 - 애완동물"},{"name":"오피스알파 이천 장호원점","tel":"031-643-0628","addr":"경기도 이천시 장호원읍 진암리 5-5번지","category":"서적문구 - 문구용품"},{"name":"이디야커피","tel":"031-643-9516","addr":"경기도 이천시 장호원읍 진암리 5-5번지","category":"일반휴게음식 - 서양음식"},{"name":"장호원동물병원","tel":"031-643-0010","addr":"경기도 이천시 장호원읍 진암리 5-5번지","category":"기타의료기관 - 동물병원"}]},{"lat":"37.11629294","long":"127.62633455","items":[{"name":"여인천하","tel":"031-643-6778","addr":"경기도 이천시 장호원읍 진암리 35-8번지","category":"의류 - 정장"}]},{"lat":"37.108714585","long":"127.61259221","items":[{"name":"영풍농장","tel":"031-641-2291","addr":"경기도 이천시 장호원읍 진암리 679번지","category":"회원제형태 - 기타1"}]},{"lat":"37.114130633","long":"127.62286277","items":[{"name":"예원공방","tel":"031-634-3722","addr":"경기도 이천시 장호원읍 진암리 47-1번지 로얄맨숀 3층 301호","category":"문화.취미 - 문화취미기타"},{"name":"훈호 농기계","tel":"031-694-3663","addr":"경기도 이천시 장호원읍 진암리 47-1번지 로얄맨숀 108호","category":"수리서비스 - 기타수리서비스"}]},{"lat":"37.114656738","long":"127.61350618","items":[{"name":"용가마순대국","tel":"031-642-1259","addr":"경기도 이천시 장호원읍 진암리 303-25번지","category":"일반휴게음식 - 일반한식"},{"name":"한국타이어 장호원대리점","tel":"031-642-6050","addr":"경기도 이천시 장호원읍 진암리 303-25번지","category":"자동차정비 유지 - 자동차시트·타이어"}]},{"lat":"37.103189619","long":"127.61639521","items":[{"name":"원용농원","tel":"031-641-3484","addr":"경기도 이천시 장호원읍 진암리 167","category":"음료식품 - 농·축·수산품"}]},{"lat":"37.116043284","long":"127.62411601","items":[{"name":"임금님표이천한우 장호원점","tel":"031-641-3330","addr":"경기도 이천시 장호원읍 진암리 7-8번지","category":"일반휴게음식 - 일반한식"}]},{"lat":"37.114659286","long":"127.61301115","items":[{"name":"장수촌","tel":"031-641-3434","addr":"경기도 이천시 장호원읍 진암리 303-6번지","category":"일반휴게음식 - 일반한식"}]},{"lat":"37.113970688","long":"127.62243393","items":[{"name":"장호원벌룬이벤트","tel":"031-642-3928","addr":"경기도 이천시 장호원읍 진암리 산44 진흥빌라 라-105 4/","category":"신변잡화 - 기타잡화"}]},{"lat":"37.114854499","long":"127.61708561","items":[{"name":"장호원읍주민자취위원회","tel":"031-644-8409","addr":"경기도 이천시 장호원읍 진암리 17-21번지 장호원읍사무소","category":"학원 - 기타 교육기관"}]},{"lat":"37.115602794","long":"127.6100034","items":[{"name":"장호원한식부페","tel":"031-643-1729","addr":"경기도 이천시 장호원읍 진암리 306-4번지 진암휴게소 가동 1층","category":"일반휴게음식 - 일반한식"}]},{"lat":"37.107513789","long":"127.61481008","items":[{"name":"조은농원","tel":"031-641-0882","addr":"경기도 이천시 장호원읍 진암리 209-1번지","category":"음료식품 - 농·축·수산품"}]},{"lat":"37.113659744","long":"127.62158758","items":[{"name":"종화농원","tel":"031-641-2863","addr":"경기도 이천시 장호원읍 진암리 52-1번지","category":"음료식품 - 농·축·수산품"}]},{"lat":"37.1265194","long":"127.61253244","items":[{"name":"짬모텔","tel":"031-641-8252","addr":"경기도 이천시 장호원읍 진암리 371-5번지","category":"숙박업 - 여관/기타숙박업"}]},{"lat":"37.114603777","long":"127.60978165","items":[{"name":"천서리손가네메밀막국수","tel":"031-642-7778","addr":"경기도 이천시 장호원읍 진암리 561-29번지","category":"일반휴게음식 - 일반한식"}]},{"lat":"37.116020722","long":"127.62498217","items":[{"name":"케이씨씨(KCC)페인트 그린상사","tel":"031-634-3722","addr":"경기도 이천시 장호원읍 진암리 5-17번지 103호","category":"건축자재 - 페인트"}]},{"lat":"37.113698089","long":"127.61593993","items":[{"name":"코리아스포츠","tel":"031-643-1126","addr":"경기도 이천시 장호원읍 진암리 781번지 201-1001(이천장호원코아201동1001호~1001호)","category":"의류 - 정장"}]},{"lat":"37.114044442","long":"127.60283533","items":[{"name":"탑자동차매매상사","tel":"031-642-8949","addr":"경기도 이천시 장호원읍 진암리 527-3번지","category":"자동차판매 - 중고자동차판매"}]},{"lat":"37.114930016","long":"127.61642241","items":[{"name":"하이당구클럽","tel":"031-641-5364","addr":"경기도 이천시 장호원읍 진암리 산28-12번지","category":"레저업소 - 당 구 장"},{"name":"하이앤마임","tel":"031-883-8623","addr":"경기도 이천시 장호원읍 진암리 산28-12번지 1층","category":"보건위생 - 미용원"}]},{"lat":"37.114379252","long":"127.62184096","items":[{"name":"하이든 음악학원","tel":"031-643-0001","addr":"경기도 이천시 장호원읍 진암리 50-7번지","category":"학원 - 예·체능계학원"}]},{"lat":"37.115798717","long":"127.6226401","items":[{"name":"한진자동차","tel":"031-642-0554","addr":"경기도 이천시 장호원읍 진암리 9-6(9-7,11-2,11-5)","category":"자동차정비 유지 - 자동차정비"}]},{"lat":"37.112127538","long":"127.61122448","items":[{"name":"해암농원","tel":"031-642-2564","addr":"경기도 이천시 장호원읍 진암리 567-1번지","category":"음료식품 - 농·축·수산품"}]}]