[{"lat":"37.717962509","long":"127.09920823","items":[{"name":"007보세전문","tel":"031-848-6389","addr":"경기도 의정부시 고산동 산116-11번지 69호","category":"의류 - 정장"},{"name":"불교용품재활용센타","tel":"031-842-1070","addr":"경기도 의정부시 고산동 산116-11번지","category":"신변잡화 - 기념품점"},{"name":"사진관","tel":"070-7593-2215","addr":"경기도 의정부시 고산동 산116-11번지","category":"광학제품 - 사진관"},{"name":"형제농산","tel":"","addr":"경기도 의정부시 고산동 산116-11번지 1층","category":"음료식품 - 농·축·수산품"}]},{"lat":"37.728628989","long":"127.10026564","items":[{"name":"GS25의정고산점","tel":"","addr":"경기도 의정부시 고산동 621-9번지","category":"유통업 영리 - 편 의 점"},{"name":"정자상회","tel":"031-841-4742","addr":"경기도 의정부시 고산동 621-9번지","category":"음료식품 - 기타음료식품"}]},{"lat":"37.720465184","long":"127.10161602","items":[{"name":"JM인테리어","tel":"031-846-5688","addr":"경기도 의정부시 고산동 505-5번지","category":"건축자재 - 인테리어전문"}]},{"lat":"37.729484701","long":"127.10050498","items":[{"name":"K아트 미술관","tel":"","addr":"경기도 의정부시 고산동 623번지","category":"문화.취미 - 화랑"},{"name":"그림이야기","tel":"031-841-7131","addr":"경기도 의정부시 고산동 623번지 2층","category":"일반휴게음식 - 일반한식"}]},{"lat":"37.739289296","long":"127.10842538","items":[{"name":"거북이","tel":"031-841-8800","addr":"경기도 의정부시 고산동 296번지","category":"일반휴게음식 - 일반한식"}]},{"lat":"37.732546795","long":"127.09051487","items":[{"name":"경성 철물 조경자재","tel":"031-847-6565","addr":"경기도 의정부시 고산동 855-33번지 1층","category":"건축자재 - 목재·석재·철물"}]},{"lat":"37.739373209","long":"127.11511911","items":[{"name":"계룡산업(주)의정부고산 식당","tel":"031-4808-2140","addr":"경기도 의정부시 고산동 85번지 지상1층 (고산택지개발지구S3블럭로트)","category":"일반휴게음식 - 일반한식"}]},{"lat":"37.730520387","long":"127.10100546","items":[{"name":"고령농장","tel":"031-841-9282","addr":"경기도 의정부시 고산동 633-3 외1필지","category":"음료식품 - 농·축·수산품"}]},{"lat":"37.737017157","long":"127.11033942","items":[{"name":"고산꽃농원","tel":"031-841-7242","addr":"경기도 의정부시 고산동 290번지 1층","category":"문화.취미 - 화원"}]},{"lat":"37.719627747","long":"127.10107049","items":[{"name":"고산식당","tel":"031-841-7766","addr":"경기도 의정부시 고산동 511-7번지","category":"일반휴게음식 - 일반한식"}]},{"lat":"37.741542073","long":"127.11765242","items":[{"name":"고산정육점","tel":"031-841-8769","addr":"경기도 의정부시 고산동 116번지","category":"음료식품 - 정육점"},{"name":"골덴양복점","tel":"031-841-6096","addr":"경기도 의정부시 고산동 116","category":"의류 - 양품점"},{"name":"송산식당","tel":"031-841-9010","addr":"경기도 의정부시 고산동 116","category":"일반휴게음식 - 일반한식"},{"name":"풍천상회","tel":"031-841-8767","addr":"경기도 의정부시 고산동 116번지","category":"유통업 영리 - 슈퍼마켓"}]},{"lat":"37.719294676","long":"127.10072979","items":[{"name":"고산편의점","tel":"031-841-9696","addr":"경기도 의정부시 고산동 510-7번지","category":"음료식품 - 기타음료식품"}]},{"lat":"37.728629242","long":"127.09995937","items":[{"name":"고산현장식당","tel":"","addr":"경기도 의정부시 고산동 621-25번지","category":"일반휴게음식 - 일반한식"},{"name":"한국후지상사","tel":"031-848-1472","addr":"경기도 의정부시 고산동 621-25번지","category":"기타 - 기계공구"}]},{"lat":"37.735540568","long":"127.10925955","items":[{"name":"동천","tel":"031-821-3628","addr":"경기도 의정부시 고산동 378-28번지 1층","category":"일반휴게음식 - 일반한식"}]},{"lat":"37.730489138","long":"127.1059513","items":[{"name":"명성부동산공인중개사사무소","tel":"031-848-8976","addr":"경기도 의정부시 고산동 454-6번지 다동","category":"용역 서비스 - 부동산 중개·임대"},{"name":"토종보리밥","tel":"031-851-4149","addr":"경기도 의정부시 고산동 454-6번지","category":"일반휴게음식 - 일반한식"}]},{"lat":"37.730848884","long":"127.1066778","items":[{"name":"백양슈퍼","tel":"031-841-8340","addr":"경기도 의정부시 고산동 454-8번지","category":"유통업 영리 - 슈퍼마켓"}]},{"lat":"37.731434065","long":"127.10717775","items":[{"name":"별당","tel":"031-821-2040","addr":"경기도 의정부시 고산동 433-4번지 별당","category":"일반휴게음식 - 일반한식"}]},{"lat":"37.718186309","long":"127.10095517","items":[{"name":"산촌","tel":"031-846-2229","addr":"경기도 의정부시 고산동 산117-3번지","category":"유통업 영리 - 슈퍼마켓"},{"name":"원일 메카닉","tel":"031-000-0000","addr":"경기도 의정부시 고산동 산117-3번지","category":"전기제품 - 냉열기기"}]},{"lat":"37.744238707","long":"127.11476339","items":[{"name":"상현농원","tel":"031-841-7496","addr":"경기도 의정부시 고산동 212번지","category":"음료식품 - 농·축·수산품"}]},{"lat":"37.731014743","long":"127.1024014","items":[{"name":"소담","tel":"031-821-5030","addr":"경기도 의정부시 고산동 639번지","category":"일반휴게음식 - 일반한식"}]},{"lat":"37.718763495","long":"127.10026407","items":[{"name":"스타닭스","tel":"031-841-9571","addr":"경기도 의정부시 고산동 509-1번지 1층 지상","category":"일반휴게음식 - 일반한식"},{"name":"영우상사","tel":"031-528-4450","addr":"경기도 의정부시 고산동 509-1번지","category":"연료판매점 - 기타연료"}]},{"lat":"37.719438669","long":"127.10092279","items":[{"name":"오복식당","tel":"031-841-8355","addr":"경기도 의정부시 고산동 511-12번지","category":"일반휴게음식 - 일반한식"},{"name":"오복정육점","tel":"031-841-8355","addr":"경기도 의정부시 고산동 511-12번지","category":"음료식품 - 정육점"}]},{"lat":"37.738820545","long":"127.10870834","items":[{"name":"왕바우","tel":"031-841-0778","addr":"경기도 의정부시 고산동 295번지 1층","category":"일반휴게음식 - 일반한식"}]},{"lat":"37.734820304","long":"127.10870265","items":[{"name":"외양간한우","tel":"031-841-0400","addr":"경기도 의정부시 고산동 382-9번지","category":"일반휴게음식 - 일반한식"},{"name":"외양간한우","tel":"031-841-0400","addr":"경기도 의정부시 고산동 382-9번지","category":"음료식품 - 정육점"}]},{"lat":"37.732712909","long":"127.10775809","items":[{"name":"유명한식","tel":"","addr":"경기도 의정부시 고산동 433-2번지","category":"일반휴게음식 - 일반한식"}]},{"lat":"37.730374901","long":"127.10259339","items":[{"name":"주식회사 상일에프에스","tel":"031-856-9980","addr":"경기도 의정부시 고산동 637번지 1층","category":"음료식품 - 기타음료식품"}]},{"lat":"37.728766668","long":"127.09714636","items":[{"name":"차향","tel":"031-852-6800","addr":"경기도 의정부시 고산동 614-1번지","category":"일반휴게음식 - 스넥"}]},{"lat":"37.730849253","long":"127.10625808","items":[{"name":"초이스","tel":"031-928-5689","addr":"경기도 의정부시 고산동 455-3번지 1층","category":"일반휴게음식 - 일반한식"}]},{"lat":"37.731825441","long":"127.10259534","items":[{"name":"카페히릿","tel":"070-7776-4442","addr":"경기도 의정부시 고산동 642-1번지","category":"일반휴게음식 - 서양음식"}]},{"lat":"37.735324961","long":"127.10856723","items":[{"name":"태능식당","tel":"031-847-1120","addr":"경기도 의정부시 고산동 381번지 지하1층","category":"일반휴게음식 - 일반한식"}]},{"lat":"37.735848898","long":"127.10701377","items":[{"name":"토속마을","tel":"031-840-3392","addr":"경기도 의정부시 고산동 276-2번지","category":"일반휴게음식 - 일반한식"}]},{"lat":"37.729770004","long":"127.10406725","items":[{"name":"해금강","tel":"031-841-8019","addr":"경기도 의정부시 고산동 471-1번지","category":"일반휴게음식 - 일반한식"}]},{"lat":"37.731235925","long":"127.10709806","items":[{"name":"호반베르디움공인중개사사무소","tel":"031-851-5300","addr":"경기도 의정부시 고산동 433-8번지","category":"음료식품 - 기타음료식품"}]}]