[{"lat":"36.980417838","long":"127.30387315","items":[{"name":"(주)나온","tel":"070-4814-5923","addr":"경기도 안성시 금광면 개산리 204-17번지","category":"자동차판매 - 기타운송"}]},{"lat":"36.984358256","long":"127.30278794","items":[{"name":"H.S 씽크탑","tel":"031-676-5586","addr":"경기도 안성시 금광면 개산리 177번지","category":"주방용구 - 주방용구"}]},{"lat":"36.983417485","long":"127.30423316","items":[{"name":"개산승진방앗간","tel":"","addr":"경기도 안성시 금광면 개산리 557-8번지","category":"음료식품 - 제과점"}]},{"lat":"36.98396975","long":"127.303202","items":[{"name":"개산식당","tel":"031-674-8880","addr":"경기도 안성시 금광면 개산리 176-2번지","category":"일반휴게음식 - 일반한식"}]},{"lat":"36.984388374","long":"127.30156377","items":[{"name":"개산초등학교","tel":"031-676-3880","addr":"경기도 안성시 금광면 개산리 168-3번지 개산초등학교","category":"학원 - 초중고교육기관"},{"name":"개산초등학교_수업료","tel":"031-676-3880","addr":"경기도 안성시 금광면 개산리 168-3번지 개산초등학교","category":"학원 - 초중고교육기관"}]},{"lat":"36.983635931","long":"127.30336916","items":[{"name":"금광농업협동조합개산지소","tel":"031-674-3774","addr":"경기도 안성시 금광면 개산리 184-5번지","category":"유통업 비영리 - 농협하나로클럽"},{"name":"금광농업협동조합개산지소","tel":"031-674-3773","addr":"경기도 안성시 금광면 개산리 184-5번지","category":"연료판매점 - SK주유소"},{"name":"금광농업협동조합개산지소","tel":"031-674-3774","addr":"경기도 안성시 금광면 개산리 184-5","category":"농업 - 비료,사료,종자"}]},{"lat":"36.982440387","long":"127.30223006","items":[{"name":"남원추어탕","tel":"031-672-3281","addr":"경기도 안성시 금광면 개산리 207","category":"일반휴게음식 - 일반한식"}]},{"lat":"36.980976296","long":"127.30395397","items":[{"name":"대승팩","tel":"031-675-0918","addr":"경기도 안성시 금광면 개산리 204-6번지 외2필지","category":"유통업 영리 - 기타유통업"}]},{"lat":"36.981585277","long":"127.30542771","items":[{"name":"대한민국술박물관","tel":"031-671-3903","addr":"경기도 안성시 금광면 개산리 204-10번지","category":"일반휴게음식 - 일반한식"}]},{"lat":"36.98422162","long":"127.30337147","items":[{"name":"세븐일레븐안성개산점","tel":"031-1577-0711","addr":"경기도 안성시 금광면 개산리 175번지","category":"유통업 영리 - 편 의 점"},{"name":"순두부부대전문정박사","tel":"031-673-5700","addr":"경기도 안성시 금광면 개산리 175번지","category":"일반휴게음식 - 일반한식"},{"name":"장흥루","tel":"031-676-1239","addr":"경기도 안성시 금광면 개산리 175번지","category":"일반휴게음식 - 중국식"},{"name":"큰뼈감자탕","tel":"031-672-3110","addr":"경기도 안성시 금광면 개산리 175번지 1층","category":"일반휴게음식 - 일반한식"}]},{"lat":"36.980000907","long":"127.29401039","items":[{"name":"안성토탈사무기","tel":"031-675-3667","addr":"경기도 안성시 금광면 개산리 526-7번지","category":"사무통신 - 사무용 OA기기"}]},{"lat":"36.983027038","long":"127.30185048","items":[{"name":"연보담갤러리","tel":"031-676-9082","addr":"경기도 안성시 금광면 개산리 214-8번지","category":"학원 - 기타 교육기관"},{"name":"한지나라 보담갤러리","tel":"031-675-9082","addr":"경기도 안성시 금광면 개산리 214-8번지 1층","category":"문화.취미 - 문화취미기타"},{"name":"한지나라공예학원","tel":"031-675-9082","addr":"경기도 안성시 금광면 개산리 214-8번지","category":"학원 - 예·체능계학원"}]},{"lat":"36.985749116","long":"127.30151293","items":[{"name":"이승재 식물원","tel":"031-672-7644","addr":"경기도 안성시 금광면 개산리 157-1번지","category":"문화.취미 - 화원"}]},{"lat":"36.981615336","long":"127.30423728","items":[{"name":"주식회사 대승팩","tel":"031-675-0918","addr":"경기도 안성시 금광면 개산리 204-3번지 4동","category":"유통업 영리 - 기타유통업"}]},{"lat":"36.980054089","long":"127.29437","items":[{"name":"청랑어죽","tel":"02-000-0000","addr":"경기도 안성시 금광면 개산리 523번지","category":"일반휴게음식 - 일반한식"}]}]