[{"lat":"37.321155053","long":"127.39644066","items":[{"name":"(주)엠에스라인이엔지","tel":"031-645-1325","addr":"경기도 이천시 신둔면 수광리 595-7번지 2층 205호","category":"보건위생 - 의료용품"},{"name":"Deep cobal t","tel":"031-645-1407","addr":"경기도 이천시 신둔면 수광리 595-7번지 한국세라믹기술원이천분원창업보육센터 303호","category":"문화.취미 - 민예·공예품"},{"name":"JIWOON","tel":"031-645-1327","addr":"경기도 이천시 신둔면 수광리 595-7번지 한국세라믹기술원 B1층 센터 207호","category":"문화.취미 - 민예·공예품"},{"name":"가마숲 꼼꼼각시","tel":"031-645-1334","addr":"경기도 이천시 신둔면 수광리 595-7번지 한국세라믹기술원이천분원창업센터 304호","category":"주방용구 - 주방용식기"},{"name":"꼭두도예","tel":"02-743-2087","addr":"경기도 이천시 신둔면 수광리 595-7번지","category":"문화.취미 - 문화취미기타"},{"name":"도농도예","tel":"031-645-1407","addr":"경기도 이천시 신둔면 수광리 595-7번지 이천분원창업보육센터 206호","category":"문화.취미 - 민예·공예품"},{"name":"디아슬라(deisla)","tel":"031-645-1329","addr":"경기도 이천시 신둔면 수광리 595-7번지","category":"주방용구 - 주방용식기"},{"name":"라플로란스바이안세라믹(La Florence by An","tel":"031-111-1111","addr":"경기도 이천시 신둔면 수광리 595-7번지 한국세라믹기술원창업보육센터 202호","category":"주방용구 - 주방용식기"},{"name":"로열세브르(RoyalSevres)","tel":"070-7634-0123","addr":"경기도 이천시 신둔면 수광리 595-7번지 311(한국세라믹기술원B1센타)","category":"주방용구 - 주방용식기"},{"name":"릴리","tel":"031-645-1337","addr":"경기도 이천시 신둔면 수광리 595-7번지 창업보육센터 3층","category":"주방용구 - 주방용식기"},{"name":"모음(MOUM)","tel":"031-645-1341","addr":"경기도 이천시 신둔면 수광리 595-7번지 세라믹기술원이천창업보육센터 201호","category":"주방용구 - 주방용식기"},{"name":"서울도자기","tel":"031-657-2737","addr":"경기도 이천시 신둔면 수광리 595-7번지 한국세라믹기술원이천분원보육센터 310호","category":"주방용구 - 주방용식기"},{"name":"세라믹 랩 루멘 Ceramic Lab Lumen","tel":"031-1111-1111","addr":"경기도 이천시 신둔면 수광리 595-7번지 한국세라믹기술원이천분원창업보육센터 201호","category":"문화.취미 - 민예·공예품"},{"name":"주식회사 김성훈도자기","tel":"070-7573-7302","addr":"경기도 이천시 신둔면 수광리 595-7번지 210호 한국세라믹기술원 이천분원 창업보육센터","category":"문화.취미 - 민예·공예품"},{"name":"해정 ceramic studio","tel":"","addr":"경기도 이천시 신둔면 수광리 595-7번지 한국세라믹기술원이천분원창업보육센터 201호","category":"주방용구 - 주방용식기"},{"name":"흙의나라","tel":"031-645-1329","addr":"경기도 이천시 신둔면 수광리 595-7번지 209호","category":"문화.취미 - 민예·공예품"}]},{"lat":"37.309074662","long":"127.40116044","items":[{"name":"(주)팜스온","tel":"031-391-6363","addr":"경기도 이천시 신둔면 수광리 276-2번지 1층","category":"약국 - 제약회사"}]},{"lat":"37.307910015","long":"127.40185365","items":[{"name":"2002당구장","tel":"031-634-7285","addr":"경기도 이천시 신둔면 수광리 285-8번지 은성빌딩 201호","category":"레저업소 - 당 구 장"},{"name":"도예노래방","tel":"031-633-7129","addr":"경기도 이천시 신둔면 수광리 285-8번지","category":"레저업소 - 노 래 방"},{"name":"모드니애","tel":"031-634-8326","addr":"경기도 이천시 신둔면 수광리 285-8","category":"보건위생 - 미용원"},{"name":"인생밥집","tel":"031-694-6170","addr":"경기도 이천시 신둔면 수광리 285-8번지 은성빌딩 1층 2호","category":"일반휴게음식 - 일반한식"},{"name":"자매생고기","tel":"031-632-5535","addr":"경기도 이천시 신둔면 수광리 285-8번지 은성빌딩 1층","category":"일반휴게음식 - 일반한식"},{"name":"정원","tel":"031-632-0096","addr":"경기도 이천시 신둔면 수광리 285-8번지 은성빌딩","category":"일반휴게음식 - 일반한식"}]},{"lat":"37.309486234","long":"127.4020199","items":[{"name":"GS25이천신둔점","tel":"","addr":"경기도 이천시 신둔면 수광리 261-1번지","category":"유통업 영리 - 편 의 점"},{"name":"도림도원","tel":"031-634-0087","addr":"경기도 이천시 신둔면 수광리 261-1번지","category":"주방용구 - 주방용식기"},{"name":"세템앤루어샵","tel":"031-111-1111","addr":"경기도 이천시 신둔면 수광리 261-1번지","category":"레져용품 - 스포츠·레져용품"},{"name":"신둔전기","tel":"031-637-0900","addr":"경기도 이천시 신둔면 수광리 261-1번지 1층","category":"건축자재 - 조명기구"},{"name":"신둔페리카나","tel":"031-631-0082","addr":"경기도 이천시 신둔면 수광리 261-1번지 A동","category":"일반휴게음식 - 주점"},{"name":"황우축산","tel":"031-631-0204","addr":"경기도 이천시 신둔면 수광리 261-1번지 1층 104호","category":"음료식품 - 정육점"}]},{"lat":"37.317991368","long":"127.40215512","items":[{"name":"NL-KOREA(엔엘코리아)","tel":"031-633-9347","addr":"경기도 이천시 신둔면 수광리 552-4번지","category":"건축자재 - 인테리어전문"}]},{"lat":"37.307489166","long":"127.40107312","items":[{"name":"The pottery nine (더 포터리나인)","tel":"031-634-8750","addr":"경기도 이천시 신둔면 수광리 222번지","category":"주방용구 - 주방용식기"},{"name":"남양도예","tel":"031-634-8750","addr":"경기도 이천시 신둔면 수광리 222번지","category":"문화.취미 - 민예·공예품"}]},{"lat":"37.3064635","long":"127.40330109","items":[{"name":"가온홈스터","tel":"031-638-8614","addr":"경기도 이천시 신둔면 수광리 312-2번지 기린컴퓨터학원 2층 202호","category":"신변잡화 - 기타잡화"},{"name":"효성측량토목설계사무소","tel":"031-635-9993","addr":"경기도 이천시 신둔면 수광리 312-2번지","category":"용역 서비스 - 사무서비스"}]},{"lat":"37.310848265","long":"127.40157589","items":[{"name":"강릉짬뽕순두부","tel":"031-633-1150","addr":"경기도 이천시 신둔면 수광리 383-4번지","category":"일반휴게음식 - 일반한식"}]},{"lat":"37.311488206","long":"127.39882684","items":[{"name":"고려도요","tel":"031-632-7009","addr":"경기도 이천시 신둔면 수광리 409번지","category":"주방용구 - 주방용식기"}]},{"lat":"37.317520445","long":"127.40018968","items":[{"name":"고려제약(주)","tel":"02-529-6100","addr":"경기도 이천시 신둔면 수광리 486번지","category":"약국 - 약국"}]},{"lat":"37.309181472","long":"127.39616393","items":[{"name":"구름공장(도예공방)","tel":"031-963-3977","addr":"경기도 이천시 신둔면 수광리 185-1번지","category":"문화.취미 - 화랑"}]},{"lat":"37.313019361","long":"127.39629672","items":[{"name":"금모을요","tel":"031-631-8718","addr":"경기도 이천시 신둔면 수광리 434-4번지","category":"문화.취미 - 민예·공예품"}]},{"lat":"37.30707121","long":"127.40210866","items":[{"name":"금보종합전자,전기","tel":"031-632-1386","addr":"경기도 이천시 신둔면 수광리 297-1번지","category":"용역 서비스 - 기타용역서비스"},{"name":"우리동네PC방","tel":"02-222-2222","addr":"경기도 이천시 신둔면 수광리 297-1번지 목도빌딩 3층","category":"레저업소 - 기타레져업소"}]},{"lat":"37.312736136","long":"127.4001645","items":[{"name":"금성수산","tel":"031-635-0592","addr":"경기도 이천시 신둔면 수광리 400-3번지 1층","category":"음료식품 - 농·축·수산품"},{"name":"대한민국장어","tel":"031-635-0592","addr":"경기도 이천시 신둔면 수광리 400-3번지 1층","category":"일반휴게음식 - 일반한식"},{"name":"천지빛매점","tel":"031-635-0592","addr":"경기도 이천시 신둔면 수광리 400-3번지 1층","category":"유통업 영리 - 슈퍼마켓"}]},{"lat":"37.308072461","long":"127.40177555","items":[{"name":"꼬꼬별난치킨","tel":"031-631-0708","addr":"경기도 이천시 신둔면 수광리 285-7번지","category":"일반휴게음식 - 스넥"},{"name":"신둔우리약국","tel":"031-632-2202","addr":"경기도 이천시 신둔면 수광리 285-7번지 청수빌딩 1층 3,4호","category":"약국 - 약국"},{"name":"청수사우나","tel":"031-767-1503","addr":"경기도 이천시 신둔면 수광리 285-7번지 B1층","category":"보건위생 - 사우나"},{"name":"토프레소 이천신둔점","tel":"031-634-6877","addr":"경기도 이천시 신둔면 수광리 285-7번지","category":"일반휴게음식 - 서양음식"},{"name":"함께하는중앙치과의원","tel":"031-631-2075","addr":"경기도 이천시 신둔면 수광리 285-7번지 청수빌딩 3층","category":"의원 - 치과의원"},{"name":"활기찬의원","tel":"031-631-7722","addr":"경기도 이천시 신둔면 수광리 285-7번지","category":"의원 - 의원"}]},{"lat":"37.3096575","long":"127.40199825","items":[{"name":"꽃내음도예공방","tel":"031-631-3180","addr":"경기도 이천시 신둔면 수광리 260-4","category":"문화.취미 - 문화취미기타"}]},{"lat":"37.306960119","long":"127.40298789","items":[{"name":"끌림헤어","tel":"031-635-5976","addr":"경기도 이천시 신둔면 수광리 310-8번지 1층","category":"보건위생 - 미용원"},{"name":"드림세탁소","tel":"031-633-2983","addr":"경기도 이천시 신둔면 수광리 310-8번지 1층","category":"수리서비스 - 세탁소"},{"name":"오래골","tel":"031-631-3541","addr":"경기도 이천시 신둔면 수광리 310-8번지","category":"일반휴게음식 - 일반한식"},{"name":"한식마을돈까스","tel":"031-638-6066","addr":"경기도 이천시 신둔면 수광리 310-8번지","category":"일반휴게음식 - 일반한식"}]},{"lat":"37.307880549","long":"127.40257541","items":[{"name":"다우헤어","tel":"031-636-9175","addr":"경기도 이천시 신둔면 수광리 286-2","category":"보건위생 - 미용원"},{"name":"신(  )대박둥지","tel":"031-633-0321","addr":"경기도 이천시 신둔면 수광리 286-2번지","category":"일반휴게음식 - 일반한식"},{"name":"의정부 부대찌개","tel":"031-634-8388","addr":"경기도 이천시 신둔면 수광리 286-2번지 1층","category":"일반휴게음식 - 일반한식"}]},{"lat":"37.316184426","long":"127.40093848","items":[{"name":"대광","tel":"031-633-0223","addr":"경기도 이천시 신둔면 수광리 490-4번지","category":"일반휴게음식 - 일반한식"},{"name":"미가공방","tel":"031-634-3722","addr":"경기도 이천시 신둔면 수광리 490-4번지","category":"문화.취미 - 민예·공예품"},{"name":"서령공방","tel":"","addr":"경기도 이천시 신둔면 수광리 490-4번지","category":"신변잡화 - 액세서리"}]},{"lat":"37.307158606","long":"127.40290998","items":[{"name":"대명초당국약국","tel":"031-633-1898","addr":"경기도 이천시 신둔면 수광리 301-1번지 1층 101호","category":"약국 - 약국"},{"name":"대명초당약국","tel":"031-633-1989","addr":"경기도 이천시 신둔면 수광리 301-1번지 신둔빌딩","category":"약국 - 약국"}]},{"lat":"37.307770905","long":"127.40302603","items":[{"name":"대원불교","tel":"031-638-1414","addr":"경기도 이천시 신둔면 수광리 304-4번지 금광빌딩 102호","category":"신변잡화 - 기념품점"},{"name":"장군유통","tel":"031-638-9655","addr":"경기도 이천시 신둔면 수광리 304-4번지 금광빌딩 101호","category":"음료식품 - 정육점"},{"name":"최가네감자탕(신둔점)","tel":"031-633-3277","addr":"경기도 이천시 신둔면 수광리 304-4번지","category":"일반휴게음식 - 일반한식"},{"name":"한국체대나라찬태권도장","tel":"031-632-2445","addr":"경기도 이천시 신둔면 수광리 304-4번지 2층","category":"학원 - 예·체능계학원"},{"name":"한솔플러스영어수학학원","tel":"031-632-0632","addr":"경기도 이천시 신둔면 수광리 304-4번지 2층 금광빌딩","category":"학원 - 보습학원"}]},{"lat":"37.310711518","long":"127.40204894","items":[{"name":"더 데일리 플라워","tel":"","addr":"경기도 이천시 신둔면 수광리 381-1번지","category":"문화.취미 - 화원"}]},{"lat":"37.309963954","long":"127.40196603","items":[{"name":"더루시염색샵(THE LUSH)","tel":"031-694-8987","addr":"경기도 이천시 신둔면 수광리 259번지 B동 1층","category":"보건위생 - 미용원"},{"name":"뱅뱅 이천점","tel":"","addr":"경기도 이천시 신둔면 수광리 259번지 B동","category":"레져용품 - 스포츠·레져용품"},{"name":"서울곰탕","tel":"031-631-9132","addr":"경기도 이천시 신둔면 수광리 259번지","category":"일반휴게음식 - 일반한식"},{"name":"신둔팥죽","tel":"031-635-5802","addr":"경기도 이천시 신둔면 수광리 259번지","category":"일반휴게음식 - 일반한식"},{"name":"해뜰날","tel":"031-632-2686","addr":"경기도 이천시 신둔면 수광리 259번지 B동 1층","category":"일반휴게음식 - 일반한식"}]},{"lat":"37.308989732","long":"127.40229928","items":[{"name":"도매문구유통","tel":"031-633-6985","addr":"경기도 이천시 신둔면 수광리 274-6번지","category":"서적문구 - 문구용품"},{"name":"돈치킨","tel":"031-634-9936","addr":"경기도 이천시 신둔면 수광리 274-6번지","category":"일반휴게음식 - 일반한식"},{"name":"둥지방앗간","tel":"031-633-6492","addr":"경기도 이천시 신둔면 수광리 274-6번지","category":"음료식품 - 제과점"},{"name":"미나리가스","tel":"031-632-7000","addr":"경기도 이천시 신둔면 수광리 274-6","category":"연료판매점 - LPG 취급점"},{"name":"에이알토(Aalto)","tel":"070-3621-0548","addr":"경기도 이천시 신둔면 수광리 274-6번지 1층","category":"가구 - 일반가구"},{"name":"왠지한잔하고싶은날","tel":"031-632-7867","addr":"경기도 이천시 신둔면 수광리 274-6번지","category":"일반휴게음식 - 주점"}]},{"lat":"37.310049525","long":"127.40063542","items":[{"name":"도예공방현","tel":"031-634-3999","addr":"경기도 이천시 신둔면 수광리 255-6번지 2층","category":"문화.취미 - 민예·공예품"}]},{"lat":"37.309994176","long":"127.40101865","items":[{"name":"돈가네돼지찌개","tel":"031-631-0238","addr":"경기도 이천시 신둔면 수광리 258-15","category":"일반휴게음식 - 일반한식"},{"name":"불타는쭈꾸미","tel":"031-631-4637","addr":"경기도 이천시 신둔면 수광리 258-15번지","category":"일반휴게음식 - 일반한식"},{"name":"신둔농자재백화점","tel":"031-633-7431","addr":"경기도 이천시 신둔면 수광리 258-15","category":"농업 - 기타농업관련"},{"name":"이천테크","tel":"031-631-3940","addr":"경기도 이천시 신둔면 수광리 258-15번지 1층","category":"자동차정비 유지 - 자동차부품"},{"name":"팔당냉면이천점","tel":"031-632-8188","addr":"경기도 이천시 신둔면 수광리 258-15번지 1층","category":"일반휴게음식 - 일반한식"}]},{"lat":"37.307765399","long":"127.40198825","items":[{"name":"동명각","tel":"031-633-2326","addr":"경기도 이천시 신둔면 수광리 285-9번지","category":"일반휴게음식 - 중국식"},{"name":"원할인마트","tel":"031-632-2962","addr":"경기도 이천시 신둔면 수광리 285-9번지","category":"유통업 영리 - 슈퍼마켓"}]},{"lat":"37.307850477","long":"127.40612842","items":[{"name":"로드스톤","tel":"","addr":"경기도 이천시 신둔면 수광리 323-23번지 7동 102호","category":"용역 서비스 - 기타용역서비스"}]},{"lat":"37.306541976","long":"127.40140652","items":[{"name":"목포밥상","tel":"031-631-2637","addr":"경기도 이천시 신둔면 수광리 217-1번지","category":"일반휴게음식 - 일반한식"}]},{"lat":"37.307573447","long":"127.40279938","items":[{"name":"미나리철물","tel":"031-632-7250","addr":"경기도 이천시 신둔면 수광리 304-6번지","category":"건축자재 - 목재·석재·철물"}]},{"lat":"37.308184909","long":"127.40049023","items":[{"name":"바우식자재유통","tel":"031-632-8789","addr":"경기도 이천시 신둔면 수광리 227-11번지","category":"음료식품 - 기타음료식품"}]},{"lat":"37.311429455","long":"127.39482199","items":[{"name":"밥","tel":"031-631-4831","addr":"경기도 이천시 신둔면 수광리 633-5번지","category":"일반휴게음식 - 일반한식"}]},{"lat":"37.305350261","long":"127.40477281","items":[{"name":"배달삼겹9292","tel":"","addr":"경기도 이천시 신둔면 수광리 135-2번지 1층 2호","category":"일반휴게음식 - 일반한식"}]},{"lat":"37.314485061","long":"127.40521626","items":[{"name":"백광도예","tel":"031-632-7528","addr":"경기도 이천시 신둔면 수광리 528-1번지","category":"문화.취미 - 민예·공예품"}]},{"lat":"37.314933515","long":"127.40049193","items":[{"name":"백세능이","tel":"031-634-1232","addr":"경기도 이천시 신둔면 수광리 498-7번지","category":"일반휴게음식 - 일반한식"},{"name":"푸른정원","tel":"031-634-0812","addr":"경기도 이천시 신둔면 수광리 498-7","category":"일반휴게음식 - 일반한식"}]},{"lat":"37.306682675","long":"127.40243372","items":[{"name":"범석초벌도자기전시장","tel":"031-633-5805","addr":"경기도 이천시 신둔면 수광리 295-1번지 202호","category":"주방용구 - 주방용식기"},{"name":"신둔사료","tel":"031-631-7745","addr":"경기도 이천시 신둔면 수광리 295-1번지","category":"농업 - 비료,사료,종자"}]},{"lat":"37.313349812","long":"127.40254796","items":[{"name":"보궁도요","tel":"031-632-0051","addr":"경기도 이천시 신둔면 수광리 산31-3번지","category":"문화.취미 - 골동품점"}]},{"lat":"37.310208061","long":"127.40171915","items":[{"name":"보령초벌전시장","tel":"031-632-1154","addr":"경기도 이천시 신둔면 수광리 260-8. 380-2","category":"문화.취미 - 민예·공예품"},{"name":"조선옥","tel":"031-632-8478","addr":"경기도 이천시 신둔면 수광리 260-8번지","category":"일반휴게음식 - 일반한식"},{"name":"화로장가네숯불닭갈비","tel":"031-631-1985","addr":"경기도 이천시 신둔면 수광리 260-8번지 1층","category":"일반휴게음식 - 일반한식"}]},{"lat":"37.319791493","long":"127.40004369","items":[{"name":"브루앤드디스틸시스템(주)","tel":"031-634-3235","addr":"경기도 이천시 신둔면 수광리 577-1번지","category":"기타 - 기계공구"}]},{"lat":"37.306626176","long":"127.40315532","items":[{"name":"뽕짝노래연습장","tel":"031-632-2350","addr":"경기도 이천시 신둔면 수광리 312-3번지 2층","category":"레저업소 - 노 래 방"}]},{"lat":"37.30662765","long":"127.40537743","items":[{"name":"사단법인 한국전승도예협회","tel":"031-633-2724","addr":"경기도 이천시 신둔면 수광리 318-3번지","category":"기타 - 비영리/비대상"},{"name":"항산도예연구소","tel":"031-632-7173","addr":"경기도 이천시 신둔면 수광리 318-3번지","category":"문화.취미 - 골동품점"}]},{"lat":"37.305855187","long":"127.40994154","items":[{"name":"산촌농장","tel":"031-631-0865","addr":"경기도 이천시 신둔면 수광리 752-5번지","category":"학원 - 기타 교육기관"}]},{"lat":"37.307179444","long":"127.40207539","items":[{"name":"새신둔복돼지","tel":"070-4649-1101","addr":"경기도 이천시 신둔면 수광리 297-1번지 목도빌딩 C동","category":"일반휴게음식 - 일반한식"}]},{"lat":"37.319575897","long":"127.39985077","items":[{"name":"석정도예","tel":"031-632-8522","addr":"경기도 이천시 신둔면 수광리 569-4번지","category":"문화.취미 - 민예·공예품"},{"name":"청호산업","tel":"031-634-8551","addr":"경기도 이천시 신둔면 수광리 569-4","category":"건축자재 - 기타건축자재"}]},{"lat":"37.313241006","long":"127.39738083","items":[{"name":"설봉청국장","tel":"031-634-5388","addr":"경기도 이천시 신둔면 수광리 434-5번지 외2필지","category":"일반휴게음식 - 일반한식"}]},{"lat":"37.308298966","long":"127.40140451","items":[{"name":"설봉페인트","tel":"031-632-0164","addr":"경기도 이천시 신둔면 수광리 281-1번지","category":"건축자재 - 페인트"}]},{"lat":"37.315573035","long":"127.4005517","items":[{"name":"세븐일레븐이천수광점","tel":"031-1577-0711","addr":"경기도 이천시 신둔면 수광리 493-2번지","category":"유통업 영리 - 편 의 점"}]},{"lat":"37.307411","long":"127.40287748","items":[{"name":"수광상회","tel":"031-632-7250","addr":"경기도 이천시 신둔면 수광리 304-2번지","category":"유통업 영리 - 슈퍼마켓"}]},{"lat":"37.308409509","long":"127.40335653","items":[{"name":"수광염소탕","tel":"031-631-6565","addr":"경기도 이천시 신둔면 수광리 269-5번지","category":"일반휴게음식 - 일반한식"}]},{"lat":"37.310409281","long":"127.40082907","items":[{"name":"수광철물건재","tel":"031-632-8410","addr":"경기도 이천시 신둔면 수광리 386-3","category":"건축자재 - 기타건축자재"},{"name":"히말","tel":"031-631-3408","addr":"경기도 이천시 신둔면 수광리 386-3번지 4층","category":"문화.취미 - 민예·공예품"}]},{"lat":"37.309463951","long":"127.40060977","items":[{"name":"수진이네","tel":"031-634-7222","addr":"경기도 이천시 신둔면 수광리 256-1번지 1층 103호","category":"일반휴게음식 - 일반한식"},{"name":"주식회사 참교육","tel":"031-634-3505","addr":"경기도 이천시 신둔면 수광리 256-1번지 1층","category":"서적문구 - 일반서적"},{"name":"친구네 족발","tel":"031-634-4892","addr":"경기도 이천시 신둔면 수광리 256-1번지","category":"일반휴게음식 - 일반한식"}]},{"lat":"37.308406212","long":"127.40166452","items":[{"name":"신둔농업협동조합","tel":"031-645-7832","addr":"경기도 이천시 신둔면 수광리 282번지","category":"유통업 비영리 - 농,축협 직영매장"}]},{"lat":"37.310076131","long":"127.40343305","items":[{"name":"신둔초등학교","tel":"031-634-4104","addr":"경기도 이천시 신둔면 수광리 262-1번지 신둔초등학교","category":"학원 - 초중고교육기관"}]},{"lat":"37.311046675","long":"127.40152054","items":[{"name":"심천요","tel":"031-632-7086","addr":"경기도 이천시 신둔면 수광리 383-3번지","category":"문화.취미 - 민예·공예품"}]},{"lat":"37.310768277","long":"127.40124834","items":[{"name":"씨유이천수광리점","tel":"031-635-5188","addr":"경기도 이천시 신둔면 수광리 386-6번지","category":"유통업 영리 - 편 의 점"}]},{"lat":"37.305044495","long":"127.40460199","items":[{"name":"씨유이천신둔점","tel":"031-631-4008","addr":"경기도 이천시 신둔면 수광리 137-2번지 외6필지","category":"유통업 영리 - 편 의 점"},{"name":"홍박사공인중개사사무소","tel":"031-631-9500","addr":"경기도 이천시 신둔면 수광리 137-2번지","category":"용역 서비스 - 부동산 중개·임대"}]},{"lat":"37.309626055","long":"127.40063318","items":[{"name":"아라","tel":"031-633-2226","addr":"경기도 이천시 신둔면 수광리 255-17번지","category":"일반휴게음식 - 일식·회집"}]},{"lat":"37.310652854","long":"127.40074012","items":[{"name":"앵두꽃","tel":"031-632-2204","addr":"경기도 이천시 신둔면 수광리 386-12번지 1층","category":"일반휴게음식 - 서양음식"}]},{"lat":"37.307377588","long":"127.402099","items":[{"name":"엄마만두","tel":"031-634-6670","addr":"경기도 이천시 신둔면 수광리 286-5번지","category":"일반휴게음식 - 일반한식"},{"name":"육교옆생고기","tel":"031-633-8015","addr":"경기도 이천시 신둔면 수광리 286-5번지 1층","category":"일반휴게음식 - 일반한식"}]},{"lat":"37.303993272","long":"127.40637853","items":[{"name":"여울목의 솔개그늘","tel":"031-635-8561","addr":"경기도 이천시 신둔면 수광리 126-1","category":"음료식품 - 농·축·수산품"}]},{"lat":"37.315822637","long":"127.40401631","items":[{"name":"여천도요","tel":"031-632-7116","addr":"경기도 이천시 신둔면 수광리 531-1번지","category":"문화.취미 - 민예·공예품"}]},{"lat":"37.311517739","long":"127.40076723","items":[{"name":"오가","tel":"031-633-9592","addr":"경기도 이천시 신둔면 수광리 398-6번지","category":"일반휴게음식 - 일반한식"}]},{"lat":"37.306827292","long":"127.40229912","items":[{"name":"오리먹는날","tel":"031-631-8086","addr":"경기도 이천시 신둔면 수광리 296-1번지 1층","category":"일반휴게음식 - 일반한식"}]},{"lat":"37.307959962","long":"127.40307215","items":[{"name":"옷뽑기1호점","tel":"031-633-5498","addr":"경기도 이천시 신둔면 수광리 304-5번지","category":"의류 - 정장"}]},{"lat":"37.311653268","long":"127.40065514","items":[{"name":"용계골","tel":"031-631-9959","addr":"경기도 이천시 신둔면 수광리 396-9번지","category":"일반휴게음식 - 일반한식"}]},{"lat":"37.311157024","long":"127.39546355","items":[{"name":"우천요","tel":"031-634-4545","addr":"경기도 이천시 신둔면 수광리 636-1번지","category":"문화.취미 - 골동품점"}]},{"lat":"37.304688727","long":"127.40852533","items":[{"name":"울엄마만두","tel":"031-634-6871","addr":"경기도 이천시 신둔면 수광리 113번지 1층","category":"일반휴게음식 - 스넥"},{"name":"자동차용품점","tel":"031-634-6871","addr":"경기도 이천시 신둔면 수광리 113번지","category":"자동차정비 유지 - 자동차부품"}]},{"lat":"37.322344875","long":"127.39899661","items":[{"name":"원주추어탕","tel":"031-636-7676","addr":"경기도 이천시 신둔면 수광리 591-9번지","category":"일반휴게음식 - 일반한식"}]},{"lat":"37.310485241","long":"127.40235231","items":[{"name":"월정도예","tel":"031-634-8590","addr":"경기도 이천시 신둔면 수광리 379-1번지","category":"문화.취미 - 민예·공예품"}]},{"lat":"37.305629954","long":"127.4046615","items":[{"name":"위 커뮤니케이션","tel":"031-633-9019","addr":"경기도 이천시 신둔면 수광리 135-47번지 레이캐슬 101동 202호","category":"학원 - 기타 교육기관"}]},{"lat":"37.308073601","long":"127.40143716","items":[{"name":"윤장노래연습장","tel":"031-632-7050","addr":"경기도 이천시 신둔면 수광리 283번지 윤장빌딩 2층","category":"레저업소 - 노 래 방"}]},{"lat":"37.310490732","long":"127.39532473","items":[{"name":"이(e)팩월드 주식회사","tel":"070-7757-0624","addr":"경기도 이천시 신둔면 수광리 636-2번지","category":"유통업 영리 - 기타유통업"}]},{"lat":"37.306770603","long":"127.40307713","items":[{"name":"이마트24 이천신둔점","tel":"031-111-1111","addr":"경기도 이천시 신둔면 수광리 312-4번지","category":"유통업 영리 - 편 의 점"},{"name":"이천윤활유","tel":"031-882-3453","addr":"경기도 이천시 신둔면 수광리 312-4번지","category":"자동차정비 유지 - 윤활유 전문 판매"},{"name":"토야노래방","tel":"031-632-8385","addr":"경기도 이천시 신둔면 수광리 312-4번지 토야노래방","category":"레저업소 - 노 래 방"},{"name":"현대할인마트","tel":"031-634-7010","addr":"경기도 이천시 신둔면 수광리 312-4번지","category":"유통업 영리 - 슈퍼마켓"}]},{"lat":"37.315100349","long":"127.39910525","items":[{"name":"이조요","tel":"031-634-6278","addr":"경기도 이천시 신둔면 수광리 494-2번지","category":"문화.취미 - 민예·공예품"}]},{"lat":"37.307627965","long":"127.40266431","items":[{"name":"이층과성(2F coffee)","tel":"","addr":"경기도 이천시 신둔면 수광리 303-1번지 2층","category":"일반휴게음식 - 서양음식"}]},{"lat":"37.313207371","long":"127.39665869","items":[{"name":"일광슈퍼","tel":"031-632-7507","addr":"경기도 이천시 신둔면 수광리 434-3번지","category":"유통업 영리 - 슈퍼마켓"}]},{"lat":"37.308404978","long":"127.40996657","items":[{"name":"조선도예","tel":"031-632-7034","addr":"경기도 이천시 신둔면 수광리 36-3번지","category":"문화.취미 - 민예·공예품"}]},{"lat":"37.316739828","long":"127.39921539","items":[{"name":"진산도예","tel":"031-111-1111","addr":"경기도 이천시 신둔면 수광리 476번지","category":"문화.취미 - 민예·공예품"}]},{"lat":"37.311350008","long":"127.39432523","items":[{"name":"진세라믹","tel":"","addr":"경기도 이천시 신둔면 수광리 641번지","category":"문화.취미 - 민예·공예품"}]},{"lat":"37.307575808","long":"127.40210005","items":[{"name":"참교육","tel":"031-634-3505","addr":"경기도 이천시 신둔면 수광리 286-15번지 목련빌딩 202호","category":"회원제형태 - 서적"}]},{"lat":"37.306767872","long":"127.40121596","items":[{"name":"천수건설","tel":"031-632-3936","addr":"경기도 이천시 신둔면 수광리 218-2번지 아트하우스 202호","category":"용역 서비스 - 기타용역서비스"}]},{"lat":"37.305629293","long":"127.41273766","items":[{"name":"철꾼","tel":"031-638-0254","addr":"경기도 이천시 신둔면 수광리 44번지","category":"가구 - 일반가구"},{"name":"카페루(CAFE ROO)","tel":"031-638-0254","addr":"경기도 이천시 신둔면 수광리 44번지 2층","category":"일반휴게음식 - 서양음식"}]},{"lat":"37.308768955","long":"127.40364044","items":[{"name":"청명유통","tel":"070-5419-5741","addr":"경기도 이천시 신둔면 수광리 269-2번지 동명다세대 다동 102호","category":"음료식품 - 농·축·수산품"}]},{"lat":"37.309269537","long":"127.40215412","items":[{"name":"코페인(copain)","tel":"031-1111-1111","addr":"경기도 이천시 신둔면 수광리 274-1번지 1동 1층","category":"일반휴게음식 - 서양음식"}]},{"lat":"37.315959927","long":"127.4033853","items":[{"name":"키셋(kicet)도자기협동조합","tel":"031-633-5620","addr":"경기도 이천시 신둔면 수광리 532-2번지 (전시관)","category":"문화.취미 - 민예·공예품"}]},{"lat":"37.32357129","long":"127.39868715","items":[{"name":"토야푸드","tel":"031-633-4747","addr":"경기도 이천시 신둔면 수광리 592-2번지","category":"일반휴게음식 - 일반한식"}]},{"lat":"37.316013146","long":"127.40363377","items":[{"name":"토올","tel":"031-694-2570","addr":"경기도 이천시 신둔면 수광리 532-4","category":"문화.취미 - 화랑"}]},{"lat":"37.307625985","long":"127.40057753","items":[{"name":"포포edu","tel":"031-111-1111","addr":"경기도 이천시 신둔면 수광리 224-2번지","category":"서적문구 - 기타서적문구"}]},{"lat":"37.308077861","long":"127.41076568","items":[{"name":"푸드맘서비스","tel":"031-634-7615","addr":"경기도 이천시 신둔면 수광리 12-6번지 1층","category":"일반휴게음식 - 위탁급식업"}]},{"lat":"37.308600435","long":"127.40284994","items":[{"name":"프로세차장","tel":"031-635-1301","addr":"경기도 이천시 신둔면 수광리 270-9번지 B동 1층","category":"자동차정비 유지 - 세차장"},{"name":"향기피아노학원","tel":"031-631-1477","addr":"경기도 이천시 신둔면 수광리 270-9번지 1층","category":"회원제형태 - 학원"}]},{"lat":"37.312769324","long":"127.39832593","items":[{"name":"하모니모텔","tel":"031-633-0556","addr":"경기도 이천시 신둔면 수광리 406-8번지","category":"숙박업 - 여관/기타숙박업"}]},{"lat":"37.307048776","long":"127.40074369","items":[{"name":"한국건축도자협동조합","tel":"031-633-1599","addr":"경기도 이천시 신둔면 수광리 219번지","category":"문화.취미 - 민예·공예품"}]},{"lat":"37.30737935","long":"127.40424217","items":[{"name":"한석봉도요","tel":"031-632-7048","addr":"경기도 이천시 신둔면 수광리 315번지","category":"문화.취미 - 민예·공예품"}]},{"lat":"37.316513747","long":"127.39946238","items":[{"name":"한승도예","tel":"031-632-7858","addr":"경기도 이천시 신둔면 수광리 479-1번지","category":"문화.취미 - 민예·공예품"}]},{"lat":"37.307462739","long":"127.40621659","items":[{"name":"해강고려청자연구소","tel":"031-632-7017","addr":"경기도 이천시 신둔면 수광리 323-4번지","category":"문화.취미 - 민예·공예품"}]},{"lat":"37.308575613","long":"127.40485765","items":[{"name":"해강도자미술관","tel":"031-634-2266","addr":"경기도 이천시 신둔면 수광리 330-1번지","category":"문화.취미 - 화랑"}]},{"lat":"37.316656583","long":"127.39985798","items":[{"name":"해림요","tel":"031-635-5478","addr":"경기도 이천시 신둔면 수광리 478 486-4","category":"문화.취미 - 민예·공예품"}]},{"lat":"37.316598999","long":"127.40090683","items":[{"name":"행복한교육","tel":"031-631-7741","addr":"경기도 이천시 신둔면 수광리 489-2번지","category":"서적문구 - 기타서적문구"}]},{"lat":"37.316770265","long":"127.40088517","items":[{"name":"허은(    )도자공예","tel":"031-633-2215","addr":"경기도 이천시 신둔면 수광리 489-3번지","category":"문화.취미 - 골동품점"}]},{"lat":"37.309855044","long":"127.41013231","items":[{"name":"현선요","tel":"031-632-5515","addr":"경기도 이천시 신둔면 수광리 11번지","category":"문화.취미 - 민예·공예품"}]},{"lat":"37.303904786","long":"127.40590432","items":[{"name":"홈스케치","tel":"031-633-6302","addr":"경기도 이천시 신둔면 수광리 128-1번지","category":"용역 서비스 - 기타용역서비스"}]}]