[{"lat":"37.016801009","long":"127.25857512","items":[{"name":"(주)더빅","tel":"031-671-6563","addr":"경기도 안성시 당왕동 475번지 1층","category":"유통업 영리 - 슈퍼마켓"},{"name":"그린퀸","tel":"","addr":"경기도 안성시 당왕동 475번지","category":"보건위생 - 화장품"},{"name":"동현불가마사우나","tel":"031-671-6700","addr":"경기도 안성시 당왕동 475번지","category":"보건위생 - 사우나"},{"name":"동현사우나내매점","tel":"031-671-6700","addr":"경기도 안성시 당왕동 475번지 동현사우나내","category":"음료식품 - 기타음료식품"},{"name":"동현스포츠센터","tel":"031-674-9814","addr":"경기도 안성시 당왕동 475번지 3층","category":"회원제형태 - 레져업소"},{"name":"미래수산","tel":"041-355-8887","addr":"경기도 안성시 당왕동 475번지 1동 빅마트","category":"음료식품 - 농·축·수산품"},{"name":"비봉산 숯불갈비살","tel":"031-677-7792","addr":"경기도 안성시 당왕동 475번지 2층","category":"일반휴게음식 - 일반한식"},{"name":"비봉산 화로구이","tel":"031-677-7792","addr":"경기도 안성시 당왕동 475번지 2층","category":"일반휴게음식 - 일반한식"},{"name":"싱싱청과","tel":"031-653-2532","addr":"경기도 안성시 당왕동 475번지","category":"음료식품 - 농·축·수산품"},{"name":"옛날장터치킨","tel":"031-673-0418","addr":"경기도 안성시 당왕동 475번지 1층","category":"일반휴게음식 - 스넥"},{"name":"옛날치킨곱창","tel":"031-677-5688","addr":"경기도 안성시 당왕동 475번지 1층","category":"일반휴게음식 - 일반한식"},{"name":"우리야채철판곱창","tel":"031-677-2286","addr":"경기도 안성시 당왕동 475번지","category":"일반휴게음식 - 일반한식"},{"name":"이-플러스마트","tel":"031-675-8981","addr":"경기도 안성시 당왕동 475번지 1층","category":"유통업 영리 - 슈퍼마켓"},{"name":"크린토피아안성코아루점","tel":"031-673-8787","addr":"경기도 안성시 당왕동 475번지 외5필지상가건물1층","category":"수리서비스 - 세탁소"},{"name":"해바라기치킨전문점","tel":"031-677-0882","addr":"경기도 안성시 당왕동 475번지 외5필지","category":"일반휴게음식 - 주점"}]},{"lat":"37.016552419","long":"127.26918176","items":[{"name":"(주)메드빌트","tel":"031-671-6500","addr":"경기도 안성시 당왕동 135번지","category":"용역 서비스 - 가례서비스업"},{"name":"의료법인청천의료재단","tel":"031-671-7000","addr":"경기도 안성시 당왕동 135번지","category":"의원 - 의원"}]},{"lat":"37.016555035","long":"127.26801314","items":[{"name":"(주)반석에너지","tel":"031-676-2213","addr":"경기도 안성시 당왕동 139-5","category":"연료판매점 - SK주유소"}]},{"lat":"37.016717207","long":"127.26395724","items":[{"name":"(주)유동","tel":"031-674-2683","addr":"경기도 안성시 당왕동 207-1번지","category":"자동차정비 유지 - 자동차부품"},{"name":"쌀나무볏짚구이","tel":"031-676-9291","addr":"경기도 안성시 당왕동 207-1번지 1층","category":"일반휴게음식 - 일반한식"}]},{"lat":"37.023634427","long":"127.26529573","items":[{"name":"(주)진성에너지 안성맞춤 LPG충전소","tel":"031-671-5100","addr":"경기도 안성시 당왕동 269-11번지","category":"연료판매점 - GS 가스충전소"},{"name":"(주)친절한에너지","tel":"031-675-5104","addr":"경기도 안성시 당왕동 269-11번지","category":"연료판매점 - GS주유소"}]},{"lat":"37.013633731","long":"127.26478942","items":[{"name":"119엽기떡볶이","tel":"031-674-9959","addr":"경기도 안성시 당왕동 551-5번지","category":"일반휴게음식 - 일반한식"},{"name":"세븐일레븐안성한경대점","tel":"","addr":"경기도 안성시 당왕동 551-5번지","category":"유통업 영리 - 편 의 점"}]},{"lat":"37.018825725","long":"127.2680098","items":[{"name":"C&K골프아카데미","tel":"031-677-7275","addr":"경기도 안성시 당왕동 157-1번지","category":"회원제형태 - 레져업소"},{"name":"C&K스크린골프","tel":"031-677-7272","addr":"경기도 안성시 당왕동 157-1번지","category":"회원제형태 - 레져업소"},{"name":"변호사 신호양 법률사무소","tel":"031-677-4030","addr":"경기도 안성시 당왕동 157-1번지","category":"용역 서비스 - 법률회계서비스(개인)"},{"name":"의정부부대찌개","tel":"031-676-0603","addr":"경기도 안성시 당왕동 157-1번지 1층","category":"일반휴게음식 - 일반한식"},{"name":"자연을담은 13가지맛 아씨삼계탕","tel":"031-672-6887","addr":"경기도 안성시 당왕동 157-1번지 101호","category":"일반휴게음식 - 일반한식"}]},{"lat":"37.016410373","long":"127.26004582","items":[{"name":"GS25안성의료원점","tel":"","addr":"경기도 안성시 당왕동 470번지","category":"유통업 영리 - 편 의 점"},{"name":"김떡순","tel":"031-0316-7555","addr":"경기도 안성시 당왕동 470번지 1층","category":"일반휴게음식 - 일반한식"},{"name":"석정주유소","tel":"031-676-5145","addr":"경기도 안성시 당왕동 470번지","category":"연료판매점 - 주유소"},{"name":"센시빌리티","tel":"","addr":"경기도 안성시 당왕동 470번지 5동 201호","category":"일반휴게음식 - 서양음식"},{"name":"신석정카","tel":"031-672-6979","addr":"경기도 안성시 당왕동 470번지","category":"자동차정비 유지 - 자동차정비"},{"name":"양식당꼬륵","tel":"031-675-5678","addr":"경기도 안성시 당왕동 470번지 4동 2층","category":"일반휴게음식 - 서양음식"},{"name":"죽전통차","tel":"031-671-3688","addr":"경기도 안성시 당왕동 470번지 3동 1층","category":"일반휴게음식 - 일반한식"},{"name":"큰사랑약국","tel":"031-677-5533","addr":"경기도 안성시 당왕동 470번지 1층","category":"약국 - 약국"},{"name":"피싱조이 당왕점","tel":"031-672-8898","addr":"경기도 안성시 당왕동 470번지 3동 2층","category":"일반휴게음식 - 주점"},{"name":"휴대폰가게","tel":"031-675-5019","addr":"경기도 안성시 당왕동 470번지","category":"사무통신 - 통신기기"}]},{"lat":"37.018462928","long":"127.27698691","items":[{"name":"K-1헬스케어","tel":"031-671-2447","addr":"경기도 안성시 당왕동 산50-1번지","category":"보건위생 - 의료용품"}]},{"lat":"37.020386534","long":"127.26712747","items":[{"name":"T.M오토밋션","tel":"031-671-8540","addr":"경기도 안성시 당왕동 262-3번지","category":"자동차정비 유지 - 자동차정비"}]},{"lat":"37.022080045","long":"127.26734685","items":[{"name":"TP안성현대","tel":"031-675-1009","addr":"경기도 안성시 당왕동 282번지","category":"자동차정비 유지 - 자동차정비"}]},{"lat":"37.014051136","long":"127.26346496","items":[{"name":"YBM잉글루","tel":"031-674-0323","addr":"경기도 안성시 당왕동 552-1번지","category":"학원 - 보습학원"},{"name":"박샘수학공부방","tel":"070-8285-0898","addr":"경기도 안성시 당왕동 552-1번지","category":"학원 - 보습학원"},{"name":"유가네정육점식당","tel":"031-672-6692","addr":"경기도 안성시 당왕동 552-1번지","category":"일반휴게음식 - 일반한식"}]},{"lat":"37.015999408","long":"127.26665158","items":[{"name":"m salon(엠살롱)","tel":"031-677-1590","addr":"경기도 안성시 당왕동 538-1번지 1층","category":"보건위생 - 미용원"},{"name":"고운기획","tel":"031-675-6114","addr":"경기도 안성시 당왕동 538-1번지","category":"서적문구 - 출판 및 인쇄물"}]},{"lat":"37.016470861","long":"127.26123711","items":[{"name":"가까운 정문약국","tel":"031-674-7789","addr":"경기도 안성시 당왕동 437번지 1층 101호","category":"약국 - 약국"},{"name":"병원의료기 복지용구","tel":"031-675-2525","addr":"경기도 안성시 당왕동 437번지","category":"보건위생 - 의료용품"},{"name":"삼인자동차용품점","tel":"031-674-6133","addr":"경기도 안성시 당왕동 437번지","category":"자동차정비 유지 - 자동차부품"},{"name":"세아헬스케어","tel":"","addr":"경기도 안성시 당왕동 437번지 101호","category":"건강식품 - 기타건강식품"},{"name":"애플블러썸 안성점","tel":"031-674-1346","addr":"경기도 안성시 당왕동 437번지 2층 201호","category":"일반휴게음식 - 서양음식"}]},{"lat":"37.016690891","long":"127.26363128","items":[{"name":"가나상사","tel":"","addr":"경기도 안성시 당왕동 207-2번지 유태빌딩 402호","category":"건축자재 - 기타건축자재"},{"name":"당목골","tel":"031-671-7782","addr":"경기도 안성시 당왕동 207-2번지","category":"일반휴게음식 - 일반한식"},{"name":"스터디플래닛 안성센터 독서실","tel":"031-672-6654","addr":"경기도 안성시 당왕동 207-2번지 유태빌딩 2층","category":"학원 - 독서실"},{"name":"스터디플래닛멤버십라운지안성센터","tel":"031-672-6654","addr":"경기도 안성시 당왕동 207-2번지 유태빌딩 2층","category":"용역 서비스 - 사무서비스"},{"name":"일석삼조버섯매운탕","tel":"031-674-5318","addr":"경기도 안성시 당왕동 207-2번지","category":"일반휴게음식 - 일반한식"},{"name":"천안문","tel":"031-672-4868","addr":"경기도 안성시 당왕동 207-2번지","category":"일반휴게음식 - 일반한식"}]},{"lat":"37.021581099","long":"127.26885094","items":[{"name":"가람미트","tel":"031-675-6564","addr":"경기도 안성시 당왕동 250-1번지","category":"음료식품 - 정육점"},{"name":"농업회사법인 주식회사 위천미트","tel":"031-674-1028","addr":"경기도 안성시 당왕동 250-1번지","category":"음료식품 - 정육점"}]},{"lat":"37.014047052","long":"127.26531894","items":[{"name":"가람인테리어","tel":"031-675-1912","addr":"경기도 안성시 당왕동 547-1번지","category":"건축자재 - 인테리어전문"},{"name":"사쿠사쿠","tel":"","addr":"경기도 안성시 당왕동 547-1번지 1층","category":"일반휴게음식 - 스넥"},{"name":"우앤돈","tel":"031-675-0473","addr":"경기도 안성시 당왕동 547-1번지","category":"일반휴게음식 - 일반한식"}]},{"lat":"37.014165356","long":"127.26479124","items":[{"name":"간이역","tel":"031-676-8990","addr":"경기도 안성시 당왕동 550-4번지","category":"일반휴게음식 - 일반한식"},{"name":"참치랜드","tel":"031-673-4399","addr":"경기도 안성시 당왕동 550-4번지","category":"일반휴게음식 - 일식·회집"}]},{"lat":"37.01819051","long":"127.2618722","items":[{"name":"감성피아노","tel":"","addr":"경기도 안성시 당왕동 584번지 안성당왕삼정그린코아더베스트 116동 301호","category":"학원 - 기타 교육기관"},{"name":"개인과외","tel":"","addr":"경기도 안성시 당왕동 584번지 삼정그린코아 113동 2602호","category":"학원 - 기타 교육기관"},{"name":"베이비캐슬어린이집[아이행복]","tel":"031-676-2781","addr":"경기도 안성시 당왕동 584번지 삼정그린코아 109동 102호","category":"학원 - 유아원"},{"name":"삼정어린이집","tel":"031-675-1622","addr":"경기도 안성시 당왕동 584번지 삼정그린코아","category":"학원 - 유아원"},{"name":"씨유안성삼정그린1호점","tel":"080-080-3663","addr":"경기도 안성시 당왕동 584번지 삼정그린코아 302동 103,104호","category":"유통업 영리 - 편 의 점"},{"name":"씨유안성삼정그린2호점","tel":"080-080-3663","addr":"경기도 안성시 당왕동 584번지 삼정그린코아 303동 103호,104호","category":"유통업 영리 - 편 의 점"},{"name":"우영쌤피아노","tel":"","addr":"경기도 안성시 당왕동 584번지 삼정그린코아 111동 18층 1호","category":"학원 - 기타 교육기관"},{"name":"처갓집양념치킨 당왕점","tel":"031-672-0558","addr":"경기도 안성시 당왕동 584번지 삼정그린코아 301동 101호","category":"일반휴게음식 - 스넥"}]},{"lat":"37.022938024","long":"127.26646205","items":[{"name":"거성카공업사","tel":"031-675-3440","addr":"경기도 안성시 당왕동 278-1번지","category":"자동차정비 유지 - 카인테리어"},{"name":"드림카오디오","tel":"031-671-0822","addr":"경기도 안성시 당왕동 278-1번지","category":"자동차정비 유지 - 자동차부품"},{"name":"롯데과일","tel":"031-672-9864","addr":"경기도 안성시 당왕동 278-1번지","category":"음료식품 - 농·축·수산품"},{"name":"씨유안성당왕대로점","tel":"031-677-2003","addr":"경기도 안성시 당왕동 278-1번지","category":"유통업 영리 - 편 의 점"}]},{"lat":"37.014830082","long":"127.2574561","items":[{"name":"경기도의료원안성병원","tel":"031-8046-5116","addr":"경기도 안성시 당왕동 455번지","category":"병원 - 종합병원"},{"name":"코레일네트웍스(주)안성병원","tel":"031-666-1237","addr":"경기도 안성시 당왕동 455번지","category":"자동차정비 유지 - 주차장"}]},{"lat":"37.016470371","long":"127.26146184","items":[{"name":"경희대석사 우리아이태권도장","tel":"070-4922-1261","addr":"경기도 안성시 당왕동 437-2번지","category":"학원 - 예·체능계학원"},{"name":"샵 음악학원","tel":"031-676-8222","addr":"경기도 안성시 당왕동 437-2번지 301호","category":"학원 - 예·체능계학원"}]},{"lat":"37.016384922","long":"127.25931534","items":[{"name":"고베화로 안성점","tel":"031-675-1600","addr":"경기도 안성시 당왕동 470-3번지 1층","category":"일반휴게음식 - 일반한식"},{"name":"나이스 당구클럽","tel":"031-676-4348","addr":"경기도 안성시 당왕동 470-3번지","category":"레저업소 - 당 구 장"},{"name":"대우노래방","tel":"031-673-0088","addr":"경기도 안성시 당왕동 470-3번지","category":"레저업소 - 노 래 방"},{"name":"동해횟집","tel":"031-671-0257","addr":"경기도 안성시 당왕동 470-3번지","category":"일반휴게음식 - 일식·회집"},{"name":"바운스","tel":"031-677-6699","addr":"경기도 안성시 당왕동 470-3번지 2층","category":"일반휴게음식 - 주점"},{"name":"병천복순대감자탕","tel":"031-672-7240","addr":"경기도 안성시 당왕동 470-3번지","category":"일반휴게음식 - 일반한식"},{"name":"아모레카운셀러","tel":"031-651-0785","addr":"경기도 안성시 당왕동 470-3번지","category":"보건위생 - 화장품"},{"name":"아모레카운셀러","tel":"031-676-8303","addr":"경기도 안성시 당왕동 470-3번지","category":"보건위생 - 화장품"},{"name":"아모레카운셀러","tel":"031-673-6695","addr":"경기도 안성시 당왕동 470-3번지","category":"보건위생 - 화장품"},{"name":"아모레카운셀러","tel":"031-673-6695","addr":"경기도 안성시 당왕동 470-3번지","category":"보건위생 - 화장품"},{"name":"아모레카운셀러","tel":"031-673-6695","addr":"경기도 안성시 당왕동 470-3번지","category":"보건위생 - 화장품"},{"name":"아모레카운셀러","tel":"031-677-4567","addr":"경기도 안성시 당왕동 470-3번지","category":"보건위생 - 화장품"},{"name":"안성명품","tel":"031-671-1789","addr":"경기도 안성시 당왕동 470-3번지","category":"광학제품 - 사진관"},{"name":"통영굴밥","tel":"031-675-5124","addr":"경기도 안성시 당왕동 470-3번지","category":"일반휴게음식 - 일반한식"}]},{"lat":"37.013992367","long":"127.26559966","items":[{"name":"고향양꼬치","tel":"","addr":"경기도 안성시 당왕동 547-3번지 1층","category":"일반휴게음식 - 중국식"},{"name":"사다리꼬치호프","tel":"031-677-2650","addr":"경기도 안성시 당왕동 547-3번지","category":"일반휴게음식 - 주점"},{"name":"쿡플","tel":"031-677-5005","addr":"경기도 안성시 당왕동 547-3번지 1층","category":"일반휴게음식 - 일반한식"}]},{"lat":"37.01472058","long":"127.26634378","items":[{"name":"공신독서실","tel":"031-673-0998","addr":"경기도 안성시 당왕동 544번지 2층","category":"학원 - 독서실"},{"name":"안성축산농협하나로마트당왕동지점","tel":"031-673-1806","addr":"경기도 안성시 당왕동 544번지","category":"유통업 비영리 - 농,축협 직영매장"}]},{"lat":"37.016332095","long":"127.2587421","items":[{"name":"광신 대리운전","tel":"031-673-0042","addr":"경기도 안성시 당왕동 477-17번지","category":"보건위생 - 기타대인서비스"}]},{"lat":"37.014776785","long":"127.26537763","items":[{"name":"구이구이","tel":"","addr":"경기도 안성시 당왕동 543번지","category":"일반휴게음식 - 일반한식"},{"name":"마신들 취한들","tel":"031-675-5888","addr":"경기도 안성시 당왕동 543번지","category":"일반휴게음식 - 주점"},{"name":"커피볶는방앗간","tel":"070-4193-8638","addr":"경기도 안성시 당왕동 543번지","category":"일반휴게음식 - 일반한식"}]},{"lat":"37.015355496","long":"127.26445823","items":[{"name":"국제연맹합기도무예관","tel":"031-672-6646","addr":"경기도 안성시 당왕동 536번지","category":"회원제형태 - 학원"},{"name":"맑은미술","tel":"031-671-0889","addr":"경기도 안성시 당왕동 536 쌍용상가 202","category":"학원 - 예·체능계학원"},{"name":"미스터크리닝","tel":"031-674-0036","addr":"경기도 안성시 당왕동 536쌍용상가112호","category":"수리서비스 - 세탁소"},{"name":"박승현치과의원","tel":"031-674-7582","addr":"경기도 안성시 당왕동 536번지 쌍용상가 221호","category":"의원 - 치과의원"},{"name":"순간포착","tel":"031-672-2708","addr":"경기도 안성시 당왕동 536쌍용상가130","category":"광학제품 - 사진관"},{"name":"쌍용헤어샵","tel":"031-671-3556","addr":"경기도 안성시 당왕동 536쌍용상가101","category":"보건위생 - 미용원"},{"name":"정일품홍삼안성점","tel":"031-674-0389","addr":"경기도 안성시 당왕동 536쌍용상가219","category":"건강식품 - 홍삼제품"},{"name":"플레이팩토 (play FACTO)수학교습소","tel":"","addr":"경기도 안성시 당왕동 536번지 쌍용아파트 1층 116호","category":"학원 - 보습학원"},{"name":"헤어스토리","tel":"031-676-8249","addr":"경기도 안성시 당왕동 536번지 쌍용상가 123호","category":"보건위생 - 미용원"},{"name":"혜인피아노교습소","tel":"031-677-0294","addr":"경기도 안성시 당왕동 536 쌍용상가 215","category":"학원 - 예·체능계학원"}]},{"lat":"37.022297299","long":"127.2668981","items":[{"name":"금광자동차공업사","tel":"031-675-5714","addr":"경기도 안성시 당왕동 276-14번지","category":"자동차정비 유지 - 자동차정비"}]},{"lat":"37.014074456","long":"127.26515049","items":[{"name":"김가네숯불갈비","tel":"031-672-0388","addr":"경기도 안성시 당왕동 547번지","category":"일반휴게음식 - 일반한식"},{"name":"씨유안성당왕점","tel":"031-671-0316","addr":"경기도 안성시 당왕동 547번지","category":"유통업 영리 - 편 의 점"}]},{"lat":"37.01588429","long":"127.26574102","items":[{"name":"까르페디엠","tel":"031-674-0789","addr":"경기도 안성시 당왕동 537-9번지","category":"일반휴게음식 - 서양음식"}]},{"lat":"37.016163021","long":"127.26601166","items":[{"name":"깜씨네영양탕","tel":"031-673-0604","addr":"경기도 안성시 당왕동 537-1번지","category":"일반휴게음식 - 일반한식"},{"name":"비봉촌","tel":"031-673-0604","addr":"경기도 안성시 당왕동 537-1번지","category":"일반휴게음식 - 일반한식"}]},{"lat":"37.013741313","long":"127.26503698","items":[{"name":"깻잎두마리칩킨","tel":"031-674-8820","addr":"경기도 안성시 당왕동 548번지","category":"일반휴게음식 - 스넥"},{"name":"빈대떡한판","tel":"031-676-3150","addr":"경기도 안성시 당왕동 548번지","category":"일반휴게음식 - 일반한식"}]},{"lat":"37.022384042","long":"127.26434747","items":[{"name":"난꽃    농원","tel":"","addr":"경기도 안성시 당왕동 398번지","category":"학원 - 기타 교육기관"}]},{"lat":"37.013713958","long":"127.26518296","items":[{"name":"난타노래연습장","tel":"031-676-2732","addr":"경기도 안성시 당왕동 548-1번지","category":"레저업소 - 노 래 방"}]},{"lat":"37.013577009","long":"127.2659915","items":[{"name":"남강","tel":"031-672-1057","addr":"경기도 안성시 당왕동 546-2번지","category":"일반휴게음식 - 중국식"},{"name":"이야기속으로","tel":"031-675-1536","addr":"경기도 안성시 당왕동 546-2번지","category":"일반휴게음식 - 일반한식"},{"name":"장대박","tel":"031-673-7511","addr":"경기도 안성시 당왕동 546-2번지 1층","category":"일반휴게음식 - 일반한식"},{"name":"차이나로중국어학원","tel":"031-675-5550","addr":"경기도 안성시 당왕동 546-2번지 3층","category":"회원제형태 - 학원"},{"name":"허슬러 당구클럽","tel":"031-674-3169","addr":"경기도 안성시 당왕동 546-2번지","category":"레저업소 - 당 구 장"}]},{"lat":"37.014860142","long":"127.2560404","items":[{"name":"너랑나랑","tel":"031-677-0334","addr":"경기도 안성시 당왕동 534번지 대우아파트 206호","category":"일반휴게음식 - 일반한식"},{"name":"대우꿈나무어린이집[아이행복]","tel":"031-672-3061","addr":"경기도 안성시 당왕동 534번지","category":"학원 - 유아원"},{"name":"루비네일샵","tel":"031-673-3251","addr":"경기도 안성시 당왕동 534 대우상가 132호","category":"보건위생 - 피부미용실"},{"name":"목화헤어샵","tel":"031-671-5643","addr":"경기도 안성시 당왕동 534번지 대우1차 상가 103호","category":"보건위생 - 미용원"},{"name":"밀라도피스","tel":"031-671-1248","addr":"경기도 안성시 당왕동 534 대우상가 133","category":"보건위생 - 화장품"},{"name":"셀프크리닝","tel":"031-674-4529","addr":"경기도 안성시 당왕동 534 대우상가1층 131호","category":"수리서비스 - 세탁소"},{"name":"수&정헤어","tel":"031-8052-6161","addr":"경기도 안성시 당왕동 534번지 대우아파트 136호","category":"보건위생 - 미용원"},{"name":"원도체육관","tel":"031-674-5421","addr":"경기도 안성시 당왕동 534대우상가2-202","category":"학원 - 예·체능계학원"},{"name":"해바라기","tel":"031-673-7657","addr":"경기도 안성시 당왕동 534대우상가114","category":"주방용구 - 주방용구"},{"name":"훈장공인중개사","tel":"031-672-0987","addr":"경기도 안성시 당왕동 534번지 B-20호","category":"용역 서비스 - 부동산 중개·임대"}]},{"lat":"37.018159043","long":"127.26796253","items":[{"name":"노마드매스존영재원학원","tel":"031-676-0575","addr":"경기도 안성시 당왕동 522,1층","category":"학원 - 보습학원"}]},{"lat":"37.014077872","long":"127.26359988","items":[{"name":"놀부네정육점식당","tel":"031-677-7803","addr":"경기도 안성시 당왕동 552-2번지","category":"일반휴게음식 - 일반한식"},{"name":"바다양푼이동태탕찜","tel":"031-677-7803","addr":"경기도 안성시 당왕동 552-2번지","category":"일반휴게음식 - 일반한식"}]},{"lat":"37.014220385","long":"127.26435321","items":[{"name":"다강","tel":"031-676-4553","addr":"경기도 안성시 당왕동 550-1번지","category":"일반휴게음식 - 일반한식"},{"name":"후계자한우마을","tel":"031-676-4553","addr":"경기도 안성시 당왕동 550-1번지","category":"음료식품 - 정육점"}]},{"lat":"37.014024425","long":"127.26331879","items":[{"name":"다니엘학원","tel":"031-672-8245","addr":"경기도 안성시 당왕동 552번지 1층","category":"학원 - 보습학원"}]},{"lat":"37.015109927","long":"127.26549115","items":[{"name":"달빛짚불꼼장어","tel":"031-676-1452","addr":"경기도 안성시 당왕동 542번지","category":"일반휴게음식 - 일반한식"},{"name":"여시막창","tel":"031-674-8088","addr":"경기도 안성시 당왕동 542번지 1동 1층","category":"일반휴게음식 - 일반한식"}]},{"lat":"37.02177331","long":"127.26751435","items":[{"name":"당왕모터스","tel":"031-676-9925","addr":"경기도 안성시 당왕동 259-1번지","category":"자동차정비 유지 - 자동차정비"}]},{"lat":"37.022522814","long":"127.2667865","items":[{"name":"대강카센타","tel":"031-674-3756","addr":"경기도 안성시 당왕동 276-1번지","category":"자동차정비 유지 - 자동차정비"},{"name":"대우종합건재","tel":"031-677-1938","addr":"경기도 안성시 당왕동 276-1번지","category":"건축자재 - 기타건축자재"}]},{"lat":"37.013802609","long":"127.25757627","items":[{"name":"대덕농협","tel":"031-676-1773","addr":"경기도 안성시 당왕동 534-9번지","category":"유통업 비영리 - 농,축협 직영매장"}]},{"lat":"37.024994177","long":"127.26568249","items":[{"name":"대명카센타","tel":"031-672-1858","addr":"경기도 안성시 당왕동 347-1번지","category":"자동차정비 유지 - 카인테리어"}]},{"lat":"37.026463472","long":"127.26542908","items":[{"name":"대성모터스","tel":"031-676-7007","addr":"경기도 안성시 당왕동 367-3번지","category":"자동차정비 유지 - 자동차정비"}]},{"lat":"37.019080176","long":"127.26704429","items":[{"name":"대웅각","tel":"031-671-9500","addr":"경기도 안성시 당왕동 224-4번지","category":"일반휴게음식 - 중국식"}]},{"lat":"37.021962251","long":"127.26357063","items":[{"name":"대지가든","tel":"031-675-7655","addr":"경기도 안성시 당왕동 410-4번지","category":"일반휴게음식 - 일반한식"},{"name":"대지가든","tel":"031-675-7655","addr":"경기도 안성시 당왕동 410-4번지","category":"음료식품 - 정육점"}]},{"lat":"37.01688232","long":"127.26671082","items":[{"name":"대진샤링,철강","tel":"031-674-2135","addr":"경기도 안성시 당왕동 162번지","category":"건축자재 - 기타건축자재"}]},{"lat":"37.013879837","long":"127.26350932","items":[{"name":"도스마스 한경대점","tel":"031-348-5514","addr":"경기도 안성시 당왕동 552-10번지","category":"일반휴게음식 - 일반한식"}]},{"lat":"37.015107835","long":"127.26643501","items":[{"name":"돈벼락","tel":"031-676-3563","addr":"경기도 안성시 당왕동 541-6번지","category":"일반휴게음식 - 일반한식"}]},{"lat":"37.013883692","long":"127.26584649","items":[{"name":"돈치스","tel":"031-676-7716","addr":"경기도 안성시 당왕동 547-5","category":"일반휴게음식 - 일반한식"}]},{"lat":"37.013524239","long":"127.26540704","items":[{"name":"돼랑이","tel":"031-677-8958","addr":"경기도 안성시 당왕동 548-8번지","category":"일반휴게음식 - 일반한식"},{"name":"명품육진삼겹살","tel":"031-676-6116","addr":"경기도 안성시 당왕동 548-8번지","category":"일반휴게음식 - 일반한식"}]},{"lat":"37.022524161","long":"127.26617968","items":[{"name":"드림공조","tel":"031-674-3331","addr":"경기도 안성시 당왕동 273-14번지","category":"용역 서비스 - 기타용역서비스"},{"name":"용가마안성점","tel":"031-674-6129","addr":"경기도 안성시 당왕동 273-14번지","category":"일반휴게음식 - 일반한식"}]},{"lat":"37.015241281","long":"127.25898564","items":[{"name":"뚜레쥬르 안성당왕(2)","tel":"031-673-8545","addr":"경기도 안성시 당왕동 462-1번지 (1층2층102호,202호)","category":"음료식품 - 제과점"},{"name":"연인노래방","tel":"031-675-3299","addr":"경기도 안성시 당왕동 462-1태영상가2층","category":"레저업소 - 노 래 방"},{"name":"투다리","tel":"031-673-2282","addr":"경기도 안성시 당왕동 462-1번지 (106호107동) 106","category":"일반휴게음식 - 주점"}]},{"lat":"37.014019722","long":"127.26545369","items":[{"name":"라이스스토리","tel":"031-677-9936","addr":"경기도 안성시 당왕동 547-2번지","category":"일반휴게음식 - 일반한식"},{"name":"라화쿵부한경대점","tel":"031-000-0000","addr":"경기도 안성시 당왕동 547-2번지","category":"일반휴게음식 - 중국식"}]},{"lat":"37.016692548","long":"127.26695737","items":[{"name":"롯데여행사","tel":"031-675-2646","addr":"경기도 안성시 당왕동 163-3번지","category":"여행 - 관광여행"},{"name":"설하한복","tel":"031-000-0000","addr":"경기도 안성시 당왕동 163-3번지","category":"의류 - 맞춤복점"},{"name":"초원정육식당","tel":"031-677-2456","addr":"경기도 안성시 당왕동 163-3번지","category":"일반휴게음식 - 일반한식"},{"name":"초원정육점","tel":"031-677-2456","addr":"경기도 안성시 당왕동 163-3번지","category":"음료식품 - 정육점"}]},{"lat":"37.013496909","long":"127.26554178","items":[{"name":"마님닭발","tel":"031-671-1006","addr":"경기도 안성시 당왕동 548-7번지 1층","category":"일반휴게음식 - 일반한식"}]},{"lat":"37.016859048","long":"127.26501398","items":[{"name":"마당냉면갈비","tel":"031-672-0053","addr":"경기도 안성시 당왕동 212번지","category":"일반휴게음식 - 일반한식"}]},{"lat":"37.013829927","long":"127.26571147","items":[{"name":"마포나루","tel":"031-671-1716","addr":"경기도 안성시 당왕동 547-6번지","category":"일반휴게음식 - 일반한식"}]},{"lat":"37.016632118","long":"127.26576606","items":[{"name":"마포최대포","tel":"031-671-3894","addr":"경기도 안성시 당왕동 213-2번지","category":"일반휴게음식 - 일반한식"},{"name":"사랑채","tel":"031-676-3847","addr":"경기도 안성시 당왕동 213-2번지","category":"일반휴게음식 - 일반한식"},{"name":"안성순대국","tel":"031-675-1544","addr":"경기도 안성시 당왕동 213-2번지","category":"일반휴게음식 - 일반한식"},{"name":"양평해장국","tel":"031-672-9922","addr":"경기도 안성시 당왕동 213-2외2","category":"일반휴게음식 - 일반한식"},{"name":"청정회수산","tel":"031-677-7080","addr":"경기도 안성시 당왕동 213-2번지","category":"일반휴게음식 - 일식·회집"},{"name":"커튼&블라인드전문 홈앤창","tel":"","addr":"경기도 안성시 당왕동 213-2번지","category":"직물 - 카페트,커튼,천막,지물"}]},{"lat":"37.013883144","long":"127.26609369","items":[{"name":"맘씨좋은커피","tel":"031-677-3226","addr":"경기도 안성시 당왕동 546번지","category":"일반휴게음식 - 서양음식"},{"name":"미소타임 한경대점","tel":"031-674-6976","addr":"경기도 안성시 당왕동 546번지","category":"유통업 영리 - 편 의 점"},{"name":"쌍용당구클럽","tel":"031-111-1111","addr":"경기도 안성시 당왕동 546번지","category":"레저업소 - 당 구 장"},{"name":"캐슬노래연습장","tel":"031-676-1332","addr":"경기도 안성시 당왕동 546번지","category":"레저업소 - 노 래 방"},{"name":"파리바게뜨 쌍용점","tel":"031-677-8882","addr":"경기도 안성시 당왕동 546번지","category":"음료식품 - 제과점"}]},{"lat":"37.015018901","long":"127.26590658","items":[{"name":"망고푸드","tel":"031-673-8842","addr":"경기도 안성시 당왕동 542-3번지 1층 102호","category":"일반휴게음식 - 서양음식"},{"name":"탈렌트전자","tel":"031-674-3007","addr":"경기도 안성시 당왕동 542-3번지","category":"전기제품 - 냉열기기"}]},{"lat":"37.026103223","long":"127.26534917","items":[{"name":"먹골곱창","tel":"031-676-5774","addr":"경기도 안성시 당왕동 348-1번지","category":"일반휴게음식 - 일반한식"}]},{"lat":"37.017880041","long":"127.26781548","items":[{"name":"명성가축약품","tel":"031-676-0632","addr":"경기도 안성시 당왕동 158-1번지","category":"기타의료기관 - 동물병원"},{"name":"미랜바이오음식물처리기","tel":"031-674-1588","addr":"경기도 안성시 당왕동 158-1번지","category":"건강식품 - 기타건강식품"},{"name":"큐빅카오디오","tel":"031-671-5949","addr":"경기도 안성시 당왕동 158-1번지","category":"자동차정비 유지 - 카인테리어"}]},{"lat":"37.013884662","long":"127.26540828","items":[{"name":"몽블랑","tel":"031-674-6928","addr":"경기도 안성시 당왕동 547-8번지","category":"일반휴게음식 - 일반한식"}]},{"lat":"37.013581994","long":"127.26373303","items":[{"name":"미리내카페","tel":"031-677-2749","addr":"경기도 안성시 당왕동 553-9번지","category":"일반휴게음식 - 일반한식"}]},{"lat":"37.015215663","long":"127.26657022","items":[{"name":"미스터해물포차","tel":"031-672-5457","addr":"경기도 안성시 당왕동 541-5번지","category":"일반휴게음식 - 일반한식"}]},{"lat":"37.014387413","long":"127.2662415","items":[{"name":"미카엘노래연습장","tel":"031-677-8222","addr":"경기도 안성시 당왕동 544-3번지","category":"레저업소 - 노 래 방"}]},{"lat":"37.013993907","long":"127.26490302","items":[{"name":"박첨지식당","tel":"031-672-1090","addr":"경기도 안성시 당왕동 550-6번지","category":"일반휴게음식 - 일반한식"},{"name":"술이야","tel":"031-672-1861","addr":"경기도 안성시 당왕동 550-6번지","category":"일반휴게음식 - 주점"}]},{"lat":"37.016798571","long":"127.26790162","items":[{"name":"반석알라딘쉼터","tel":"031-676-2212","addr":"경기도 안성시 당왕동 164-6번지","category":"음료식품 - 기타음료식품"}]},{"lat":"37.015296764","long":"127.27059318","items":[{"name":"방일해장국","tel":"031-676-5225","addr":"경기도 안성시 당왕동 115-3번지 1층","category":"일반휴게음식 - 일반한식"}]},{"lat":"37.016082299","long":"127.26584283","items":[{"name":"봉산돌곱창구이","tel":"031-675-5869","addr":"경기도 안성시 당왕동 537-7번지","category":"일반휴게음식 - 일반한식"}]},{"lat":"37.021907273","long":"127.26398623","items":[{"name":"부산자동차정비공업사","tel":"031-677-3837","addr":"경기도 안성시 당왕동 412번지","category":"자동차정비 유지 - 자동차정비"}]},{"lat":"37.01566509","long":"127.26298729","items":[{"name":"비룡중학교","tel":"031-678-9359","addr":"경기도 안성시 당왕동 536-1번지 비룡중학교","category":"학원 - 초중고교육기관"}]},{"lat":"37.01466558","long":"127.2626805","items":[{"name":"비룡초등학교","tel":"031-676-0282","addr":"경기도 안성시 당왕동 536-2번지 비룡초등학교","category":"학원 - 초중고교육기관"},{"name":"비룡초등학교병설유치원[아이행복]","tel":"031-674-6147","addr":"경기도 안성시 당왕동 536-2번지 비룡초등학교","category":"학원 - 유치원"}]},{"lat":"37.014193675","long":"127.26420705","items":[{"name":"비에이치씨(BHC)당왕점","tel":"031-677-3884","addr":"경기도 안성시 당왕동 550번지","category":"일반휴게음식 - 스넥"},{"name":"비에치씨(BHC)당왕점","tel":"031-677-3884","addr":"경기도 안성시 당왕동 550번지","category":"일반휴게음식 - 서양음식"},{"name":"이봉순아구찜","tel":"031-671-3356","addr":"경기도 안성시 당왕동 550번지","category":"일반휴게음식 - 일반한식"}]},{"lat":"37.013606203","long":"127.26501405","items":[{"name":"비타민노래연습장","tel":"031-676-2582","addr":"경기도 안성시 당왕동 548-11번지","category":"레저업소 - 노 래 방"}]},{"lat":"37.014192685","long":"127.2646565","items":[{"name":"삼천리자전거당왕대리점","tel":"031-673-6336","addr":"경기도 안성시 당왕동 550-3번지","category":"레져용품 - 스포츠·레져용품"},{"name":"쑤와리질러 한경대점","tel":"031-674-1185","addr":"경기도 안성시 당왕동 550-3번지 1층","category":"일반휴게음식 - 일반한식"},{"name":"육회지존","tel":"031-676-0108","addr":"경기도 안성시 당왕동 550-3번지","category":"일반휴게음식 - 일반한식"}]},{"lat":"37.017052845","long":"127.25878946","items":[{"name":"새은하약국","tel":"031-673-1237","addr":"경기도 안성시 당왕동 475-3번지","category":"약국 - 약국"}]},{"lat":"37.013353709","long":"127.26510307","items":[{"name":"새천년당구장","tel":"031-672-7988","addr":"경기도 안성시 당왕동 549-1번지","category":"레저업소 - 당 구 장"},{"name":"새천년당구장","tel":"031-672-7988","addr":"경기도 안성시 당왕동 549-1번지 1층","category":"레저업소 - 당 구 장"},{"name":"청담동말자싸롱한경점","tel":"031-674-7654","addr":"경기도 안성시 당왕동 549-1번지","category":"일반휴게음식 - 일반한식"}]},{"lat":"37.013190002","long":"127.26578792","items":[{"name":"샤인","tel":"031-675-1031","addr":"경기도 안성시 당왕동 549-5번지","category":"일반휴게음식 - 일반한식"}]},{"lat":"37.014131096","long":"127.2639821","items":[{"name":"서장군 참숯 숯불갈비","tel":"031-672-8058","addr":"경기도 안성시 당왕동 552-5번지","category":"일반휴게음식 - 일반한식"},{"name":"일품생고기","tel":"031-673-2486","addr":"경기도 안성시 당왕동 552-5번지","category":"일반휴게음식 - 일반한식"}]},{"lat":"37.014550425","long":"127.26587126","items":[{"name":"섬섬옥수","tel":"031-675-5262","addr":"경기도 안성시 당왕동 543-7번지","category":"가구 - 기타가구"}]},{"lat":"37.01691478","long":"127.26831779","items":[{"name":"세기유통","tel":"031-677-7711","addr":"경기도 안성시 당왕동 139-2번지 B동 4호","category":"음료식품 - 기타음료식품"},{"name":"세기정보통신","tel":"031-671-3600","addr":"경기도 안성시 당왕동 139-2 B동 4,5호","category":"사무통신 - 통신기기"},{"name":"신진유화(주)","tel":"031-676-2198","addr":"경기도 안성시 당왕동 139-2번지","category":"연료판매점 - 유류판매"}]},{"lat":"37.01754665","long":"127.26781433","items":[{"name":"세덴(안성점)","tel":"031-675-0550","addr":"경기도 안성시 당왕동 164-1번지","category":"자동차정비 유지 - 자동차정비"},{"name":"한길모터샵","tel":"031-677-3844","addr":"경기도 안성시 당왕동 164-1번지","category":"자동차정비 유지 - 가타자동차서비스"}]},{"lat":"37.013414943","long":"127.26593476","items":[{"name":"세븐당구장","tel":"031-676-9647","addr":"경기도 안성시 당왕동 546-3번지","category":"레저업소 - 당 구 장"},{"name":"세븐당구장","tel":"031-676-9647","addr":"경기도 안성시 당왕동 546-3번지 3층","category":"레저업소 - 당 구 장"},{"name":"이에프씨 피씨방 (EFC PC방)","tel":"","addr":"경기도 안성시 당왕동 546-3번지 2층","category":"레저업소 - 기타레져업소"},{"name":"한마음노래연습장","tel":"031-676-9647","addr":"경기도 안성시 당왕동 546-3번지","category":"레저업소 - 노 래 방"},{"name":"헤어살롱B&G","tel":"031-672-6985","addr":"경기도 안성시 당왕동 546-3번지","category":"보건위생 - 미용원"}]},{"lat":"37.018548727","long":"127.26696379","items":[{"name":"세븐일레븐안성당왕점","tel":"031-1577-0711","addr":"경기도 안성시 당왕동 158-3번지 1층","category":"유통업 영리 - 편 의 점"},{"name":"평안기정떡","tel":"031-677-0045","addr":"경기도 안성시 당왕동 158-3번지","category":"음료식품 - 제과점"}]},{"lat":"37.014297382","long":"127.26620748","items":[{"name":"소풍","tel":"031-672-8988","addr":"경기도 안성시 당왕동 544-5번지 1층 후면상가","category":"문화.취미 - 문화취미기타"},{"name":"푸른약국","tel":"031-672-2739","addr":"경기도 안성시 당왕동 544-5번지","category":"약국 - 약국"}]},{"lat":"37.013469579","long":"127.26567652","items":[{"name":"수상한포차","tel":"031-674-0082","addr":"경기도 안성시 당왕동 548-6번지 1층","category":"일반휴게음식 - 일반한식"}]},{"lat":"37.014162273","long":"127.26618454","items":[{"name":"수숯불직화꼬치구이","tel":"031-671-7999","addr":"경기도 안성시 당왕동 544-4번지 1층 좌측호","category":"일반휴게음식 - 일반한식"},{"name":"오징어나라","tel":"031-677-8999","addr":"경기도 안성시 당왕동 544-4번지","category":"일반휴게음식 - 일반한식"}]},{"lat":"37.013635489","long":"127.26399164","items":[{"name":"쉐프밥버거한경대점","tel":"031-8052-8775","addr":"경기도 안성시 당왕동 553-7번지","category":"일반휴게음식 - 일반한식"}]},{"lat":"37.013244737","long":"127.26548473","items":[{"name":"스마트PC방","tel":"070-7997-4034","addr":"경기도 안성시 당왕동 549-4번지 1층","category":"레저업소 - 기타레져업소"}]},{"lat":"37.023912661","long":"127.26579115","items":[{"name":"스피드메이트안성점","tel":"031-677-5656","addr":"경기도 안성시 당왕동 302-6","category":"자동차정비 유지 - 자동차정비"},{"name":"주식회사안일석유","tel":"031-674-2700","addr":"경기도 안성시 당왕동 302-6번지","category":"연료판매점 - SK주유소"}]},{"lat":"37.013912017","long":"127.2652623","items":[{"name":"신의 한술","tel":"031-672-7082","addr":"경기도 안성시 당왕동 547-9번지","category":"일반휴게음식 - 일반한식"}]},{"lat":"37.015692849","long":"127.26674041","items":[{"name":"신일부품","tel":"031-675-8510","addr":"경기도 안성시 당왕동 538-5번지","category":"자동차정비 유지 - 자동차부품"},{"name":"싸인아트","tel":"031-672-0951","addr":"경기도 안성시 당왕동 538-5번지","category":"서적문구 - 출판 및 인쇄물"},{"name":"어랑감자탕","tel":"031-674-9355","addr":"경기도 안성시 당왕동 538-5번지","category":"일반휴게음식 - 일반한식"}]},{"lat":"37.016217457","long":"127.26584329","items":[{"name":"신정골뼈해장국","tel":"031-677-1217","addr":"경기도 안성시 당왕동 537번지","category":"일반휴게음식 - 일반한식"}]},{"lat":"37.020881264","long":"127.26751126","items":[{"name":"쌍용모터스","tel":"031-677-0334","addr":"경기도 안성시 당왕동 261-1","category":"자동차정비 유지 - 자동차정비"},{"name":"쌍용정비서비스","tel":"031-675-1009","addr":"경기도 안성시 당왕동 261-1","category":"자동차정비 유지 - 자동차정비"},{"name":"애니카랜드당왕점","tel":"031-674-2442","addr":"경기도 안성시 당왕동 261-1번지","category":"자동차정비 유지 - 자동차정비"}]},{"lat":"37.024517413","long":"127.26532124","items":[{"name":"쌍용자동차 안성부품대리점","tel":"031-676-5578","addr":"경기도 안성시 당왕동 348-9번지","category":"자동차정비 유지 - 자동차부품"}]},{"lat":"37.013832138","long":"127.26471144","items":[{"name":"썬앤비","tel":"031-675-7001","addr":"경기도 안성시 당왕동 551-3번지","category":"일반휴게음식 - 일반한식"}]},{"lat":"37.0250228","long":"127.26496336","items":[{"name":"썬테크모터스","tel":"031-672-2347","addr":"경기도 안성시 당왕동 375-5번지","category":"자동차정비 유지 - 자동차정비"}]},{"lat":"37.014104657","long":"127.26371234","items":[{"name":"아구랑 꽃게랑","tel":"031-676-4115","addr":"경기도 안성시 당왕동 552-3번지","category":"일반휴게음식 - 일반한식"}]},{"lat":"37.013880133","long":"127.26337448","items":[{"name":"아트스토리 미술학원","tel":"031-673-3712","addr":"경기도 안성시 당왕동 552-11번지 1층","category":"학원 - 예·체능계학원"},{"name":"제2필학원","tel":"031-672-8684","addr":"경기도 안성시 당왕동 552-11번지","category":"회원제형태 - 학원"}]},{"lat":"37.016886749","long":"127.26471068","items":[{"name":"안성과수농업협동조합","tel":"031-676-7811","addr":"경기도 안성시 당왕동 211-1번지","category":"유통업 비영리 - 농,축협 직영매장"}]},{"lat":"37.024796815","long":"127.26528849","items":[{"name":"안성국수사랑","tel":"031-676-1117","addr":"경기도 안성시 당왕동 348-8번지 1층","category":"일반휴게음식 - 일반한식"},{"name":"안성천서리막국수","tel":"031-675-1197","addr":"경기도 안성시 당왕동 348-8번지","category":"일반휴게음식 - 일반한식"}]},{"lat":"37.014632367","long":"127.2654895","items":[{"name":"안성두레생협","tel":"031-671-2066","addr":"경기도 안성시 당왕동 543-10번지 1층","category":"유통업 영리 - 슈퍼마켓"},{"name":"제일기획","tel":"031-677-4810","addr":"경기도 안성시 당왕동 543-10번지","category":"서적문구 - 출판 및 인쇄물"}]},{"lat":"37.022767821","long":"127.26601195","items":[{"name":"안성시재활용센타","tel":"031-677-8272","addr":"경기도 안성시 당왕동 273-2번지","category":"전기제품 - 가전제품"},{"name":"태양전기","tel":"031-677-8272","addr":"경기도 안성시 당왕동 273-2번지","category":"전기제품 - 기타전기제품"}]},{"lat":"37.020686495","long":"127.27396081","items":[{"name":"안성실사출력소","tel":"031-676-6628","addr":"경기도 안성시 당왕동 46-1번지","category":"건축자재 - 인테리어전문"}]},{"lat":"37.024406646","long":"127.26651207","items":[{"name":"안성유치원[아이행복]","tel":"031-671-3294","addr":"경기도 안성시 당왕동 303-13번지","category":"학원 - 유치원"}]},{"lat":"37.015854989","long":"127.26676345","items":[{"name":"안성집","tel":"031-674-0292","addr":"경기도 안성시 당왕동 538-2번지","category":"일반휴게음식 - 일반한식"}]},{"lat":"37.019547072","long":"127.26778756","items":[{"name":"안성코리아모터스 주식회사","tel":"031-675-6584","addr":"경기도 안성시 당왕동 231-1번지","category":"자동차정비 유지 - 자동차정비"},{"name":"코리아모터스 (주)","tel":"031-675-6584","addr":"경기도 안성시 당왕동 231-1번지","category":"자동차정비 유지 - 자동차정비"}]},{"lat":"37.021300914","long":"127.26518656","items":[{"name":"안성파이프","tel":"031-677-2091","addr":"경기도 안성시 당왕동 412-9","category":"건축자재 - 기타건축자재"}]},{"lat":"37.024219443","long":"127.26560116","items":[{"name":"안일자동차공업사","tel":"031-676-2727","addr":"경기도 안성시 당왕동 302-3번지","category":"자동차정비 유지 - 자동차정비"}]},{"lat":"37.021576896","long":"127.27468317","items":[{"name":"안청중학교매점","tel":"031-673-3124","addr":"경기도 안성시 당왕동 10-1번지 안청중학교 1층","category":"음료식품 - 기타음료식품"}]},{"lat":"37.01374811","long":"127.26603704","items":[{"name":"야노래연습장","tel":"031-676-9647","addr":"경기도 안성시 당왕동 546-1번지 2층","category":"레저업소 - 노 래 방"},{"name":"야노래연습장","tel":"031-676-9647","addr":"경기도 안성시 당왕동 546-1번지 2층","category":"레저업소 - 노 래 방"},{"name":"족발야시장 안성한경대점","tel":"031-674-4969","addr":"경기도 안성시 당왕동 546-1번지","category":"일반휴게음식 - 일반한식"}]},{"lat":"37.016716712","long":"127.26418197","items":[{"name":"엔카모터스","tel":"031-673-2395","addr":"경기도 안성시 당왕동 210-9번지","category":"자동차정비 유지 - 자동차정비"}]},{"lat":"37.015359707","long":"127.2666269","items":[{"name":"엘리팝 안성당왕점","tel":"031-674-3392","addr":"경기도 안성시 당왕동 541-2번지","category":"일반휴게음식 - 주점"}]},{"lat":"37.01496429","long":"127.2661536","items":[{"name":"영광종합설비","tel":"031-674-1512","addr":"경기도 안성시 당왕동 542-5번지","category":"건축자재 - 보일러·펌프·샷시"}]},{"lat":"37.016523602","long":"127.26184407","items":[{"name":"영천칡냉면","tel":"031-677-0340","addr":"경기도 안성시 당왕동 438-6번지","category":"일반휴게음식 - 일반한식"}]},{"lat":"37.013438787","long":"127.26329432","items":[{"name":"예원음악학원","tel":"031-677-3653","addr":"경기도 안성시 당왕동 553-14번지","category":"학원 - 예·체능계학원"}]},{"lat":"37.014888071","long":"127.25981596","items":[{"name":"오대감","tel":"031-673-5366","addr":"경기도 안성시 당왕동 535","category":"일반휴게음식 - 주점"},{"name":"피아노숙녀복","tel":"031-671-5230","addr":"경기도 안성시 당왕동 535대우상가127호","category":"의류 - 정장"}]},{"lat":"37.014137952","long":"127.26495969","items":[{"name":"유가네정육식당","tel":"031-672-6692","addr":"경기도 안성시 당왕동 550-5번지","category":"음료식품 - 정육점"}]},{"lat":"37.023604756","long":"127.26648683","items":[{"name":"유일모터스","tel":"031-674-7955","addr":"경기도 안성시 당왕동 303-9번지","category":"자동차정비 유지 - 자동차정비"}]},{"lat":"37.020215758","long":"127.26693585","items":[{"name":"으뜸유통","tel":"031-671-5551","addr":"경기도 안성시 당왕동 227-2번지","category":"유통업 영리 - 기타유통업"}]},{"lat":"37.023161815","long":"127.26304656","items":[{"name":"은평채","tel":"031-671-6767","addr":"경기도 안성시 당왕동 406-6번지","category":"일반휴게음식 - 일반한식"}]},{"lat":"37.015135366","long":"127.26621037","items":[{"name":"이든아트","tel":"070-4038-3076","addr":"경기도 안성시 당왕동 540-6번지","category":"신변잡화 - 기타잡화"}]},{"lat":"37.01679639","long":"127.26071009","items":[{"name":"이마트24 안성병원점/주식회사 운강유통","tel":"031-000-0000","addr":"경기도 안성시 당왕동 436번지 경기도의료원안성병원 지하1층","category":"유통업 영리 - 편 의 점"},{"name":"장례식장 매점/(주)운강유통","tel":"031-000-0000","addr":"경기도 안성시 당왕동 436번지 경기도의료원안성병원 지하1층","category":"음료식품 - 기타음료식품"},{"name":"지에스파크24 (주)경기도의료원안성병원주","tel":"02-3272-3500","addr":"경기도 안성시 당왕동 436번지","category":"자동차정비 유지 - 주차장"}]},{"lat":"37.014577756","long":"127.26573652","items":[{"name":"인생양꼬치","tel":"031-8052-0922","addr":"경기도 안성시 당왕동 543-8번지 1층","category":"일반휴게음식 - 일반한식"}]},{"lat":"37.015080554","long":"127.26654728","items":[{"name":"일차돌 안성점","tel":"031-674-8079","addr":"경기도 안성시 당왕동 541-7번지","category":"일반휴게음식 - 일반한식"}]},{"lat":"37.014220039","long":"127.26451052","items":[{"name":"잘살아보세","tel":"031-675-6055","addr":"경기도 안성시 당왕동 550-2번지 1층","category":"일반휴게음식 - 일반한식"}]},{"lat":"37.015494741","long":"127.26668355","items":[{"name":"제비표페인트","tel":"031-673-8815","addr":"경기도 안성시 당왕동 541-1번지","category":"건축자재 - 페인트"}]},{"lat":"37.01657509","long":"127.25887775","items":[{"name":"제이뷰티클럽","tel":"031-672-2133","addr":"경기도 안성시 당왕동 476-11","category":"보건위생 - 피부미용실"}]},{"lat":"37.015549478","long":"127.26638035","items":[{"name":"제이비에스보습학원","tel":"031-677-1919","addr":"경기도 안성시 당왕동 539-6번지","category":"학원 - 기타 교육기관"}]},{"lat":"37.013939347","long":"127.26512755","items":[{"name":"주대리","tel":"031-677-2738","addr":"경기도 안성시 당왕동 547-10번지","category":"일반휴게음식 - 일반한식"}]},{"lat":"37.025744141","long":"127.26474108","items":[{"name":"주식회사 옥산","tel":"031-677-0357","addr":"경기도 안성시 당왕동 368-9번지","category":"건축자재 - 유리"}]},{"lat":"37.013859789","long":"127.26443063","items":[{"name":"쪼끼쪼끼","tel":"031-677-9769","addr":"경기도 안성시 당왕동 551-1번지","category":"일반휴게음식 - 주점"}]},{"lat":"37.014659722","long":"127.26534352","items":[{"name":"참치나라","tel":"031-671-1199","addr":"경기도 안성시 당왕동 543-11번지","category":"일반휴게음식 - 일식·회집"}]},{"lat":"37.016716415","long":"127.26431681","items":[{"name":"청주해장국","tel":"031-675-7074","addr":"경기도 안성시 당왕동 210-2번지","category":"일반휴게음식 - 일반한식"}]},{"lat":"37.016135665","long":"127.26615764","items":[{"name":"청해진수산","tel":"031-671-4365","addr":"경기도 안성시 당왕동 537-2번지","category":"일반휴게음식 - 일식·회집"}]},{"lat":"37.013027687","long":"127.26584354","items":[{"name":"친구야","tel":"031-675-2900","addr":"경기도 안성시 당왕동 549-7번지","category":"일반휴게음식 - 일반한식"}]},{"lat":"37.013381063","long":"127.26495709","items":[{"name":"칠복상회","tel":"031-677-0488","addr":"경기도 안성시 당왕동 549-8번지","category":"일반휴게음식 - 일반한식"}]},{"lat":"37.022244385","long":"127.26638099","items":[{"name":"카카오버블셀프세차장","tel":"031-672-7644","addr":"경기도 안성시 당왕동 273-15번지","category":"자동차정비 유지 - 세차장"}]},{"lat":"37.013768766","long":"127.26484606","items":[{"name":"카페 지니(cafe jinny)","tel":"","addr":"경기도 안성시 당왕동 551-4번지 1층","category":"일반휴게음식 - 서양음식"}]},{"lat":"37.025968139","long":"127.26531499","items":[{"name":"카프라자","tel":"031-674-5539","addr":"경기도 안성시 당왕동 348-13번지","category":"자동차정비 유지 - 자동차정비"}]},{"lat":"37.025742925","long":"127.26529174","items":[{"name":"태성건기","tel":"031-672-0593","addr":"경기도 안성시 당왕동 348-14번지","category":"기타 - 기계공구"},{"name":"태성건기","tel":"031-672-0593","addr":"경기도 안성시 당왕동 348-14번지","category":"기타 - 기계공구"},{"name":"태성건기","tel":"031-674-6647","addr":"경기도 안성시 당왕동 348-14번지","category":"기타 - 기계공구"}]},{"lat":"37.013965036","long":"127.26573441","items":[{"name":"테마노래연습장","tel":"031-677-5011","addr":"경기도 안성시 당왕동 547-4번지 1층","category":"레저업소 - 노 래 방"}]},{"lat":"37.013604613","long":"127.26573316","items":[{"name":"투다리한경대점","tel":"031-675-1568","addr":"경기도 안성시 당왕동 548-5번지","category":"일반휴게음식 - 주점"}]},{"lat":"37.024384718","long":"127.26826511","items":[{"name":"푸른꿈어린이집[아이행복]","tel":"031-675-8717","addr":"경기도 안성시 당왕동 307-5번지","category":"학원 - 유아원"}]},{"lat":"37.025022204","long":"127.26523307","items":[{"name":"풍성철물건재","tel":"031-676-0315","addr":"경기도 안성시 당왕동 348-4번지","category":"건축자재 - 기타건축자재"}]},{"lat":"37.018131584","long":"127.26815347","items":[{"name":"하나로모터스","tel":"031-677-3366","addr":"경기도 안성시 당왕동 156번지","category":"자동차정비 유지 - 자동차정비"}]},{"lat":"37.016664846","long":"127.26318173","items":[{"name":"한살림경기서남부 안성매장","tel":"031-375-1420","addr":"경기도 안성시 당왕동 207-8번지","category":"유통업 영리 - 슈퍼마켓"}]},{"lat":"37.013833054","long":"127.2642957","items":[{"name":"허니조이치킨","tel":"031-673-9944","addr":"경기도 안성시 당왕동 551번지","category":"일반휴게음식 - 스넥"}]},{"lat":"37.021743994","long":"127.26853686","items":[{"name":"현대가스테크","tel":"031-676-5535","addr":"경기도 안성시 당왕동 257번지","category":"연료판매점 - LPG 취급점"}]},{"lat":"37.020853856","long":"127.26767972","items":[{"name":"현대상사","tel":"031-675-0157","addr":"경기도 안성시 당왕동 260-11번지","category":"건축자재 - 기타건축자재"}]},{"lat":"37.01410436","long":"127.26384718","items":[{"name":"화로수","tel":"031-674-8505","addr":"경기도 안성시 당왕동 552-4번지","category":"일반휴게음식 - 일반한식"}]},{"lat":"37.01452307","long":"127.26601724","items":[{"name":"황우랑","tel":"031-672-4300","addr":"경기도 안성시 당왕동 543-6번지 1층","category":"일반휴게음식 - 일반한식"}]},{"lat":"37.015522097","long":"127.26653756","items":[{"name":"휠","tel":"031-672-4441","addr":"경기도 안성시 당왕동 541번지","category":"일반휴게음식 - 주점"}]},{"lat":"37.014965882","long":"127.26543447","items":[{"name":"희미한옛사랑의그림자","tel":"031-673-7167","addr":"경기도 안성시 당왕동 542-11번지","category":"일반휴게음식 - 일반한식"}]}]