[{"lat":"36.984717689","long":"126.93513011","items":[{"name":"(주) 오렌지렌트카 경기지사","tel":"031-684-6662","addr":"경기도 평택시 안중읍 안중리 449-3번지","category":"여행 - 렌터카"}]},{"lat":"36.990771204","long":"126.93223787","items":[{"name":"(주)경기렌트카","tel":"031-681-3488","addr":"경기도 평택시 안중읍 안중리 236-8번지","category":"여행 - 렌터카"},{"name":"안중모터스","tel":"031-684-3421","addr":"경기도 평택시 안중읍 안중리 236-8번지","category":"서비스업 - 자동차정비"},{"name":"안중모터스","tel":"031-682-7532","addr":"경기도 평택시 안중읍 안중리 236-8번지","category":"자동차정비 유지 - 자동차정비"},{"name":"안중평신렉카(안중모터스)","tel":"031-682-7532","addr":"경기도 평택시 안중읍 안중리 236-8","category":"자동차정비 유지 - 자동차정비"},{"name":"코스모카서비스","tel":"031-682-8872","addr":"경기도 평택시 안중읍 안중리 236-8번지","category":"자동차정비 유지 - 자동차정비"},{"name":"코스모카서비스","tel":"031-681-5057","addr":"경기도 평택시 안중읍 안중리 236-8번지","category":"서비스업 - 자동차정비"}]},{"lat":"36.988913231","long":"126.92933032","items":[{"name":"(주)미주","tel":"031-681-5566","addr":"경기도 평택시 안중읍 안중리 277-30번지","category":"건축자재 - 부동산 분양"},{"name":"바이올렛악기사","tel":"031-681-6939","addr":"경기도 평택시 안중읍 안중리 277-30번지","category":"레져용품 - 악기점"},{"name":"비겐의료기","tel":"031-657-7589","addr":"경기도 평택시 안중읍 안중리 277-30번지 2층","category":"보건위생 - 의료용품"},{"name":"풍년떡집","tel":"031-681-6939","addr":"경기도 평택시 안중읍 안중리 277-30번지 1층","category":"음료식품 - 제과점"},{"name":"풍년떡집","tel":"031-681-0959","addr":"경기도 평택시 안중읍 안중리 277-30번지","category":"제조업 - 떡"}]},{"lat":"36.983607521","long":"126.9319637","items":[{"name":"101피부","tel":"031-684-4754","addr":"경기도 평택시 안중읍 안중리 468-2번지 101호","category":"보건위생 - 피부미용실"}]},{"lat":"36.988380251","long":"126.92718541","items":[{"name":"1980's","tel":"070-4404-4121","addr":"경기도 평택시 안중읍 안중리 253-4번지","category":"의류 - 정장"},{"name":"대경타이루","tel":"031-682-0549","addr":"경기도 평택시 안중읍 안중리 253-4번지","category":"건축자재 - 건축용 요업제품"},{"name":"수원미용실","tel":"031-682-3447","addr":"경기도 평택시 안중읍 안중리 253-4번지 254-9","category":"보건위생 - 미용원"},{"name":"연길초두부","tel":"031-686-6861","addr":"경기도 평택시 안중읍 안중리 253-4번지 연길초두부","category":"일반휴게음식 - 중국식"},{"name":"연변보신탕","tel":"031-686-6861","addr":"경기도 평택시 안중읍 안중리 253-4번지","category":"일반휴게음식 - 일반한식"},{"name":"은혜패션","tel":"031-681-5754","addr":"경기도 평택시 안중읍 안중리 253-4번지","category":"의류 - 정장"},{"name":"이서방양념통닭","tel":"031-681-3321","addr":"경기도 평택시 안중읍 안중리 253-4번지","category":"일반휴게음식 - 일반한식"},{"name":"차이나 스토리 2호점","tel":"031-681-3694","addr":"경기도 평택시 안중읍 안중리 253-4번지 1층","category":"음식점 - 중식"},{"name":"차이나스토리 안중점","tel":"02-1111-1111","addr":"경기도 평택시 안중읍 안중리 253-4번지","category":"일반휴게음식 - 중국식"}]},{"lat":"36.988407831","long":"126.92805029","items":[{"name":"2층당구장","tel":"","addr":"경기도 평택시 안중읍 안중리 273-12번지 2층","category":"레저업소 - 당 구 장"},{"name":"유솔주니어","tel":"031-684-4333","addr":"경기도 평택시 안중읍 안중리 273-12번지","category":"소매업 - 의류"},{"name":"정동물병원","tel":"031-681-2406","addr":"경기도 평택시 안중읍 안중리 273-12","category":"기타의료기관 - 동물병원"}]},{"lat":"36.99513445","long":"126.93579489","items":[{"name":"38생고기","tel":"031-681-0012","addr":"경기도 평택시 안중읍 안중리 196-3번지 A동","category":"일반휴게음식 - 일반한식"},{"name":"38생고기","tel":"050-4109-1963","addr":"경기도 평택시 안중읍 안중리 196-3번지","category":"음식점 - 한식"},{"name":"씨유안중휴게소점","tel":"031-898-6566","addr":"경기도 평택시 안중읍 안중리 196-3번지","category":"유통업 영리 - 편 의 점"},{"name":"안중대게","tel":"031-682-0003","addr":"경기도 평택시 안중읍 안중리 196-3번지 C동","category":"음식점 - 한식"},{"name":"안중대게","tel":"031-681-6608","addr":"경기도 평택시 안중읍 안중리 196-3번지 C동","category":"일반휴게음식 - 일반한식"},{"name":"안중대게 직판장","tel":"031-681-6608","addr":"경기도 평택시 안중읍 안중리 196-3번지","category":"음료식품 - 농·축·수산품"}]},{"lat":"36.995602802","long":"126.935435","items":[{"name":"C&H냉열시스템","tel":"031-682-9327","addr":"경기도 평택시 안중읍 안중리 196-20번지","category":"전기제품 - 냉열기기"},{"name":"믿음공인중개사","tel":"031-682-8985","addr":"경기도 평택시 안중읍 안중리 196-20번지","category":"용역 서비스 - 부동산 중개·임대"}]},{"lat":"36.98824597","long":"126.92857838","items":[{"name":"CNA","tel":"","addr":"경기도 평택시 안중읍 안중리 281-6번지","category":"소매업 - 문구"}]},{"lat":"36.984742837","long":"126.93190648","items":[{"name":"GS25 읍사무소점","tel":"031-682-6997","addr":"경기도 평택시 안중읍 안중리 445-13번지 101호","category":"소매업 - 편의점"},{"name":"GS25안중읍사무소점","tel":"","addr":"경기도 평택시 안중읍 안중리 445-13번지","category":"유통업 영리 - 편 의 점"}]},{"lat":"36.982941742","long":"126.93368278","items":[{"name":"GS25송담스카이점","tel":"","addr":"경기도 평택시 안중읍 안중리 461-6번지","category":"유통업 영리 - 편 의 점"}]},{"lat":"36.990966043","long":"126.94240355","items":[{"name":"GS25안중대로점","tel":"","addr":"경기도 평택시 안중읍 안중리 61-17번지","category":"유통업 영리 - 편 의 점"},{"name":"오토오아시스 안일점","tel":"031-684-8813","addr":"경기도 평택시 안중읍 안중리 61-17번지","category":"자동차정비 유지 - 자동차정비"},{"name":"오토오아시스안일점","tel":"031-681-7707","addr":"경기도 평택시 안중읍 안중리 61-17번지","category":"서비스업 - 자동차정비"}]},{"lat":"36.987884482","long":"126.92690508","items":[{"name":"GS25안중시장점","tel":"","addr":"경기도 평택시 안중읍 안중리 256-3번지","category":"유통업 영리 - 편 의 점"},{"name":"아모래퍼시픽뷰레이터","tel":"031-666-5551","addr":"경기도 평택시 안중읍 안중리 256-3번지","category":"보건위생 - 화장품"},{"name":"아모레퍼시픽뷰레이터","tel":"031-666-5551","addr":"경기도 평택시 안중읍 안중리 256-3번지","category":"보건위생 - 화장품"},{"name":"아모레퍼시픽뷰레이터","tel":"031-681-1669","addr":"경기도 평택시 안중읍 안중리 256-3번지","category":"보건위생 - 화장품"},{"name":"아모레퍼시픽뷰레이터","tel":"031-681-1669","addr":"경기도 평택시 안중읍 안중리 256-3번지","category":"보건위생 - 화장품"},{"name":"아모레퍼시픽뷰레이터","tel":"031-666-5551","addr":"경기도 평택시 안중읍 안중리 256-3번지","category":"보건위생 - 화장품"},{"name":"아모레퍼시픽뷰레이터","tel":"031-666-5551","addr":"경기도 평택시 안중읍 안중리 256-3번지","category":"보건위생 - 화장품"},{"name":"아모레퍼시픽뷰레이터","tel":"031-666-5551","addr":"경기도 평택시 안중읍 안중리 256-3번지","category":"보건위생 - 화장품"},{"name":"아모레퍼시픽뷰레이터","tel":"031-666-5551","addr":"경기도 평택시 안중읍 안중리 256-3번지","category":"보건위생 - 화장품"},{"name":"아모레퍼시픽뷰레이터","tel":"031-666-5551","addr":"경기도 평택시 안중읍 안중리 256-3번지","category":"보건위생 - 화장품"},{"name":"아모레퍼시픽뷰레이터","tel":"031-666-5551","addr":"경기도 평택시 안중읍 안중리 256-3번지","category":"보건위생 - 화장품"},{"name":"아모레퍼시픽뷰레이터","tel":"031-681-1669","addr":"경기도 평택시 안중읍 안중리 256-3번지","category":"보건위생 - 화장품"},{"name":"아모레퍼시픽뷰레이터","tel":"031-666-5551","addr":"경기도 평택시 안중읍 안중리 256-3번지","category":"보건위생 - 화장품"},{"name":"아모레퍼시픽뷰레이터","tel":"031-666-5551","addr":"경기도 평택시 안중읍 안중리 256-3번지","category":"보건위생 - 화장품"},{"name":"키월드","tel":"031-683-0001","addr":"경기도 평택시 안중읍 안중리 256-3번지","category":"기타 - 기계공구"},{"name":"평택안중해독센터(1호점)","tel":"031-681-3727","addr":"경기도 평택시 안중읍 안중리 256-3번지 2층","category":"서비스업 - 의료기기"},{"name":"평택안중해독센터(1호점)","tel":"031-683-8160","addr":"경기도 평택시 안중읍 안중리 256-3번지 2층","category":"보건위생 - 기타대인서비스"}]},{"lat":"36.988433818","long":"126.9264103","items":[{"name":"JUNCCTV","tel":"031-684-2486","addr":"경기도 평택시 안중읍 안중리 252-31","category":"전기제품 - 기타전기제품"}]},{"lat":"36.989490819","long":"126.93080126","items":[{"name":"KR식자재마트","tel":"031-683-3399","addr":"경기도 평택시 안중읍 안중리 292-52번지","category":"도소매업 - 식료품"},{"name":"조은약국","tel":"031-681-2137","addr":"경기도 평택시 안중읍 안중리 292-52번지","category":"약국 - 약국"}]},{"lat":"36.988182719","long":"126.92829763","items":[{"name":"L&S 교육학원","tel":"031-682-2650","addr":"경기도 평택시 안중읍 안중리 272-21번지 2층","category":"학원 - 보습학원"}]},{"lat":"36.982184255","long":"126.93268385","items":[{"name":"SBS당구클럽안중점","tel":"","addr":"경기도 평택시 안중읍 안중리 484-6번지 3층 301호","category":"레저업소 - 당 구 장"},{"name":"썬 노래연습장","tel":"031-618-3811","addr":"경기도 평택시 안중읍 안중리 484-6번지 2층","category":"레저업소 - 노 래 방"}]},{"lat":"36.987660027","long":"126.92818581","items":[{"name":"ZAM ZAM/알파타흐 유한회사 지점","tel":"","addr":"경기도 평택시 안중읍 안중리 282-7번지 1층","category":"일반휴게음식 - 서양음식"},{"name":"은혜장식","tel":"031-684-3334","addr":"경기도 평택시 안중읍 안중리 282-7","category":"직물 - 카페트,커튼,천막,지물"}]},{"lat":"36.989768007","long":"126.92735252","items":[{"name":"㈜토마스빈","tel":"","addr":"경기도 평택시 안중읍 안중리 245-18번지","category":"음식점 - 커피"},{"name":"고려타이루상사","tel":"031-684-5624","addr":"경기도 평택시 안중읍 안중리 245-18번지","category":"서비스업 - 인테리어"},{"name":"고려타이루상사","tel":"031-681-9333","addr":"경기도 평택시 안중읍 안중리 245-18번지","category":"건축자재 - 인테리어전문"}]},{"lat":"36.988713647","long":"126.92718507","items":[{"name":"가나안컴퓨터","tel":"031-647-0903","addr":"경기도 평택시 안중읍 안중리 249-7번지 1층","category":"사무통신 - 컴퓨터"},{"name":"안중타코야키","tel":"031-684-5826","addr":"경기도 평택시 안중읍 안중리 249-7번지 1층","category":"일반휴게음식 - 서양음식"},{"name":"이서방양념통닭","tel":"031-681-5632","addr":"경기도 평택시 안중읍 안중리 249-7번지","category":"음식점 - 치킨"}]},{"lat":"36.989129502","long":"126.92935258","items":[{"name":"가마솥식당","tel":"031-682-5530","addr":"경기도 평택시 안중읍 안중리 277-40번지","category":"일반휴게음식 - 일반한식"},{"name":"가마솥식당","tel":"031-681-9490","addr":"경기도 평택시 안중읍 안중리 277-40번지","category":"음식점 - 한식"}]},{"lat":"36.988101763","long":"126.92852236","items":[{"name":"가보정육점","tel":"031-681-0452","addr":"경기도 평택시 안중읍 안중리 281-8번지","category":"소매업 - 정육"}]},{"lat":"36.987407429","long":"126.9277143","items":[{"name":"가보정육점","tel":"031-681-7811","addr":"경기도 평택시 안중읍 안중리 264-3번지","category":"음료식품 - 정육점"}]},{"lat":"36.983632724","long":"126.92896475","items":[{"name":"가정백반분식","tel":"031-684-7242","addr":"경기도 평택시 안중읍 안중리 305-35번지","category":"일반휴게음식 - 일반한식"},{"name":"아이덴트칼라","tel":"031-683-2109","addr":"경기도 평택시 안중읍 안중리 305-35","category":"자동차정비 유지 - 자동차정비"},{"name":"통큰만족 안중지점","tel":"031-681-0852","addr":"경기도 평택시 안중읍 안중리 305-35번지","category":"일반휴게음식 - 일반한식"}]},{"lat":"36.988913106","long":"126.92912813","items":[{"name":"가파치안중점","tel":"031-682-5530","addr":"경기도 평택시 안중읍 안중리 277-35번지","category":"소매업 - 가방"},{"name":"승리문구","tel":"031-682-0879","addr":"경기도 평택시 안중읍 안중리 277-35번지","category":"서적문구 - 문구용품"},{"name":"승리문구인쇄 ","tel":"031-683-4763","addr":"경기도 평택시 안중읍 안중리 277-35번지","category":"소매업 - 문구, 인쇄"},{"name":"오성지물상사","tel":"031-682-2525","addr":"경기도 평택시 안중읍 안중리 277-35번지","category":"소매업 - 벽지, 장판"}]},{"lat":"36.988274017","long":"126.93021831","items":[{"name":"강산볼링장","tel":"031-681-3681","addr":"경기도 평택시 안중읍 안중리 291-2번지 안중강산타운아파트 지하1층 제비-1호","category":"레저업소 - 볼 링 장"},{"name":"대구태영생막창","tel":"","addr":"경기도 평택시 안중읍 안중리 291-2번지 강산타운 1층","category":"음식점 - 한식"},{"name":"대구태영생막창","tel":"031-684-9982","addr":"경기도 평택시 안중읍 안중리 291-2번지 안중강산타운 103호","category":"일반휴게음식 - 일반한식"},{"name":"민정토탈패션","tel":"031-683-5702","addr":"경기도 평택시 안중읍 안중리 291-2번지 안중강산타운아파트","category":"의류 - 정장"},{"name":"백화점약국","tel":"031-682-1717","addr":"경기도 평택시 안중읍 안중리 291-2번지 안중강산타운아파트","category":"약국 - 약국"},{"name":"복이네양꼬치","tel":"031-681-2244","addr":"경기도 평택시 안중읍 안중리 291-2번지 안중강산타운아파트 103,104,105-1호","category":"일반휴게음식 - 중국식"},{"name":"세일마트","tel":"031-683-0466","addr":"경기도 평택시 안중읍 안중리 291-2번지 안중강산타운아파트","category":"소매업 - 슈퍼"},{"name":"안중중앙라이온스클럽","tel":"031-683-2300","addr":"경기도 평택시 안중읍 안중리 291-2번지 안중강산타운APT 4층401-2호,405호","category":"기타 - 비영리/비대상"}]},{"lat":"36.995576384","long":"126.93652469","items":[{"name":"강진수산","tel":"031-682-2203","addr":"경기도 평택시 안중읍 안중리 196-24번지 A동","category":"일반휴게음식 - 일식·회집"},{"name":"소래버섯나라 ","tel":"031-682-7877","addr":"경기도 평택시 안중읍 안중리 196-24번지","category":"음식점 - 한식"},{"name":"소래버섯나라 안중점","tel":"031-683-3399","addr":"경기도 평택시 안중읍 안중리 196-24번지","category":"일반휴게음식 - 일반한식"}]},{"lat":"36.988408212","long":"126.92865685","items":[{"name":"건강기능식품총괄센터","tel":"031-681-5763","addr":"경기도 평택시 안중읍 안중리 281-4번지 2층","category":"건강식품 - 기타건강식품"},{"name":"네이처리퍼블릭 안중점","tel":"031-682-5705","addr":"경기도 평택시 안중읍 안중리 281-4번지 1층","category":"보건위생 - 화장품"},{"name":"돼지분식","tel":"","addr":"경기도 평택시 안중읍 안중리 281-4번지","category":"음식점 - 분식"},{"name":"돼지분식","tel":"031-681-0135","addr":"경기도 평택시 안중읍 안중리 281-4","category":"일반휴게음식 - 스넥"},{"name":"휠라인티모","tel":"031-681-3435","addr":"경기도 평택시 안중읍 안중리 281-4번지","category":"소매업 - 의류"}]},{"lat":"36.988074293","long":"126.92782596","items":[{"name":"건스베베","tel":"070-4007-5516","addr":"경기도 평택시 안중읍 안중리 272-26번지","category":"의류 - 정장"}]},{"lat":"36.990659055","long":"126.94119064","items":[{"name":"건승철물건재상","tel":"031-681-3300","addr":"경기도 평택시 안중읍 안중리 60-29번지","category":"건축자재 - 기타건축자재"}]},{"lat":"36.986741886","long":"126.92971431","items":[{"name":"경기물류고등학교","tel":"031-650-9906","addr":"경기도 평택시 안중읍 안중리 293-46번지 경기물류고등학교","category":"학원 - 초중고교육기관"},{"name":"경기물류고등학교_수업료","tel":"031-650-9906","addr":"경기도 평택시 안중읍 안중리 293-46번지 경기물류고등학교","category":"학원 - 초중고교육기관"}]},{"lat":"36.989162444","long":"126.93960803","items":[{"name":"경기슈퍼","tel":"031-683-3128","addr":"경기도 평택시 안중읍 안중리 72-1번지 1층","category":"유통업 영리 - 슈퍼마켓"}]},{"lat":"36.987049466","long":"126.93171339","items":[{"name":"경기오토바이","tel":"031-681-5223","addr":"경기도 평택시 안중읍 안중리 298-2번지","category":"자동차판매 - 이륜차판매"}]},{"lat":"36.988353639","long":"126.92784816","items":[{"name":"경기정관장홍삼안중전시판매점","tel":"031-682-0666","addr":"경기도 평택시 안중읍 안중리 272-5번지","category":"건강식품 - 홍삼제품"},{"name":"정관장홍삼","tel":"","addr":"경기도 평택시 안중읍 안중리 272-5번지","category":"소매업 - 가공식품판매"}]},{"lat":"36.984993376","long":"126.9290196","items":[{"name":"경향신문 안중센터","tel":"031-682-3185","addr":"경기도 평택시 안중읍 안중리 305-26번지","category":"서적문구 - 정기간행물"}]},{"lat":"36.98885099","long":"126.93068954","items":[{"name":"경희소나무한의원","tel":"031-681-7533","addr":"경기도 평택시 안중읍 안중리 292-19","category":"의원 - 한의원"},{"name":"예지정보통신","tel":"031-682-6019","addr":"경기도 평택시 안중읍 안중리 292-19번지","category":"사무통신 - 통신기기"},{"name":"예지정보통신","tel":"031-681-8224","addr":"경기도 평택시 안중읍 안중리 292-19번지","category":"소매업 - 휴대폰"},{"name":"이태리안경","tel":"031-682-8565","addr":"경기도 평택시 안중읍 안중리 292-19번지","category":"보건위생 - 안경"},{"name":"이태리안경","tel":"031-681-4970","addr":"경기도 평택시 안중읍 안중리 292-19번지","category":"소매업 - 안경"}]},{"lat":"36.988074136","long":"126.92757885","items":[{"name":"고흥상회","tel":"","addr":"경기도 평택시 안중읍 안중리 272-19번지","category":"소매업 - 건어물"},{"name":"대농방앗간","tel":"031-681-1180","addr":"경기도 평택시 안중읍 안중리 272-19번지","category":"음료식품 - 제과점"},{"name":"대농방앗간","tel":"031-682-1191","addr":"경기도 평택시 안중읍 안중리 272-19번지","category":"소매업 - 방앗간(고추, 기름)"}]},{"lat":"36.987687705","long":"126.92921918","items":[{"name":"고흥할메김치","tel":"031-683-3142","addr":"경기도 평택시 안중읍 안중리 266-11번지 1층","category":"음료식품 - 기타음료식품"}]},{"lat":"36.987849442","long":"126.92848891","items":[{"name":"골드뱅크","tel":"","addr":"경기도 평택시 안중읍 안중리 282-17번지","category":"소매업 - 귀금속"},{"name":"슈즈원","tel":"031-684-5548","addr":"경기도 평택시 안중읍 안중리 282-17번지","category":"신변잡화 - 신발"},{"name":"아지트","tel":"041-111-1111","addr":"경기도 평택시 안중읍 안중리 282-17번지","category":"의류 - 정장"},{"name":"워","tel":"031-684-5548","addr":"경기도 평택시 안중읍 안중리 282-17","category":"신변잡화 - 신발"}]},{"lat":"36.987968043","long":"126.93085886","items":[{"name":"곱창신랑순대각시","tel":"031-681-9772","addr":"경기도 평택시 안중읍 안중리 293-8번지","category":"일반휴게음식 - 일반한식"},{"name":"곱창신랑순대각시","tel":"","addr":"경기도 평택시 안중읍 안중리 293-8번지","category":"음식점 - 한식"},{"name":"명품노래방(악쓰는하마)","tel":"","addr":"경기도 평택시 안중읍 안중리 293-8번지 2층","category":"레저업소 - 노 래 방"},{"name":"쎄븐당구클럽","tel":"031-684-2202","addr":"경기도 평택시 안중읍 안중리 293-8번지 3층","category":"레저업소 - 당 구 장"},{"name":"추억 여행","tel":"031-111-1111","addr":"경기도 평택시 안중읍 안중리 293-8번지 지하1층","category":"일반휴게음식 - 일반한식"}]},{"lat":"36.986885141","long":"126.92824273","items":[{"name":"공가네 부대찌개","tel":"031-682-3538","addr":"경기도 평택시 안중읍 안중리 262-63번지 1층","category":"음식점 - 한식"},{"name":"공가네부대찌개","tel":"031-681-8613","addr":"경기도 평택시 안중읍 안중리 262-63번지 1층","category":"일반휴게음식 - 일반한식"},{"name":"제일장수촌","tel":"031-683-1525","addr":"경기도 평택시 안중읍 안중리 262-63번지 402호","category":"음식점 - 한식"},{"name":"포시즌","tel":"031-686-8209","addr":"경기도 평택시 안중읍 안중리 262-63번지","category":"소매업 - 슈퍼"},{"name":"포시즌마트","tel":"031-681-2300","addr":"경기도 평택시 안중읍 안중리 262-63번지","category":"유통업 영리 - 슈퍼마켓"},{"name":"황철수피자","tel":"031-682-4351","addr":"경기도 평택시 안중읍 안중리 262-63번지","category":"일반휴게음식 - 서양음식"}]},{"lat":"36.985632702","long":"126.92832258","items":[{"name":"공동노래연습장","tel":"031-683-9556","addr":"경기도 평택시 안중읍 안중리 262-32번지 지층","category":"레저업소 - 노 래 방"},{"name":"황금청과","tel":"031-681-5538","addr":"경기도 평택시 안중읍 안중리 262-32번지","category":"음료식품 - 농·축·수산품"}]},{"lat":"36.988517237","long":"126.93010575","items":[{"name":"공인회계사김영욱사무소","tel":"031-682-6291","addr":"경기도 평택시 안중읍 안중리 292-10번지","category":"용역 서비스 - 법률회계서비스(개인)"},{"name":"중국관","tel":"031-681-0831","addr":"경기도 평택시 안중읍 안중리 292-10번지","category":"일반휴게음식 - 일반한식"}]},{"lat":"36.982580859","long":"126.93290812","items":[{"name":"광닭발안중점","tel":"031-686-6811","addr":"경기도 평택시 안중읍 안중리 484-3번지 104호","category":"일반휴게음식 - 일반한식"},{"name":"별밤지기 노래연습장","tel":"031-684-0808","addr":"경기도 평택시 안중읍 안중리 484-3번지 3층 301호","category":"레저업소 - 노 래 방"},{"name":"합정생고기김치찌개","tel":"031-684-4010","addr":"경기도 평택시 안중읍 안중리 484-3번지 102,103호","category":"일반휴게음식 - 일반한식"}]},{"lat":"36.986551234","long":"126.92743433","items":[{"name":"광덕상회","tel":"031-682-2386","addr":"경기도 평택시 안중읍 안중리 262-5 4/","category":"회원제형태 - 기타1"}]},{"lat":"36.983434334","long":"126.92871784","items":[{"name":"광어 9,900원","tel":"031-682-7894","addr":"경기도 평택시 안중읍 안중리 305-100번지","category":"음식점 - 한식"},{"name":"동인당건강원","tel":"031-663-1234","addr":"경기도 평택시 안중읍 안중리 305-100번지","category":"건강식품 - 기타건강식품"},{"name":"사거리식당","tel":"031-234-0150","addr":"경기도 평택시 안중읍 안중리 305-100번지","category":"일반휴게음식 - 일반한식"},{"name":"신우자동차공업사","tel":"031-686-8297","addr":"경기도 평택시 안중읍 안중리 305-100번지","category":"서비스업 - 자동차정비"}]},{"lat":"36.988049553","long":"126.93154397","items":[{"name":"광혜당약국","tel":"031-686-5577","addr":"경기도 평택시 안중읍 안중리 297-11번지 서경빌딩 1층","category":"소매업 - 약국"},{"name":"파티원부페","tel":"031-681-1901","addr":"경기도 평택시 안중읍 안중리 297-11번지 서경빌딩 501호","category":"일반휴게음식 - 일반한식"}]},{"lat":"36.987379832","long":"126.92682696","items":[{"name":"구구왕","tel":"031-682-3854","addr":"경기도 평택시 안중읍 안중리 260-2번지","category":"음식점 - 중식"},{"name":"구구왕","tel":"031-682-5888","addr":"경기도 평택시 안중읍 안중리 260-2번지","category":"일반휴게음식 - 일반한식"}]},{"lat":"36.98879527","long":"126.92801621","items":[{"name":"구두가방병원","tel":"031-684-9272","addr":"경기도 평택시 안중읍 안중리 275-1번지","category":"수리서비스 - 신변잡화수리"}]},{"lat":"36.98993427","long":"126.93404713","items":[{"name":"구월철강","tel":"031-681-6671","addr":"경기도 평택시 안중읍 안중리 213-3","category":"건축자재 - 기타건축자재"}]},{"lat":"36.990545721","long":"126.93187863","items":[{"name":"국제농기계","tel":"031-681-6004","addr":"경기도 평택시 안중읍 안중리 236-12번지","category":"농업 - 농기계"}]},{"lat":"36.98893267","long":"126.93165547","items":[{"name":"굿맨엔샤넬의원","tel":"031-681-3727","addr":"경기도 평택시 안중읍 안중리 233-8번지","category":"의원 - 의원"},{"name":"장응서내과의원","tel":"031-681-1511","addr":"경기도 평택시 안중읍 안중리 233-8번지","category":"의원 - 의원"}]},{"lat":"36.989269023","long":"126.93676606","items":[{"name":"굿맨의원","tel":"031-682-4700","addr":"경기도 평택시 안중읍 안중리 137번지","category":"서비스업 - 병원"}]},{"lat":"36.986884487","long":"126.92720935","items":[{"name":"궁말건강원","tel":"031-682-4970","addr":"경기도 평택시 안중읍 안중리 261-22번지","category":"건강식품 - 기타건강식품"},{"name":"다사랑호프","tel":"031-683-2355","addr":"경기도 평택시 안중읍 안중리 261-22번지 1층","category":"일반휴게음식 - 주점"},{"name":"미시&줌","tel":"031-683-4533","addr":"경기도 평택시 안중읍 안중리 261-22번지","category":"의류 - 정장"},{"name":"온누리냉열관리","tel":"031-683-9721","addr":"경기도 평택시 안중읍 안중리 261-22번지","category":"건축자재 - 보일러·펌프·샷시"}]},{"lat":"36.986992551","long":"126.92710815","items":[{"name":"궁말건강원","tel":"031-682-4866","addr":"경기도 평택시 안중읍 안중리 261-20번지","category":"소매업 - 건강기능식품"}]},{"lat":"36.987154708","long":"126.92705183","items":[{"name":"궁말제분소","tel":"031-682-4970","addr":"경기도 평택시 안중읍 안중리 260-23번지","category":"음료식품 - 기타음료식품"},{"name":"궁말한약방","tel":"031-682-4970","addr":"경기도 평택시 안중읍 안중리 261-10","category":"약국 - 한약방"}]},{"lat":"36.987127229","long":"126.92635545","items":[{"name":"궁중떡방","tel":"031-682-8701","addr":"경기도 평택시 안중읍 안중리 256-17번지","category":"소매업 - 떡집"},{"name":"궁중떡방","tel":"031-683-3579","addr":"경기도 평택시 안중읍 안중리 256-17","category":"음료식품 - 제과점"}]},{"lat":"36.986794013","long":"126.92663659","items":[{"name":"그린호프","tel":"031-682-0336","addr":"경기도 평택시 안중읍 안중리 262-36번지","category":"일반휴게음식 - 주점"},{"name":"엉터리소머리국밥","tel":"031-683-3370","addr":"경기도 평택시 안중읍 안중리 262-36번지 1층","category":"일반휴게음식 - 일반한식"},{"name":"지금 네일","tel":"031-663-0447","addr":"경기도 평택시 안중읍 안중리 262-36번지 103호","category":"보건위생 - 피부미용실"},{"name":"향라원","tel":"031-616-3086","addr":"경기도 평택시 안중읍 안중리 262-36번지 1층","category":"일반휴게음식 - 중국식"}]},{"lat":"36.988246208","long":"126.92896029","items":[{"name":"금빛댄스스포츠","tel":"","addr":"경기도 평택시 안중읍 안중리 281-1번지 3층","category":"학원 - 예·체능계학원"},{"name":"농업회사법인주식회사 한나눔","tel":"070-4384-2634","addr":"경기도 평택시 안중읍 안중리 281-1번지 3층 301호","category":"음료식품 - 기타음료식품"},{"name":"동방마라탕","tel":"","addr":"경기도 평택시 안중읍 안중리 281-1번지 1층","category":"일반휴게음식 - 중국식"},{"name":"머리가예쁜사람들","tel":"031-682-8320","addr":"경기도 평택시 안중읍 안중리 281-1번지","category":"보건위생 - 미용원"},{"name":"베비라","tel":"031-683-7633","addr":"경기도 평택시 안중읍 안중리 281-1번지","category":"소매업 - 유아복"},{"name":"석영꽃집","tel":"031-681-1717","addr":"경기도 평택시 안중읍 안중리 281-1번지","category":"소매업 - 꽃집"},{"name":"석영꽃집","tel":"031-681-0748","addr":"경기도 평택시 안중읍 안중리 281-1번지","category":"문화.취미 - 화원"},{"name":"속초오징어","tel":"031-681-1533","addr":"경기도 평택시 안중읍 안중리 281-1번지","category":"일반휴게음식 - 일식·회집"},{"name":"옛날손칼국수","tel":"031-682-8811","addr":"경기도 평택시 안중읍 안중리 281-1","category":"일반휴게음식 - 일반한식"},{"name":"유런디자인","tel":"","addr":"경기도 평택시 안중읍 안중리 281-1번지","category":"용역 서비스 - 종합용역"},{"name":"자유시간","tel":"","addr":"경기도 평택시 안중읍 안중리 281-1번지 2층","category":"일반휴게음식 - 일반한식"},{"name":"진미식당","tel":"","addr":"경기도 평택시 안중읍 안중리 281-1번지","category":"음식점 - 한식"},{"name":"친절한가게","tel":"031-681-5436","addr":"경기도 평택시 안중읍 안중리 281-1번지","category":"문화.취미 - 화원"},{"name":"친절한가게","tel":"031-681-7879","addr":"경기도 평택시 안중읍 안중리 281-1번지 1층","category":"음료식품 - 기타음료식품"},{"name":"친절한가게","tel":"031-647-0999","addr":"경기도 평택시 안중읍 안중리 281-1번지","category":"제조업 - 김, 한과 등"}]},{"lat":"36.987432632","long":"126.94006999","items":[{"name":"금안전기","tel":"031-681-7125","addr":"경기도 평택시 안중읍 안중리 72-89번지","category":"용역 서비스 - 기타용역서비스"}]},{"lat":"36.988716649","long":"126.93204882","items":[{"name":"금영노래연습장","tel":"031-683-3116","addr":"경기도 평택시 안중읍 안중리 231-3번지 3층 303호","category":"레저업소 - 노 래 방"},{"name":"법무사서윤하사무소","tel":"","addr":"경기도 평택시 안중읍 안중리 231-3번지 101호","category":"서비스업 - 법무사사무소"},{"name":"서평택기술교육학원","tel":"031-684-9907","addr":"경기도 평택시 안중읍 안중리 231-3번지 3층","category":"회원제형태 - 학원"},{"name":"코바코안중점","tel":"031-683-6525","addr":"경기도 평택시 안중읍 안중리 231-3번지 외4필지","category":"일반휴게음식 - 칵테일바"},{"name":"포유25","tel":"031-683-2129","addr":"경기도 평택시 안중읍 안중리 231-3번지 105호","category":"유통업 영리 - 편 의 점"}]},{"lat":"36.985191458","long":"126.9287723","items":[{"name":"금잔디미용실","tel":"031-681-2797","addr":"경기도 평택시 안중읍 안중리 305-23","category":"보건위생 - 미용원"},{"name":"한판노래연습장","tel":"031-681-8148","addr":"경기도 평택시 안중읍 안중리 305-23번지","category":"레저업소 - 노 래 방"}]},{"lat":"36.98177112","long":"126.93502041","items":[{"name":"기쁜날이야기","tel":"031-682-6620","addr":"경기도 평택시 안중읍 안중리 494-1번지 1층","category":"일반휴게음식 - 일반한식"}]},{"lat":"36.988932508","long":"126.93138589","items":[{"name":"김군홍의원","tel":"031-683-0080","addr":"경기도 평택시 안중읍 안중리 233-7번지 2층 3층","category":"보건위생 - 화장품"},{"name":"김군홍의원","tel":"031-683-0080","addr":"경기도 평택시 안중읍 안중리 233-7번지 2층 3층","category":"의원 - 의원"},{"name":"더페이스샵","tel":"031-681-7766","addr":"경기도 평택시 안중읍 안중리 233-7번지","category":"보건위생 - 화장품"},{"name":"더페이스샵안중점","tel":"","addr":"경기도 평택시 안중읍 안중리 233-7번지","category":"소매업 - 화장품"},{"name":"서울약국","tel":"031-681-6006","addr":"경기도 평택시 안중읍 안중리 233-7번지","category":"약국 - 약국"},{"name":"서울우리의원","tel":"031-684-6675","addr":"경기도 평택시 안중읍 안중리 233-7","category":"의원 - 의원"},{"name":"참다한홍삼 평택안중점","tel":"031-682-3290","addr":"경기도 평택시 안중읍 안중리 233-7번지","category":"도소매업 - 건강기능식품"},{"name":"참다한홍삼 평택안중점","tel":"031-684-4333","addr":"경기도 평택시 안중읍 안중리 233-7번지","category":"건강식품 - 홍삼제품"}]},{"lat":"36.987850802","long":"126.93069048","items":[{"name":"김미희헤어센스","tel":"031-682-0852","addr":"경기도 평택시 안중읍 안중리 293-9번지 A동 1층","category":"보건위생 - 미용원"},{"name":"신북경반점","tel":"031-684-2341","addr":"경기도 평택시 안중읍 안중리 293-9번지 A동 1층","category":"일반휴게음식 - 중국식"},{"name":"신북경반점","tel":"031-683-0868","addr":"경기도 평택시 안중읍 안중리 293-9번지 A동 1층","category":"음식점 - 중식"},{"name":"안중이발관","tel":"031-684-5681","addr":"경기도 평택시 안중읍 안중리 293-9번지 B동 1층","category":"서비스업 - 이미용"},{"name":"안중이발관","tel":"031-681-9333","addr":"경기도 평택시 안중읍 안중리 293-9번지 B동 1층","category":"보건위생 - 이용원"},{"name":"피쉬앤그릴(안중점)","tel":"031-684-2884","addr":"경기도 평택시 안중읍 안중리 293-9","category":"일반휴게음식 - 주점"},{"name":"피쉬엔그릴","tel":"","addr":"경기도 평택시 안중읍 안중리 293-9번지","category":"음식점 - 일반"}]},{"lat":"36.98857159","long":"126.93057747","items":[{"name":"김밥천국안중점","tel":"031-681-2082","addr":"경기도 평택시 안중읍 안중리 292-14번지 외1필지1층2","category":"일반휴게음식 - 일반한식"},{"name":"모바일 프라자","tel":"031-683-3315","addr":"경기도 평택시 안중읍 안중리 292-14번지","category":"소매업 - 통신기기"},{"name":"안중컴퓨터프라자","tel":"031-681-6633","addr":"경기도 평택시 안중읍 안중리 292-14번지","category":"사무통신 - 컴퓨터"},{"name":"우리치과의원","tel":"031-682-2844","addr":"경기도 평택시 안중읍 안중리 292-14번지","category":"의원 - 치과의원"},{"name":"컴퓨터프라자","tel":"031-681-6633","addr":"경기도 평택시 안중읍 안중리 292-14번지","category":"사무통신 - 통신기기(무이자할부)"}]},{"lat":"36.98524628","long":"126.92999655","items":[{"name":"김영화부대찌개","tel":"031-682-1994","addr":"경기도 평택시 안중읍 안중리 302번지","category":"음식점 - 한식"},{"name":"김영화부대찌개(안중점)","tel":"031-686-5289","addr":"경기도 평택시 안중읍 안중리 302번지 1층","category":"일반휴게음식 - 일반한식"},{"name":"아모레카운셀러","tel":"031-655-1613","addr":"경기도 평택시 안중읍 안중리 302번지","category":"보건위생 - 화장품"}]},{"lat":"36.992075259","long":"126.92815903","items":[{"name":"까페로시오","tel":"031-686-7373","addr":"경기도 평택시 안중읍 안중리 244-6번지 1층","category":"일반휴게음식 - 서양음식"},{"name":"대화기획","tel":"031-686-7373","addr":"경기도 평택시 안중읍 안중리 244-6번지","category":"용역 서비스 - 종합용역"},{"name":"안중스포츠","tel":"031-611-7301","addr":"경기도 평택시 안중읍 안중리 244-6번지 1층 103호","category":"레져용품 - 스포츠·레져용품"}]},{"lat":"36.987967363","long":"126.92974684","items":[{"name":"꽁스네일","tel":"031-684-4141","addr":"경기도 평택시 안중읍 안중리 290-6번지","category":"보건위생 - 화장품"},{"name":"마실돈까스","tel":"070-4232-0321","addr":"경기도 평택시 안중읍 안중리 290-6번지","category":"일반휴게음식 - 서양음식"},{"name":"재우네부대찌개","tel":"031-681-5385","addr":"경기도 평택시 안중읍 안중리 290-6번지","category":"일반휴게음식 - 일반한식"}]},{"lat":"36.994745243","long":"126.93277341","items":[{"name":"꿈나래어린이집[아이행복]","tel":"031-683-3977","addr":"경기도 평택시 안중읍 안중리 196-16번지","category":"학원 - 유아원"}]},{"lat":"36.988128442","long":"126.9279607","items":[{"name":"남대문집","tel":"031-681-1283","addr":"경기도 평택시 안중읍 안중리 272-25번지","category":"일반휴게음식 - 일반한식"},{"name":"남대문집","tel":"031-684-3392","addr":"경기도 평택시 안중읍 안중리 272-25번지","category":"음식점 - 한식"},{"name":"또또와","tel":"02-6407-7979","addr":"경기도 평택시 안중읍 안중리 272-25번지","category":"일반휴게음식 - 일반한식"}]},{"lat":"36.989461571","long":"126.9272405","items":[{"name":"남부상사","tel":"031-682-0117","addr":"경기도 평택시 안중읍 안중리 245-23번지","category":"수리서비스 - 기타수리서비스"}]},{"lat":"36.98704693","long":"126.92760233","items":[{"name":"남촌식당","tel":"","addr":"경기도 평택시 안중읍 안중리 262-49번지","category":"음식점 - 한식"},{"name":"봉자네쭈꾸미","tel":"031-0000-0000","addr":"경기도 평택시 안중읍 안중리 262-49번지","category":"음료식품 - 기타음료식품"},{"name":"안중청년회의소","tel":"031-681-6781","addr":"경기도 평택시 안중읍 안중리 262-49번지 2층","category":"기타 - 비영리/대상"},{"name":"야성쥐","tel":"031-682-4888","addr":"경기도 평택시 안중읍 안중리 262-49번지 1층","category":"일반휴게음식 - 중국식"},{"name":"인연호프","tel":"","addr":"경기도 평택시 안중읍 안중리 262-49번지","category":"일반휴게음식 - 일반한식"},{"name":"장가네수원칼국수","tel":"031-681-7555","addr":"경기도 평택시 안중읍 안중리 262-49번지","category":"일반휴게음식 - 일반한식"}]},{"lat":"36.987298411","long":"126.92632158","items":[{"name":"낭만고양이","tel":"031-353-0447","addr":"경기도 평택시 안중읍 안중리 252-47번지 1층","category":"의류 - 정장"},{"name":"안중유리","tel":"031-681-6262","addr":"경기도 평택시 안중읍 안중리 252-47번지","category":"건축자재 - 유리"},{"name":"여림헤어","tel":"031-681-0886","addr":"경기도 평택시 안중읍 안중리 252-47번지 가동","category":"보건위생 - 미용원"}]},{"lat":"36.994629442","long":"126.93507639","items":[{"name":"내일은 희망","tel":"031-681-3753","addr":"경기도 평택시 안중읍 안중리 196-10번지 지하1층","category":"용역 서비스 - 종합용역"}]},{"lat":"36.98248942","long":"126.93068432","items":[{"name":"넘버원푸드","tel":"031-684-6183","addr":"경기도 평택시 안중읍 안중리 478-5번지 1층","category":"일반휴게음식 - 일반한식"},{"name":"홍대손칼국수김밥","tel":"031-681-0889","addr":"경기도 평택시 안중읍 안중리 478-5번지","category":"일반휴게음식 - 일반한식"}]},{"lat":"36.985938804","long":"126.92790669","items":[{"name":"넝쿨호프","tel":"031-683-3555","addr":"경기도 평택시 안중읍 안중리 262-27번지","category":"일반휴게음식 - 주점"}]},{"lat":"36.987328899","long":"126.93188162","items":[{"name":"노란나비","tel":"031-682-1456","addr":"경기도 평택시 안중읍 안중리 297-14번지 2층","category":"의류 - 정장"},{"name":"루마썬팅(안중점)","tel":"031-684-3461","addr":"경기도 평택시 안중읍 안중리 297-14번지","category":"자동차정비 유지 - 자동차부품"}]},{"lat":"36.983407797","long":"126.92951533","items":[{"name":"노리터피씨(pc)카페","tel":"","addr":"경기도 평택시 안중읍 안중리 473-3번지 2층","category":"레저업소 - 기타레져업소"},{"name":"욕실마을","tel":"031-683-1052","addr":"경기도 평택시 안중읍 안중리 473-3번지 102호","category":"건축자재 - 건축용 요업제품"}]},{"lat":"36.98794069","long":"126.93033095","items":[{"name":"녹십초","tel":"031-681-4478","addr":"경기도 평택시 안중읍 안중리 291-4번지 4층","category":"보건위생 - 화장품"},{"name":"상아당구장","tel":"031-683-5385","addr":"경기도 평택시 안중읍 안중리 291-4번지 2층","category":"레저업소 - 당 구 장"},{"name":"세일마트","tel":"031-683-6664","addr":"경기도 평택시 안중읍 안중리 291-4번지","category":"유통업 영리 - 슈퍼마켓"},{"name":"익스포트코리아 유한회사 (Export Korea LL","tel":"","addr":"경기도 평택시 안중읍 안중리 291-4번지 대일빌딩 2층","category":"일반휴게음식 - 일반한식"}]},{"lat":"36.985155014","long":"126.9281321","items":[{"name":"놀러와호프","tel":"","addr":"경기도 평택시 안중읍 안중리 305-6번지 VVIP빌딩 지하층 102호","category":"일반휴게음식 - 주점"},{"name":"준노래연습장","tel":"031-682-7220","addr":"경기도 평택시 안중읍 안중리 305-6번지 VVIP빌딩 지하1층","category":"레저업소 - 노 래 방"}]},{"lat":"36.987939795","long":"126.92888196","items":[{"name":"놀이터호프","tel":"031-681-5406","addr":"경기도 평택시 안중읍 안중리 281-15번지 2층","category":"일반휴게음식 - 주점"},{"name":"목마상회","tel":"031-682-2850","addr":"경기도 평택시 안중읍 안중리 281-15번지","category":"도소매업 - 과일"},{"name":"비엔에스헤어샵 (B&S)","tel":"031-681-4589","addr":"경기도 평택시 안중읍 안중리 281-15번지 1층","category":"보건위생 - 미용원"},{"name":"워수제화","tel":"031-684-7999","addr":"경기도 평택시 안중읍 안중리 281-15번지","category":"소매업 - 잡화"},{"name":"자사모라이브콘서트","tel":"031-688-1949","addr":"경기도 평택시 안중읍 안중리 281-15번지 지하1층","category":"일반휴게음식 - 일반한식"},{"name":"중국식품","tel":"031-684-3339","addr":"경기도 평택시 안중읍 안중리 281-15번지 대원빌딩 1층 상가(과일가게옆)","category":"유통업 영리 - 슈퍼마켓"}]},{"lat":"36.987436663","long":"126.93127496","items":[{"name":"농민약국","tel":"031-684-0445","addr":"경기도 평택시 안중읍 안중리 294-4번지","category":"약국 - 약국"},{"name":"자매식당","tel":"031-684-0600","addr":"경기도 평택시 안중읍 안중리 294-4번지","category":"음식점 - 한식"}]},{"lat":"36.987715873","long":"126.93107251","items":[{"name":"농업회사 형제축산푸드 주식회사","tel":"031-683-1786","addr":"경기도 평택시 안중읍 안중리 293-25번지 농업회사 형제축산푸드 주식회사","category":"음료식품 - 정육점"},{"name":"뉴욕","tel":"031-682-7482","addr":"경기도 평택시 안중읍 안중리 293-25번지","category":"보건위생 - 화장품"},{"name":"형제축산푸드 주식회사","tel":"031-684-1786","addr":"경기도 평택시 안중읍 안중리 293-25번지","category":"음료식품 - 정육점"}]},{"lat":"36.987821908","long":"126.92769142","items":[{"name":"농장한우 1번가","tel":"031-681-9070","addr":"경기도 평택시 안중읍 안중리 271-1번지","category":"도매업 - 정육"},{"name":"안중건어물마트","tel":"031-684-8900","addr":"경기도 평택시 안중읍 안중리 271-1번지","category":"소매업 - 슈퍼"},{"name":"주식회사 안중건어물마트","tel":"031-663-4547","addr":"경기도 평택시 안중읍 안중리 271-1번지","category":"유통업 영리 - 슈퍼마켓"}]},{"lat":"36.988822599","long":"126.92848796","items":[{"name":"누가의료기","tel":"031-683-7360","addr":"경기도 평택시 안중읍 안중리 278-13번지 2층","category":"보건위생 - 의료용품"},{"name":"보물창고","tel":"031-683-4885","addr":"경기도 평택시 안중읍 안중리 278-13번지","category":"유통업 영리 - 슈퍼마켓"}]},{"lat":"36.987191123","long":"126.92763588","items":[{"name":"다이아호프","tel":"","addr":"경기도 평택시 안중읍 안중리 262번지 1층","category":"일반휴게음식 - 주점"},{"name":"새가게정육점","tel":"031-682-5203","addr":"경기도 평택시 안중읍 안중리 262번지","category":"소매업 - 정육"},{"name":"서울떡집","tel":"031-683-3074","addr":"경기도 평택시 안중읍 안중리 262번지","category":"음료식품 - 제과점"},{"name":"서울떡집","tel":"031-682-0759","addr":"경기도 평택시 안중읍 안중리 262번지","category":"제조업 - 떡"},{"name":"술친구","tel":"031-681-7087","addr":"경기도 평택시 안중읍 안중리 262번지","category":"일반휴게음식 - 주점"},{"name":"안성정육점","tel":"031-684-9438","addr":"경기도 평택시 안중읍 안중리 262번지","category":"소매업 - 정육"},{"name":"쥬얼리","tel":"031-684-9810","addr":"경기도 평택시 안중읍 안중리 262번지","category":"일반휴게음식 - 일반한식"},{"name":"화성상회","tel":"031-682-5257","addr":"경기도 평택시 안중읍 안중리 262번지","category":"신변잡화 - 기타잡화"}]},{"lat":"36.987155723","long":"126.92865807","items":[{"name":"단발머리","tel":"031-681-8767","addr":"경기도 평택시 안중읍 안중리 266-6","category":"보건위생 - 미용원"},{"name":"소위오리목점","tel":"031-681-1222","addr":"경기도 평택시 안중읍 안중리 266-6번지","category":"일반휴게음식 - 일반한식"},{"name":"양승호헤어","tel":"031-683-9966","addr":"경기도 평택시 안중읍 안중리 266-6","category":"보건위생 - 미용원"},{"name":"양승호헤어","tel":"","addr":"경기도 평택시 안중읍 안중리 266-6번지","category":"서비스업 - 이미용"},{"name":"에바니아힐링케어","tel":"031-682-0006","addr":"경기도 평택시 안중읍 안중리 266-6번지","category":"건강식품 - 기타건강식품"}]},{"lat":"36.98851615","long":"126.92835346","items":[{"name":"달보드레","tel":"031-236-5263","addr":"경기도 평택시 안중읍 안중리 273-6번지","category":"가구 - 기타가구"},{"name":"바바","tel":"031-663-0447","addr":"경기도 평택시 안중읍 안중리 273-6번지","category":"의류 - 정장"},{"name":"온스타일","tel":"031-681-6500","addr":"경기도 평택시 안중읍 안중리 273-6번지","category":"소매업 - 의류"}]},{"lat":"36.986407326","long":"126.92785007","items":[{"name":"달콤, 쌀쌀","tel":"031-682-3183","addr":"경기도 평택시 안중읍 안중리 262-22번지 지층 달콤, 쌀쌀","category":"제조업 - 떡류"},{"name":"앵두호프","tel":"031-682-2944","addr":"경기도 평택시 안중읍 안중리 262-22번지","category":"일반휴게음식 - 주점"},{"name":"여우들의 속삭임","tel":"031-684-6772","addr":"경기도 평택시 안중읍 안중리 262-22번지","category":"소매업 - 화장품"},{"name":"여우들의속삭임","tel":"031-616-6288","addr":"경기도 평택시 안중읍 안중리 262-22번지","category":"보건위생 - 화장품"},{"name":"위치스틱","tel":"031-681-4473","addr":"경기도 평택시 안중읍 안중리 262-22번지","category":"음식점 - 커피"},{"name":"위치스틱","tel":"031-616-6288","addr":"경기도 평택시 안중읍 안중리 262-22번지 현덕빌딩 1층","category":"일반휴게음식 - 서양음식"},{"name":"천복미식점","tel":"031-684-5872","addr":"경기도 평택시 안중읍 안중리 262-22번지 2층","category":"일반휴게음식 - 중국식"},{"name":"현덕유통","tel":"031-681-7784","addr":"경기도 평택시 안중읍 안중리 262-22번지","category":"용역 서비스 - 종합용역"}]},{"lat":"36.9853532","long":"126.92805328","items":[{"name":"대박","tel":"031-683-8260","addr":"경기도 평택시 안중읍 안중리 305-13번지 지하1층","category":"일반휴게음식 - 일반한식"}]},{"lat":"36.987238373","long":"126.93118529","items":[{"name":"대박청량양꼬치","tel":"","addr":"경기도 평택시 안중읍 안중리 298번지 만성빌딩","category":"일반휴게음식 - 중국식"},{"name":"럭셔리","tel":"031-683-9253","addr":"경기도 평택시 안중읍 안중리 298번지 3층 일부","category":"보건위생 - 화장품"},{"name":"안중복싱체육관","tel":"031-686-6776","addr":"경기도 평택시 안중읍 안중리 298번지 만성빌딩 4층","category":"학원 - 예·체능계학원"}]},{"lat":"36.988211196","long":"126.93063398","items":[{"name":"대성(중량물)지게차","tel":"031-683-7776","addr":"경기도 평택시 안중읍 안중리 293-29번지","category":"기타 - 기계공구"},{"name":"생선과 닭","tel":"070-7796-7792","addr":"경기도 평택시 안중읍 안중리 293-29번지 1층","category":"음료식품 - 농·축·수산품"},{"name":"영미식당","tel":"031-111-1111","addr":"경기도 평택시 안중읍 안중리 293-29번지 1층","category":"일반휴게음식 - 일반한식"},{"name":"황금펌프카","tel":"031-681-7979","addr":"경기도 평택시 안중읍 안중리 293-29번지","category":"기타 - 기계공구"}]},{"lat":"36.987020548","long":"126.92863573","items":[{"name":"대성사","tel":"031-682-4724","addr":"경기도 평택시 안중읍 안중리 266-13번지 1층","category":"수리서비스 - 세탁소"},{"name":"애견하우스","tel":"031-684-2829","addr":"경기도 평택시 안중읍 안중리 266-13번지","category":"문화.취미 - 애완동물"}]},{"lat":"36.98851732","long":"126.93024055","items":[{"name":"대성약국","tel":"031-681-2778","addr":"경기도 평택시 안중읍 안중리 292-11번지","category":"소매업 - 약국"},{"name":"동양메리야스","tel":"031-681-7620","addr":"경기도 평택시 안중읍 안중리 292-11","category":"의류 - 내의판매"},{"name":"수비뇨기과의원","tel":"031-681-1684","addr":"경기도 평택시 안중읍 안중리 292-11번지 2층","category":"의원 - 의원"}]},{"lat":"36.989879164","long":"126.93227239","items":[{"name":"대영(타일)ENG","tel":"031-681-4220","addr":"경기도 평택시 안중읍 안중리 234-25번지","category":"건축자재 - 건축용 요업제품"}]},{"lat":"36.990020364","long":"126.92744214","items":[{"name":"대일전기","tel":"031-681-1231","addr":"경기도 평택시 안중읍 안중리 245-15번지","category":"건축자재 - 보일러·펌프·샷시"}]},{"lat":"36.988544455","long":"126.93040901","items":[{"name":"대풍노래연습장","tel":"031-682-5159","addr":"경기도 평택시 안중읍 안중리 292-12번지 지하층","category":"레저업소 - 노 래 방"},{"name":"보떼 안중점","tel":"031-684-6997","addr":"경기도 평택시 안중읍 안중리 292-12","category":"보건위생 - 화장품"},{"name":"안중오안과의원","tel":"031-681-0248","addr":"경기도 평택시 안중읍 안중리 292-12번지","category":"의원 - 의원"},{"name":"장의원","tel":"031-681-5111","addr":"경기도 평택시 안중읍 안중리 292-12번지","category":"의원 - 의원"}]},{"lat":"36.984579246","long":"126.92960406","items":[{"name":"댄스스포츠아카데미","tel":"031-684-3037","addr":"경기도 평택시 안중읍 안중리 305-55번지","category":"회원제형태 - 레져업소"},{"name":"안중라이온스클럽","tel":"031-682-2795","addr":"경기도 평택시 안중읍 안중리 305-55번지","category":"기타 - 비영리/비대상"}]},{"lat":"36.981995538","long":"126.93354886","items":[{"name":"더 런드리 셀프빨래방 평택송담점","tel":"","addr":"경기도 평택시 안중읍 안중리 489-8번지","category":"수리서비스 - 세탁소"}]},{"lat":"36.98809959","long":"126.92513012","items":[{"name":"더 설비(THE SYSTEM)","tel":"","addr":"경기도 평택시 안중읍 안중리 256-47번지 303호","category":"용역 서비스 - 기타용역서비스"}]},{"lat":"36.983075558","long":"126.93141383","items":[{"name":"더솜카페","tel":"031-111-1111","addr":"경기도 평택시 안중읍 안중리 481-1번지 1층","category":"일반휴게음식 - 서양음식"}]},{"lat":"36.984184387","long":"126.93226643","items":[{"name":"더코코","tel":"02-1111-1111","addr":"경기도 평택시 안중읍 안중리 466-3번지 1층 101호","category":"보건위생 - 미용원"}]},{"lat":"36.987073179","long":"126.92637797","items":[{"name":"데이앤데이평택안중점(제우스통신)","tel":"032-682-0002","addr":"경기도 평택시 안중읍 안중리 256-5번지","category":"유통업 영리 - 편 의 점"},{"name":"데이앤데이평택안중점(제우스통신)","tel":"031-682-0002","addr":"경기도 평택시 안중읍 안중리 256-5번지","category":"유통업 영리 - 편 의 점"},{"name":"안평상인협동조합","tel":"031-681-7117","addr":"경기도 평택시 안중읍 안중리 256-5번지","category":"음료식품 - 기타음료식품"}]},{"lat":"36.987714422","long":"126.92871369","items":[{"name":"도도","tel":"031-681-9333","addr":"경기도 평택시 안중읍 안중리 281-2번지","category":"소매업 - 의류"},{"name":"도도","tel":"070-7783-2500","addr":"경기도 평택시 안중읍 안중리 281-2번지","category":"의류 - 정장"},{"name":"마임 경기 안중지사","tel":"070-8114-5158","addr":"경기도 평택시 안중읍 안중리 281-2번지","category":"건강식품 - 기타건강식품"},{"name":"안중온열침대","tel":"031-000-0000","addr":"경기도 평택시 안중읍 안중리 281-2번지 1층","category":"가구 - 일반가구"},{"name":"파도","tel":"","addr":"경기도 평택시 안중읍 안중리 281-2번지","category":"일반휴게음식 - 주점"}]},{"lat":"36.983218509","long":"126.92941443","items":[{"name":"도미노피자 안중점","tel":"031-682-3095","addr":"경기도 평택시 안중읍 안중리 477-1번지 1층","category":"일반휴게음식 - 서양음식"},{"name":"벨루스퀸","tel":"031-691-8223","addr":"경기도 평택시 안중읍 안중리 477-1번지 4층","category":"보건위생 - 피부미용실"},{"name":"석가네훠거무한리필","tel":"","addr":"경기도 평택시 안중읍 안중리 477-1번지 2층","category":"일반휴게음식 - 중국식"}]},{"lat":"36.987488176","long":"126.92716382","items":[{"name":"도화상회","tel":"031-681-6538","addr":"경기도 평택시 안중읍 안중리 261-14번지","category":"음료식품 - 농·축·수산품"},{"name":"수지유통","tel":"031-504-0690","addr":"경기도 평택시 안중읍 안중리 261-14번지 1층","category":"음료식품 - 농·축·수산품"}]},{"lat":"36.988659245","long":"126.92665719","items":[{"name":"동네분식","tel":"","addr":"경기도 평택시 안중읍 안중리 253-15번지 1층","category":"일반휴게음식 - 스넥"}]},{"lat":"36.988238364","long":"126.9308586","items":[{"name":"동부축산물도매센타","tel":"031-681-8289","addr":"경기도 평택시 안중읍 안중리 293-34번지","category":"음료식품 - 정육점"},{"name":"동부축산물도매센타","tel":"031-681-8289","addr":"경기도 평택시 안중읍 안중리 293-34번지 1층","category":"음료식품 - 정육점"},{"name":"동부축산물도매업센터","tel":"031-686-9515","addr":"경기도 평택시 안중읍 안중리 293-34번지","category":"도매업 - 정육"}]},{"lat":"36.988794729","long":"126.92716253","items":[{"name":"동신지업사","tel":"031-682-2029","addr":"경기도 평택시 안중읍 안중리 249-5번지","category":"직물 - 카페트,커튼,천막,지물"}]},{"lat":"36.988822167","long":"126.92780276","items":[{"name":"동양메리야스","tel":"","addr":"경기도 평택시 안중읍 안중리 274-6번지","category":"소매업 - 의류"},{"name":"안중노인주간보호센터","tel":"031-682-2100","addr":"경기도 평택시 안중읍 안중리 274-6번지 3층","category":"기타의료기관 - 기타의료기관 및 기타"},{"name":"안중이브자리","tel":"031-682-2247","addr":"경기도 평택시 안중읍 안중리 274-6번지 바이오빌딩 1층","category":"직물 - 침구·수예점"},{"name":"이브자리","tel":"031-683-8225","addr":"경기도 평택시 안중읍 안중리 274-6번지","category":"소매업 - 침구류"}]},{"lat":"36.988552369","long":"126.92863425","items":[{"name":"동일양행","tel":"031-681-5966","addr":"경기도 평택시 안중읍 안중리 273-2번지 동일빌딩","category":"의류 - 정장"},{"name":"미남미녀호프","tel":"","addr":"경기도 평택시 안중읍 안중리 273-2번지 평동빌딩 2층","category":"일반휴게음식 - 일반한식"},{"name":"삼양유제품","tel":"031-682-2369","addr":"경기도 평택시 안중읍 안중리 273-2","category":"음료식품 - 기타음료식품"},{"name":"안중전문점(BYC)","tel":"031-682-6684","addr":"경기도 평택시 안중읍 안중리 273-2번지","category":"소매업 - 의류"},{"name":"평안마트","tel":"031-683-6664","addr":"경기도 평택시 안중읍 안중리 273-2번지","category":"소매업 - 슈퍼"}]},{"lat":"36.991462566","long":"126.92821579","items":[{"name":"두만강","tel":"","addr":"경기도 평택시 안중읍 안중리 242-11번지 2층","category":"보건위생 - 미용재료"},{"name":"세덴자동차외형복원평택안중점","tel":"031-684-7233","addr":"경기도 평택시 안중읍 안중리 242-11","category":"자동차정비 유지 - 자동차정비"},{"name":"행복세차장","tel":"031-684-3344","addr":"경기도 평택시 안중읍 안중리 242-11번지","category":"자동차정비 유지 - 세차장"}]},{"lat":"36.983745224","long":"126.93635526","items":[{"name":"두야라","tel":"031-683-7771","addr":"경기도 평택시 안중읍 안중리 454-9번지 202호","category":"의류 - 정장"}]},{"lat":"36.985740519","long":"126.92782826","items":[{"name":"두인코리아","tel":"031-683-1212","addr":"경기도 평택시 안중읍 안중리 305-7번지","category":"보건위생 - 화장품"},{"name":"어처구니호프","tel":"031-684-3060","addr":"경기도 평택시 안중읍 안중리 305-7번지 1층","category":"일반휴게음식 - 주점"},{"name":"조이헤어샵","tel":"031-691-7879","addr":"경기도 평택시 안중읍 안중리 305-7번지","category":"보건위생 - 미용원"},{"name":"킹노래연습장","tel":"031-682-7642","addr":"경기도 평택시 안중읍 안중리 305-7번지 지하1층","category":"레저업소 - 노 래 방"}]},{"lat":"36.988211482","long":"126.93110575","items":[{"name":"디.에이블(D.Able)","tel":"031-684-5089","addr":"경기도 평택시 안중읍 안중리 293-62번지 2층","category":"신변잡화 - 기타잡화"},{"name":"무한장소 안중점","tel":"031-683-9294","addr":"경기도 평택시 안중읍 안중리 293-62번지","category":"일반휴게음식 - 일반한식"},{"name":"안중축산","tel":"031-683-9294","addr":"경기도 평택시 안중읍 안중리 293-62번지","category":"음료식품 - 정육점"}]},{"lat":"36.988245411","long":"126.92769101","items":[{"name":"디쎄","tel":"031-682-5578","addr":"경기도 평택시 안중읍 안중리 272-15번지 1층 2호","category":"의류 - 정장"},{"name":"베르사이유유럽풍십자수손뜨개","tel":"031-683-7949","addr":"경기도 평택시 안중읍 안중리 272-15번지","category":"직물 - 침구·수예점"}]},{"lat":"36.988245723","long":"126.92818524","items":[{"name":"디자인헤어","tel":"031-683-8702","addr":"경기도 평택시 안중읍 안중리 272-2번지 1동 1층","category":"보건위생 - 미용원"}]},{"lat":"36.988904952","long":"126.93052099","items":[{"name":"레드PC","tel":"070-9431-5379","addr":"경기도 평택시 안중읍 안중리 292-20번지 2,3층","category":"레저업소 - 기타레져업소"},{"name":"이니스프리안중점","tel":"031-681-3344","addr":"경기도 평택시 안중읍 안중리 292-20","category":"보건위생 - 화장품"}]},{"lat":"36.98715525","long":"126.92790549","items":[{"name":"레몬라이프","tel":"031-686-5691","addr":"경기도 평택시 안중읍 안중리 265-2번지","category":"숙박업 - 여관/기타숙박업"},{"name":"레몬레지던","tel":"031-686-5692","addr":"경기도 평택시 안중읍 안중리 265-2,265-4,262-59","category":"숙박업 - 여관/기타숙박업"}]},{"lat":"36.985968294","long":"126.93190534","items":[{"name":"리얼광택","tel":"","addr":"경기도 평택시 안중읍 안중리 445-4번지 다은빌 402호","category":"자동차정비 유지 - 세차장"},{"name":"배터리천국","tel":"031-239-8753","addr":"경기도 평택시 안중읍 안중리 445-4번지 다은빌 102호","category":"자동차정비 유지 - 자동차부품"}]},{"lat":"36.988850703","long":"126.93021776","items":[{"name":"마당발","tel":"","addr":"경기도 평택시 안중읍 안중리 292-53번지","category":"소매업 - 잡화"}]},{"lat":"36.987939585","long":"126.92854498","items":[{"name":"마당발","tel":"031-682-1833","addr":"경기도 평택시 안중읍 안중리 281-9번지","category":"신변잡화 - 신발"},{"name":"멋쟁이 옷집","tel":"031-681-2449","addr":"경기도 평택시 안중읍 안중리 281-9번지 1층","category":"의류 - 정장"},{"name":"연사주까페","tel":"","addr":"경기도 평택시 안중읍 안중리 281-9번지 2층","category":"일반휴게음식 - 주점"},{"name":"연사주카페","tel":"031-682-1833","addr":"경기도 평택시 안중읍 안중리 281-9번지 2층","category":"소매업 - 카페"}]},{"lat":"36.992182091","long":"126.9416275","items":[{"name":"마법골프연구소","tel":"031-686-6608","addr":"경기도 평택시 안중읍 안중리 172-10번지","category":"레져용품 - 골프용품 전문점"},{"name":"선우산업","tel":"031-684-8512","addr":"경기도 평택시 안중읍 안중리 172-10번지","category":"건축자재 - 페인트"},{"name":"에스에스포탈","tel":"031-683-3475","addr":"경기도 평택시 안중읍 안중리 172-10번지 서동랜드 1동","category":"자동차정비 유지 - 자동차부품"},{"name":"에스에스포탈퍼포먼스","tel":"031-683-3475","addr":"경기도 평택시 안중읍 안중리 172-10번지","category":"자동차정비 유지 - 자동차정비"}]},{"lat":"36.988851093","long":"126.93085803","items":[{"name":"만드기골목","tel":"031-681-8234","addr":"경기도 평택시 안중읍 안중리 292-7번지","category":"일반휴게음식 - 스넥"},{"name":"신영당","tel":"031-682-7874","addr":"경기도 평택시 안중읍 안중리 292-7번지","category":"신변잡화 - 시계"},{"name":"지센","tel":"031-681-4682","addr":"경기도 평택시 안중읍 안중리 292-7번지","category":"소매업 - 의류"},{"name":"지센","tel":"031-683-9550","addr":"경기도 평택시 안중읍 안중리 292-7번지","category":"의류 - 정장"}]},{"lat":"36.988904594","long":"126.92993689","items":[{"name":"만물유통","tel":"031-682-0101","addr":"경기도 평택시 안중읍 안중리 277-63번지 외2필지","category":"유통업 영리 - 기타유통업"},{"name":"안중화원&가드닝","tel":"031-683-7183","addr":"경기도 평택시 안중읍 안중리 277-63번지","category":"소매업 - 꽃집"},{"name":"안중화원앤가든잉","tel":"031-681-6001","addr":"경기도 평택시 안중읍 안중리 277-63번지","category":"문화.취미 - 화원"},{"name":"올포유 안중점","tel":"031-683-3367","addr":"경기도 평택시 안중읍 안중리 277-63번지","category":"도소매업 - 의류"},{"name":"파크랜드안중점","tel":"031-682-2068","addr":"경기도 평택시 안중읍 안중리 277-63번지","category":"소매업 - 의류"}]},{"lat":"36.988191276","long":"126.92757873","items":[{"name":"만보당","tel":"031-683-4885","addr":"경기도 평택시 안중읍 안중리 272-17번지","category":"소매업 - 귀금속"}]},{"lat":"36.985047181","long":"126.92860396","items":[{"name":"맑고고운어린이집[아이행복]","tel":"031-682-7139","addr":"경기도 평택시 안중읍 안중리 305-36번지","category":"학원 - 유아원"}]},{"lat":"36.994160725","long":"126.93479597","items":[{"name":"머드러기","tel":"","addr":"경기도 평택시 안중읍 안중리 196-12번지 1층 101호","category":"음료식품 - 농·축·수산품"},{"name":"한국설비 (ENG)","tel":"031-682-0965","addr":"경기도 평택시 안중읍 안중리 196-12번지 1층","category":"용역 서비스 - 기타용역서비스"}]},{"lat":"36.984462445","long":"126.93015455","items":[{"name":"명륜진사갈비 안중점","tel":"031-684-4706","addr":"경기도 평택시 안중읍 안중리 472-5번지 1층","category":"일반휴게음식 - 일반한식"},{"name":"세무사성기윤사무소","tel":"031-8029-9972","addr":"경기도 평택시 안중읍 안중리 472-5번지 2층 일부","category":"용역 서비스 - 법률회계서비스(개인)"}]},{"lat":"36.988266573","long":"126.93282428","items":[{"name":"명상","tel":"031-684-0727","addr":"경기도 평택시 안중읍 안중리 297-4번지","category":"보건위생 - 기타대인서비스"},{"name":"항아리보쌈안중점","tel":"031-684-8866","addr":"경기도 평택시 안중읍 안중리 297-4번지 1층","category":"일반휴게음식 - 일반한식"},{"name":"항아리보쌈안중점","tel":"031-684-2341","addr":"경기도 평택시 안중읍 안중리 297-4번지","category":"음식점 - 한식"}]},{"lat":"36.985605372","long":"126.92785085","items":[{"name":"무지개세탁소","tel":"031-684-6012","addr":"경기도 평택시 안중읍 안중리 305-10번지","category":"서비스업 - 세탁"}]},{"lat":"36.98379596","long":"126.93066062","items":[{"name":"미니스톱 평택송담점","tel":"031-1577-9621","addr":"경기도 평택시 안중읍 안중리 470-10번지 101호","category":"유통업 영리 - 편 의 점"}]},{"lat":"36.989961749","long":"126.93482217","items":[{"name":"미듬공사","tel":"031-683-2209","addr":"경기도 평택시 안중읍 안중리 216-21","category":"건축자재 - 기타건축자재"}]},{"lat":"36.989407385","long":"126.92704959","items":[{"name":"미라클","tel":"031-683-6155","addr":"경기도 평택시 안중읍 안중리 245-45번지","category":"회원제형태 - 기타4"},{"name":"종수원","tel":"031-686-8766","addr":"경기도 평택시 안중읍 안중리 245-45번지","category":"문화.취미 - 화원"}]},{"lat":"36.989022459","long":"126.93112745","items":[{"name":"미락칼국수","tel":"031-686-7336","addr":"경기도 평택시 안중읍 안중리 233-15번지 1층 103호","category":"일반휴게음식 - 일반한식"},{"name":"미락칼국수","tel":"031-682-8676","addr":"경기도 평택시 안중읍 안중리 233-15번지 1층 103호","category":"음식점 - 한식"},{"name":"조은약국","tel":"031-681-4978","addr":"경기도 평택시 안중읍 안중리 233-15번지 도도와빌딩 1층","category":"소매업 - 약국"}]},{"lat":"36.985490941","long":"126.93226522","items":[{"name":"미소준퓨전떡","tel":"","addr":"경기도 평택시 안중읍 안중리 445-7번지 (태양빌2)","category":"일반휴게음식 - 서양음식"}]},{"lat":"36.982742739","long":"126.93238008","items":[{"name":"미스터 마트 (안중점)","tel":"031-0000-0000","addr":"경기도 평택시 안중읍 안중리 483-1번지 101호","category":"유통업 영리 - 편 의 점"}]},{"lat":"36.991356137","long":"126.93096799","items":[{"name":"미스터리 코다리","tel":"031-684-7737","addr":"경기도 평택시 안중읍 안중리 238-23번지","category":"음식점 - 한식"},{"name":"미스터리 코다리","tel":"031-684-9592","addr":"경기도 평택시 안중읍 안중리 238-23번지","category":"일반휴게음식 - 일반한식"}]},{"lat":"36.988851222","long":"126.93107145","items":[{"name":"미스터휴대폰","tel":"","addr":"경기도 평택시 안중읍 안중리 292-8번지 1층","category":"도소매업 - 전자상거래"},{"name":"에뛰드하우스평택안중점","tel":"031-683-8225","addr":"경기도 평택시 안중읍 안중리 292-8번지","category":"보건위생 - 화장품"},{"name":"에뛰드하우스평택안중점","tel":"031-682-7745","addr":"경기도 평택시 안중읍 안중리 292-8번지","category":"소매업 - 화장품"},{"name":"터미널다방","tel":"","addr":"경기도 평택시 안중읍 안중리 292-8번지 지하1층","category":"일반휴게음식 - 서양음식"}]},{"lat":"36.986326724","long":"126.92863641","items":[{"name":"민들레인테리어","tel":"031-681-6363","addr":"경기도 평택시 안중읍 안중리 262-126","category":"직물 - 카페트,커튼,천막,지물"},{"name":"여의도아구찜황제탕","tel":"","addr":"경기도 평택시 안중읍 안중리 262-126번지","category":"음식점 - 한식"}]},{"lat":"36.987271581","long":"126.92663611","items":[{"name":"민영사","tel":"031-682-2710","addr":"경기도 평택시 안중읍 안중리 252-14번지","category":"보건위생 - 화장품"},{"name":"스피드운동화빨래방","tel":"031-681-9020","addr":"경기도 평택시 안중읍 안중리 252-14번지","category":"수리서비스 - 세탁소"},{"name":"홍삼의나라","tel":"031-681-5147","addr":"경기도 평택시 안중읍 안중리 252-14번지","category":"소매업 - 건강기능식품"},{"name":"홍삼의나라","tel":"031-681-4567","addr":"경기도 평택시 안중읍 안중리 252-14번지 1층 1호","category":"건강식품 - 홍삼제품"}]},{"lat":"36.989852702","long":"126.93323844","items":[{"name":"민테크","tel":"031-682-8376","addr":"경기도 평택시 안중읍 안중리 209-1번지","category":"전기제품 - 가전제품"},{"name":"오거리공업사","tel":"031-681-8224","addr":"경기도 평택시 안중읍 안중리 209-1번지","category":"서비스업 - 자동차정비"}]},{"lat":"36.988210326","long":"126.92921867","items":[{"name":"바로미분식점","tel":"","addr":"경기도 평택시 안중읍 안중리 281-19번지","category":"일반휴게음식 - 일반한식"},{"name":"사랑과평화","tel":"031-681-2275","addr":"경기도 평택시 안중읍 안중리 281-19번지 2층","category":"일반휴게음식 - 일반한식"},{"name":"서울영농자재상사","tel":"031-681-0807","addr":"경기도 평택시 안중읍 안중리 281-19번지 서울영농자재","category":"농업 - 비료,사료,종자"},{"name":"이스라엘홈인테리어","tel":"031-681-0959","addr":"경기도 평택시 안중읍 안중리 281-19","category":"직물 - 카페트,커튼,천막,지물"},{"name":"이스라엘홈인테리어","tel":"1644-5425","addr":"경기도 평택시 안중읍 안중리 281-19번지 1층","category":"소매업 - 침구, 커튼"},{"name":"진미식당","tel":"031-682-8946","addr":"경기도 평택시 안중읍 안중리 281-19번지","category":"일반휴게음식 - 일반한식"}]},{"lat":"36.989022228","long":"126.93074554","items":[{"name":"밝은얼굴","tel":"031-683-6799","addr":"경기도 평택시 안중읍 안중리 292-68번지 2층","category":"보건위생 - 화장품"},{"name":"밝은얼굴","tel":"031-682-5247","addr":"경기도 평택시 안중읍 안중리 292-68번지 2층","category":"소매업 - 화장품"}]},{"lat":"36.987884747","long":"126.92732069","items":[{"name":"밤바위상회","tel":"031-681-0135","addr":"경기도 평택시 안중읍 안중리 257번지","category":"소매업 - 야채, 과일"},{"name":"밤바위유통","tel":"031-682-0950","addr":"경기도 평택시 안중읍 안중리 257번지","category":"음료식품 - 기타음료식품"}]},{"lat":"36.986632209","long":"126.9272433","items":[{"name":"배달삼겹돼지되지","tel":"031-682-8591","addr":"경기도 평택시 안중읍 안중리 262-83번지","category":"일반휴게음식 - 일반한식"},{"name":"아재족발보쌈","tel":"031-682-0567","addr":"경기도 평택시 안중읍 안중리 262-83번지 1층","category":"일반휴게음식 - 일반한식"}]},{"lat":"36.994908426","long":"126.93446952","items":[{"name":"백년손님서서갈비 (안중직영점)","tel":"031-682-4492","addr":"경기도 평택시 안중읍 안중리 196-8번지","category":"일반휴게음식 - 일반한식"},{"name":"커피전문점 나우","tel":"031-684-4101","addr":"경기도 평택시 안중읍 안중리 196-8번지 1,2호","category":"일반휴게음식 - 서양음식"},{"name":"커피전문점(나우)","tel":"031-686-9006","addr":"경기도 평택시 안중읍 안중리 196-8번지 1,2호","category":"음식점 - 카페"}]},{"lat":"36.985884619","long":"126.92771579","items":[{"name":"백합","tel":"031-684-0855","addr":"경기도 평택시 안중읍 안중리 305-5번지","category":"일반휴게음식 - 주점"}]},{"lat":"36.983274684","long":"126.93290748","items":[{"name":"버블맨 24 안중점","tel":"","addr":"경기도 평택시 안중읍 안중리 467-4번지 1층 102호","category":"수리서비스 - 세탁소"}]},{"lat":"36.987604294","long":"126.92557993","items":[{"name":"버블버블","tel":"070-4234-5662","addr":"경기도 평택시 안중읍 안중리 256-4번지 101호","category":"보건위생 - 화장품"}]},{"lat":"36.987437141","long":"126.93207247","items":[{"name":"법무사법인 혜안","tel":"031-682-8060","addr":"경기도 평택시 안중읍 안중리 297-12번지 3층","category":"용역 서비스 - 법률회계서비스(법인)"},{"name":"안중알파문구","tel":"031-684-9274","addr":"경기도 평택시 안중읍 안중리 297-12번지","category":"서적문구 - 문구용품"}]},{"lat":"36.985573165","long":"126.93418585","items":[{"name":"베네시아","tel":"","addr":"경기도 평택시 안중읍 안중리 107-16번지 1층","category":"일반휴게음식 - 서양음식"},{"name":"베네시아","tel":"031-686-5352","addr":"경기도 평택시 안중읍 안중리 107-16번지 1층","category":"음식점 - 카페"}]},{"lat":"36.98882274","long":"126.92871261","items":[{"name":"베스킨라빈스31안중점","tel":"031-682-8031","addr":"경기도 평택시 안중읍 안중리 278-17","category":"음료식품 - 제과점"},{"name":"안중롯데리아","tel":"031-681-8588","addr":"경기도 평택시 안중읍 안중리 278-17번지","category":"일반휴게음식 - 서양음식"},{"name":"안중베비라","tel":"031-682-3538","addr":"경기도 평택시 안중읍 안중리 278-17번지","category":"의류 - 내의판매"}]},{"lat":"36.988300048","long":"126.92860079","items":[{"name":"보디가드","tel":"070-4082-3301","addr":"경기도 평택시 안중읍 안중리 281-5","category":"의류 - 내의판매"},{"name":"복떡집","tel":"031-682-3777","addr":"경기도 평택시 안중읍 안중리 281-5번지","category":"제조업 - 떡"},{"name":"복떡집","tel":"031-681-5968","addr":"경기도 평택시 안중읍 안중리 281-5번지 1층","category":"음료식품 - 제과점"},{"name":"삼대가옛날통닭","tel":"031-683-7810","addr":"경기도 평택시 안중읍 안중리 281-5번지","category":"음식점 - 치킨"},{"name":"삼대가옛날통닭","tel":"031-8094-3087","addr":"경기도 평택시 안중읍 안중리 281-5번지","category":"일반휴게음식 - 스넥"}]},{"lat":"36.988079766","long":"126.9370479","items":[{"name":"보떼화장품","tel":"031-682-3073","addr":"경기도 평택시 안중읍 안중리 126번지","category":"소매업 - 화장품"}]},{"lat":"36.988822514","long":"126.92835317","items":[{"name":"보물창고","tel":"","addr":"경기도 평택시 안중읍 안중리 278-19번지","category":"소매업 - 잡화"},{"name":"진세연 스킨케어","tel":"031-682-0588","addr":"경기도 평택시 안중읍 안중리 278-19번지 2층 진세연스킨케어","category":"서비스업 - 이미용"},{"name":"진세연스킨케어","tel":"031-681-1113","addr":"경기도 평택시 안중읍 안중리 278-19번지 2층","category":"회원제형태 - 기타4"},{"name":"행텐","tel":"031-681-8477","addr":"경기도 평택시 안중읍 안중리 278-19번지 대경빌딩 1동 1층","category":"의류 - 스포츠의류"}]},{"lat":"36.987549922","long":"126.92510822","items":[{"name":"보물찾기","tel":"","addr":"경기도 평택시 안중읍 안중리 256-49번지 BJ빌딩 1층 101호 상가","category":"의류 - 기타의류"}]},{"lat":"36.987155604","long":"126.92846712","items":[{"name":"보보스","tel":"","addr":"경기도 평택시 안중읍 안중리 266-37번지","category":"의류 - 정장"},{"name":"보보스","tel":"","addr":"경기도 평택시 안중읍 안중리 266-37번지","category":"도소매업 - 의류"},{"name":"하트","tel":"000-000-0000","addr":"경기도 평택시 안중읍 안중리 266-37번지","category":"의류 - 정장"}]},{"lat":"36.992019189","long":"126.94026842","items":[{"name":"봉평면옥","tel":"031-000-0000","addr":"경기도 평택시 안중읍 안중리 172-1번지 1동","category":"일반휴게음식 - 일반한식"},{"name":"서부재활용센타","tel":"031-681-2707","addr":"경기도 평택시 안중읍 안중리 172-1번지","category":"전기제품 - 가전제품"},{"name":"아이옷짱","tel":"031-683-2762","addr":"경기도 평택시 안중읍 안중리 172-1번지","category":"의류 - 아동의류"}]},{"lat":"36.98943702","long":"126.93123939","items":[{"name":"부황식당","tel":"031-681-3590","addr":"경기도 평택시 안중읍 안중리 292-70번지 4층","category":"일반휴게음식 - 일반한식"},{"name":"서울신통마취통증의학과의원","tel":"031-681-9992","addr":"경기도 평택시 안중읍 안중리 292-70","category":"의원 - 의원"}]},{"lat":"36.986659061","long":"126.92696246","items":[{"name":"불타는호프","tel":"031-8029-5308","addr":"경기도 평택시 안중읍 안중리 262-12번지","category":"일반휴게음식 - 주점"},{"name":"양촌리다방","tel":"031-681-6669","addr":"경기도 평택시 안중읍 안중리 262-12번지 2층","category":"일반휴게음식 - 서양음식"},{"name":"엘파소 노래연습장","tel":"031-681-8756","addr":"경기도 평택시 안중읍 안중리 262-12번지 지하","category":"레저업소 - 노 래 방"},{"name":"헤어팡","tel":"031-684-5444","addr":"경기도 평택시 안중읍 안중리 262-12번지 1층","category":"보건위생 - 미용원"}]},{"lat":"36.989238464","long":"126.93071164","items":[{"name":"붕어다방","tel":"","addr":"경기도 평택시 안중읍 안중리 292-31번지","category":"음식점 - 카페"},{"name":"붕어다방","tel":"031-684-1332","addr":"경기도 평택시 안중읍 안중리 292-31번지 지하1층","category":"일반휴게음식 - 서양음식"},{"name":"태평천하","tel":"031-683-1972","addr":"경기도 평택시 안중읍 안중리 292-31번지 1층","category":"일반휴게음식 - 일반한식"}]},{"lat":"36.988326911","long":"126.92833118","items":[{"name":"블루 (옷가게)","tel":"","addr":"경기도 평택시 안중읍 안중리 273-10번지","category":"의류 - 정장"},{"name":"중앙사진관","tel":"031-682-4609","addr":"경기도 평택시 안중읍 안중리 273-10번지","category":"광학제품 - 사진관"}]},{"lat":"36.987884697","long":"126.92724206","items":[{"name":"빅마마","tel":"031-683-5033","addr":"경기도 평택시 안중읍 안중리 255-6번지","category":"의류 - 정장"},{"name":"빅마마","tel":"031-684-9094","addr":"경기도 평택시 안중읍 안중리 255-6번지","category":"소매업 - 의류"},{"name":"크레파스스튜디오","tel":"031-686-7864","addr":"경기도 평택시 안중읍 안중리 255-6번지","category":"서비스업 - 사진관"},{"name":"황금당","tel":"031-681-1323","addr":"경기도 평택시 안중읍 안중리 255-6","category":"신변잡화 - 귀금속"}]},{"lat":"36.996631191","long":"126.93752358","items":[{"name":"사상의학 반룡한의원","tel":"031-684-2600","addr":"경기도 평택시 안중읍 안중리 195-1번지","category":"의원 - 한의원"}]},{"lat":"36.987407762","long":"126.92824222","items":[{"name":"산호생태전문점","tel":"031-681-7535","addr":"경기도 평택시 안중읍 안중리 267-1","category":"일반휴게음식 - 일반한식"}]},{"lat":"36.988795862","long":"126.92895976","items":[{"name":"상지화원","tel":"031-682-1614","addr":"경기도 평택시 안중읍 안중리 278-10","category":"문화.취미 - 화원"},{"name":"상지화원","tel":"031-683-5033","addr":"경기도 평택시 안중읍 안중리 278-10번지","category":"소매업 - 생화"}]},{"lat":"36.987355042","long":"126.93041014","items":[{"name":"샘터표구사","tel":"031-682-8836","addr":"경기도 평택시 안중읍 안중리 293-16번지","category":"문화.취미 - 화방·표구점"}]},{"lat":"36.983824759","long":"126.93362582","items":[{"name":"생선장수","tel":"","addr":"경기도 평택시 안중읍 안중리 462-2번지 105호","category":"음료식품 - 농·축·수산품"}]},{"lat":"36.990796912","long":"126.93004742","items":[{"name":"서경콤프레셔","tel":"041-534-5178","addr":"경기도 평택시 안중읍 안중리 238-4번지 가동 101-1호","category":"기타 - 기계공구"},{"name":"진현카오디오멀티샵","tel":"070-4211-8949","addr":"경기도 평택시 안중읍 안중리 238-4번지","category":"자동차정비 유지 - 자동차부품"},{"name":"화신천막사","tel":"031-684-1818","addr":"경기도 평택시 안중읍 안중리 238-4번지","category":"직물 - 카페트,커튼,천막,지물"}]},{"lat":"36.987407308","long":"126.92752334","items":[{"name":"서울고무","tel":"031-682-4969","addr":"경기도 평택시 안중읍 안중리 264-1","category":"신변잡화 - 신발"}]},{"lat":"36.987662429","long":"126.93210596","items":[{"name":"서울세차장","tel":"031-684-7002","addr":"경기도 평택시 안중읍 안중리 297-27번지","category":"자동차정비 유지 - 세차장"}]},{"lat":"36.9874349","long":"126.92841068","items":[{"name":"서울애견","tel":"031-682-2627","addr":"경기도 평택시 안중읍 안중리 267-5번지","category":"문화.취미 - 애완동물"},{"name":"아우라","tel":"031-649-8756","addr":"경기도 평택시 안중읍 안중리 267-5번지","category":"의류 - 정장"},{"name":"정헤어샵","tel":"031-681-9234","addr":"경기도 평택시 안중읍 안중리 267-5번지","category":"보건위생 - 미용원"},{"name":"치킨천국","tel":"031-682-4925","addr":"경기도 평택시 안중읍 안중리 267-5번지 치킨천국","category":"일반휴게음식 - 스넥"}]},{"lat":"36.988884814","long":"126.92712874","items":[{"name":"서울이발관","tel":"01-681-0022","addr":"경기도 평택시 안중읍 안중리 249-3","category":"보건위생 - 이용원"}]},{"lat":"36.98840776","long":"126.92793796","items":[{"name":"서전안경","tel":"031-682-8807","addr":"경기도 평택시 안중읍 안중리 273-13번지","category":"소매업 - 안경"}]},{"lat":"36.991104553","long":"126.93215893","items":[{"name":"세븐모텔","tel":"031-682-1881","addr":"경기도 평택시 안중읍 안중리 236-6번지","category":"숙박업 - 여관/기타숙박업"}]},{"lat":"36.982158407","long":"126.93471681","items":[{"name":"세븐일레븐평택송담신도시점","tel":"031-1577-0711","addr":"경기도 평택시 안중읍 안중리 492-1번지 102호","category":"유통업 영리 - 편 의 점"},{"name":"아띠랑스","tel":"031-682-0880","addr":"경기도 평택시 안중읍 안중리 492-1번지","category":"보건위생 - 미용원"}]},{"lat":"36.984185319","long":"126.93385014","items":[{"name":"세븐일레븐평택송담점","tel":"","addr":"경기도 평택시 안중읍 안중리 448-5번지 103호","category":"유통업 영리 - 편 의 점"}]},{"lat":"36.989462084","long":"126.92804926","items":[{"name":"세븐일레븐평택안중성당점","tel":"031-1577-0711","addr":"경기도 평택시 안중읍 안중리 277-117번지 영성아트빌","category":"유통업 영리 - 편 의 점"}]},{"lat":"36.984019876","long":"126.92847017","items":[{"name":"소림사","tel":"031-683-9982","addr":"경기도 평택시 안중읍 안중리 305-44번지","category":"음식점 - 중식"}]},{"lat":"36.981883624","long":"126.94316326","items":[{"name":"송담칼국수","tel":"031-681-5634","addr":"경기도 평택시 안중읍 안중리 42-100번지","category":"일반휴게음식 - 일반한식"}]},{"lat":"36.989850905","long":"126.93023928","items":[{"name":"송월타올 안중대리점","tel":"031-681-9413","addr":"경기도 평택시 안중읍 안중리 292-71","category":"직물 - 옷감·직물"}]},{"lat":"36.988551825","long":"126.92776933","items":[{"name":"수복당","tel":"031-686-6822","addr":"경기도 평택시 안중읍 안중리 272-1번지","category":"소매업 - 귀금속"},{"name":"인디안","tel":"031-683-9550","addr":"경기도 평택시 안중읍 안중리 272-1번지","category":"소매업 - 의류"}]},{"lat":"36.984849518","long":"126.92952518","items":[{"name":"수원철물건재","tel":"031-682-8881","addr":"경기도 평택시 안중읍 안중리 302-14번지","category":"건축자재 - 기타건축자재"}]},{"lat":"36.98601983","long":"126.92779429","items":[{"name":"수호프","tel":"031-683-2360","addr":"경기도 평택시 안중읍 안중리 262-18번지","category":"일반휴게음식 - 주점"}]},{"lat":"36.98674085","long":"126.92805192","items":[{"name":"술사랑","tel":"031-681-7633","addr":"경기도 평택시 안중읍 안중리 262-65번지","category":"음식점 - 호프"},{"name":"술사랑","tel":"031-681-9804","addr":"경기도 평택시 안중읍 안중리 262-65번지 장안빌딩 102호","category":"일반휴게음식 - 주점"},{"name":"술사랑안주사랑","tel":"031-681-9804","addr":"경기도 평택시 안중읍 안중리 262-65번지 102호","category":"일반휴게음식 - 일반한식"},{"name":"안중점안스실용음악학원","tel":"031-681-7117","addr":"경기도 평택시 안중읍 안중리 262-65번지 2층","category":"회원제형태 - 학원"},{"name":"주영호프","tel":"031-682-1176","addr":"경기도 평택시 안중읍 안중리 262-65번지 1층","category":"일반휴게음식 - 서양음식"},{"name":"친구호프","tel":"","addr":"경기도 평택시 안중읍 안중리 262-65번지 1층","category":"일반휴게음식 - 주점"}]},{"lat":"36.988850785","long":"126.93035256","items":[{"name":"스마트안경","tel":"031-682-3943","addr":"경기도 평택시 안중읍 안중리 292-5번지","category":"소매업 - 안경"},{"name":"시크릿","tel":"070-5022-4846","addr":"경기도 평택시 안중읍 안중리 292-5번지 1층","category":"보건위생 - 화장품"},{"name":"올리비아 하슬러","tel":"031-682-7497","addr":"경기도 평택시 안중읍 안중리 292-5번지","category":"도소매업 - 의류"},{"name":"올리비아하슬러 안중점","tel":"031-686-6822","addr":"경기도 평택시 안중읍 안중리 292-5번지 1층","category":"의류 - 정장"},{"name":"해피트리","tel":"031-683-7477","addr":"경기도 평택시 안중읍 안중리 292-5번지 2층","category":"보건위생 - 화장품"}]},{"lat":"36.989077043","long":"126.93199232","items":[{"name":"스마트안경","tel":"031-681-2282","addr":"경기도 평택시 안중읍 안중리 233-16번지","category":"보건위생 - 안경"},{"name":"이불공장 직판","tel":"031-684-1419","addr":"경기도 평택시 안중읍 안중리 233-16번지 232-1","category":"직물 - 침구·수예점"}]},{"lat":"36.988155842","long":"126.92854477","items":[{"name":"스위트홈","tel":"","addr":"경기도 평택시 안중읍 안중리 281-7번지","category":"소매업 - 이불"},{"name":"시골장터","tel":"031-682-2660","addr":"경기도 평택시 안중읍 안중리 281-7번지","category":"일반휴게음식 - 일반한식"}]},{"lat":"36.988434085","long":"126.92682591","items":[{"name":"스타스포츠","tel":"","addr":"경기도 평택시 안중읍 안중리 253-13번지","category":"도소매업 - 스포츠 용품"},{"name":"신현대농약사","tel":"031-686-5540","addr":"경기도 평택시 안중읍 안중리 253-13번지 평창빌딩 101호","category":"도소매업 - 농약"},{"name":"신현대농약사","tel":"031-682-8676","addr":"경기도 평택시 안중읍 안중리 253-13번지 평창빌딩 101호","category":"농업 - 비료,사료,종자"},{"name":"윤주희아동발달센터","tel":"070-7530-7589","addr":"경기도 평택시 안중읍 안중리 253-13번지 2층","category":"보건위생 - 기타대인서비스"},{"name":"인사동옷집","tel":"031-683-2980","addr":"경기도 평택시 안중읍 안중리 253-13번지 평창빌딩 106호","category":"의류 - 정장"},{"name":"정 동물병원","tel":"031-682-2247","addr":"경기도 평택시 안중읍 안중리 253-13번지","category":"서비스업 - 수의"},{"name":"참좋은보습학원","tel":"031-681-3210","addr":"경기도 평택시 안중읍 안중리 253-13번지 평창빌딩 3층","category":"학원 - 보습학원"},{"name":"한국태권도체육관","tel":"031-681-6329","addr":"경기도 평택시 안중읍 안중리 253-13번지 평창빌딩 2층","category":"학원 - 예·체능계학원"}]},{"lat":"36.988434207","long":"126.92701686","items":[{"name":"스타스포츠용품점","tel":"031-683-3833","addr":"경기도 평택시 안중읍 안중리 253-9번지","category":"레져용품 - 스포츠·레져용품"},{"name":"현대농약사","tel":"031-682-8676","addr":"경기도 평택시 안중읍 안중리 253-9번지","category":"농업 - 비료,사료,종자"}]},{"lat":"36.987911944","long":"126.92757901","items":[{"name":"시골닭집","tel":"031-681-6939","addr":"경기도 평택시 안중읍 안중리 272-32번지","category":"소매업 - 계란, 닭"}]},{"lat":"36.988328757","long":"126.93133029","items":[{"name":"시골밥상","tel":"031-683-1395","addr":"경기도 평택시 안중읍 안중리 295-12번지","category":"일반휴게음식 - 위탁급식업"},{"name":"쌀맛나네","tel":"031-684-1608","addr":"경기도 평택시 안중읍 안중리 295-12번지","category":"음료식품 - 미곡상"}]},{"lat":"36.992130171","long":"126.92951819","items":[{"name":"시립안중어린이집[아이행복]","tel":"031-682-4529","addr":"경기도 평택시 안중읍 안중리 243-1","category":"학원 - 유아원"},{"name":"안중어린이집","tel":"031-683-7115","addr":"경기도 평택시 안중읍 안중리 243-1번지","category":"서비스업 - 교육"}]},{"lat":"36.987939082","long":"126.92774747","items":[{"name":"시장순대집","tel":"031-681-9766","addr":"경기도 평택시 안중읍 안중리 272-30번지 외1필지","category":"일반휴게음식 - 스넥"}]},{"lat":"36.987496399","long":"126.92593948","items":[{"name":"신데렐라","tel":"","addr":"경기도 평택시 안중읍 안중리 256-30번지","category":"소매업 - 이불,침구"}]},{"lat":"36.988822831","long":"126.92885864","items":[{"name":"신영당","tel":"031-682-0879","addr":"경기도 평택시 안중읍 안중리 278-16번지","category":"소매업 - 귀금속"},{"name":"신영주얼리","tel":"031-684-6868","addr":"경기도 평택시 안중읍 안중리 278-16번지","category":"소매업 - 주얼리"}]},{"lat":"36.989159121","long":"126.93365469","items":[{"name":"신한프로오토카센터","tel":"031-681-1184","addr":"경기도 평택시 안중읍 안중리 212-4번지","category":"서비스업 - 자동차정비"},{"name":"안중차유리","tel":"031-681-0864","addr":"경기도 평택시 안중읍 안중리 212-4번지","category":"자동차정비 유지 - 자동차부품"}]},{"lat":"36.983462897","long":"126.93121129","items":[{"name":"씨유안중송담로점","tel":"080-080-3663","addr":"경기도 평택시 안중읍 안중리 476-2번지 101호","category":"유통업 영리 - 편 의 점"}]},{"lat":"36.98860702","long":"126.92957773","items":[{"name":"씨유안중중앙점","tel":"031-681-4803","addr":"경기도 평택시 안중읍 안중리 279-3번지 1층","category":"유통업 영리 - 편 의 점"},{"name":"칠공팔공(7080)","tel":"031-686-9967","addr":"경기도 평택시 안중읍 안중리 279-3번지 지하1층","category":"일반휴게음식 - 주점"},{"name":"훌랄라텔레콤","tel":"031-686-7889","addr":"경기도 평택시 안중읍 안중리 279-3번지","category":"사무통신 - 통신기기"},{"name":"훌랄라텔레콤","tel":"031-682-7874","addr":"경기도 평택시 안중읍 안중리 279-3번지","category":"소매업 - 전자기기"}]},{"lat":"36.988407497","long":"126.92752236","items":[{"name":"씨유평택안중점","tel":"031-681-3341","addr":"경기도 평택시 안중읍 안중리 272-9번지","category":"유통업 영리 - 편 의 점"},{"name":"오 김떡순","tel":"031-681-8988","addr":"경기도 평택시 안중읍 안중리 272-9번지","category":"음식점 - 분식"},{"name":"오!김떡순","tel":"","addr":"경기도 평택시 안중읍 안중리 272-9번지 1층","category":"일반휴게음식 - 스넥"}]},{"lat":"36.99087818","long":"126.93032816","items":[{"name":"아랑광고기획","tel":"031-682-2267","addr":"경기도 평택시 안중읍 안중리 238-1","category":"용역 서비스 - 종합용역"},{"name":"아주전기온돌판넬","tel":"031-681-9204","addr":"경기도 평택시 안중읍 안중리 238-1번지","category":"전기제품 - 기타전기제품"}]},{"lat":"36.988822655","long":"126.92857782","items":[{"name":"아리따움","tel":"031-682-0947","addr":"경기도 평택시 안중읍 안중리 278-15번지","category":"소매업 - 화장품"},{"name":"연세당한약방","tel":"070-4064-4424","addr":"경기도 평택시 안중읍 안중리 278-15번지","category":"소매업 - 한약"}]},{"lat":"36.987326807","long":"126.92846695","items":[{"name":"아리랑식당","tel":"031-681-4047","addr":"경기도 평택시 안중읍 안중리 266-18번지 지하1층","category":"일반휴게음식 - 일반한식"}]},{"lat":"36.987911572","long":"126.92699492","items":[{"name":"아모레퍼시픽","tel":"031-681-1669","addr":"경기도 평택시 안중읍 안중리 256-2","category":"보건위생 - 화장품"},{"name":"아모레퍼시픽뷰레이터","tel":"031-681-1669","addr":"경기도 평택시 안중읍 안중리 256-2","category":"보건위생 - 화장품"},{"name":"아모레퍼시픽뷰레이터","tel":"031-681-1669","addr":"경기도 평택시 안중읍 안중리 256-2","category":"보건위생 - 화장품"}]},{"lat":"36.986938091","long":"126.92649043","items":[{"name":"아모레퍼시픽뷰레이터","tel":"031-681-1669","addr":"경기도 평택시 안중읍 안중리 262-2","category":"보건위생 - 화장품"}]},{"lat":"36.987161131","long":"126.93787989","items":[{"name":"아모레퍼시픽뷰레이터","tel":"031-666-5551","addr":"경기도 평택시 안중읍 안중리 81-3","category":"보건위생 - 화장품"},{"name":"아모레퍼시픽뷰레이터","tel":"031-666-5551","addr":"경기도 평택시 안중읍 안중리 81-3","category":"보건위생 - 화장품"},{"name":"아모레퍼시픽뷰레이터","tel":"031-666-5551","addr":"경기도 평택시 안중읍 안중리 81-3","category":"보건위생 - 화장품"}]},{"lat":"36.980770801","long":"126.93479667","items":[{"name":"아울렛","tel":"031-682-0770","addr":"경기도 평택시 안중읍 안중리 592 1층","category":"의류 - 정장"}]},{"lat":"36.986714093","long":"126.92849001","items":[{"name":"아이세상어린이집[아이행복]","tel":"031-681-2123","addr":"경기도 평택시 안중읍 안중리 293-47번지","category":"학원 - 유아원"}]},{"lat":"36.986128607","long":"126.92882755","items":[{"name":"안일떡방앗간","tel":"031-682-3080","addr":"경기도 평택시 안중읍 안중리 262-127","category":"음료식품 - 제과점"},{"name":"진안식당","tel":"031-681-5055","addr":"경기도 평택시 안중읍 안중리 262-127번지","category":"음식점 - 한식"},{"name":"팔복식품","tel":"031-682-2123","addr":"경기도 평택시 안중읍 안중리 262-127번지","category":"소매업 - 농산물 가공,유통"}]},{"lat":"36.987660603","long":"126.92910688","items":[{"name":"안일미용실","tel":"031-682-2346","addr":"경기도 평택시 안중읍 안중리 285","category":"보건위생 - 미용원"}]},{"lat":"36.98819099","long":"126.92712943","items":[{"name":"안중","tel":"031-683-4616","addr":"경기도 평택시 안중읍 안중리 255-1번지","category":"의류 - 정장"},{"name":"안중에스핏","tel":"031-684-3367","addr":"경기도 평택시 안중읍 안중리 255-1번지","category":"소매업 - 의류"},{"name":"에덴약국","tel":"031-682-6997","addr":"경기도 평택시 안중읍 안중리 255-1번지","category":"약국 - 약국"},{"name":"클라이드N","tel":"031-684-3367","addr":"경기도 평택시 안중읍 안중리 255-1번지 1층","category":"의류 - 정장"},{"name":"클라이드앤","tel":"","addr":"경기도 평택시 안중읍 안중리 255-1번지","category":"소매업 - 의류"}]},{"lat":"36.990433582","long":"126.94079767","items":[{"name":"안중 동부점","tel":"031-684-2222","addr":"경기도 평택시 안중읍 안중리 148-16번지","category":"자동차정비 유지 - 자동차정비"}]},{"lat":"36.988128236","long":"126.92763496","items":[{"name":"안중(쌀)상회","tel":"031-682-3183","addr":"경기도 평택시 안중읍 안중리 272-18번지","category":"음료식품 - 미곡상"},{"name":"안중쌀상회","tel":"031-682-2394","addr":"경기도 평택시 안중읍 안중리 272-18번지","category":"소매업 - 곡물류"}]},{"lat":"36.989687089","long":"126.92763342","items":[{"name":"안중건강원","tel":"031-681-6000","addr":"경기도 평택시 안중읍 안중리 245-22번지","category":"건강식품 - 기타건강식품"},{"name":"안중식품","tel":"031-681-6000","addr":"경기도 평택시 안중읍 안중리 245-22","category":"음료식품 - 기타음료식품"}]},{"lat":"36.995133945","long":"126.93490743","items":[{"name":"안중나주곰탕","tel":"031-684-5681","addr":"경기도 평택시 안중읍 안중리 196-18번지","category":"일반휴게음식 - 일반한식"},{"name":"안중나주곰탕","tel":"","addr":"경기도 평택시 안중읍 안중리 196-18번지","category":"음식점 - 일반"}]},{"lat":"36.988821933","long":"126.92743209","items":[{"name":"안중농자재","tel":"031-683-3315","addr":"경기도 평택시 안중읍 안중리 249-1번지 안중농자재","category":"농업 - 비료,사료,종자"},{"name":"안중농자재","tel":"031-683-7747","addr":"경기도 평택시 안중읍 안중리 249-1번지","category":"소매업 - 농약"}]},{"lat":"36.987966164","long":"126.92782607","items":[{"name":"안중닭 옛날통닭 닭발조림","tel":"031-684-4546","addr":"경기도 평택시 안중읍 안중리 272-29번지","category":"일반휴게음식 - 일반한식"}]},{"lat":"36.988435629","long":"126.92927462","items":[{"name":"안중목욕탕","tel":"031-682-2400","addr":"경기도 평택시 안중읍 안중리 279-14번지","category":"보건위생 - 사우나"}]},{"lat":"36.987684364","long":"126.92401853","items":[{"name":"안중보람이발관","tel":"031-681-1080","addr":"경기도 평택시 안중읍 안중리 256-76번지","category":"서비스업 - 미용"},{"name":"통통","tel":"031-682-5558","addr":"경기도 평택시 안중읍 안중리 256-76번지 지영빌딩 1층","category":"일반휴게음식 - 일반한식"}]},{"lat":"36.989904513","long":"126.92949786","items":[{"name":"안중산부인과","tel":"031-684-4313","addr":"경기도 평택시 안중읍 안중리 277-98번지","category":"서비스업 - 병원"},{"name":"안중산후조리원","tel":"031-683-8266","addr":"경기도 평택시 안중읍 안중리 277-98번지 4층","category":"서비스업 - 산후조리원"},{"name":"안중산후조리원","tel":"031-683-7366","addr":"경기도 평택시 안중읍 안중리 277-98번지 4층","category":"기타의료기관 - 산후조리원"},{"name":"주식회사 렌느제이지엔엔","tel":"031-656-0721","addr":"경기도 평택시 안중읍 안중리 277-98번지 1층","category":"보건위생 - 기타대인서비스"}]},{"lat":"36.988798192","long":"126.93280133","items":[{"name":"안중석재","tel":"031-682-7393","addr":"경기도 평택시 안중읍 안중리 228-7 14","category":"건축자재 - 기타건축자재"}]},{"lat":"36.987046349","long":"126.9266925","items":[{"name":"안중세탁소","tel":"031-682-9937","addr":"경기도 평택시 안중읍 안중리 262-14","category":"수리서비스 - 세탁소"},{"name":"엄마김밥","tel":"031-683-9839","addr":"경기도 평택시 안중읍 안중리 262-14","category":"일반휴게음식 - 스넥"}]},{"lat":"36.9879662","long":"126.92788223","items":[{"name":"안중수산","tel":"031-681-9569","addr":"경기도 평택시 안중읍 안중리 272-27번지","category":"음료식품 - 농·축·수산품"}]},{"lat":"36.987605629","long":"126.92765794","items":[{"name":"안중식품","tel":"031-681-2909","addr":"경기도 평택시 안중읍 안중리 269-3","category":"음료식품 - 농·축·수산품"}]},{"lat":"36.989266335","long":"126.93210447","items":[{"name":"안중애견미용","tel":"031-682-8765","addr":"경기도 평택시 안중읍 안중리 233-19번지 녹원빌딩 1층 안중동물메디컬센터","category":"문화.취미 - 애완동물"},{"name":"안중중앙동물병원","tel":"031-682-8765","addr":"경기도 평택시 안중읍 안중리 233-19번지 녹원빌딩 103동 107호","category":"기타의료기관 - 동물병원"},{"name":"안중중앙동물병원","tel":"031-681-2406","addr":"경기도 평택시 안중읍 안중리 233-19번지 녹원빌딩 1층","category":"서비스업 - 수의"},{"name":"튼튼약국","tel":"070-8874-2968","addr":"경기도 평택시 안중읍 안중리 233-19번지 101호","category":"약국 - 약국"},{"name":"튼튼약국","tel":"031-681-7766","addr":"경기도 평택시 안중읍 안중리 233-19번지","category":"소매업 - 약국"},{"name":"평택안성한우직판장","tel":"","addr":"경기도 평택시 안중읍 안중리 233-19번지","category":"음료식품 - 정육점"}]},{"lat":"36.989579604","long":"126.92865571","items":[{"name":"안중영양탕","tel":"031-683-3365","addr":"경기도 평택시 안중읍 안중리 277-11번지 외1필지","category":"일반휴게음식 - 일반한식"},{"name":"와이즈네트웍스(Yz networks)","tel":"070-4671-2369","addr":"경기도 평택시 안중읍 안중리 277-11번지","category":"사무통신 - 컴퓨터"}]},{"lat":"36.990491959","long":"126.93238416","items":[{"name":"안중오거리 씽크","tel":"031-683-7959","addr":"경기도 평택시 안중읍 안중리 234-18번지","category":"주방용구 - 주방용구"}]},{"lat":"36.990299552","long":"126.9272172","items":[{"name":"안중우체국","tel":"031-681-2002","addr":"경기도 평택시 안중읍 안중리 246-10번지","category":"용역 서비스 - 공공요금대행서비스/소"}]},{"lat":"36.989432998","long":"126.94004588","items":[{"name":"안중유치원[아이행복]","tel":"031-682-1288","addr":"경기도 평택시 안중읍 안중리 148-7번지","category":"학원 - 유치원"}]},{"lat":"36.988545176","long":"126.93159967","items":[{"name":"안중의료기","tel":"031-682-9522","addr":"경기도 평택시 안중읍 안중리 295-6번지","category":"소매업 - 의료용품"},{"name":"터미널 방앗간","tel":"031-682-8181","addr":"경기도 평택시 안중읍 안중리 295-6번지","category":"제조업 - 떡"}]},{"lat":"36.988464248","long":"126.93188056","items":[{"name":"안중장","tel":"031-683-8155","addr":"경기도 평택시 안중읍 안중리 295-7","category":"숙박업 - 여관/기타숙박업"},{"name":"참마루가든","tel":"031-682-5586","addr":"경기도 평택시 안중읍 안중리 295-7번지","category":"일반휴게음식 - 일반한식"}]},{"lat":"36.989523809","long":"126.92593743","items":[{"name":"안중초등학교","tel":"031-681-7883","addr":"경기도 평택시 안중읍 안중리 247-4번지 안중초등학교","category":"학원 - 초중고교육기관"},{"name":"안중초등학교병설유치원[아이행복]","tel":"031-681-2010","addr":"경기도 평택시 안중읍 안중리 247-4번지 안중초등학교","category":"학원 - 유치원"}]},{"lat":"36.987938812","long":"126.92732063","items":[{"name":"안중축산","tel":"031-682-0973","addr":"경기도 평택시 안중읍 안중리 254-7번지","category":"도매업 - 정육"},{"name":"안중축산","tel":"031-681-9070","addr":"경기도 평택시 안중읍 안중리 254-7번지","category":"음료식품 - 정육점"}]},{"lat":"36.984768297","long":"126.92932308","items":[{"name":"안중컴퓨터프라자","tel":"031-682-8289","addr":"경기도 평택시 안중읍 안중리 305번지","category":"사무통신 - 컴퓨터"}]},{"lat":"36.987353137","long":"126.92735491","items":[{"name":"안중한복","tel":"031-681-0748","addr":"경기도 평택시 안중읍 안중리 261-34번지","category":"소매업 - 한복"}]},{"lat":"36.987939217","long":"126.92796089","items":[{"name":"야샹거","tel":"","addr":"경기도 평택시 안중읍 안중리 272-28번지","category":"일반휴게음식 - 중국식"}]},{"lat":"36.986885353","long":"126.9285797","items":[{"name":"양지다방","tel":"031-683-8842","addr":"경기도 평택시 안중읍 안중리 266-15번지","category":"일반휴게음식 - 서양음식"},{"name":"행복호프","tel":"031-683-3340","addr":"경기도 평택시 안중읍 안중리 266-15번지","category":"음식점 - 호프"},{"name":"행복호프","tel":"031-681-7551","addr":"경기도 평택시 안중읍 안중리 266-15번지 1층","category":"일반휴게음식 - 일반한식"}]},{"lat":"36.989270572","long":"126.93960794","items":[{"name":"엄마방","tel":"031-682-3380","addr":"경기도 평택시 안중읍 안중리 72-123번지","category":"소매업 - 의류"}]},{"lat":"36.988489033","long":"126.9282187","items":[{"name":"엄마방","tel":"031-683-6158","addr":"경기도 평택시 안중읍 안중리 273-11번지","category":"의류 - 정장"},{"name":"체이스컬트","tel":"031-682-8318","addr":"경기도 평택시 안중읍 안중리 273-11번지","category":"레져용품 - 스포츠·레져용품"},{"name":"투미(이랜드)","tel":"031-000-0000","addr":"경기도 평택시 안중읍 안중리 273-11번지","category":"의류 - 정장"}]},{"lat":"36.988940054","long":"126.92899331","items":[{"name":"에꼴리에 & 꼬망스","tel":"","addr":"경기도 평택시 안중읍 안중리 277-36번지","category":"소매업 - 의류"},{"name":"에꼴리에&꼬망스평택안중점","tel":"031-682-1191","addr":"경기도 평택시 안중읍 안중리 277-36번지","category":"의류 - 아동의류"},{"name":"에꼴리에&꼬망스평택안중점","tel":"031-682-1191","addr":"경기도 평택시 안중읍 안중리 277-36번지","category":"의류 - 아동의류"}]},{"lat":"36.988210632","long":"126.92971291","items":[{"name":"에덴약국","tel":"","addr":"경기도 평택시 안중읍 안중리 290-4번지","category":"소매업 - 약국"},{"name":"황금심부름센터","tel":"031-681-5538","addr":"경기도 평택시 안중읍 안중리 290-4번지","category":"보건위생 - 기타대인서비스"}]},{"lat":"36.988939935","long":"126.92880236","items":[{"name":"엔제리너스평택안중점","tel":"031-681-8577","addr":"경기도 평택시 안중읍 안중리 277-6번지 2층","category":"일반휴게음식 - 서양음식"}]},{"lat":"36.987713408","long":"126.92710744","items":[{"name":"여성크로커다일","tel":"031-681-9675","addr":"경기도 평택시 안중읍 안중리 259-3번지","category":"의류 - 정장"}]},{"lat":"36.988544062","long":"126.92976875","items":[{"name":"여성크로커다일","tel":"031-683-3384","addr":"경기도 평택시 안중읍 안중리 279-7번지","category":"소매업 - 의류"}]},{"lat":"36.988517169","long":"126.92999343","items":[{"name":"여화샵","tel":"031-682-0709","addr":"경기도 평택시 안중읍 안중리 292-9번지 1층","category":"의류 - 정장"},{"name":"연인노래연습장","tel":"031-683-6058","addr":"경기도 평택시 안중읍 안중리 292-9번지","category":"레저업소 - 노 래 방"}]},{"lat":"36.989074553","long":"126.92793731","items":[{"name":"연세당한약방","tel":"031-682-2589","addr":"경기도 평택시 안중읍 안중리 277번지","category":"약국 - 한약방"}]},{"lat":"36.98902231","long":"126.93088033","items":[{"name":"연세제일의원","tel":"031-683-7366","addr":"경기도 평택시 안중읍 안중리 292-72번지","category":"서비스업 - 병원"},{"name":"연세제일의원","tel":"031-683-2580","addr":"경기도 평택시 안중읍 안중리 292-72번지","category":"의원 - 의원"}]},{"lat":"36.986821648","long":"126.92758008","items":[{"name":"연지호프","tel":"031-684-1136","addr":"경기도 평택시 안중읍 안중리 262-70번지 1층","category":"일반휴게음식 - 주점"}]},{"lat":"36.988326543","long":"126.92774709","items":[{"name":"영수당","tel":"031-681-3405","addr":"경기도 평택시 안중읍 안중리 272-14","category":"신변잡화 - 시계"}]},{"lat":"36.988436511","long":"126.93071239","items":[{"name":"영창노래연습장","tel":"031-682-4250","addr":"경기도 평택시 안중읍 안중리 292-6번지 2층","category":"레저업소 - 노 래 방"}]},{"lat":"36.987244973","long":"126.92729885","items":[{"name":"영화식당","tel":"031-683-3186","addr":"경기도 평택시 안중읍 안중리 261-39번지 2동","category":"일반휴게음식 - 일반한식"}]},{"lat":"36.987686462","long":"126.92724226","items":[{"name":"옛날식품","tel":"031-681-5238","addr":"경기도 평택시 안중읍 안중리 261-1번지","category":"음료식품 - 기타음료식품"}]},{"lat":"36.987325609","long":"126.9265799","items":[{"name":"오미(    )","tel":"","addr":"경기도 평택시 안중읍 안중리 337번지","category":"보건위생 - 화장품"}]},{"lat":"36.989822092","long":"126.92738617","items":[{"name":"오암동물병원","tel":"031-686-7078","addr":"경기도 평택시 안중읍 안중리 245-17번지","category":"서비스업 - 병원"},{"name":"오암동물병원","tel":"031-682-2470","addr":"경기도 평택시 안중읍 안중리 245-17번지","category":"기타의료기관 - 동물병원"}]},{"lat":"36.994709688","long":"126.93360472","items":[{"name":"오투(O2)모텔","tel":"031-682-9293","addr":"경기도 평택시 안중읍 안중리 196-15번지 1층","category":"숙박업 - 여관/기타숙박업"}]},{"lat":"36.987407571","long":"126.92793894","items":[{"name":"온양떡방앗간","tel":"031-682-2293","addr":"경기도 평택시 안중읍 안중리 265-6번지","category":"제조업 - 떡"}]},{"lat":"36.988544132","long":"126.92988108","items":[{"name":"올리비아로렌안중점","tel":"031-682-3540","addr":"경기도 평택시 안중읍 안중리 292-1번지","category":"의류 - 스포츠의류"}]},{"lat":"36.987461387","long":"126.92754575","items":[{"name":"왕선생청과","tel":"031-682-9565","addr":"경기도 평택시 안중읍 안중리 264번지","category":"음료식품 - 농·축·수산품"}]},{"lat":"36.982689034","long":"126.93298664","items":[{"name":"우리동네 당구장","tel":"031-000-0000","addr":"경기도 평택시 안중읍 안중리 484-2번지 4층","category":"레저업소 - 당 구 장"},{"name":"청담","tel":"","addr":"경기도 평택시 안중읍 안중리 484-2번지 201호","category":"보건위생 - 화장품"}]},{"lat":"36.98679428","long":"126.92705219","items":[{"name":"우리푸드","tel":"070-5121-6771","addr":"경기도 평택시 안중읍 안중리 262-110번지 4층 404호","category":"용역 서비스 - 종합용역"}]},{"lat":"36.987932817","long":"126.93221803","items":[{"name":"우성전기","tel":"031-681-3535","addr":"경기도 평택시 안중읍 안중리 297-42번지","category":"전기제품 - 기타전기제품"}]},{"lat":"36.988101133","long":"126.92752266","items":[{"name":"웅이네","tel":"031-682-3855","addr":"경기도 평택시 안중읍 안중리 272-3번지 1층","category":"의류 - 정장"}]},{"lat":"36.981049752","long":"126.93413376","items":[{"name":"워시 블로잉 Wash blowing","tel":"","addr":"경기도 평택시 안중읍 안중리 497-1번지 101호","category":"자동차정비 유지 - 카인테리어"}]},{"lat":"36.985023589","long":"126.93432113","items":[{"name":"원마트","tel":"031-684-4210","addr":"경기도 평택시 안중읍 안중리 446-4번지","category":"유통업 영리 - 슈퍼마켓"}]},{"lat":"36.985715732","long":"126.93146752","items":[{"name":"위드커피4호점 카페수다","tel":"031-683-0030","addr":"경기도 평택시 안중읍 안중리 445-16번지","category":"일반휴게음식 - 서양음식"},{"name":"카페수다","tel":"031-682-1318","addr":"경기도 평택시 안중읍 안중리 445-16번지 1층","category":"소매업 - 카페"},{"name":"평택서부영어교육센터","tel":"070-4271-0509","addr":"경기도 평택시 안중읍 안중리 445-16번지 지하","category":"학원 - 외국어학원"},{"name":"평택시보건소안중보건지소","tel":"031-8024-8650","addr":"경기도 평택시 안중읍 안중리 445-16번지 안중보건지소 지역보건팀","category":"병원 - 병원"}]},{"lat":"36.995990593","long":"126.93601881","items":[{"name":"윈스크린","tel":"031-663-9911","addr":"경기도 평택시 안중읍 안중리 196-41번지","category":"레저업소 - 스크린골프"}]},{"lat":"36.988822444","long":"126.92824084","items":[{"name":"유솔 주니어","tel":"031-682-2165","addr":"경기도 평택시 안중읍 안중리 278-7번지","category":"레져용품 - 스포츠·레져용품"},{"name":"행복한이불","tel":"","addr":"경기도 평택시 안중읍 안중리 278-7번지 대경빌딩 1층","category":"도소매업 - 이불"},{"name":"행복한이불","tel":"031-111-0000","addr":"경기도 평택시 안중읍 안중리 278-7번지 대경빌딩 101호","category":"직물 - 침구·수예점"}]},{"lat":"36.988155339","long":"126.92774726","items":[{"name":"유정중국식품대전","tel":"070-8948-8168","addr":"경기도 평택시 안중읍 안중리 272-16","category":"음료식품 - 기타음료식품"}]},{"lat":"36.987770591","long":"126.93216202","items":[{"name":"유천","tel":"031-682-4947","addr":"경기도 평택시 안중읍 안중리 297-6번지","category":"일반휴게음식 - 일반한식"}]},{"lat":"36.986910652","long":"126.94129475","items":[{"name":"은혜고추방앗간","tel":"031-682-2302","addr":"경기도 평택시 안중읍 안중리 61-10","category":"음료식품 - 제과점"}]},{"lat":"36.987127833","long":"126.92729897","items":[{"name":"은혜방앗간","tel":"031-681-9675","addr":"경기도 평택시 안중읍 안중리 261-24번지","category":"제조업 - 떡"}]},{"lat":"36.988658143","long":"126.92496106","items":[{"name":"이마트24 평택안중로점","tel":"031-000-0000","addr":"경기도 평택시 안중읍 안중리 256-46번지 102호","category":"유통업 영리 - 편 의 점"}]},{"lat":"36.986101033","long":"126.92796269","items":[{"name":"이브호프","tel":"031-111-1111","addr":"경기도 평택시 안중읍 안중리 262-10번지 중원빌 101호","category":"일반휴게음식 - 주점"},{"name":"일품향","tel":"031-111-1111","addr":"경기도 평택시 안중읍 안중리 262-10번지 중원빌","category":"일반휴게음식 - 중국식"},{"name":"일품향","tel":"031-681-6817","addr":"경기도 평택시 안중읍 안중리 262-10번지 중원빌","category":"음식점 - 중식"}]},{"lat":"36.989515657","long":"126.92727414","items":[{"name":"이선우헤어샵","tel":"031-682-0015","addr":"경기도 평택시 안중읍 안중리 245-24","category":"보건위생 - 미용원"}]},{"lat":"36.987743155","long":"126.93148809","items":[{"name":"이지할인마트","tel":"031-686-8841","addr":"경기도 평택시 안중읍 안중리 297-36번지","category":"유통업 영리 - 슈퍼마켓"},{"name":"한농농약농자재","tel":"031-682-2344","addr":"경기도 평택시 안중읍 안중리 297-36번지","category":"소매업 - 농자재"},{"name":"한농농약농자재","tel":"031-684-6012","addr":"경기도 평택시 안중읍 안중리 297-36번지","category":"농업 - 기타농업관련"}]},{"lat":"36.987795117","long":"126.92807335","items":[{"name":"이화장모텔","tel":"031-681-2355","addr":"경기도 평택시 안중읍 안중리 282-6번지","category":"숙박업 - 여관/기타숙박업"}]},{"lat":"36.988351927","long":"126.92518603","items":[{"name":"인우카세차장","tel":"031-682-9989","addr":"경기도 평택시 안중읍 안중리 252-66번지","category":"서비스업 - 자동차정비"}]},{"lat":"36.98445281","long":"126.92914367","items":[{"name":"잇츠콩","tel":"031-681-5453","addr":"경기도 평택시 안중읍 안중리 305-3번지 만남빌라 104동 401호","category":"회원제형태 - 건강식품"}]},{"lat":"36.988406945","long":"126.92665745","items":[{"name":"잉크메이트안중점","tel":"031-681-5772","addr":"경기도 평택시 안중읍 안중리 252-48번지","category":"사무통신 - 기타 사무용품"}]},{"lat":"36.986272044","long":"126.92765925","items":[{"name":"자매호프","tel":"031-683-7771","addr":"경기도 평택시 안중읍 안중리 262-20번지 1층","category":"일반휴게음식 - 주점"}]},{"lat":"36.991355933","long":"126.930631","items":[{"name":"장수촌","tel":"031-681-5288","addr":"경기도 평택시 안중읍 안중리 238-21번지","category":"일반휴게음식 - 일반한식"}]},{"lat":"36.988823567","long":"126.9300493","items":[{"name":"장수한의원","tel":"031-682-2010","addr":"경기도 평택시 안중읍 안중리 277-70번지 1층","category":"의원 - 한의원"}]},{"lat":"36.988490828","long":"126.93112795","items":[{"name":"재단법인한국방정환재단더함장터","tel":"031-681-1762","addr":"경기도 평택시 안중읍 안중리 295-2번지 지하1층 매드케이빌딩","category":"회원제형태 - 서적"}]},{"lat":"36.9880738","long":"126.92705092","items":[{"name":"정금사","tel":"031-682-2278","addr":"경기도 평택시 안중읍 안중리 255-16번지","category":"신변잡화 - 시계"}]},{"lat":"36.991075437","long":"126.92874412","items":[{"name":"정션프로듀스","tel":"031-682-2588","addr":"경기도 평택시 안중읍 안중리 242-8번지 6호","category":"전기제품 - 가전제품"}]},{"lat":"36.982939448","long":"126.92985274","items":[{"name":"정순단 중국어","tel":"070-4245-2981","addr":"경기도 평택시 안중읍 안중리 477-4번지 303호","category":"학원 - 외국어학원"}]},{"lat":"36.989961595","long":"126.93455259","items":[{"name":"정우산업","tel":"031-682-0767","addr":"경기도 평택시 안중읍 안중리 216-1,216-20","category":"건축자재 - 기타건축자재"}]},{"lat":"36.987633115","long":"126.92837679","items":[{"name":"제일농약사","tel":"031-682-2302","addr":"경기도 평택시 안중읍 안중리 282-8번지","category":"소매업 - 농약"}]},{"lat":"36.988408092","long":"126.9284659","items":[{"name":"제일미용실","tel":"031-682-2496","addr":"경기도 평택시 안중읍 안중리 273-9번지","category":"보건위생 - 미용원"}]},{"lat":"36.98963276","long":"126.92721786","items":[{"name":"제일숯불구이","tel":"031-682-4994","addr":"경기도 평택시 안중읍 안중리 245-4","category":"일반휴게음식 - 일반한식"}]},{"lat":"36.985714769","long":"126.92988378","items":[{"name":"제일카센타","tel":"031-682-0982","addr":"경기도 평택시 안중읍 안중리 302-19번지","category":"자동차정비 유지 - 자동차정비"}]},{"lat":"36.989464369","long":"126.9317673","items":[{"name":"종합카인테리어","tel":"031-681-4232","addr":"경기도 평택시 안중읍 안중리 233-2번지","category":"자동차정비 유지 - 자동차부품"}]},{"lat":"36.992215867","long":"126.93738133","items":[{"name":"주식회사 평택안중자동차학원","tel":"031-682-1160","addr":"경기도 평택시 안중읍 안중리 185-10번지","category":"학원 - 기능학원"}]},{"lat":"36.989576948","long":"126.93963015","items":[{"name":"주은전기산업","tel":"031-681-5327","addr":"경기도 평택시 안중읍 안중리 148-14번지","category":"전기제품 - 기타전기제품"}]},{"lat":"36.988932771","long":"126.93182396","items":[{"name":"중앙개발","tel":"031-681-7711","addr":"경기도 평택시 안중읍 안중리 233-14번지 외2필지","category":"건축자재 - 부동산 분양"}]},{"lat":"36.988299667","long":"126.92799423","items":[{"name":"중앙마트","tel":"031-681-5747","addr":"경기도 평택시 안중읍 안중리 272-10번지","category":"소매업 - 슈퍼"}]},{"lat":"36.990050414","long":"126.93235087","items":[{"name":"지오천막사","tel":"031-681-0996","addr":"경기도 평택시 안중읍 안중리 234-9번지","category":"직물 - 카페트,커튼,천막,지물"},{"name":"효성모타","tel":"031-682-8058","addr":"경기도 평택시 안중읍 안중리 234-9번지","category":"건축자재 - 보일러·펌프·샷시"}]},{"lat":"36.987127106","long":"126.9261645","items":[{"name":"진달래양꼬치","tel":"031-681-4242","addr":"경기도 평택시 안중읍 안중리 256-20번지 비전타운 101호","category":"일반휴게음식 - 중국식"}]},{"lat":"36.988074661","long":"126.92841006","items":[{"name":"진이포차","tel":"","addr":"경기도 평택시 안중읍 안중리 282-13번지","category":"일반휴게음식 - 일반한식"}]},{"lat":"36.985740971","long":"126.92854712","items":[{"name":"참도토리묵밥집 안중점","tel":"031-682-0004","addr":"경기도 평택시 안중읍 안중리 262-113번지","category":"일반휴게음식 - 일반한식"}]},{"lat":"36.988099825","long":"126.92548956","items":[{"name":"청북현곡공단지게차","tel":"","addr":"경기도 평택시 안중읍 안중리 252-33번지 아이원오피스텔 404호","category":"기타 - 기계공구"}]},{"lat":"36.987634524","long":"126.93065699","items":[{"name":"청주떡방앗간","tel":"031-681-3458","addr":"경기도 평택시 안중읍 안중리 293-3번지","category":"음료식품 - 제과점"}]},{"lat":"36.986379837","long":"126.92713123","items":[{"name":"초콜릿","tel":"","addr":"경기도 평택시 안중읍 안중리 262-40번지","category":"일반휴게음식 - 주점"}]},{"lat":"36.987714527","long":"126.92888217","items":[{"name":"충남장식","tel":"031-682-2551","addr":"경기도 평택시 안중읍 안중리 284번지","category":"유통업 영리 - 기타유통업"},{"name":"한양떡방앗간","tel":"02-1111-1111","addr":"경기도 평택시 안중읍 안중리 284번지 1층","category":"음료식품 - 제과점"}]},{"lat":"36.981744197","long":"126.93521137","items":[{"name":"카페나눔","tel":"","addr":"경기도 평택시 안중읍 안중리 494-2번지 1층","category":"일반휴게음식 - 서양음식"}]},{"lat":"36.983633514","long":"126.93024519","items":[{"name":"카페케이","tel":"031-681-1063","addr":"경기도 평택시 안중읍 안중리 474-2번지 101호","category":"일반휴게음식 - 서양음식"},{"name":"카페케이","tel":"031-682-3627","addr":"경기도 평택시 안중읍 안중리 474-2번지","category":"음식점 - 카페"}]},{"lat":"36.989128808","long":"126.92824054","items":[{"name":"코리아하이테크","tel":"031-684-7221","addr":"경기도 평택시 안중읍 안중리 277-204번지 힐하우스 205호","category":"건축자재 - 기타건축자재"}]},{"lat":"36.989407792","long":"126.92768986","items":[{"name":"콘테츠로드","tel":"070-2699-0807","addr":"경기도 평택시 안중읍 안중리 245-2번지 1층","category":"용역 서비스 - 사무서비스"}]},{"lat":"36.982077849","long":"126.93566034","items":[{"name":"콩가네콩국수","tel":"031-683-2806","addr":"경기도 평택시 안중읍 안중리 492-6번지 1층","category":"일반휴게음식 - 일반한식"},{"name":"프라임공인중개사사무소","tel":"031-683-8953","addr":"경기도 평택시 안중읍 안중리 492-6번지","category":"용역 서비스 - 부동산 중개·임대"}]},{"lat":"36.988325472","long":"126.92607343","items":[{"name":"콩비지백반","tel":"031-686-5782","addr":"경기도 평택시 안중읍 안중리 252-38번지","category":"일반휴게음식 - 일반한식"}]},{"lat":"36.987714994","long":"126.92963475","items":[{"name":"탐나","tel":"031-681-7112","addr":"경기도 평택시 안중읍 안중리 266-1 1층상가","category":"의류 - 정장"}]},{"lat":"36.988050117","long":"126.9324875","items":[{"name":"태광상사","tel":"031-686-8138","addr":"경기도 평택시 안중읍 안중리 297-7번지","category":"자동차정비 유지 - 자동차부품"},{"name":"황태마을","tel":"031-682-4747","addr":"경기도 평택시 안중읍 안중리 297-7번지","category":"일반휴게음식 - 일반한식"}]},{"lat":"36.988825402","long":"126.93310459","items":[{"name":"태성추어탕(안중점)","tel":"031-683-9956","addr":"경기도 평택시 안중읍 안중리 228-12번지 1층","category":"일반휴게음식 - 일반한식"}]},{"lat":"36.988796036","long":"126.92924057","items":[{"name":"파리바게뜨(안중점)","tel":"031-682-9188","addr":"경기도 평택시 안중읍 안중리 278-8번지","category":"음료식품 - 제과점"},{"name":"휴대폰PLAZA","tel":"031-682-2525","addr":"경기도 평택시 안중읍 안중리 278-8번지","category":"사무통신 - 통신기기"},{"name":"휴대폰프라자","tel":"031-681-7889","addr":"경기도 평택시 안중읍 안중리 278-8번지","category":"소매업 - 전자기기"}]},{"lat":"36.988852724","long":"126.9335988","items":[{"name":"판다팜안중점","tel":"031-686-6123","addr":"경기도 평택시 안중읍 안중리 226-2번지","category":"도소매업 - 슈퍼"},{"name":"판다팜안중점","tel":"031-682-2850","addr":"경기도 평택시 안중읍 안중리 226-2번지","category":"신변잡화 - 기타잡화"}]},{"lat":"36.983799206","long":"126.93620919","items":[{"name":"팔구매운갈비찜","tel":"031-686-8982","addr":"경기도 평택시 안중읍 안중리 454-10번지 1층 102호","category":"일반휴게음식 - 일반한식"}]},{"lat":"36.988018926","long":"126.92579293","items":[{"name":"평화설비","tel":"031-682-5800","addr":"경기도 평택시 안중읍 안중리 252-70번지 거승빌라 B동 301호","category":"용역 서비스 - 기타용역서비스"}]},{"lat":"36.990326849","long":"126.92763279","items":[{"name":"풍년장식","tel":"031-683-5233","addr":"경기도 평택시 안중읍 안중리 246-15번지","category":"직물 - 카페트,커튼,천막,지물"}]},{"lat":"36.992715019","long":"126.9281584","items":[{"name":"하나로대리","tel":"031-681-7988","addr":"경기도 평택시 안중읍 안중리 244-21번지 1층","category":"보건위생 - 기타대인서비스"}]},{"lat":"36.991912946","long":"126.92796822","items":[{"name":"하오칭따오","tel":"031-682-8180","addr":"경기도 평택시 안중읍 안중리 244-4번지","category":"일반휴게음식 - 중국식"},{"name":"하오칭따오","tel":"031-683-4244","addr":"경기도 평택시 안중읍 안중리 244-4번지","category":"음식점 - 중식"}]},{"lat":"36.987211191","long":"126.9309382","items":[{"name":"하이카안중점","tel":"031-682-7741","addr":"경기도 평택시 안중읍 안중리 293-5번지","category":"자동차정비 유지 - 자동차부품"}]},{"lat":"36.987381012","long":"126.92869155","items":[{"name":"하트","tel":"031-681-5580","addr":"경기도 평택시 안중읍 안중리 266-5번지","category":"소매업 - 의류"}]},{"lat":"36.989211041","long":"126.9300714","items":[{"name":"하하식당","tel":"031-686-6699","addr":"경기도 평택시 안중읍 안중리 277-57번지","category":"일반휴게음식 - 일반한식"}]},{"lat":"36.984606671","long":"126.93024426","items":[{"name":"한강통닭","tel":"","addr":"경기도 평택시 안중읍 안중리 472-4번지 1층","category":"일반휴게음식 - 스넥"}]},{"lat":"36.98699334","long":"126.92835495","items":[{"name":"한솔인테리어","tel":"031-682-1470","addr":"경기도 평택시 안중읍 안중리 266-16번지","category":"직물 - 카페트,커튼,천막,지물"}]},{"lat":"36.987571857","long":"126.931331","items":[{"name":"한양신경외과의원","tel":"031-682-4700","addr":"경기도 평택시 안중읍 안중리 297-32번지","category":"의원 - 의원"},{"name":"한양신경외과의원","tel":"031-683-2580","addr":"경기도 평택시 안중읍 안중리 297-32번지","category":"서비스업 - 병원"}]},{"lat":"36.987434004","long":"126.92699539","items":[{"name":"한울","tel":"031-681-6442","addr":"경기도 평택시 안중읍 안중리 259-8번지","category":"음료식품 - 기타음료식품"}]},{"lat":"36.98624526","long":"126.92805241","items":[{"name":"한잔하세","tel":"031-682-9534","addr":"경기도 평택시 안중읍 안중리 262-9번지","category":"일반휴게음식 - 주점"}]},{"lat":"36.987940497","long":"126.93001644","items":[{"name":"할매손두부청국장","tel":"031-681-2369","addr":"경기도 평택시 안중읍 안중리 291-3번지","category":"일반휴게음식 - 일반한식"}]},{"lat":"36.987993579","long":"126.9284326","items":[{"name":"행복칼국수","tel":"031-681-8867","addr":"경기도 평택시 안중읍 안중리 282-26번지","category":"일반휴게음식 - 일반한식"}]},{"lat":"36.986794172","long":"126.9268837","items":[{"name":"헤라호프","tel":"031-684-3839","addr":"경기도 평택시 안중읍 안중리 262-107번지","category":"일반휴게음식 - 주점"}]},{"lat":"36.985524404","long":"126.92805311","items":[{"name":"현화전자","tel":"031-686-5405","addr":"경기도 평택시 안중읍 안중리 305-2","category":"수리서비스 - 가정용품수리"}]},{"lat":"36.98851564","long":"126.92754472","items":[{"name":"형제공구","tel":"031-682-2303","addr":"경기도 평택시 안중읍 안중리 272-7번지","category":"기타 - 기계공구"},{"name":"형제공구","tel":"031-681-6633","addr":"경기도 평택시 안중읍 안중리 272-7번지","category":"소매업 - 철물"}]},{"lat":"36.98974485","long":"126.93371032","items":[{"name":"형진자동차공업사","tel":"031-682-8266","addr":"경기도 평택시 안중읍 안중리 212-1번지","category":"자동차정비 유지 - 자동차정비"}]},{"lat":"36.984824936","long":"126.93360245","items":[{"name":"홈하우스 인테리어","tel":"","addr":"경기도 평택시 안중읍 안중리 447-11번지 202호","category":"건축자재 - 인테리어전문"}]},{"lat":"36.989385665","long":"126.93587857","items":[{"name":"황금사","tel":"031-682-7964","addr":"경기도 평택시 안중읍 안중리 129번지","category":"보건위생 - 기타대인서비스"}]},{"lat":"36.990104956","long":"126.93315958","items":[{"name":"황금코다리","tel":"031-681-3939","addr":"경기도 평택시 안중읍 안중리 209-6번지 1동 1층","category":"일반휴게음식 - 일반한식"}]},{"lat":"36.989493334","long":"126.93506971","items":[{"name":"흥아농공사","tel":"031-682-7840","addr":"경기도 평택시 안중읍 안중리 220-8번지","category":"농업 - 농기계"}]},{"lat":"36.989102622","long":"126.92959972","items":[{"name":"희주","tel":"031-663-0447","addr":"경기도 평택시 안중읍 안중리 277-39번지","category":"의류 - 정장"}]}]