[{"lat":"37.027413854","long":"127.34195406","items":[{"name":"(주)금수원 식품","tel":"031-671-3701","addr":"경기도 안성시 보개면 상삼리 1번지","category":"음료식품 - 농·축·수산품"},{"name":"러브앤드림 바자(Love&Dream Bazaar)","tel":"031-111-1111","addr":"경기도 안성시 보개면 상삼리 1번지","category":"의류 - 정장"}]},{"lat":"37.027216078","long":"127.33542374","items":[{"name":"(주)안성축산맛있는고기","tel":"031-674-7383","addr":"경기도 안성시 보개면 상삼리 127-2","category":"음료식품 - 정육점"}]},{"lat":"37.022716742","long":"127.33003255","items":[{"name":"(주)양지조경산업","tel":"031-671-6077","addr":"경기도 안성시 보개면 상삼리 676-1번지","category":"문화.취미 - 화원"}]},{"lat":"37.028302295","long":"127.34005871","items":[{"name":"(주)청양엘피지이화충전소","tel":"031-674-9997","addr":"경기도 안성시 보개면 상삼리 212-1번지","category":"연료판매점 - 현대정유 가스충전소"},{"name":"이화주유소","tel":"","addr":"경기도 안성시 보개면 상삼리 212-1번지","category":"연료판매점 - 주유소"}]},{"lat":"37.024359917","long":"127.33211859","items":[{"name":"가온뷔페","tel":"031-677-4964","addr":"경기도 안성시 보개면 상삼리 78-6번지 가온뷔페","category":"일반휴게음식 - 일반한식"}]},{"lat":"37.029410137","long":"127.32398116","items":[{"name":"가인설비","tel":"00-5227-4142","addr":"경기도 안성시 보개면 상삼리 395-6번지","category":"용역 서비스 - 기타용역서비스"}]},{"lat":"37.019078471","long":"127.32600531","items":[{"name":"거리실농원","tel":"031-673-8672","addr":"경기도 안성시 보개면 상삼리 735-6번지","category":"음료식품 - 농·축·수산품"},{"name":"흙구술","tel":"031-677-5230","addr":"경기도 안성시 보개면 상삼리 735-6번지","category":"음료식품 - 농·축·수산품"}]},{"lat":"37.024854028","long":"127.33264891","items":[{"name":"금도낚시","tel":"031-676-2444","addr":"경기도 안성시 보개면 상삼리 74-12번지","category":"레져용품 - 스포츠·레져용품"}]},{"lat":"37.027575982","long":"127.33880804","items":[{"name":"대성카프랜드","tel":"070-4922-1261","addr":"경기도 안성시 보개면 상삼리 209-18번지","category":"자동차정비 유지 - 자동차부품"}]},{"lat":"37.021249167","long":"127.33286932","items":[{"name":"디지탈오토","tel":"031-677-2825","addr":"경기도 안성시 보개면 상삼리 46-5번지","category":"자동차정비 유지 - 자동차부품"}]},{"lat":"37.024602265","long":"127.33245678","items":[{"name":"보개주유소","tel":"031-672-5199","addr":"경기도 안성시 보개면 상삼리 74-3번지","category":"연료판매점 - 쌍용S-OIL"},{"name":"보개주유소","tel":"031-671-5144","addr":"경기도 안성시 보개면 상삼리 74-3번지 1층","category":"연료판매점 - 쌍용S-OIL"}]},{"lat":"37.027496286","long":"127.33831321","items":[{"name":"산삼 누룽지백숙 막국수","tel":"","addr":"경기도 안성시 보개면 상삼리 209-11번지","category":"일반휴게음식 - 일반한식"},{"name":"선비촌 감자탕","tel":"031-672-0225","addr":"경기도 안성시 보개면 상삼리 209-11번지","category":"일반휴게음식 - 일반한식"},{"name":"씨유안성서동대로점","tel":"080-080-3663","addr":"경기도 안성시 보개면 상삼리 209-11번지","category":"유통업 영리 - 편 의 점"}]},{"lat":"37.021943423","long":"127.32283723","items":[{"name":"산울농원","tel":"031-1111-1111","addr":"경기도 안성시 보개면 상삼리 641-1번지","category":"음료식품 - 농·축·수산품"}]},{"lat":"37.02699357","long":"127.33764794","items":[{"name":"삼해어촌영어조합법인","tel":"031-674-9652","addr":"경기도 안성시 보개면 상삼리 17-2번지","category":"음료식품 - 농·축·수산품"}]},{"lat":"37.028245268","long":"127.33792315","items":[{"name":"서울중앙의원","tel":"031-671-7575","addr":"경기도 안성시 보개면 상삼리 209-15번지","category":"의원 - 의원"}]},{"lat":"37.027940876","long":"127.33722504","items":[{"name":"세움","tel":"031-671-1180","addr":"경기도 안성시 보개면 상삼리 208-3번지","category":"건축자재 - 기타건축자재"}]},{"lat":"37.024019292","long":"127.33147657","items":[{"name":"세월에","tel":"031-671-1227","addr":"경기도 안성시 보개면 상삼리 78-1","category":"일반휴게음식 - 일반한식"}]},{"lat":"37.031469097","long":"127.3354198","items":[{"name":"소(통)나(눔)기(쁨)","tel":"","addr":"경기도 안성시 보개면 상삼리 262-5번지","category":"문화.취미 - 티켓"}]},{"lat":"37.021602159","long":"127.32903887","items":[{"name":"아이엠티(IMT)","tel":"031-672-0460","addr":"경기도 안성시 보개면 상삼리 678-1번지","category":"숙박업 - 여관/기타숙박업"}]},{"lat":"37.028463845","long":"127.34028419","items":[{"name":"안성타이어","tel":"031-674-0982","addr":"경기도 안성시 보개면 상삼리 212번지","category":"자동차정비 유지 - 자동차시트·타이어"}]},{"lat":"37.028355739","long":"127.33709199","items":[{"name":"에센스라이프","tel":"031-677-1913","addr":"경기도 안성시 보개면 상삼리 203-11번지","category":"직물 - 침구·수예점"}]},{"lat":"37.025881008","long":"127.33273202","items":[{"name":"영광포도원","tel":"031-672-6003","addr":"경기도 안성시 보개면 상삼리 98-1번지","category":"음료식품 - 농·축·수산품"}]},{"lat":"37.028800709","long":"127.33906068","items":[{"name":"우진마대","tel":"031-671-0557","addr":"경기도 안성시 보개면 상삼리 221","category":"직물 - 기타직물"}]},{"lat":"37.022748561","long":"127.331561","items":[{"name":"윤성골프연습장","tel":"031-674-6308","addr":"경기도 안성시 보개면 상삼리 54-3","category":"회원제형태 - 레져업소"},{"name":"케이에스상사","tel":"031-677-3358","addr":"경기도 안성시 보개면 상삼리 54-3번지","category":"레져용품 - 스포츠·레져용품"}]},{"lat":"37.027996161","long":"127.33997869","items":[{"name":"이화LPG충전소","tel":"031-674-9997","addr":"경기도 안성시 보개면 상삼리 211번지","category":"연료판매점 - LPG 취급점"}]},{"lat":"37.020659999","long":"127.32759647","items":[{"name":"조왕플러스","tel":"031-677-7513","addr":"경기도 안성시 보개면 상삼리 717-1번지 라동","category":"주방용구 - 주방용구"}]},{"lat":"37.016888062","long":"127.32298458","items":[{"name":"태이힐링타로카페","tel":"031-684-1330","addr":"경기도 안성시 보개면 상삼리 752번지","category":"일반휴게음식 - 서양음식"}]},{"lat":"37.032017724","long":"127.32600392","items":[{"name":"퍼스트골든","tel":"031-674-4409","addr":"경기도 안성시 보개면 상삼리 342번지 외2필지","category":"문화.취미 - 애완동물"}]}]