[{"lat":"37.659520579","long":"126.83687691","items":[{"name":"고양거리아티스트협회","tel":"070-8880-4199","addr":"경기도 고양시 덕양구 마상로","category":"문화.취미 - 화랑"}]},{"lat":"37.658048356","long":"126.84073331","items":[{"name":"동일인테리어","tel":"031-966-7753","addr":"경기도 고양시 덕양구 마상로","category":"건축자재 - 인테리어전문"}]},{"lat":"37.658686399","long":"126.83954198","items":[{"name":"때깔","tel":"031-966-3567","addr":"경기도 고양시 덕양구 마상로","category":"의류 - 정장"}]},{"lat":"37.657238745","long":"126.84165301","items":[{"name":"라푼젤","tel":"031-965-4450","addr":"경기도 고양시 덕양구 마상로","category":"보건위생 - 미용원"}]},{"lat":"37.663628534","long":"126.82423084","items":[{"name":"무한게장","tel":"031-968-8959","addr":"경기도 고양시 덕양구 마상로","category":"일반휴게음식 - 일반한식"}]},{"lat":"37.65852468","long":"126.83987098","items":[{"name":"신앙촌상회","tel":"031-965-1440","addr":"경기도 고양시 덕양구 마상로","category":"신변잡화 - 기타잡화"}]},{"lat":"37.658937079","long":"126.83839681","items":[{"name":"원당재활용","tel":"031-964-0990","addr":"경기도 고양시 덕양구 마상로","category":"전기제품 - 가전제품"}]},{"lat":"37.657823767","long":"126.84120977","items":[{"name":"주식회사 워커스씨앤씨","tel":"031-968-8817","addr":"경기도 고양시 덕양구 마상로","category":"의류 - 정장"}]},{"lat":"37.658273067","long":"126.84034751","items":[{"name":"춘천우리닭갈비","tel":"031-968-6997","addr":"경기도 고양시 덕양구 마상로","category":"일반휴게음식 - 일반한식"}]},{"lat":"37.658325966","long":"126.83950877","items":[{"name":"코사마트한양점","tel":"031-962-0122","addr":"경기도 고양시 덕양구 마상로","category":"유통업 영리 - 슈퍼마켓"}]}]