[{"lat":"37.746370357","long":"126.95047391","items":[{"name":"323아트스튜디오","tel":"031-847-8000","addr":"경기도 양주시 장흥면 석현리 323-2번지","category":"문화.취미 - 문화취미기타"},{"name":"광문사","tel":"031-847-8000","addr":"경기도 양주시 장흥면 석현리 323-2번지 지하1층","category":"서적문구 - 출판 및 인쇄물"}]},{"lat":"37.759953985","long":"126.96719165","items":[{"name":"36.5","tel":"031-855-0250","addr":"경기도 양주시 장흥면 석현리 18번지","category":"숙박업 - 여관/기타숙박업"},{"name":"삼육.오(36.5)","tel":"031-855-0250","addr":"경기도 양주시 장흥면 석현리 18번지 1층","category":"숙박업 - 여관/기타숙박업"}]},{"lat":"37.751396021","long":"126.97101969","items":[{"name":"KFA아트밸리카페","tel":"031-855-5007","addr":"경기도 양주시 장흥면 석현리 48-1번지","category":"일반휴게음식 - 서양음식"}]},{"lat":"37.738100143","long":"126.95175037","items":[{"name":"가배","tel":"","addr":"경기도 양주시 장흥면 석현리 371-4번지 1층","category":"일반휴게음식 - 서양음식"}]},{"lat":"37.748511378","long":"126.96560864","items":[{"name":"갈월","tel":"031-855-0149","addr":"경기도 양주시 장흥면 석현리 71번지","category":"유통업 영리 - 슈퍼마켓"}]},{"lat":"37.748232824","long":"126.94510572","items":[{"name":"개명연수원","tel":"031-324-7489","addr":"경기도 양주시 장흥면 석현리 231번지","category":"용역 서비스 - 사무서비스"}]},{"lat":"37.748701459","long":"126.94538902","items":[{"name":"개명펜션","tel":"031-826-7489","addr":"경기도 양주시 장흥면 석현리 237-5번지","category":"숙박업 - 여관/기타숙박업"}]},{"lat":"37.742813875","long":"126.95591098","items":[{"name":"계곡산장","tel":"031-855-6065","addr":"경기도 양주시 장흥면 석현리 345번지","category":"일반휴게음식 - 일반한식"},{"name":"삼오구","tel":"","addr":"경기도 양주시 장흥면 석현리 345번지 1층","category":"음료식품 - 기타음료식품"}]},{"lat":"37.757179555","long":"126.96890651","items":[{"name":"고비골","tel":"031-878-7260","addr":"경기도 양주시 장흥면 석현리 34-2번지","category":"일반휴게음식 - 일반한식"}]},{"lat":"37.750043124","long":"126.94385617","items":[{"name":"고향산천","tel":"031-855-9844","addr":"경기도 양주시 장흥면 석현리 289번지","category":"일반휴게음식 - 일반한식"}]},{"lat":"37.761124959","long":"126.96632861","items":[{"name":"곤드레황제보쌈","tel":"02-351-3577","addr":"경기도 양주시 장흥면 석현리 9-1번지","category":"일반휴게음식 - 서양음식"}]},{"lat":"37.747819363","long":"126.94713705","items":[{"name":"구름다리","tel":"031-878-1159","addr":"경기도 양주시 장흥면 석현리 217번지","category":"일반휴게음식 - 일반한식"}]},{"lat":"37.730098444","long":"126.94905607","items":[{"name":"그남자","tel":"","addr":"경기도 양주시 장흥면 석현리 392-3번지","category":"일반휴게음식 - 일반한식"},{"name":"김여사 푸드&드링크","tel":"031-406-2317","addr":"경기도 양주시 장흥면 석현리 392-3번지","category":"일반휴게음식 - 서양음식"},{"name":"김여사 푸드&드링크(Food&Drink)","tel":"031-406-2317","addr":"경기도 양주시 장흥면 석현리 392-3번지","category":"일반휴게음식 - 서양음식"},{"name":"아름다운 정원마켓 복지매점","tel":"031-847-9399","addr":"경기도 양주시 장흥면 석현리 392-3번지","category":"문화.취미 - 문화취미기타"},{"name":"피턴하우스","tel":"070-8279-1801","addr":"경기도 양주시 장흥면 석현리 392-3번지","category":"일반휴게음식 - 서양음식"}]},{"lat":"37.743290004","long":"126.95257504","items":[{"name":"그레이스 밸리","tel":"031-829-7954","addr":"경기도 양주시 장흥면 석현리 333번지","category":"숙박업 - 여관/기타숙박업"},{"name":"주식회사 그레이스밸리펜션","tel":"031-829-7954","addr":"경기도 양주시 장흥면 석현리 333번지","category":"숙박업 - 여관/기타숙박업"}]},{"lat":"37.746843093","long":"126.96108232","items":[{"name":"금강산","tel":"031-855-6500","addr":"경기도 양주시 장흥면 석현리 342-9번지","category":"일반휴게음식 - 일반한식"}]},{"lat":"37.745289451","long":"126.95101928","items":[{"name":"나우리","tel":"031-829-0405","addr":"경기도 양주시 장흥면 석현리 326","category":"일반휴게음식 - 일반한식"}]},{"lat":"37.731044589","long":"126.94936167","items":[{"name":"나전칠기전수관","tel":"031-867-3357","addr":"경기도 양주시 장흥면 석현리 394","category":"문화.취미 - 문화취미기타"}]},{"lat":"37.749403407","long":"126.94377725","items":[{"name":"뉴파인힐","tel":"031-855-9972","addr":"경기도 양주시 장흥면 석현리 290번지","category":"숙박업 - 여관/기타숙박업"}]},{"lat":"37.760701758","long":"126.96713455","items":[{"name":"다래골","tel":"031-855-4598","addr":"경기도 양주시 장흥면 석현리 17번지","category":"일반휴게음식 - 일반한식"}]},{"lat":"37.759620806","long":"126.96777057","items":[{"name":"다이안","tel":"031-000-0000","addr":"경기도 양주시 장흥면 석현리 20-1번지","category":"숙박업 - 여관/기타숙박업"}]},{"lat":"37.729846202","long":"126.94911298","items":[{"name":"더자유","tel":"","addr":"경기도 양주시 장흥면 석현리 392-7 일부","category":"음료식품 - 기타음료식품"}]},{"lat":"37.747203228","long":"126.96039","items":[{"name":"도깨비노래연습장","tel":"031-878-6245","addr":"경기도 양주시 장흥면 석현리 77","category":"레저업소 - 노 래 방"},{"name":"도깨비방망이","tel":"","addr":"경기도 양주시 장흥면 석현리 77번지 1층","category":"일반휴게음식 - 일반한식"}]},{"lat":"37.731873164","long":"126.94869178","items":[{"name":"도이창 장욱진미술관점","tel":"070-4212-1417","addr":"경기도 양주시 장흥면 석현리 산1번지 장욱진미술관 1층","category":"일반휴게음식 - 서양음식"},{"name":"양주시립 장욱진미술관","tel":"031-8082-4242","addr":"경기도 양주시 장흥면 석현리 산1번지 양주시립장욱진미술관","category":"문화.취미 - 티켓"},{"name":"양주시청 양주시립장욱진미술관","tel":"031-8082-4242","addr":"경기도 양주시 장흥면 석현리 산1번지","category":"문화.취미 - 티켓"}]},{"lat":"37.747009203","long":"126.94863536","items":[{"name":"돌고개 늘품","tel":"031-855-1700","addr":"경기도 양주시 장흥면 석현리 200번지","category":"일반휴게음식 - 일반한식"},{"name":"돌고개식당여관","tel":"031-855-1700","addr":"경기도 양주시 장흥면 석현리 200번지","category":"일반휴게음식 - 일반한식"}]},{"lat":"37.747567831","long":"126.94871438","items":[{"name":"돌고개휴펜션","tel":"","addr":"경기도 양주시 장흥면 석현리 198-2번지","category":"숙박업 - 여관/기타숙박업"}]},{"lat":"37.742398357","long":"126.95327907","items":[{"name":"레마르크","tel":"031-855-2713","addr":"경기도 양주시 장흥면 석현리 359-3번지","category":"일반휴게음식 - 일반한식"}]},{"lat":"37.754566965","long":"126.96952047","items":[{"name":"로뎀","tel":"031-855-5615","addr":"경기도 양주시 장흥면 석현리 42-3번지","category":"일반휴게음식 - 일반한식"}]},{"lat":"37.740849746","long":"126.95579877","items":[{"name":"마루","tel":"031-855-4311","addr":"경기도 양주시 장흥면 석현리 346-6번지 1층","category":"음료식품 - 기타음료식품"}]},{"lat":"37.7415693","long":"126.95285984","items":[{"name":"마운틴","tel":"031-855-1851","addr":"경기도 양주시 장흥면 석현리 360-9","category":"숙박업 - 여관/기타숙박업"}]},{"lat":"37.747376834","long":"126.94493619","items":[{"name":"모텔스카이","tel":"031-826-3284","addr":"경기도 양주시 장흥면 석현리 224번지","category":"숙박업 - 여관/기타숙박업"}]},{"lat":"37.747764681","long":"126.94583225","items":[{"name":"모텔알엑스1","tel":"031-879-3575","addr":"경기도 양주시 장흥면 석현리 222-4번지","category":"숙박업 - 여관/기타숙박업"}]},{"lat":"37.748899125","long":"126.96668637","items":[{"name":"밀과보리","tel":"031-855-8717","addr":"경기도 양주시 장흥면 석현리 69번지","category":"일반휴게음식 - 일반한식"}]},{"lat":"37.750674344","long":"126.94496766","items":[{"name":"베트남참전전우복지 주식회사/네오텔","tel":"031-829-9848","addr":"경기도 양주시 장흥면 석현리 269-2","category":"숙박업 - 여관/기타숙박업"}]},{"lat":"37.75087247","long":"126.96752508","items":[{"name":"보보스","tel":"031-873-1188","addr":"경기도 양주시 장흥면 석현리 59번지 1층","category":"숙박업 - 여관/기타숙박업"}]},{"lat":"37.753287491","long":"126.96910119","items":[{"name":"봄날의정원","tel":"031-855-8091","addr":"경기도 양주시 장흥면 석현리 44번지","category":"일반휴게음식 - 일반한식"}]},{"lat":"37.741983869","long":"126.95316589","items":[{"name":"봉가360","tel":"031-855-4010","addr":"경기도 양주시 장흥면 석현리 360번지 1층","category":"숙박업 - 여관/기타숙박업"}]},{"lat":"37.749896525","long":"126.93915874","items":[{"name":"빌라드제이","tel":"","addr":"경기도 양주시 장흥면 석현리 302번지 1층","category":"숙박업 - 여관/기타숙박업"}]},{"lat":"37.747429255","long":"126.96263644","items":[{"name":"산들","tel":"","addr":"경기도 양주시 장흥면 석현리 73번지 1층","category":"일반휴게음식 - 일반한식"}]},{"lat":"37.763701442","long":"126.96555562","items":[{"name":"산마루","tel":"031-855-2333","addr":"경기도 양주시 장흥면 석현리 3-7번지","category":"일반휴게음식 - 일반한식"}]},{"lat":"37.736568502","long":"126.95171739","items":[{"name":"삼막골커피숍","tel":"031-855-2889","addr":"경기도 양주시 장흥면 석현리 369-7","category":"일반휴게음식 - 서양음식"}]},{"lat":"37.75428774","long":"126.96977023","items":[{"name":"삼일 중고 소품","tel":"031-855-8177","addr":"경기도 양주시 장흥면 석현리 42-6번지","category":"가구 - 기타가구"}]},{"lat":"37.735739245","long":"126.95085578","items":[{"name":"석현마을휴게소","tel":"031-855-6449","addr":"경기도 양주시 장흥면 석현리 373-2번지","category":"유통업 영리 - 기타유통업"}]},{"lat":"37.736406246","long":"126.95152464","items":[{"name":"선비촌","tel":"031-855-6396","addr":"경기도 양주시 장흥면 석현리 369-4번지","category":"일반휴게음식 - 일반한식"}]},{"lat":"37.733789909","long":"126.94391445","items":[{"name":"세종아카데미기숙학원","tel":"031-836-2107","addr":"경기도 양주시 장흥면 석현리 405번지","category":"학원 - 보습학원"}]},{"lat":"37.752206251","long":"126.96877262","items":[{"name":"소바하나","tel":"","addr":"경기도 양주시 장흥면 석현리 47-9번지 1층","category":"일반휴게음식 - 일식·회집"}]},{"lat":"37.749791625","long":"126.94541087","items":[{"name":"솔내음","tel":"031-872-1256","addr":"경기도 양주시 장흥면 석현리 256-2번지","category":"일반휴게음식 - 일반한식"}]},{"lat":"37.742821474","long":"126.95249594","items":[{"name":"수목원","tel":"031-836-0282","addr":"경기도 양주시 장흥면 석현리 359-11","category":"숙박업 - 여관/기타숙박업"},{"name":"장흥수목원펜션식당","tel":"","addr":"경기도 양주시 장흥면 석현리 359-11번지 1층","category":"일반휴게음식 - 일반한식"}]},{"lat":"37.744181232","long":"126.95091794","items":[{"name":"신선식당","tel":"031-855-5213","addr":"경기도 양주시 장흥면 석현리 331-1번지","category":"일반휴게음식 - 일반한식"}]},{"lat":"37.748674979","long":"126.94652369","items":[{"name":"신털뫼1","tel":"031-855-6936","addr":"경기도 양주시 장흥면 석현리 211번지","category":"일반휴게음식 - 일반한식"}]},{"lat":"37.742316997","long":"126.95263242","items":[{"name":"아침풍경","tel":"031-829-5425","addr":"경기도 양주시 장흥면 석현리 360-7번지","category":"숙박업 - 여관/기타숙박업"}]},{"lat":"37.759009208","long":"126.97149304","items":[{"name":"아트밸리이벤트","tel":"02-491-2116","addr":"경기도 양주시 장흥면 석현리 산10-13번지 1층","category":"학원 - 기타 교육기관"},{"name":"아트포유","tel":"02-491-2116","addr":"경기도 양주시 장흥면 석현리 산10-13번지 1층","category":"일반휴게음식 - 일반한식"}]},{"lat":"37.741820957","long":"126.95144148","items":[{"name":"아트시티","tel":"031-829-3226","addr":"경기도 양주시 장흥면 석현리 360-19번지 가동","category":"음료식품 - 기타음료식품"}]},{"lat":"37.730153311","long":"126.95085968","items":[{"name":"에버그린관광호텔","tel":"031-855-7900","addr":"경기도 양주시 장흥면 석현리 386-9번지","category":"숙박업 - 여관/기타숙박업"}]},{"lat":"37.749539105","long":"126.96768456","items":[{"name":"엠","tel":"031-855-2218","addr":"경기도 양주시 장흥면 석현리 65번지 1-5층","category":"숙박업 - 여관/기타숙박업"},{"name":"엠","tel":"031-855-2218","addr":"경기도 양주시 장흥면 석현리 65번지","category":"숙박업 - 여관/기타숙박업"}]},{"lat":"37.741399229","long":"126.95554882","items":[{"name":"여울목","tel":"031-840-0526","addr":"경기도 양주시 장흥면 석현리 346-4번지","category":"일반휴게음식 - 일반한식"}]},{"lat":"37.74156952","long":"126.95338173","items":[{"name":"여울목펜션","tel":"031-855-9090","addr":"경기도 양주시 장흥면 석현리 359-2번지","category":"숙박업 - 여관/기타숙박업"}]},{"lat":"37.737010186","long":"126.95221626","items":[{"name":"예전도예갤러리","tel":"031-829-6139","addr":"경기도 양주시 장흥면 석현리 368-6","category":"일반휴게음식 - 서양음식"}]},{"lat":"37.749259363","long":"126.96622098","items":[{"name":"오페라","tel":"031-855-2298","addr":"경기도 양주시 장흥면 석현리 68번지","category":"숙박업 - 여관/기타숙박업"}]},{"lat":"37.74270449","long":"126.95282504","items":[{"name":"올리브","tel":"031-855-7923","addr":"경기도 양주시 장흥면 석현리 359-1번지","category":"일반휴게음식 - 서양음식"}]},{"lat":"37.752873123","long":"126.96935102","items":[{"name":"은하수","tel":"031-855-2663","addr":"경기도 양주시 장흥면 석현리 45번지","category":"일반휴게음식 - 일반한식"}]},{"lat":"37.735766188","long":"126.9506629","items":[{"name":"이집이좋겠네(별관)","tel":"031-855-2454","addr":"경기도 양주시 장흥면 석현리 373-4번지","category":"일반휴게음식 - 일반한식"}]},{"lat":"37.742011155","long":"126.95377853","items":[{"name":"작은영토","tel":"031-855-5670","addr":"경기도 양주시 장흥면 석현리 357번지","category":"일반휴게음식 - 일반한식"},{"name":"작은영토","tel":"031-855-5610","addr":"경기도 양주시 장흥면 석현리 357번지","category":"일반휴게음식 - 일반한식"}]},{"lat":"37.741875917","long":"126.95355171","items":[{"name":"작은영토별관","tel":"031-855-6247","addr":"경기도 양주시 장흥면 석현리 359-4번지","category":"일반휴게음식 - 일반한식"}]},{"lat":"37.74329157","long":"126.9563872","items":[{"name":"장산","tel":"031-855-0345","addr":"경기도 양주시 장흥면 석현리 337-1번지","category":"일반휴게음식 - 일반한식"}]},{"lat":"37.749872475","long":"126.96774114","items":[{"name":"장원","tel":"031-879-3589","addr":"경기도 양주시 장흥면 석현리 64번지","category":"일반휴게음식 - 일반한식"}]},{"lat":"37.751035026","long":"126.96882989","items":[{"name":"장흥궁","tel":"031-829-1020","addr":"경기도 양주시 장흥면 석현리 51번지","category":"일반휴게음식 - 일반한식"}]},{"lat":"37.756792204","long":"126.96911095","items":[{"name":"장흥배꼽","tel":"031-855-4597","addr":"경기도 양주시 장흥면 석현리 35-2번지","category":"일반휴게음식 - 일반한식"}]},{"lat":"37.754846118","long":"126.96902105","items":[{"name":"장흥빛고을","tel":"031-877-3326","addr":"경기도 양주시 장흥면 석현리 38번지","category":"일반휴게음식 - 일반한식"}]},{"lat":"37.734405658","long":"126.950471","items":[{"name":"장흥산장","tel":"031-855-5570","addr":"경기도 양주시 장흥면 석현리 385-15번지","category":"일반휴게음식 - 일반한식"}]},{"lat":"37.749292528","long":"126.93850116","items":[{"name":"장흥약수펜션","tel":"031-855-3122","addr":"경기도 양주시 장흥면 석현리 302-1","category":"숙박업 - 여관/기타숙박업"}]},{"lat":"37.74401052","long":"126.95199591","items":[{"name":"장흥일번가","tel":"031-872-7752","addr":"경기도 양주시 장흥면 석현리 331-2번지","category":"일반휴게음식 - 일반한식"},{"name":"장흥일번가","tel":"031-855-2282","addr":"경기도 양주시 장흥면 석현리 331-2번지","category":"일반휴게음식 - 일반한식"}]},{"lat":"37.744761375","long":"126.95966525","items":[{"name":"장흥참숯가마","tel":"031-877-4666","addr":"경기도 양주시 장흥면 석현리 343번지","category":"보건위생 - 사우나"},{"name":"장흥참숯가마","tel":"031-877-4666","addr":"경기도 양주시 장흥면 석현리 343번지","category":"보건위생 - 사우나"},{"name":"장흥참숯가마 구내식당","tel":"031-877-4666","addr":"경기도 양주시 장흥면 석현리 343번지 나동","category":"일반휴게음식 - 일반한식"}]},{"lat":"37.745316102","long":"126.95016831","items":[{"name":"장흥폭포수식당","tel":"031-855-5656","addr":"경기도 양주시 장흥면 석현리 329-1 (329-1,4,5)","category":"일반휴게음식 - 일반한식"}]},{"lat":"37.748485483","long":"126.94591112","items":[{"name":"장흥황토마당","tel":"031-855-5806","addr":"경기도 양주시 장흥면 석현리 236-2번지","category":"일반휴게음식 - 일반한식"}]},{"lat":"37.728953858","long":"126.94825151","items":[{"name":"재단법인 천년고찰청련사","tel":"031-836-2439","addr":"경기도 양주시 장흥면 석현리 393-2번지","category":"신변잡화 - 기념품점"},{"name":"한국불교태고종 청련사","tel":"031-836-2438","addr":"경기도 양주시 장흥면 석현리 393-2번지","category":"용역 서비스 - 가례서비스업"}]},{"lat":"37.752007027","long":"126.94350285","items":[{"name":"전망좋은방","tel":"031-855-5300","addr":"경기도 양주시 장흥면 석현리 282번지","category":"숙박업 - 여관/기타숙박업"}]},{"lat":"37.735370072","long":"126.95135519","items":[{"name":"전원산골","tel":"031-829-2832","addr":"경기도 양주시 장흥면 석현리 374-4번지","category":"일반휴게음식 - 일반한식"}]},{"lat":"37.750258993","long":"126.94314115","items":[{"name":"전주계곡산장","tel":"031-829-2268","addr":"경기도 양주시 장흥면 석현리 296","category":"일반휴게음식 - 일반한식"}]},{"lat":"37.750232915","long":"126.96793387","items":[{"name":"제네시스","tel":"031-872-6641","addr":"경기도 양주시 장흥면 석현리 63번지","category":"주방용구 - 주방용구"}]},{"lat":"37.750647306","long":"126.96777481","items":[{"name":"젠틀맨호텔","tel":"031-855-6168","addr":"경기도 양주시 장흥면 석현리 60번지","category":"숙박업 - 여관/기타숙박업"}]},{"lat":"37.73893044","long":"126.95513062","items":[{"name":"주막촌","tel":"031-855-7736","addr":"경기도 양주시 장흥면 석현리 364-2","category":"일반휴게음식 - 일반한식"}]},{"lat":"37.748486643","long":"126.94836197","items":[{"name":"주식회사 초종교하늘궁","tel":"031-1111-1111","addr":"경기도 양주시 장흥면 석현리 204번지","category":"학원 - 기타 교육기관"},{"name":"하늘궁","tel":"031-855-6494","addr":"경기도 양주시 장흥면 석현리 204번지","category":"학원 - 기타 교육기관"}]},{"lat":"37.729621449","long":"126.95019078","items":[{"name":"참솔가든","tel":"031-855-4109","addr":"경기도 양주시 장흥면 석현리 386-6번지 1층","category":"일반휴게음식 - 일반한식"}]},{"lat":"37.744541699","long":"126.95111057","items":[{"name":"초가마을","tel":"031-855-1124","addr":"경기도 양주시 장흥면 석현리 328번지","category":"일반휴게음식 - 일반한식"}]},{"lat":"37.740121092","long":"126.95869226","items":[{"name":"초원상회","tel":"031-855-5716","addr":"경기도 양주시 장흥면 석현리 350-2번지","category":"음료식품 - 기타음료식품"}]},{"lat":"37.737929649","long":"126.95336146","items":[{"name":"춘천댁화로닭갈비","tel":"031-111-1111","addr":"경기도 양주시 장흥면 석현리 367-2번지","category":"일반휴게음식 - 일반한식"},{"name":"코알라하우스","tel":"043-423-1171","addr":"경기도 양주시 장흥면 석현리 367-2번지 1층","category":"일반휴게음식 - 일반한식"},{"name":"화이트하우스","tel":"031-826-2016","addr":"경기도 양주시 장흥면 석현리 367-2번지","category":"일반휴게음식 - 서양음식"}]},{"lat":"37.749008037","long":"126.94591072","items":[{"name":"카페같은집","tel":"031-829-8711","addr":"경기도 양주시 장흥면 석현리 248-2","category":"일반휴게음식 - 일반한식"}]},{"lat":"37.756702011","long":"126.96877056","items":[{"name":"커피해요","tel":"031-855-5732","addr":"경기도 양주시 장흥면 석현리 37번지","category":"일반휴게음식 - 서양음식"}]},{"lat":"37.762953623","long":"126.96546521","items":[{"name":"큐로","tel":"031-855-0983","addr":"경기도 양주시 장흥면 석현리 3-1","category":"일반휴게음식 - 서양음식"}]},{"lat":"37.751927082","long":"126.96921528","items":[{"name":"탑골토속음식점","tel":"031-855-7730","addr":"경기도 양주시 장흥면 석현리 51-3번지","category":"일반휴게음식 - 일반한식"}]},{"lat":"37.748701888","long":"126.94627405","items":[{"name":"텃밭슈퍼","tel":"031-855-5671","addr":"경기도 양주시 장흥면 석현리 212-1번지","category":"유통업 영리 - 슈퍼마켓"}]},{"lat":"37.731540228","long":"126.94961088","items":[{"name":"토속마당","tel":"031-855-8180","addr":"경기도 양주시 장흥면 석현리 394-2번지","category":"일반휴게음식 - 일반한식"}]},{"lat":"37.747098096","long":"126.94608238","items":[{"name":"파인힐","tel":"031-829-7779","addr":"경기도 양주시 장흥면 석현리 220번지","category":"숙박업 - 여관/기타숙박업"}]},{"lat":"37.74851328","long":"126.94752231","items":[{"name":"파피루스","tel":"031-855-2825","addr":"경기도 양주시 장흥면 석현리 205-3번지","category":"숙박업 - 여관/기타숙박업"}]},{"lat":"37.740344301","long":"126.95357541","items":[{"name":"펜션아트시티투","tel":"031-855-0082","addr":"경기도 양주시 장흥면 석현리 361,361-2","category":"음료식품 - 기타음료식품"}]},{"lat":"37.739454393","long":"126.95871535","items":[{"name":"포레스텍 F&R","tel":"070-7613-8342","addr":"경기도 양주시 장흥면 석현리 352-2번지 4동 1층","category":"음료식품 - 기타음료식품"}]},{"lat":"37.747791412","long":"126.94521953","items":[{"name":"풍촌","tel":"031-840-5665","addr":"경기도 양주시 장흥면 석현리 229번지","category":"일반휴게음식 - 일반한식"}]},{"lat":"37.760422498","long":"126.96724817","items":[{"name":"프로방스호텔","tel":"031-829-0052","addr":"경기도 양주시 장흥면 석현리 17-4번지","category":"숙박업 - 여관/기타숙박업"}]},{"lat":"37.746514035","long":"126.94941861","items":[{"name":"하늘바람","tel":"031-877-8553","addr":"경기도 양주시 장흥면 석현리 320-1번지","category":"숙박업 - 여관/기타숙박업"}]},{"lat":"37.747736119","long":"126.96424746","items":[{"name":"해뜨는집","tel":"031-855-6100","addr":"경기도 양주시 장흥면 석현리 72-2번지","category":"일반휴게음식 - 일반한식"}]},{"lat":"37.748063538","long":"126.94911114","items":[{"name":"헬로우(HELLO)","tel":"031-829-5345","addr":"경기도 양주시 장흥면 석현리 196-1번지","category":"숙박업 - 여관/기타숙박업"}]},{"lat":"37.749232648","long":"126.96724219","items":[{"name":"호텔궁전","tel":"031-855-2900","addr":"경기도 양주시 장흥면 석현리 65-2번지","category":"숙박업 - 여관/기타숙박업"}]},{"lat":"37.748179241","long":"126.94608155","items":[{"name":"화이트식당","tel":"","addr":"경기도 양주시 장흥면 석현리 214번지 1층","category":"일반휴게음식 - 일반한식"}]},{"lat":"37.757593849","long":"126.96840701","items":[{"name":"휴모텔","tel":"031-826-3571","addr":"경기도 양주시 장흥면 석현리 28-2번지","category":"숙박업 - 여관/기타숙박업"}]},{"lat":"37.750647471","long":"126.96833081","items":[{"name":"힐사이드","tel":"","addr":"경기도 양주시 장흥면 석현리 62-3번지 1층","category":"숙박업 - 여관/기타숙박업"}]}]