[{"lat":"37.009381181","long":"126.99762369","items":[{"name":"대박자동차정비기기","tel":"031-691-8223","addr":"경기도 평택시 오성면 교포리 46번지 1층","category":"기타 - 기계공구"}]},{"lat":"37.011660814","long":"126.99623027","items":[{"name":"베스트펫","tel":"031-681-8090","addr":"경기도 평택시 오성면 교포리 64-5번지 1층","category":"문화.취미 - 애완동물"}]},{"lat":"37.011633793","long":"126.99643252","items":[{"name":"아크릴코리아","tel":"031-683-8554","addr":"경기도 평택시 오성면 교포리 63-3번지","category":"건축자재 - 기타건축자재"}]},{"lat":"37.012075375","long":"126.99762351","items":[{"name":"옛날고목재","tel":"031-682-0034","addr":"경기도 평택시 오성면 교포리 104-1번지","category":"문화.취미 - 민예·공예품"}]},{"lat":"37.011597721","long":"126.9959269","items":[{"name":"오성IC주유소","tel":"031-683-1266","addr":"경기도 평택시 오성면 교포리 65-5번지","category":"도소매업 - 주유소"}]},{"lat":"37.011435504","long":"126.99551118","items":[{"name":"천혜","tel":"031-682-7012","addr":"경기도 평택시 오성면 교포리 121-1번지","category":"음료식품 - 농·축·수산품"}]},{"lat":"37.011967233","long":"126.99732014","items":[{"name":"태원목재.우딘","tel":"031-681-8484","addr":"경기도 평택시 오성면 교포리 104-3번지 1층","category":"건축자재 - 기타건축자재"}]},{"lat":"37.007822366","long":"126.99845522","items":[{"name":"풍년미곡처리장","tel":"031-681-0096","addr":"경기도 평택시 오성면 교포리 106-9번지","category":"제조업 - 쌀, 잡곡"}]},{"lat":"37.010462444","long":"126.99720789","items":[{"name":"현대ENG","tel":"031-683-8857","addr":"경기도 평택시 오성면 교포리 110-12번지","category":"전기제품 - 기타전기제품"}]},{"lat":"36.998766541","long":"126.99670322","items":[{"name":"화승전력","tel":"031-682-3304","addr":"경기도 평택시 오성면 교포리 128-7번지","category":"용역 서비스 - 기타용역서비스"}]}]