[{"lat":"37.698710858","long":"126.69657285","items":[{"name":"(주)네오라이트","tel":"031-8071-3346","addr":"경기도 파주시 산남동 425-1","category":"용역 서비스 - 종합용역"}]},{"lat":"37.697926142","long":"126.70324327","items":[{"name":"(주)정원문화인쇄","tel":"031-901-5003","addr":"경기도 파주시 산남동 50-40번지","category":"서적문구 - 출판 및 인쇄물"}]},{"lat":"37.701401598","long":"126.69193536","items":[{"name":"(주)지아이지그린인터내셔널","tel":"043-218-2803","addr":"경기도 파주시 산남동 304-1번지 산남에버프라자 101호","category":"보건위생 - 미용재료"}]},{"lat":"37.700427256","long":"126.6914405","items":[{"name":"(주)티클라우드","tel":"02-1877-6644","addr":"경기도 파주시 산남동 280-2번지","category":"신변잡화 - 기타잡화"}]},{"lat":"37.699072352","long":"126.70760415","items":[{"name":"HANNAMDOMA","tel":"","addr":"경기도 파주시 산남동 35-41번지","category":"일반휴게음식 - 서양음식"}]},{"lat":"37.70101404","long":"126.69188028","items":[{"name":"S&D메디칼","tel":"031-947-4472","addr":"경기도 파주시 산남동 305-16번지","category":"보건위생 - 의료용품"}]},{"lat":"37.699814537","long":"126.71260172","items":[{"name":"SIOEN.KOREA","tel":"031-942-0913","addr":"경기도 파주시 산남동 17-3번지","category":"기타 - 기타 전문점"},{"name":"리버스 게러지","tel":"","addr":"경기도 파주시 산남동 17-3번지","category":"자동차정비 유지 - 자동차정비"}]},{"lat":"37.696707435","long":"126.70229574","items":[{"name":"miracle shine(미라클샤인)","tel":"031-8071-5820","addr":"경기도 파주시 산남동 52-2번지","category":"자동차정비 유지 - 카인테리어"},{"name":"마네끼네꼬","tel":"031-944-9135","addr":"경기도 파주시 산남동 52-2번지","category":"보건위생 - 미용재료"},{"name":"백룡모터스","tel":"031-947-7279","addr":"경기도 파주시 산남동 52-2번지","category":"자동차정비 유지 - 자동차정비"}]},{"lat":"37.70876082","long":"126.68793547","items":[{"name":"가구갤러리 J","tel":"031-943-3225","addr":"경기도 파주시 산남동 387-3번지","category":"가구 - 일반가구"},{"name":"까사플러스","tel":"031-943-3225","addr":"경기도 파주시 산남동 387-3번지","category":"가구 - 일반가구"}]},{"lat":"37.697711957","long":"126.70404918","items":[{"name":"가인","tel":"031-949-0366","addr":"경기도 파주시 산남동 48-5번지","category":"주방용구 - 주방용구"}]},{"lat":"37.703099412","long":"126.6900459","items":[{"name":"골드버그","tel":"031-943-9579","addr":"경기도 파주시 산남동 333-2번지","category":"음료식품 - 기타음료식품"},{"name":"태창조명","tel":"031-946-1813","addr":"경기도 파주시 산남동 333-2번지","category":"건축자재 - 조명기구"}]},{"lat":"37.699040521","long":"126.70213891","items":[{"name":"골든리무진(Golden Limo)","tel":"031-944-2430","addr":"경기도 파주시 산남동 78-4번지","category":"여행 - 렌터카"}]},{"lat":"37.700564313","long":"126.69216564","items":[{"name":"국제 정공","tel":"031-942-4796","addr":"경기도 파주시 산남동 282-2번지","category":"기타 - 기계공구"},{"name":"미래로상사(MIREROCORPORATION)","tel":"031-947-8935","addr":"경기도 파주시 산남동 282-2","category":"직물 - 카페트,커튼,천막,지물"},{"name":"주식회사 해동","tel":"031-949-6456","addr":"경기도 파주시 산남동 282-2번지","category":"음료식품 - 기타음료식품"}]},{"lat":"37.708257622","long":"126.68843657","items":[{"name":"까사디자인","tel":"031-917-3993","addr":"경기도 파주시 산남동 392-3번지","category":"가구 - 기타가구"},{"name":"리즈가구","tel":"031-941-7658","addr":"경기도 파주시 산남동 392-3번지","category":"가구 - 일반가구"},{"name":"젠틀브리즈","tel":"031-947-4760","addr":"경기도 파주시 산남동 392-3번지","category":"가구 - 일반가구"},{"name":"주식회사 아비네뜨","tel":"031-942-8166","addr":"경기도 파주시 산남동 392-3번지","category":"가구 - 일반가구"}]},{"lat":"37.70778928","long":"126.68849525","items":[{"name":"나무이야기","tel":"031-943-1802","addr":"경기도 파주시 산남동 394번지","category":"가구 - 일반가구"}]},{"lat":"37.707737005","long":"126.68916455","items":[{"name":"더채움가구","tel":"031-945-7742","addr":"경기도 파주시 산남동 369-9번지","category":"가구 - 일반가구"},{"name":"주식회사 미쉘디자인","tel":"031-948-8872","addr":"경기도 파주시 산남동 369-9번지","category":"가구 - 일반가구"}]},{"lat":"37.699180937","long":"126.70421337","items":[{"name":"도담사","tel":"031-909-7250","addr":"경기도 파주시 산남동 44-59번지","category":"기타 - 비영리/대상"}]},{"lat":"37.695815178","long":"126.69519014","items":[{"name":"도서유통손수레","tel":"031-947-7251","addr":"경기도 파주시 산남동 231-1번지","category":"용역 서비스 - 종합용역"}]},{"lat":"37.697682252","long":"126.7029948","items":[{"name":"도슨트","tel":"070-4797-9111","addr":"경기도 파주시 산남동 50-47번지","category":"서적문구 - 출판 및 인쇄물"}]},{"lat":"37.702093892","long":"126.69138817","items":[{"name":"두꺼비","tel":"043-283-0044","addr":"경기도 파주시 산남동 315-10번지","category":"유통업 영리 - 슈퍼마켓"}]},{"lat":"37.699624063","long":"126.69435799","items":[{"name":"두나식당","tel":"031-941-2688","addr":"경기도 파주시 산남동 292-1번지","category":"일반휴게음식 - 일반한식"}]},{"lat":"37.708872048","long":"126.68910306","items":[{"name":"디엠도서유통 주식회사","tel":"031-944-5861","addr":"경기도 파주시 산남동 374-1번지","category":"서적문구 - 일반서적"}]},{"lat":"37.700789364","long":"126.70968375","items":[{"name":"레이지튠","tel":"070-4111-9785","addr":"경기도 파주시 산남동 27-34번지","category":"자동차정비 유지 - 자동차부품"}]},{"lat":"37.708123658","long":"126.68887941","items":[{"name":"로이메","tel":"031-945-2130","addr":"경기도 파주시 산남동 369-12번지","category":"가구 - 일반가구"}]},{"lat":"37.699706393","long":"126.69483389","items":[{"name":"루디아헤어","tel":"02-389-4488","addr":"경기도 파주시 산남동 121-2번지","category":"보건위생 - 미용원"}]},{"lat":"37.69720368","long":"126.7025772","items":[{"name":"리즈가구","tel":"031-943-3695","addr":"경기도 파주시 산남동 51-11번지","category":"가구 - 일반가구"}]},{"lat":"37.70845725","long":"126.68896873","items":[{"name":"모던스토리","tel":"031-947-8114","addr":"경기도 파주시 산남동 369-7번지","category":"가구 - 기타가구"},{"name":"주식회사예찬샵","tel":"070-8900-1080","addr":"경기도 파주시 산남동 369-7번지","category":"가구 - 일반가구"}]},{"lat":"37.696398562","long":"126.69779559","items":[{"name":"몽뱅","tel":"031-945-8522","addr":"경기도 파주시 산남동 201-6번지","category":"음료식품 - 주류 판매점"}]},{"lat":"37.696929632","long":"126.70110429","items":[{"name":"미네뜨.행복한나의커피","tel":"070-4109-3105","addr":"경기도 파주시 산남동 53-1번지","category":"일반휴게음식 - 스넥"}]},{"lat":"37.696762705","long":"126.70277173","items":[{"name":"미니스톱산남본점","tel":"031-1577-9621","addr":"경기도 파주시 산남동 52-1번지","category":"유통업 영리 - 편 의 점"},{"name":"쓰리고한식뷔페","tel":"031-945-9982","addr":"경기도 파주시 산남동 52-1번지","category":"일반휴게음식 - 일반한식"},{"name":"피엠코리아(PMkorea)","tel":"","addr":"경기도 파주시 산남동 52-1번지","category":"가구 - 일반가구"}]},{"lat":"37.697124243","long":"126.69621655","items":[{"name":"미르","tel":"031-941-1434","addr":"경기도 파주시 산남동 438-1","category":"기타 - 기타 전문점"}]},{"lat":"37.699147508","long":"126.69472281","items":[{"name":"미소","tel":"031-943-8131","addr":"경기도 파주시 산남동 244-2번지","category":"보건위생 - 미용재료"},{"name":"세나박헤어샵","tel":"070-4134-2092","addr":"경기도 파주시 산남동 244-2번지","category":"보건위생 - 미용원"},{"name":"은혜미용경영학원","tel":"031-957-3344","addr":"경기도 파주시 산남동 244-2번지","category":"학원 - 기능학원"},{"name":"주식회사 은혜무역","tel":"031-957-3344","addr":"경기도 파주시 산남동 244-2번지","category":"보건위생 - 미용재료"}]},{"lat":"37.706509995","long":"126.68852334","items":[{"name":"미의창","tel":"031-945-1587","addr":"경기도 파주시 산남동 399번지 지층 66호","category":"직물 - 카페트,커튼,천막,지물"}]},{"lat":"37.707844092","long":"126.68877853","items":[{"name":"밀란소파(파주점)","tel":"031-949-1664","addr":"경기도 파주시 산남동 369-20번지","category":"가구 - 일반가구"},{"name":"위데프","tel":"031-947-0640","addr":"경기도 파주시 산남동 369-20번지","category":"가구 - 일반가구"}]},{"lat":"37.707015643","long":"126.68894079","items":[{"name":"베르티","tel":"031-942-9994","addr":"경기도 파주시 산남동 368-16번지","category":"가구 - 일반가구"}]},{"lat":"37.699681513","long":"126.71346401","items":[{"name":"보일러닥터","tel":"02-373-8577","addr":"경기도 파주시 산남동 17-8번지","category":"용역 서비스 - 기타용역서비스"},{"name":"소이네보일러","tel":"","addr":"경기도 파주시 산남동 17-8번지","category":"건축자재 - 보일러·펌프·샷시"},{"name":"현대25교하점","tel":"031-8070-5114","addr":"경기도 파주시 산남동 17-8번지","category":"유통업 영리 - 편 의 점"}]},{"lat":"37.703872541","long":"126.68940763","items":[{"name":"블루모터스","tel":"031-947-2389","addr":"경기도 파주시 산남동 360-1번지","category":"자동차정비 유지 - 자동차시트·타이어"}]},{"lat":"37.697871471","long":"126.69599803","items":[{"name":"비오비컬쳐(주)","tel":"031-922-2858","addr":"경기도 파주시 산남동 421-2","category":"용역 서비스 - 종합용역"}]},{"lat":"37.697426315","long":"126.70155582","items":[{"name":"사단법인 장애인고용진흥회 파주사업소","tel":"031-943-4425","addr":"경기도 파주시 산남동 56번지","category":"신변잡화 - 기타잡화"}]},{"lat":"37.702372887","long":"126.69127361","items":[{"name":"산남테슬러수학과학학원","tel":"043-295-1319","addr":"경기도 파주시 산남동 318번지 3층","category":"회원제형태 - 학원"}]},{"lat":"37.700510012","long":"126.70966217","items":[{"name":"삼성테크플라스틱","tel":"070-8818-3588","addr":"경기도 파주시 산남동 26-10번지","category":"유통업 영리 - 기타유통업"}]},{"lat":"37.699346017","long":"126.6983051","items":[{"name":"서울기계","tel":"031-943-8113","addr":"경기도 파주시 산남동 433","category":"기타 - 기계공구"}]},{"lat":"37.701542374","long":"126.70816131","items":[{"name":"서원실업","tel":"070-4274-0616","addr":"경기도 파주시 산남동 27-68번지","category":"신변잡화 - 기타잡화"}]},{"lat":"37.695512898","long":"126.69674475","items":[{"name":"성준특장 주식회사","tel":"02-304-8140","addr":"경기도 파주시 산남동 690-1번지","category":"자동차정비 유지 - 중장비수리"}]},{"lat":"37.70026243","long":"126.69385642","items":[{"name":"세영물류토너잉크","tel":"031-975-7756","addr":"경기도 파주시 산남동 293-1번지","category":"사무통신 - 기타 사무용품"}]},{"lat":"37.698235825","long":"126.69752727","items":[{"name":"세원공조시스템","tel":"070-8031-4038","addr":"경기도 파주시 산남동 162-1번지","category":"용역 서비스 - 기타용역서비스"},{"name":"한국유통","tel":"031-946-3651","addr":"경기도 파주시 산남동 162-1번지","category":"음료식품 - 기타음료식품"}]},{"lat":"37.697874505","long":"126.69716591","items":[{"name":"세종교육 E&P","tel":"02-325-0065","addr":"경기도 파주시 산남동 163-11번지","category":"서적문구 - 기타서적문구"},{"name":"주식회사 세종통상","tel":"02-325-0065","addr":"경기도 파주시 산남동 163-11번지","category":"서적문구 - 출판 및 인쇄물"}]},{"lat":"37.706375342","long":"126.69210736","items":[{"name":"스튜디오비바체","tel":"070-4215-9205","addr":"경기도 파주시 산남동 368-13번지","category":"용역 서비스 - 기타용역서비스"}]},{"lat":"37.70045354","long":"126.69805111","items":[{"name":"신라컴퍼니","tel":"031-948-2153","addr":"경기도 파주시 산남동 91-8번지","category":"음료식품 - 기타음료식품"}]},{"lat":"37.699593671","long":"126.69652387","items":[{"name":"심학산연잎차","tel":"031-943-3839","addr":"경기도 파주시 산남동 408-1번지","category":"음료식품 - 기타음료식품"}]},{"lat":"37.697176482","long":"126.6989943","items":[{"name":"아뜰리에","tel":"","addr":"경기도 파주시 산남동 212-9번지","category":"일반휴게음식 - 서양음식"}]},{"lat":"37.700456913","long":"126.71004791","items":[{"name":"아름공방","tel":"031-949-6709","addr":"경기도 파주시 산남동 26-30번지","category":"용역 서비스 - 종합용역"}]},{"lat":"37.695510304","long":"126.69574698","items":[{"name":"억순이보신탕","tel":"031-943-5311","addr":"경기도 파주시 산남동 229-3번지","category":"일반휴게음식 - 일반한식"}]},{"lat":"37.69670676","long":"126.69851999","items":[{"name":"에스알컴퍼니(S.R.COMPANY)","tel":"031-957-4530","addr":"경기도 파주시 산남동 212-1번지","category":"문화.취미 - 티켓"}]},{"lat":"37.701903884","long":"126.69108281","items":[{"name":"에스핏(SFit 650)","tel":"043-294-9988","addr":"경기도 파주시 산남동 330-1번지","category":"레저업소 - 헬스클럽"}]},{"lat":"37.697847905","long":"126.70082843","items":[{"name":"에쿠","tel":"070-4404-3367","addr":"경기도 파주시 산남동 63-5","category":"가구 - 일반가구"}]},{"lat":"37.707179955","long":"126.68974525","items":[{"name":"엔자임하우스","tel":"031-941-2128","addr":"경기도 파주시 산남동 368-2번지","category":"보건위생 - 피부미용실"}]},{"lat":"37.700013159","long":"126.69847246","items":[{"name":"엠세븐 코리아(M7 KOREA)","tel":"031-946-6828","addr":"경기도 파주시 산남동 95-1번지","category":"자동차정비 유지 - 자동차부품"},{"name":"황금렌탈","tel":"031-946-2981","addr":"경기도 파주시 산남동 95-1번지","category":"직물 - 카페트,커튼,천막,지물"}]},{"lat":"37.699092858","long":"126.69449626","items":[{"name":"예당아크릴기획","tel":"031-915-5663","addr":"경기도 파주시 산남동 244-3번지","category":"건축자재 - 기타건축자재"}]},{"lat":"37.700653601","long":"126.69185911","items":[{"name":"오토킹","tel":"070-7841-3977","addr":"경기도 파주시 산남동 280-1번지","category":"자동차정비 유지 - 자동차부품"}]},{"lat":"37.703674845","long":"126.68960124","items":[{"name":"옹기촌","tel":"031-948-3215","addr":"경기도 파주시 산남동 360-3","category":"일반휴게음식 - 일반한식"}]},{"lat":"37.702595843","long":"126.69041088","items":[{"name":"우리뜰","tel":"031-941-3378","addr":"경기도 파주시 산남동 321-4번지","category":"일반휴게음식 - 일반한식"}]},{"lat":"37.700266897","long":"126.70971982","items":[{"name":"원일공조","tel":"031-1577-3913","addr":"경기도 파주시 산남동 28-11번지","category":"전기제품 - 냉열기기"}]},{"lat":"37.702927359","long":"126.68971778","items":[{"name":"윈카크리닉","tel":"031-942-3941","addr":"경기도 파주시 산남동 323-11번지","category":"자동차정비 유지 - 자동차시트·타이어"}]},{"lat":"37.699484968","long":"126.69629753","items":[{"name":"이마트24 SBS전원마을점","tel":"02-6916-1500","addr":"경기도 파주시 산남동 408-2번지","category":"유통업 영리 - 편 의 점"}]},{"lat":"37.708094725","long":"126.6881651","items":[{"name":"제이디제이퍼니처","tel":"031-000-0000","addr":"경기도 파주시 산남동 393번지","category":"가구 - 일반가구"}]},{"lat":"37.701427909","long":"126.6916631","items":[{"name":"제이비랩","tel":"02-1800-5390","addr":"경기도 파주시 산남동 304-4번지","category":"자동차판매 - 수입자동차"}]},{"lat":"37.699794617","long":"126.71183074","items":[{"name":"제이아이커뮤니케이션","tel":"031-943-3132","addr":"경기도 파주시 산남동 20-2번지","category":"보건위생 - 기타대인서비스"}]},{"lat":"37.704315422","long":"126.68993873","items":[{"name":"주식회사 레티티아","tel":"031-941-1173","addr":"경기도 파주시 산남동 357-5번지","category":"가구 - 일반가구"}]},{"lat":"37.698092873","long":"126.70149643","items":[{"name":"주식회사 오병이어","tel":"031-944-7405","addr":"경기도 파주시 산남동 62-2번지","category":"유통업 영리 - 슈퍼마켓"}]},{"lat":"37.697960163","long":"126.69893441","items":[{"name":"주식회사 제뉴인","tel":"031-943-2826","addr":"경기도 파주시 산남동 185-1번지","category":"음료식품 - 기타음료식품"}]},{"lat":"37.700733048","long":"126.70877683","items":[{"name":"주식회사 탑파일럿코리아","tel":"031-6959-1588","addr":"경기도 파주시 산남동 27-70번지","category":"학원 - 기능학원"}]},{"lat":"37.702153717","long":"126.69016327","items":[{"name":"주식회사 하든","tel":"031-948-5655","addr":"경기도 파주시 산남동 325-1번지","category":"가구 - 일반가구"}]},{"lat":"37.69837266","long":"126.70168806","items":[{"name":"주식회사아인","tel":"031-111-1111","addr":"경기도 파주시 산남동 62번지","category":"건축자재 - 목재·석재·철물"}]},{"lat":"37.698870727","long":"126.70268386","items":[{"name":"지오그린","tel":"031-948-6401","addr":"경기도 파주시 산남동 79-1번지","category":"직물 - 카페트,커튼,천막,지물"}]},{"lat":"37.699316998","long":"126.69407579","items":[{"name":"지원 트레이딩(G1 trading)","tel":"070-4195-7650","addr":"경기도 파주시 산남동 246-2번지","category":"자동차정비 유지 - 자동차부품"}]},{"lat":"37.704621744","long":"126.68993744","items":[{"name":"진달래","tel":"031-942-3148","addr":"경기도 파주시 산남동 356번지","category":"일반휴게음식 - 일반한식"}]},{"lat":"37.700204507","long":"126.70999221","items":[{"name":"초이박스","tel":"02-111-1111","addr":"경기도 파주시 산남동 26-22번지","category":"서적문구 - 완구점"}]},{"lat":"37.696844713","long":"126.70313424","items":[{"name":"최고유통","tel":"","addr":"경기도 파주시 산남동 51-6번지","category":"유통업 영리 - 기타유통업"}]},{"lat":"37.708734549","long":"126.68821909","items":[{"name":"카페 알함브라","tel":"031-945-8403","addr":"경기도 파주시 산남동 389번지","category":"일반휴게음식 - 일반한식"}]},{"lat":"37.697956821","long":"126.70468317","items":[{"name":"카페 지 스튜디오","tel":"031-000-0000","addr":"경기도 파주시 산남동 49-16번지","category":"일반휴게음식 - 서양음식"}]},{"lat":"37.696786997","long":"126.69819085","items":[{"name":"테라컴","tel":"031-1111-1111","addr":"경기도 파주시 산남동 198-3번지","category":"사무통신 - 컴퓨터"}]},{"lat":"37.707232897","long":"126.68932544","items":[{"name":"플렛(PLATT)","tel":"031-957-0838","addr":"경기도 파주시 산남동 368-18번지","category":"가구 - 일반가구"}]},{"lat":"37.698930847","long":"126.69802333","items":[{"name":"픽처하우스","tel":"031-947-9173","addr":"경기도 파주시 산남동 178-3번지 1층","category":"서적문구 - 출판 및 인쇄물"}]},{"lat":"37.708232526","long":"126.68916246","items":[{"name":"하이델코코","tel":"02-2685-5580","addr":"경기도 파주시 산남동 369-6","category":"가구 - 일반가구"}]},{"lat":"37.700652538","long":"126.69488667","items":[{"name":"한스메디칼","tel":"031-942-3030","addr":"경기도 파주시 산남동 120-9번지","category":"보건위생 - 안경"}]},{"lat":"37.697406467","long":"126.70437923","items":[{"name":"혜다","tel":"031-901-7810","addr":"경기도 파주시 산남동 47-4번지","category":"서적문구 - 출판 및 인쇄물"}]},{"lat":"37.700064815","long":"126.69408403","items":[{"name":"후카미(생라면)","tel":"070-7743-2571","addr":"경기도 파주시 산남동 293-2번지","category":"일반휴게음식 - 일반한식"}]},{"lat":"37.697663959","long":"126.69936649","items":[{"name":"휴템인터내셔날 주식회사","tel":"031-948-9714","addr":"경기도 파주시 산남동 194-2번지","category":"음료식품 - 주류 판매점"}]}]