[{"lat":"37.579840723","long":"127.15378902","items":[{"name":"(주) 솔다움","tel":"031-552-5977","addr":"경기도 구리시 토평동 38번지","category":"음료식품 - 정육점"}]},{"lat":"37.593062091","long":"127.15062266","items":[{"name":"(주)더블유에이치팜","tel":"031-569-6155","addr":"경기도 구리시 토평동 997번지 더블유빌딩 3층 301호","category":"보건위생 - 화장품"},{"name":"씨유구리토평점","tel":"031-569-4205","addr":"경기도 구리시 토평동 997번지","category":"유통업 영리 - 편 의 점"},{"name":"엘피시 코퍼레이션","tel":"","addr":"경기도 구리시 토평동 997번지 3층 302호","category":"음료식품 - 기타음료식품"},{"name":"쥬씨","tel":"031-555-4711","addr":"경기도 구리시 토평동 997번지 104호","category":"일반휴게음식 - 서양음식"}]},{"lat":"37.588677121","long":"127.1483722","items":[{"name":"(주)서경","tel":"031-568-2329","addr":"경기도 구리시 토평동 981-4번지 1층 102호","category":"건축자재 - 보일러·펌프·샷시"},{"name":"따뜻한 밥상","tel":"031-556-0076","addr":"경기도 구리시 토평동 981-4번지 101호","category":"일반휴게음식 - 일반한식"}]},{"lat":"37.580365018","long":"127.15243156","items":[{"name":"(주)영인포장기업","tel":"031-1111-1111","addr":"경기도 구리시 토평동 455번지","category":"유통업 영리 - 기타유통업"},{"name":"수정상사","tel":"031-571-8600","addr":"경기도 구리시 토평동 455번지","category":"신변잡화 - 기타잡화"}]},{"lat":"37.589451626","long":"127.14864545","items":[{"name":"(주)이자르씨엔에스 구리토평점","tel":"031-555-8844","addr":"경기도 구리시 토평동 980번지 3층","category":"기타의료기관 - 산후조리원"},{"name":"SG골프 구리점","tel":"031-567-1277","addr":"경기도 구리시 토평동 980번지 5층","category":"레저업소 - 스크린골프"},{"name":"워릭프랭클린어학원","tel":"031-565-9981","addr":"경기도 구리시 토평동 980번지 토평프라자 4층 402호","category":"회원제형태 - 학원"},{"name":"칸타빌레음악원","tel":"031-551-1157","addr":"경기도 구리시 토평동 980번지 새롬10차 401호","category":"학원 - 예·체능계학원"}]},{"lat":"37.584424091","long":"127.14870357","items":[{"name":"(주)진구과학","tel":"031-566-0758","addr":"경기도 구리시 토평동 438-1번지","category":"서적문구 - 과학기자재"}]},{"lat":"37.59172989","long":"127.14962364","items":[{"name":"(주)티오피정보통신","tel":"031-569-7713","addr":"경기도 구리시 토평동 204-6번지 서원빌딩 3층","category":"사무통신 - 통신기기"},{"name":"미네509","tel":"031-563-5009","addr":"경기도 구리시 토평동 204-6번지 1층 두번째호","category":"음료식품 - 제과점"},{"name":"온음코리아","tel":"031-569-1253","addr":"경기도 구리시 토평동 204-6번지 1층 온음뮤직","category":"레져용품 - 악기점"}]},{"lat":"37.591675281","long":"127.15006511","items":[{"name":"4번타자","tel":"031-565-4909","addr":"경기도 구리시 토평동 996번지 토평빌딩 3층","category":"레져용품 - 스포츠·레져용품"},{"name":"건주짓수 구리토평지관","tel":"","addr":"경기도 구리시 토평동 996번지 지층","category":"레저업소 - 헬스클럽"},{"name":"도쿄아오이일본어교습소","tel":"031-555-2079","addr":"경기도 구리시 토평동 996번지 4층","category":"학원 - 외국어학원"},{"name":"맛있는해장국","tel":"031-554-6999","addr":"경기도 구리시 토평동 996번지","category":"일반휴게음식 - 일반한식"},{"name":"스튜디오코잠","tel":"031-577-4486","addr":"경기도 구리시 토평동 996번지 2층","category":"광학제품 - 사진관"},{"name":"스프링퐁퐁학원","tel":"070-7529-2141","addr":"경기도 구리시 토평동 996번지 팰리스빌딩 4층일부","category":"학원 - 보습학원"},{"name":"우노골프","tel":"031-558-0879","addr":"경기도 구리시 토평동 996번지 팰리스빌딩 302호","category":"레져용품 - 골프용품 전문점"}]},{"lat":"37.592143506","long":"127.15029249","items":[{"name":"CHO 수학과학 학원","tel":"031-562-0550","addr":"경기도 구리시 토평동 997-5번지 3층 일부","category":"학원 - 보습학원"},{"name":"FTK 잉글리쉬 어학원","tel":"031-524-9995","addr":"경기도 구리시 토평동 997-5번지 크라제빌딩 4층 5층","category":"학원 - 외국어학원"},{"name":"씨에이치오공신까페","tel":"","addr":"경기도 구리시 토평동 997-5번지 재령빌딩 3층 일부","category":"음료식품 - 기타음료식품"},{"name":"엠씨아이 북스토어","tel":"031-524-9995","addr":"경기도 구리시 토평동 997-5번지","category":"회원제형태 - 서적"},{"name":"이음","tel":"031-562-3509","addr":"경기도 구리시 토평동 997-5번지 크라제빌딩 1층","category":"가구 - 일반가구"}]},{"lat":"37.588534092","long":"127.14745483","items":[{"name":"CSY메디칼","tel":"070-8274-1131","addr":"경기도 구리시 토평동 986-8번지 103호","category":"보건위생 - 의료용품"}]},{"lat":"37.592871635","long":"127.1516187","items":[{"name":"DODO 롤러장 트럼플린","tel":"031-557-3035","addr":"경기도 구리시 토평동 1003번지 지하1층","category":"레저업소 - 기타레져업소"}]},{"lat":"37.588253872","long":"127.14820155","items":[{"name":"GS25구리부자점","tel":"02-2006-2118","addr":"경기도 구리시 토평동 988-2, 1층 103~104호","category":"유통업 영리 - 편 의 점"}]},{"lat":"37.589724941","long":"127.14617771","items":[{"name":"GS25구리토평점","tel":"02-2006-2485","addr":"경기도 구리시 토평동 977-16번지","category":"유통업 영리 - 편 의 점"}]},{"lat":"37.590923212","long":"127.14620265","items":[{"name":"GS25구리하나점","tel":"","addr":"경기도 구리시 토평동 964-6번지","category":"유통업 영리 - 편 의 점"},{"name":"레벨업휘트니스구리토평점","tel":"031-555-1045","addr":"경기도 구리시 토평동 964-6번지 거양빌딩 5층","category":"레저업소 - 헬스클럽"},{"name":"샤론데쥬얼리","tel":"031-557-1817","addr":"경기도 구리시 토평동 964-6번지 거양빌딩 1층 2-2","category":"신변잡화 - 액세서리"},{"name":"이디야커피 구리토평점","tel":"031-562-2211","addr":"경기도 구리시 토평동 964-6번지 거양빌딩","category":"일반휴게음식 - 서양음식"},{"name":"헤어293","tel":"031-565-0082","addr":"경기도 구리시 토평동 964-6번지 거양빌딩 1층 102호","category":"보건위생 - 미용원"}]},{"lat":"37.591477067","long":"127.15006472","items":[{"name":"GTC","tel":"031-556-2148","addr":"경기도 구리시 토평동 995번지 토평프라자 401호","category":"신변잡화 - 기타잡화"},{"name":"브레인스쿨구리학원","tel":"031-558-7081","addr":"경기도 구리시 토평동 995번지 토평프라자 401호","category":"학원 - 기타 교육기관"},{"name":"소르본학원","tel":"031-567-5550","addr":"경기도 구리시 토평동 995번지 토평프라자 301호","category":"학원 - 보습학원"},{"name":"수채화향기","tel":"031-565-1259","addr":"경기도 구리시 토평동 995번지 토평프라자 103호","category":"학원 - 예·체능계학원"},{"name":"이앤엠플러스학원","tel":"031-558-9992","addr":"경기도 구리시 토평동 995번지 301호 일부","category":"학원 - 보습학원"},{"name":"저스트보컬교습소","tel":"031-567-1335","addr":"경기도 구리시 토평동 995번지 2층 201호","category":"학원 - 예·체능계학원"},{"name":"전진조명","tel":"031-511-5222","addr":"경기도 구리시 토평동 995번지 토평프라자 102호","category":"건축자재 - 조명기구"},{"name":"탑국어영어학원","tel":"031-565-7972","addr":"경기도 구리시 토평동 995번지 토평프라자 201호 일부","category":"학원 - 보습학원"}]},{"lat":"37.579615623","long":"127.15367536","items":[{"name":"J골프 연습장","tel":"031-558-8811","addr":"경기도 구리시 토평동 461-1번지","category":"레저업소 - 골프연습장"},{"name":"J골프연습장","tel":"031-558-8811","addr":"경기도 구리시 토평동 461-1번지","category":"회원제형태 - 레져업소"},{"name":"주식회사 세방인더스트리","tel":"031-566-9042","addr":"경기도 구리시 토평동 461-1번지","category":"주방용구 - 주방용구"}]},{"lat":"37.59066917","long":"127.14765144","items":[{"name":"MS노래방","tel":"031-563-3098","addr":"경기도 구리시 토평동 965-4번지 서강프라자 4층","category":"레저업소 - 노 래 방"},{"name":"문가네 정육식당","tel":"031-945-2212","addr":"경기도 구리시 토평동 965-4번지 서강프라자","category":"일반휴게음식 - 일반한식"},{"name":"토평당구클럽","tel":"000-0000-0000","addr":"경기도 구리시 토평동 965-4번지 서강프라자","category":"레저업소 - 당 구 장"},{"name":"해머플러스","tel":"070-4848-3467","addr":"경기도 구리시 토평동 965-4번지 서강프라자 3층","category":"레저업소 - 기타레져업소"}]},{"lat":"37.589787679","long":"127.14644956","items":[{"name":"OTO공업사","tel":"031-557-5551","addr":"경기도 구리시 토평동 977-14번지","category":"자동차정비 유지 - 자동차정비"}]},{"lat":"37.57798164","long":"127.13370257","items":[{"name":"S.L","tel":"031-521-3222","addr":"경기도 구리시 토평동 769-1번지","category":"의류 - 정장"},{"name":"아세아물류","tel":"031-567-0600","addr":"경기도 구리시 토평동 769-1","category":"용역 서비스 - 보관및 창고업"},{"name":"주식회사 아세아물류","tel":"031-567-0600","addr":"경기도 구리시 토평동 769-1","category":"건축자재 - 기타건축자재"}]},{"lat":"37.589893105","long":"127.14864631","items":[{"name":"SM당구재료","tel":"031-564-3949","addr":"경기도 구리시 토평동 967번지 토평동주차빌딩 2층","category":"레져용품 - 스포츠·레져용품"}]},{"lat":"37.580203238","long":"127.14481227","items":[{"name":"THE M (더엠)","tel":"031-567-5337","addr":"경기도 구리시 토평동 522번지","category":"의류 - 정장"}]},{"lat":"37.580092139","long":"127.13970633","items":[{"name":"가람스텐","tel":"031-555-2382","addr":"경기도 구리시 토평동 729-6번지 가동","category":"건축자재 - 목재·석재·철물"}]},{"lat":"37.590841642","long":"127.14659878","items":[{"name":"가온동물병원","tel":"031-568-8275","addr":"경기도 구리시 토평동 965번지 우신빌딩 1층","category":"기타의료기관 - 동물병원"},{"name":"경동한의원","tel":"031-554-0986","addr":"경기도 구리시 토평동 965번지 우신빌딩 301호","category":"의원 - 한의원"},{"name":"국민노가리","tel":"031-528-6263","addr":"경기도 구리시 토평동 965번지 우신빌딩 104호","category":"일반휴게음식 - 주점"},{"name":"본 당구장","tel":"070-4192-3945","addr":"경기도 구리시 토평동 965번지 우신빌딩 5층 502호","category":"레저업소 - 당 구 장"},{"name":"비어첸 구리토평점","tel":"031-555-0703","addr":"경기도 구리시 토평동 965번지 우신빌딩 1층 102호","category":"일반휴게음식 - 주점"},{"name":"씨크","tel":"031-566-8312","addr":"경기도 구리시 토평동 965번지 우신빌딩 1층 103호","category":"보건위생 - 화장품"},{"name":"아이지홈케어","tel":"031-1644-1540","addr":"경기도 구리시 토평동 965번지 우신빌딩 3층 302호","category":"사무통신 - 통신기기"},{"name":"폰랜드 망원점","tel":"070-8708-7529","addr":"경기도 구리시 토평동 965번지 우신빌딩 1층 102호","category":"사무통신 - 통신기기"}]},{"lat":"37.592503727","long":"127.15042907","items":[{"name":"가온분식","tel":"031-000-0000","addr":"경기도 구리시 토평동 997-3번지 굿모닝세화빌딩 1층 좌측 2호","category":"일반휴게음식 - 스넥"},{"name":"구리YMCA녹색가게","tel":"031-569-9898","addr":"경기도 구리시 토평동 997-3번지 굿모닝빌딩 3층","category":"신변잡화 - 기타잡화"},{"name":"아트강피부미용실","tel":"","addr":"경기도 구리시 토평동 997-3번지 굿모닝세화빌딩 4층","category":"보건위생 - 미용원"},{"name":"헬로밥","tel":"","addr":"경기도 구리시 토평동 997-3번지 굿모닝세화빌딩 1동 1층 1호","category":"일반휴게음식 - 일식·회집"}]},{"lat":"37.586677705","long":"127.14775693","items":[{"name":"가자세계주류구리점","tel":"031-569-3801","addr":"경기도 구리시 토평동 620-1번지","category":"음료식품 - 주류 판매점"},{"name":"십자로슈퍼","tel":"031-563-9029","addr":"경기도 구리시 토평동 620-1번지","category":"음료식품 - 기타음료식품"},{"name":"온누리파워","tel":"031-555-5285","addr":"경기도 구리시 토평동 620-1번지","category":"자동차정비 유지 - 자동차부품"},{"name":"주식회사 더순","tel":"070-8823-3434","addr":"경기도 구리시 토평동 620-1번지 2층","category":"용역 서비스 - 사무서비스"},{"name":"한끼어때요","tel":"031-567-1616","addr":"경기도 구리시 토평동 620-1번지","category":"일반휴게음식 - 일반한식"}]},{"lat":"37.590726503","long":"127.1449568","items":[{"name":"강의하는아이들구리학원","tel":"031-551-7045","addr":"경기도 구리시 토평동 964-1번지 동영빌딩 5층","category":"학원 - 보습학원"},{"name":"동영빌딩","tel":"031-567-0555","addr":"경기도 구리시 토평동 964-1번지 동영빌딩","category":"학원 - 독서실"}]},{"lat":"37.590505866","long":"127.14856824","items":[{"name":"강한대치고등1관학원","tel":"031-111-1111","addr":"경기도 구리시 토평동 966-2번지 천광빌딩 2층 일부","category":"학원 - 보습학원"},{"name":"구리청년회의소","tel":"031-563-2618","addr":"경기도 구리시 토평동 966-2번지 천광빌딩 4층","category":"기타 - 비영리/대상"},{"name":"양기와","tel":"031-564-0148","addr":"경기도 구리시 토평동 966-2번지","category":"일반휴게음식 - 일반한식"},{"name":"에이치바이오메드","tel":"070-4530-1355","addr":"경기도 구리시 토평동 966-2번지 천광빌딩 5층 502호","category":"보건위생 - 의료용품"}]},{"lat":"37.590732544","long":"127.14740247","items":[{"name":"갤러리PC방","tel":"070-2069-5008","addr":"경기도 구리시 토평동 965-3번지","category":"레저업소 - 기타레져업소"},{"name":"항아리보쌈","tel":"031-555-5363","addr":"경기도 구리시 토평동 965-3번지 1층 1,2호","category":"일반휴게음식 - 일반한식"},{"name":"헤어코리아","tel":"031-553-3369","addr":"경기도 구리시 토평동 965-3번지","category":"보건위생 - 미용원"}]},{"lat":"37.580533489","long":"127.15456024","items":[{"name":"건화유통","tel":"031-565-6256","addr":"경기도 구리시 토평동 39-1번지","category":"음료식품 - 기타음료식품"},{"name":"필세이프티","tel":"031-565-9651","addr":"경기도 구리시 토평동 39-1번지","category":"건축자재 - 기타건축자재"}]},{"lat":"37.586256975","long":"127.14551439","items":[{"name":"경기구리지역자활센터","tel":"","addr":"경기도 구리시 토평동 956번지 4층","category":"음료식품 - 기타음료식품"}]},{"lat":"37.590641807","long":"127.14792313","items":[{"name":"경일빌딩","tel":"031-111-1111","addr":"경기도 구리시 토평동 965-5번지","category":"음료식품 - 기타음료식품"},{"name":"돼지집","tel":"031-562-7709","addr":"경기도 구리시 토평동 965-5번지 경일빌딩 1층 2호","category":"일반휴게음식 - 일반한식"},{"name":"박서방춘천닭갈비토평점","tel":"031-567-0131","addr":"경기도 구리시 토평동 965-5번지 1층","category":"일반휴게음식 - 일반한식"},{"name":"수노래방","tel":"031-563-4378","addr":"경기도 구리시 토평동 965-5번지","category":"레저업소 - 노 래 방"},{"name":"초심","tel":"031-565-7420","addr":"경기도 구리시 토평동 965-5번지 경일빌딩 1층","category":"일반휴게음식 - 일반한식"}]},{"lat":"37.594007662","long":"127.15098687","items":[{"name":"경희그린한의원","tel":"031-562-7582","addr":"경기도 구리시 토평동 998번지 새롬프라자 304호","category":"의원 - 한의원"},{"name":"밝은눈안경","tel":"031-556-0090","addr":"경기도 구리시 토평동 998번지 새롬프라자10차 1층 106호","category":"보건위생 - 안경"},{"name":"블루클럽 토평점","tel":"","addr":"경기도 구리시 토평동 998번지 새롬프라자10차","category":"보건위생 - 미용원"},{"name":"아딸","tel":"031-555-6012","addr":"경기도 구리시 토평동 998번지 새롬프라자 101호","category":"일반휴게음식 - 스넥"},{"name":"에이스치과의원","tel":"031-556-2877","addr":"경기도 구리시 토평동 998번지 새롬10차프라자 203호","category":"의원 - 치과의원"},{"name":"윤수학학원","tel":"031-514-5406","addr":"경기도 구리시 토평동 998번지 새롬프라자10차 301호","category":"학원 - 보습학원"},{"name":"인덕약국","tel":"031-566-9111","addr":"경기도 구리시 토평동 998번지 새롬프라자10차 104호","category":"약국 - 약국"},{"name":"제노아트 토평점","tel":"031-556-1890","addr":"경기도 구리시 토평동 998번지 새롬프라자10차 105호","category":"서적문구 - 문구용품"},{"name":"케익하우스몽마","tel":"031-558-8002","addr":"경기도 구리시 토평동 21-2번지 새롬10차프라자 109호","category":"음료식품 - 제과점"},{"name":"파리바게뜨 검배마을점","tel":"031-558-8002","addr":"경기도 구리시 토평동 998번지 1층 109호,110호","category":"음료식품 - 제과점"},{"name":"하나가정의학과의원","tel":"031-555-6987","addr":"경기도 구리시 토평동 998번지 새롬프라자 202호","category":"의원 - 의원"},{"name":"할인모바일","tel":"031-557-4010","addr":"경기도 구리시 토평동 998번지 새롬프라자10차 108호","category":"사무통신 - 통신기기"}]},{"lat":"37.589091989","long":"127.14803334","items":[{"name":"고구려 베스트","tel":"","addr":"경기도 구리시 토평동 982-9번지 B02호","category":"용역 서비스 - 기타용역서비스"}]},{"lat":"37.590643909","long":"127.14620211","items":[{"name":"고수전","tel":"031-565-5933","addr":"경기도 구리시 토평동 972-7번지 1층 101호","category":"일반휴게음식 - 일반한식"},{"name":"매직세탁","tel":"031-556-5056","addr":"경기도 구리시 토평동 972-7번지 104호","category":"수리서비스 - 세탁소"}]},{"lat":"37.593953262","long":"127.15125851","items":[{"name":"고향숯불막창","tel":"031-555-3633","addr":"경기도 구리시 토평동 999번지 노다지빌딩 1층","category":"일반휴게음식 - 일반한식"},{"name":"김밥천국","tel":"031-565-1002","addr":"경기도 구리시 토평동 999번지 노다지빌딩 1층 104호","category":"일반휴게음식 - 스넥"},{"name":"꼬쟁이","tel":"031-558-8751","addr":"경기도 구리시 토평동 999번지 노다지빌딩 105호","category":"일반휴게음식 - 일반한식"},{"name":"나래독서실","tel":"031-562-9177","addr":"경기도 구리시 토평동 999번지 노다지빌딩 3층","category":"학원 - 독서실"},{"name":"쁘띠모","tel":"031-558-8631","addr":"경기도 구리시 토평동 999번지 지층","category":"의류 - 아동의류"},{"name":"산교육","tel":"031-515-4450","addr":"경기도 구리시 토평동 999번지 노다지빌딩 B1호","category":"서적문구 - 기타서적문구"},{"name":"율곡학원","tel":"031-567-6660","addr":"경기도 구리시 토평동 999번지 4층","category":"학원 - 보습학원"},{"name":"참좋은교육","tel":"031-558-8631","addr":"경기도 구리시 토평동 999번지 노다지빌딩 지층","category":"회원제형태 - 서적"},{"name":"헤어204","tel":"031-555-3139","addr":"경기도 구리시 토평동 999번지 노다지빌딩 101호","category":"보건위생 - 미용원"}]},{"lat":"37.589760815","long":"127.14631364","items":[{"name":"골뱅이 먹은 치킨","tel":"031-567-3055","addr":"경기도 구리시 토평동 977-15번지 토평빌 101호","category":"일반휴게음식 - 스넥"},{"name":"돌뚝배기","tel":"031-566-5360","addr":"경기도 구리시 토평동 977-15번지 토평빌 우측효","category":"일반휴게음식 - 일반한식"}]},{"lat":"37.590978244","long":"127.14539885","items":[{"name":"공부공간 솜니움독서실","tel":"031-557-9997","addr":"경기도 구리시 토평동 964-3번지 새롬프라자9차 501호 일부, 502호","category":"학원 - 독서실"},{"name":"늘푸른21치과","tel":"031-564-7528","addr":"경기도 구리시 토평동 964-3번지 새롬프라자9차 203호","category":"의원 - 치과의원"},{"name":"또봉이통닭토평점","tel":"031-567-1885","addr":"경기도 구리시 토평동 964-3번지 새롬프라자9차 1층 101호","category":"일반휴게음식 - 스넥"},{"name":"마스터키학원","tel":"031-564-9505","addr":"경기도 구리시 토평동 964-3번지 새롬프라자9차 501호","category":"학원 - 보습학원"},{"name":"살롱드보그","tel":"","addr":"경기도 구리시 토평동 964-3번지 새롬프라자9차 103호","category":"보건위생 - 미용원"},{"name":"삼천리자전거","tel":"031-562-1453","addr":"경기도 구리시 토평동 964-3번지 새롬프라자9차 111호","category":"레져용품 - 스포츠·레져용품"},{"name":"세종약국","tel":"031-567-8875","addr":"경기도 구리시 토평동 964-3번지 새롬 상가 108호","category":"약국 - 약국"},{"name":"안경과사람들","tel":"031-565-5654","addr":"경기도 구리시 토평동 964-3번지 새롬프라자9차 109호","category":"보건위생 - 안경"},{"name":"우리동네덕복희","tel":"031-564-0020","addr":"경기도 구리시 토평동 964-3번지 새롬프라자9차 1층 102호","category":"일반휴게음식 - 스넥"},{"name":"이기쁨내과의원","tel":"031-566-7533","addr":"경기도 구리시 토평동 964-3번지 새롬프라자9차 204호","category":"의원 - 의원"},{"name":"절구와공이","tel":"031-566-7902","addr":"경기도 구리시 토평동 964-3,4,새롬프라자9차1층110호","category":"음료식품 - 제과점"},{"name":"파리바게뜨","tel":"031-555-8286","addr":"경기도 구리시 토평동 964-3번지 새롬프라자9차 112호 113호","category":"음료식품 - 제과점"},{"name":"헤어아떼미용실","tel":"031-551-7135","addr":"경기도 구리시 토평동 964-3번지 새롬프라자9차 202호","category":"보건위생 - 미용원"}]},{"lat":"37.585614204","long":"127.14803791","items":[{"name":"광릉불고기","tel":"031-555-8614","addr":"경기도 구리시 토평동 283-3번지 1층","category":"일반휴게음식 - 일반한식"}]},{"lat":"37.582370741","long":"127.14798633","items":[{"name":"광명물류","tel":"031-566-0086","addr":"경기도 구리시 토평동 529번지","category":"용역 서비스 - 보관및 창고업"},{"name":"통인청담점","tel":"02-1833-5551","addr":"경기도 구리시 토평동 529번지 2층 창고 1/2호","category":"용역 서비스 - 종합용역"},{"name":"한솔유통","tel":"","addr":"경기도 구리시 토평동 529번지","category":"음료식품 - 농·축·수산품"}]},{"lat":"37.590092781","long":"127.14745784","items":[{"name":"교촌치킨 토평점","tel":"031-562-9995","addr":"경기도 구리시 토평동 970-6번지 환희빌라 1층","category":"일반휴게음식 - 스넥"},{"name":"구리장군집","tel":"031-555-1555","addr":"경기도 구리시 토평동 970-6번지 환희빌라 1층","category":"일반휴게음식 - 일반한식"},{"name":"세자매","tel":"031-556-5595","addr":"경기도 구리시 토평동 970-6번지 1층","category":"일반휴게음식 - 일반한식"}]},{"lat":"37.588760616","long":"127.16053241","items":[{"name":"구내매점","tel":"031-566-8253","addr":"경기도 구리시 토평동 9-1번지 생활체육회","category":"음료식품 - 기타음료식품"},{"name":"구리타워G레스토랑","tel":"031-554-0003","addr":"경기도 구리시 토평동 9-1번지 2층","category":"일반휴게음식 - 서양음식"},{"name":"스포츠센터 이용원","tel":"031-111-1111","addr":"경기도 구리시 토평동 9-1번지","category":"보건위생 - 이용원"}]},{"lat":"37.590507784","long":"127.14700575","items":[{"name":"구리꼼닭발","tel":"","addr":"경기도 구리시 토평동 970번지","category":"일반휴게음식 - 일반한식"}]},{"lat":"37.592863948","long":"127.15056566","items":[{"name":"구리러브펫동물병원","tel":"031-569-8875","addr":"경기도 구리시 토평동 997-1번지","category":"기타의료기관 - 동물병원"},{"name":"궁중무예 합기도","tel":"031-556-5004","addr":"경기도 구리시 토평동 997-1번지 외1필지 3층","category":"학원 - 예·체능계학원"},{"name":"달라짐","tel":"031-568-9633","addr":"경기도 구리시 토평동 997-1번지 3층","category":"레저업소 - 헬스클럽"},{"name":"바빈스커피 구리토평점","tel":"031-111-1111","addr":"경기도 구리시 토평동 997-1번지 1층","category":"일반휴게음식 - 서양음식"},{"name":"스터디플래닛 멤버십라운지 구리토평센터","tel":"","addr":"경기도 구리시 토평동 997-1번지 4층","category":"용역 서비스 - 사무서비스"},{"name":"스터디플래닛독서실","tel":"031-523-2709","addr":"경기도 구리시 토평동 997-1번지 4층 일부","category":"학원 - 독서실"},{"name":"주식회사 공부의신","tel":"031-558-5522","addr":"경기도 구리시 토평동 997-1번지 5층","category":"학원 - 보습학원"},{"name":"피자스쿨구리검배사거리점","tel":"031-556-9288","addr":"경기도 구리시 토평동 997-1번지 외 1필지","category":"일반휴게음식 - 서양음식"},{"name":"현대에듀보습학원","tel":"031-565-5188","addr":"경기도 구리시 토평동 997-1번지","category":"학원 - 보습학원"}]},{"lat":"37.58420243","long":"127.15995673","items":[{"name":"구리승마장","tel":"031-563-2370","addr":"경기도 구리시 토평동 48-230번지","category":"레저업소 - 기타레져업소"}]},{"lat":"37.591169303","long":"127.1512077","items":[{"name":"구리여고매점","tel":"031-563-7202","addr":"경기도 구리시 토평동 214번지 1층","category":"음료식품 - 기타음료식품"},{"name":"구리여자고등학교","tel":"031-563-7201","addr":"경기도 구리시 토평동 214번지","category":"학원 - 초중고교육기관"},{"name":"구리여자중학교","tel":"031-563-4372","addr":"경기도 구리시 토평동 214번지","category":"학원 - 초중고교육기관"}]},{"lat":"37.587784749","long":"127.14869881","items":[{"name":"구리타이어프로","tel":"031-569-1030","addr":"경기도 구리시 토평동 270-1번지","category":"자동차정비 유지 - 자동차시트·타이어"},{"name":"은진카센타","tel":"031-555-7587","addr":"경기도 구리시 토평동 270-1번지","category":"자동차정비 유지 - 자동차정비"}]},{"lat":"37.590094176","long":"127.14631428","items":[{"name":"국민회포차","tel":"","addr":"경기도 구리시 토평동 976-8번지 1층 101호","category":"일반휴게음식 - 일반한식"},{"name":"눈맞은짝태앤노가리","tel":"02-941-0057","addr":"경기도 구리시 토평동 976-8번지 103-104호","category":"일반휴게음식 - 일반한식"}]},{"lat":"37.586421015","long":"127.15131149","items":[{"name":"국제통상","tel":"031-551-2998","addr":"경기도 구리시 토평동 353번지","category":"신변잡화 - 기타잡화"}]},{"lat":"37.583642188","long":"127.14711705","items":[{"name":"귀품찬구리직영점","tel":"031-569-8292","addr":"경기도 구리시 토평동 561-9번지 2층,3층,4층","category":"일반휴게음식 - 일반한식"},{"name":"황토","tel":"031-567-8858","addr":"경기도 구리시 토평동 561-9번지","category":"일반휴게음식 - 일반한식"}]},{"lat":"37.582453932","long":"127.14626566","items":[{"name":"금강농원","tel":"031-566-9244","addr":"경기도 구리시 토평동 536번지","category":"일반휴게음식 - 일반한식"}]},{"lat":"37.586705413","long":"127.14720221","items":[{"name":"금호자동차공업사","tel":"031-555-0335","addr":"경기도 구리시 토평동 611-33번지","category":"자동차정비 유지 - 자동차정비"}]},{"lat":"37.589703871","long":"127.15579034","items":[{"name":"길사랑장학사업단 (주)구리하이패스센터","tel":"031-424-1633","addr":"경기도 구리시 토평동 86번지 1층","category":"자동차정비 유지 - 자동차부품"}]},{"lat":"37.590371542","long":"127.14789996","items":[{"name":"김명자낙지마당 구리점","tel":"031-555-5725","addr":"경기도 구리시 토평동 968-1번지 1층","category":"일반휴게음식 - 일반한식"}]},{"lat":"37.586639106","long":"127.1424016","items":[{"name":"꼬야런치","tel":"070-8267-2645","addr":"경기도 구리시 토평동 955번지 토평마을e편한세상 106동 301호","category":"학원 - 기타 교육기관"}]},{"lat":"37.581227996","long":"127.14676144","items":[{"name":"꽃과나무","tel":"031-565-2645","addr":"경기도 구리시 토평동 527번지","category":"문화.취미 - 화원"},{"name":"민플라워","tel":"031-557-1345","addr":"경기도 구리시 토평동 527번지","category":"문화.취미 - 화원"},{"name":"장미화원","tel":"031-565-3031","addr":"경기도 구리시 토평동 527번지","category":"문화.취미 - 화원"},{"name":"토평꽃갤러리","tel":"031-553-1815","addr":"경기도 구리시 토평동 527번지","category":"문화.취미 - 화원"},{"name":"티파니의숲","tel":"031-565-3489","addr":"경기도 구리시 토평동 527번지","category":"문화.취미 - 화원"},{"name":"푸른숲농원","tel":"031-566-7987","addr":"경기도 구리시 토평동 527번지","category":"문화.취미 - 화원"}]},{"lat":"37.592091751","long":"127.15556877","items":[{"name":"꽃피는나무","tel":"031-573-2124","addr":"경기도 구리시 토평동 161-13번지","category":"문화.취미 - 화원"}]},{"lat":"37.577117401","long":"127.13306711","items":[{"name":"나로공간","tel":"","addr":"경기도 구리시 토평동 796-1번지","category":"건축자재 - 인테리어전문"},{"name":"대성화원","tel":"031-565-9576","addr":"경기도 구리시 토평동 796-1","category":"문화.취미 - 화원"},{"name":"알라딘플라워","tel":"031-557-2265","addr":"경기도 구리시 토평동 796-1번지","category":"문화.취미 - 화원"},{"name":"플라워예담","tel":"031-566-7308","addr":"경기도 구리시 토평동 796-1","category":"문화.취미 - 화원"}]},{"lat":"37.589841089","long":"127.14698182","items":[{"name":"나영헤어아트","tel":"031-562-9774","addr":"경기도 구리시 토평동 977-11번지 105호","category":"보건위생 - 미용원"},{"name":"스마일부동산공인중개사사무소","tel":"","addr":"경기도 구리시 토평동 977-11번지 1층 104호","category":"용역 서비스 - 부동산 중개·임대"},{"name":"유니코알","tel":"031-555-1817","addr":"경기도 구리시 토평동 977-11번지 1층","category":"일반휴게음식 - 서양음식"},{"name":"토평소곱창2호점","tel":"031-555-0750","addr":"경기도 구리시 토평동 977-11번지 103호","category":"일반휴게음식 - 일반한식"}]},{"lat":"37.590508226","long":"127.14664343","items":[{"name":"나이스당구장","tel":"031-554-3949","addr":"경기도 구리시 토평동 971번지 서라벌주차빌딩 204호","category":"레저업소 - 당 구 장"},{"name":"본풍천장어 토평점","tel":"","addr":"경기도 구리시 토평동 971번지 서라벌주차빌딩 1층 104호","category":"일반휴게음식 - 일반한식"},{"name":"세계닭발","tel":"031-562-3338","addr":"경기도 구리시 토평동 971번지 서라벌주차빌딩 106호","category":"일반휴게음식 - 일반한식"},{"name":"왕십리곱창","tel":"031-564-5941","addr":"경기도 구리시 토평동 971번지 서라벌주차빌딩 105호 일부","category":"일반휴게음식 - 일반한식"},{"name":"우아할 한","tel":"031-555-7768","addr":"경기도 구리시 토평동 971번지 서라벌주차빌딩 2층 202호","category":"일반휴게음식 - 주점"},{"name":"위드","tel":"","addr":"경기도 구리시 토평동 971번지 서라벌주차빌딩 114,205,302,401,501호","category":"용역 서비스 - 부동산 중개·임대"},{"name":"재림수산","tel":"031-555-0683","addr":"경기도 구리시 토평동 971번지 서라벌주차빌딩 1층 104호","category":"음료식품 - 농·축·수산품"},{"name":"정통삼계탕","tel":"031-555-3316","addr":"경기도 구리시 토평동 971번지 112호 (112호~113호)","category":"일반휴게음식 - 일반한식"},{"name":"주주총회","tel":"031-556-1216","addr":"경기도 구리시 토평동 971번지 서라벌주차빌딩 101호","category":"일반휴게음식 - 주점"},{"name":"진품참치","tel":"031-562-3772","addr":"경기도 구리시 토평동 971번지 1층","category":"일반휴게음식 - 일반한식"},{"name":"채움","tel":"031-557-6262","addr":"경기도 구리시 토평동 971번지 서라벌주차빌딩 102호","category":"일반휴게음식 - 일반한식"},{"name":"치킨뱅이","tel":"031-555-3133","addr":"경기도 구리시 토평동 971번지 서라벌주차빌딩 107호","category":"일반휴게음식 - 주점"},{"name":"토평소곱창","tel":"031-556-7373","addr":"경기도 구리시 토평동 971번지 서라벌주차빌딩 110호","category":"일반휴게음식 - 일반한식"}]},{"lat":"37.582786453","long":"127.1469569","items":[{"name":"남가네 설악추어탕 토평점","tel":"031-555-7111","addr":"경기도 구리시 토평동 535번지 1층","category":"일반휴게음식 - 일반한식"}]},{"lat":"37.587759487","long":"127.14726086","items":[{"name":"내 머리애 봄","tel":"031-1111-1111","addr":"경기도 구리시 토평동 611-32번지 청운빌딩 101호","category":"보건위생 - 미용원"},{"name":"토평이젠수학교습소","tel":"031-565-4237","addr":"경기도 구리시 토평동 611-32번지 청운빌딩 1층 일부","category":"회원제형태 - 학원"},{"name":"토평태권도체육관","tel":"031-563-7188","addr":"경기도 구리시 토평동 611-32번지 청운빌딩 203호","category":"회원제형태 - 학원"}]},{"lat":"37.580505058","long":"127.155647","items":[{"name":"노아성구사","tel":"02-467-5624","addr":"경기도 구리시 토평동 41-2번지","category":"문화.취미 - 민예·공예품"}]},{"lat":"37.589590371","long":"127.14570191","items":[{"name":"느린튀김","tel":"031-557-5743","addr":"경기도 구리시 토평동 977번지 103호","category":"일반휴게음식 - 일반한식"},{"name":"토평동국수집","tel":"031-555-2632","addr":"경기도 구리시 토평동 977번지 1층 101호","category":"일반휴게음식 - 일반한식"},{"name":"후헤어","tel":"070-8243-0114","addr":"경기도 구리시 토평동 977번지 1층","category":"보건위생 - 미용원"}]},{"lat":"37.585200061","long":"127.14778803","items":[{"name":"다인한정식","tel":"031-111-1111","addr":"경기도 구리시 토평동 286-1번지 2층","category":"일반휴게음식 - 일반한식"}]},{"lat":"37.585088676","long":"127.15042576","items":[{"name":"다함","tel":"031-566-3771","addr":"경기도 구리시 토평동 377-4번지","category":"자동차정비 유지 - 자동차부품"}]},{"lat":"37.585317118","long":"127.14784487","items":[{"name":"달인청국장","tel":"031-556-6006","addr":"경기도 구리시 토평동 286번지 1층","category":"일반휴게음식 - 일반한식"}]},{"lat":"37.59005948","long":"127.14520462","items":[{"name":"대아 아이티","tel":"031-551-0339","addr":"경기도 구리시 토평동 974번지 105호","category":"수리서비스 - 사무·통신기기수리"}]},{"lat":"37.583225931","long":"127.14858802","items":[{"name":"대아종합건재","tel":"031-563-7600","addr":"경기도 구리시 토평동 447-16, 토평동 447-2(총2필지)","category":"건축자재 - 기타건축자재"}]},{"lat":"37.587982684","long":"127.14892563","items":[{"name":"대원건업","tel":"031-563-4847","addr":"경기도 구리시 토평동 326-1번지","category":"건축자재 - 목재·석재·철물"}]},{"lat":"37.588560607","long":"127.1478738","items":[{"name":"대원공부방","tel":"02-111-1111","addr":"경기도 구리시 토평동 987번지 골드빌 2층 203호","category":"학원 - 기타 교육기관"}]},{"lat":"37.579815205","long":"127.13764543","items":[{"name":"대한물류 보관센터","tel":"031-564-9700","addr":"경기도 구리시 토평동 731-5번지","category":"용역 서비스 - 보관및 창고업"}]},{"lat":"37.584093353","long":"127.14656316","items":[{"name":"대호유통","tel":"031-791-5162","addr":"경기도 구리시 토평동 570번지","category":"문화.취미 - 애완동물"},{"name":"만송골갈비탕 토평점","tel":"031-566-7333","addr":"경기도 구리시 토평동 570번지 2층","category":"일반휴게음식 - 일반한식"},{"name":"장수수산","tel":"031-569-8892","addr":"경기도 구리시 토평동 570번지","category":"일반휴게음식 - 일반한식"}]},{"lat":"37.592341664","long":"127.15033817","items":[{"name":"더숲","tel":"031-564-9992","addr":"경기도 구리시 토평동 997-4번지 선화빌딩","category":"일반휴게음식 - 서양음식"},{"name":"바른수학바른영어학원","tel":"031-556-6516","addr":"경기도 구리시 토평동 997-4번지 선화빌딩 401호","category":"학원 - 보습학원"},{"name":"소로무역 코스트마켓","tel":"02-555-1941","addr":"경기도 구리시 토평동 997-4번지 1층","category":"신변잡화 - 기타잡화"},{"name":"아이클노리미술학원","tel":"0231-568-4461","addr":"경기도 구리시 토평동 997-4번지 3층","category":"학원 - 예·체능계학원"},{"name":"위니아서비스 구리점","tel":"031-568-2504","addr":"경기도 구리시 토평동 997-4번지 2층","category":"수리서비스 - 기타수리서비스"},{"name":"티엠음악학원","tel":"031-556-0386","addr":"경기도 구리시 토평동 997-4번지 선화빌딩 5층 502호","category":"학원 - 예·체능계학원"}]},{"lat":"37.588893258","long":"127.14845188","items":[{"name":"더잉글리쉬학원","tel":"031-557-9600","addr":"경기도 구리시 토평동 981-2번지","category":"학원 - 보습학원"}]},{"lat":"37.58101022","long":"127.15517254","items":[{"name":"덱스크루 구리점","tel":"031-558-9893","addr":"경기도 구리시 토평동 46-3번지 1층","category":"자동차정비 유지 - 자동차부품"},{"name":"카앤코","tel":"031-576-4331","addr":"경기도 구리시 토평동 46-3번지 2층","category":"자동차정비 유지 - 자동차부품"}]},{"lat":"37.590591629","long":"127.14473009","items":[{"name":"도도바스","tel":"031-555-6779","addr":"경기도 구리시 토평동 964번지 메인프라자 1층 102호","category":"건축자재 - 인테리어전문"},{"name":"리드앤톡영어학원","tel":"031-556-3204","addr":"경기도 구리시 토평동 964번지 메인프라자","category":"학원 - 외국어학원"},{"name":"민헤어","tel":"031-566-7496","addr":"경기도 구리시 토평동 964번지 메인프라자 101호","category":"보건위생 - 미용원"},{"name":"별별아이스크림 할인마트","tel":"031-557-7842","addr":"경기도 구리시 토평동 964번지 메인프라자 1층 105호","category":"유통업 영리 - 슈퍼마켓"},{"name":"언니네애견미용실","tel":"031-516-1602","addr":"경기도 구리시 토평동 964번지 메인프라자 2층 202호","category":"문화.취미 - 애완동물"},{"name":"언니넷펫샵","tel":"031-516-1602","addr":"경기도 구리시 토평동 964번지 메인프라자 202호","category":"문화.취미 - 애완동물"},{"name":"용인대창룡체육관","tel":"031-564-3005","addr":"경기도 구리시 토평동 964번지 메인프라자 401호","category":"회원제형태 - 학원"},{"name":"우리들문구","tel":"031-552-2691","addr":"경기도 구리시 토평동 964번지 메인프라자 103호","category":"서적문구 - 문구용품"},{"name":"채원미장","tel":"031-552-8203","addr":"경기도 구리시 토평동 964번지 메인프라자 1층 104호","category":"보건위생 - 미용원"},{"name":"추닭집","tel":"070-4567-4444","addr":"경기도 구리시 토평동 964번지 메인프라자 107호","category":"일반휴게음식 - 스넥"},{"name":"한세기요양보호사교육원","tel":"031-555-0045","addr":"경기도 구리시 토평동 964번지 메인프라자 3층 301호","category":"학원 - 기능학원"}]},{"lat":"37.589814295","long":"127.14678928","items":[{"name":"도원참치","tel":"031-573-3739","addr":"경기도 구리시 토평동 977-12번지","category":"일반휴게음식 - 일식·회집"},{"name":"조이(JOY)돈가츠","tel":"","addr":"경기도 구리시 토평동 977-12번지 1층","category":"일반휴게음식 - 일반한식"}]},{"lat":"37.589978297","long":"127.14528372","items":[{"name":"동방international","tel":"031-557-2984","addr":"경기도 구리시 토평동 974-7번지 1층","category":"음료식품 - 기타음료식품"},{"name":"세익 ENG","tel":"0070-1587-6187","addr":"경기도 구리시 토평동 974-7번지 204호","category":"회원제형태 - 기타4"},{"name":"월드 티하우스","tel":"031-557-2984","addr":"경기도 구리시 토평동 974-7번지","category":"일반휴게음식 - 서양음식"}]},{"lat":"37.588371847","long":"127.14751112","items":[{"name":"동서기획","tel":"031-558-9311","addr":"경기도 구리시 토평동 986-2번지 1층 1호","category":"용역 서비스 - 사무서비스"}]},{"lat":"37.590950571","long":"127.14593096","items":[{"name":"동성에프앤씨","tel":"031-565-8885","addr":"경기도 구리시 토평동 964-5번지","category":"의류 - 정장"},{"name":"떳다 실내포차","tel":"031-555-6377","addr":"경기도 구리시 토평동 964-5번지 1층 104호","category":"일반휴게음식 - 일반한식"},{"name":"알파문구 토평점","tel":"031-566-3662","addr":"경기도 구리시 토평동 964-5번지 지하층","category":"서적문구 - 문구용품"},{"name":"호치킨","tel":"031-556-2727","addr":"경기도 구리시 토평동 964-5번지 101호","category":"일반휴게음식 - 주점"}]},{"lat":"37.590478571","long":"127.14878332","items":[{"name":"동양기업","tel":"031-563-1314","addr":"경기도 구리시 토평동 966-3번지","category":"용역 서비스 - 종합용역"},{"name":"아비온항공승무원학원","tel":"031-555-8017","addr":"경기도 구리시 토평동 966-3번지 2층","category":"학원 - 기능학원"}]},{"lat":"37.580673762","long":"127.14312634","items":[{"name":"두성산업콘테이너","tel":"031-568-8788","addr":"경기도 구리시 토평동 516-9번지","category":"기타 - 기계공구"}]},{"lat":"37.583894351","long":"127.14720811","items":[{"name":"드림모터스","tel":"031-568-7771","addr":"경기도 구리시 토평동 562-2번지 1층","category":"자동차판매 - 기타운송"},{"name":"종점식당","tel":"031-563-3407","addr":"경기도 구리시 토평동 562-2번지 1층 102호","category":"일반휴게음식 - 일반한식"},{"name":"진흥슈퍼","tel":"031-551-6233","addr":"경기도 구리시 토평동 562-2번지","category":"유통업 영리 - 슈퍼마켓"}]},{"lat":"37.589978023","long":"127.14551017","items":[{"name":"드림팜웰","tel":"070-3638-5420","addr":"경기도 구리시 토평동 974-3번지 201호","category":"건강식품 - 기타건강식품"}]},{"lat":"37.593898919","long":"127.15148486","items":[{"name":"라온수학학원","tel":"","addr":"경기도 구리시 토평동 999-1번지 정민빌딩 2층","category":"학원 - 보습학원"},{"name":"로하스원","tel":"031-557-0068","addr":"경기도 구리시 토평동 999-1번지 정민빌딩 4층","category":"주방용구 - 주방용구"},{"name":"모짜르트음악학원","tel":"031-563-8998","addr":"경기도 구리시 토평동 999-1번지","category":"학원 - 예·체능계학원"},{"name":"모차르트음악학원","tel":"031-563-8998","addr":"경기도 구리시 토평동 999-1번지 정민빌딩 3층","category":"학원 - 예·체능계학원"},{"name":"숲미술학원","tel":"031-555-5774","addr":"경기도 구리시 토평동 999-1번지 정민빌딩 3층","category":"학원 - 예·체능계학원"},{"name":"위드커피(WITH COFFEE)","tel":"","addr":"경기도 구리시 토평동 999-1번지 정민빌딩 1층 102호","category":"일반휴게음식 - 서양음식"},{"name":"채널큐24시","tel":"031-564-0206","addr":"경기도 구리시 토평동 999-1번지","category":"유통업 영리 - 편 의 점"},{"name":"해법엘리트학원","tel":"031-512-2223","addr":"경기도 구리시 토평동 999-1번지 정민빌딩 2층","category":"학원 - 보습학원"}]},{"lat":"37.582671994","long":"127.15206258","items":[{"name":"라인테크","tel":"070-4253-0202","addr":"경기도 구리시 토평동 449-6번지","category":"직물 - 카페트,커튼,천막,지물"},{"name":"천동자동차정비기기","tel":"","addr":"경기도 구리시 토평동 449-6번지 각구분용도구획중동평 1구획","category":"기타 - 기계공구"}]},{"lat":"37.590002142","long":"127.14789924","items":[{"name":"레니비마크","tel":"","addr":"경기도 구리시 토평동 969-2번지 3층 304호","category":"의류 - 정장"}]},{"lat":"37.58542377","long":"127.14903385","items":[{"name":"렌탈코리아다큐솔루션 주식회사","tel":"02-2254-1991","addr":"경기도 구리시 토평동 303번지","category":"사무통신 - 사무용 OA기기"},{"name":"렌탈코리아다큐솔루션주식회사","tel":"02-2554-1991","addr":"경기도 구리시 토평동 303번지","category":"사무통신 - 사무용 OA기기"}]},{"lat":"37.585756513","long":"127.14953266","items":[{"name":"룩스판(LOOKSPAN)","tel":"031-568-8307","addr":"경기도 구리시 토평동 308-1번지 1층","category":"용역 서비스 - 기타용역서비스"}]},{"lat":"37.590563959","long":"127.14526219","items":[{"name":"마르떼헤어","tel":"031-555-5466","addr":"경기도 구리시 토평동 972번지 1층","category":"보건위생 - 미용원"}]},{"lat":"37.584758859","long":"127.14756074","items":[{"name":"마장동 한우촌","tel":"031-564-7777","addr":"경기도 구리시 토평동 615-1번지 1층","category":"일반휴게음식 - 일반한식"},{"name":"주식회사굿티쳐스","tel":"031-567-4002","addr":"경기도 구리시 토평동 615-1번지 1층","category":"회원제형태 - 서적"},{"name":"한우촌 정육점","tel":"031-564-7777","addr":"경기도 구리시 토평동 615-1번지","category":"음료식품 - 정육점"}]},{"lat":"37.586983355","long":"127.1483123","items":[{"name":"만들공방","tel":"","addr":"경기도 구리시 토평동 270-4번지 가동 107호","category":"문화.취미 - 문화취미기타"}]},{"lat":"37.5898971","long":"127.14537415","items":[{"name":"맘스매니저 구리/남양주/가평","tel":"031-563-7325","addr":"경기도 구리시 토평동 974-6번지","category":"보건위생 - 기타대인서비스"}]},{"lat":"37.593871618","long":"127.15169995","items":[{"name":"메디글로우","tel":"02-1111-1111","addr":"경기도 구리시 토평동 999-2번지 신성빌딩 1층","category":"약국 - 제약회사"},{"name":"삼육이와스외국어학원","tel":"031-558-4315","addr":"경기도 구리시 토평동 999-2번지 신성빌딩","category":"학원 - 외국어학원"},{"name":"해냄일터(장애인보호작업장)","tel":"031-562-1911","addr":"경기도 구리시 토평동 999-2번지 신성빌딩 4동","category":"음료식품 - 기타음료식품"}]},{"lat":"37.583452706","long":"127.14734311","items":[{"name":"메카닉구리점","tel":"031-558-7401","addr":"경기도 구리시 토평동 560번지 3동","category":"자동차정비 유지 - 자동차부품"}]},{"lat":"37.590175635","long":"127.14600873","items":[{"name":"명가","tel":"031-556-0038","addr":"경기도 구리시 토평동 975-5번지 1층","category":"일반휴게음식 - 일반한식"}]},{"lat":"37.585367047","long":"127.14381444","items":[{"name":"명성그린유치원","tel":"031-566-6430","addr":"경기도 구리시 토평동 595-3번지","category":"학원 - 유치원"},{"name":"천일E.N.G","tel":"031-585-2786","addr":"경기도 구리시 토평동 595-3번지 1층","category":"건축자재 - 인테리어전문"},{"name":"햇빛사랑어린이집[아이행복]","tel":"031-566-6430","addr":"경기도 구리시 토평동 595-3번지","category":"학원 - 유아원"}]},{"lat":"37.580452687","long":"127.13957114","items":[{"name":"모던실업","tel":"031-551-6085","addr":"경기도 구리시 토평동 723-1","category":"건축자재 - 목재·석재·철물"},{"name":"썬스틸","tel":"031-567-9936","addr":"경기도 구리시 토평동 723-1","category":"건축자재 - 기타건축자재"}]},{"lat":"37.588173701","long":"127.14745413","items":[{"name":"무엘로","tel":"070-4809-6090","addr":"경기도 구리시 토평동 986-4번지 1 102호","category":"일반휴게음식 - 서양음식"}]},{"lat":"37.57817387","long":"127.15381962","items":[{"name":"문화전기조명","tel":"031-565-7745","addr":"경기도 구리시 토평동 27-4번지","category":"건축자재 - 조명기구"}]},{"lat":"37.590256283","long":"127.14637121","items":[{"name":"미니스톱구리토평점","tel":"031-1577-9621","addr":"경기도 구리시 토평동 976번지 1층","category":"유통업 영리 - 편 의 점"}]},{"lat":"37.590120018","long":"127.14728806","items":[{"name":"미래세탁","tel":"031-564-8683","addr":"경기도 구리시 토평동 970-7번지 상가 102호","category":"수리서비스 - 세탁소"},{"name":"씨유토평원룸점","tel":"031-567-6103","addr":"경기도 구리시 토평동 970-7번지 1층 매경공인중개사","category":"유통업 영리 - 편 의 점"},{"name":"잔다냥 구리점","tel":"031-557-2037","addr":"경기도 구리시 토평동 970-7번지 1층","category":"문화.취미 - 애완동물"}]},{"lat":"37.593674486","long":"127.15083901","items":[{"name":"미숨","tel":"031-555-2013","addr":"경기도 구리시 토평동 998-2번지 101호 상가","category":"음료식품 - 제과점"},{"name":"바른정형외과의원","tel":"031-552-6425","addr":"경기도 구리시 토평동 998-2번지 삼보빌딩","category":"의원 - 의원"},{"name":"에뚜알","tel":"031-557-9777","addr":"경기도 구리시 토평동 998-2번지 삼보빌딩 102호","category":"일반휴게음식 - 서양음식"},{"name":"충무김밥","tel":"031-594-3744","addr":"경기도 구리시 토평동 998-2번지 삼보빌딩 1층 3호","category":"일반휴게음식 - 스넥"}]},{"lat":"37.593204682","long":"127.15186846","items":[{"name":"미창","tel":"031-566-1548","addr":"경기도 구리시 토평동 1001-5번지 지층","category":"음료식품 - 농·축·수산품"}]},{"lat":"37.593314265","long":"127.15070242","items":[{"name":"민영학원","tel":"031-552-6616","addr":"경기도 구리시 토평동 998-4번지 창의빌딩 4층","category":"회원제형태 - 학원"}]},{"lat":"37.579816166","long":"127.15184178","items":[{"name":"바다명가","tel":"070-7590-4625","addr":"경기도 구리시 토평동 457-8번지","category":"음료식품 - 농·축·수산품"}]},{"lat":"37.590398738","long":"127.14776414","items":[{"name":"바움(BAum)","tel":"","addr":"경기도 구리시 토평동 968번지 쉐르빌 403호","category":"주방용구 - 주방용구"},{"name":"한빛정보통신","tel":"031-558-3181","addr":"경기도 구리시 토평동 968번지 쉐르빌 104호","category":"사무통신 - 통신기기"}]},{"lat":"37.585934839","long":"127.14366833","items":[{"name":"바이오큐브","tel":"02-6000-2374","addr":"경기도 구리시 토평동 955번지 토평마을e편한세상 102동 1702호","category":"서적문구 - 과학기자재"},{"name":"바이오큐브/원격지","tel":"02-6000-2374","addr":"경기도 구리시 토평동 955번지 토평마을e편한세상 102동 1702호","category":"기타 - 기타 전문점"}]},{"lat":"37.58450794","long":"127.14645075","items":[{"name":"박정일 코다리조림","tel":"031-562-5322","addr":"경기도 구리시 토평동 614-5번지 토평빌딩 1층","category":"일반휴게음식 - 일반한식"},{"name":"제이메디칼케어","tel":"","addr":"경기도 구리시 토평동 614-5번지 2층 204호","category":"보건위생 - 의료용품"}]},{"lat":"37.582255152","long":"127.14672945","items":[{"name":"방일해장국","tel":"031-558-5055","addr":"경기도 구리시 토평동 537-2번지 537-2,537-3","category":"일반휴게음식 - 일반한식"}]},{"lat":"37.579345228","long":"127.15375406","items":[{"name":"백제상사","tel":"031-555-6111","addr":"경기도 구리시 토평동 36-1번지","category":"건축자재 - 기타건축자재"},{"name":"우리앤테크","tel":"","addr":"경기도 구리시 토평동 36-1번지","category":"건축자재 - 인테리어전문"}]},{"lat":"37.582616355","long":"127.14606219","items":[{"name":"뱅따","tel":"031-565-4727","addr":"경기도 구리시 토평동 556번지 3층","category":"일반휴게음식 - 서양음식"}]},{"lat":"37.582090476","long":"127.14128364","items":[{"name":"베스트나인베이스볼","tel":"070-7420-2947","addr":"경기도 구리시 토평동 706-3번지","category":"학원 - 예·체능계학원"}]},{"lat":"37.588871676","long":"127.15831349","items":[{"name":"변소","tel":"031-554-4221","addr":"경기도 구리시 토평동 90번지","category":"건축자재 - 건축용 요업제품"},{"name":"청우세라믹스","tel":"031-554-4220","addr":"경기도 구리시 토평동 90 번지외 1필지가동","category":"건축자재 - 건축용 요업제품"}]},{"lat":"37.580727761","long":"127.15056433","items":[{"name":"본헤럴드","tel":"031-564-1086","addr":"경기도 구리시 토평동 465-218번지","category":"서적문구 - 정기간행물"}]},{"lat":"37.593035685","long":"127.15012441","items":[{"name":"부성종합공사","tel":"031-573-5895","addr":"경기도 구리시 토평동 195-2","category":"건축자재 - 인테리어전문"}]},{"lat":"37.589840688","long":"127.14731016","items":[{"name":"북새통","tel":"","addr":"경기도 구리시 토평동 978번지 1층","category":"일반휴게음식 - 일반한식"},{"name":"주문해장국","tel":"031-555-8848","addr":"경기도 구리시 토평동 978번지 1층 좌측호","category":"일반휴게음식 - 일반한식"}]},{"lat":"37.580205617","long":"127.14281979","items":[{"name":"붕붕개러지","tel":"031-552-5968","addr":"경기도 구리시 토평동 512-3번지","category":"자동차정비 유지 - 자동차정비"}]},{"lat":"37.588478976","long":"127.14831521","items":[{"name":"블루마리나","tel":"031-568-4051","addr":"경기도 구리시 토평동 988번지 103호","category":"자동차정비 유지 - 카인테리어"}]},{"lat":"37.589671225","long":"127.14589454","items":[{"name":"블루밍데이","tel":"02-6340-5385","addr":"경기도 구리시 토평동 977-1번지 1층","category":"의류 - 정장"},{"name":"일차돌구리점","tel":"031-568-0349","addr":"경기도 구리시 토평동 977-1번지","category":"일반휴게음식 - 일반한식"}]},{"lat":"37.583091328","long":"127.14814623","items":[{"name":"빈(VIN)103","tel":"","addr":"경기도 구리시 토평동 447-10번지","category":"일반휴게음식 - 서양음식"}]},{"lat":"37.59064491","long":"127.14537557","items":[{"name":"빈차(bean cha)","tel":"031-563-0003","addr":"경기도 구리시 토평동 972-1번지 토평동근린생활시설및단독주택 1층 101호","category":"일반휴게음식 - 일반한식"}]},{"lat":"37.58633166","long":"127.14334074","items":[{"name":"사계절","tel":"070-7818-7586","addr":"경기도 구리시 토평동 955번지 토평마을e편한세상 103동 1903호","category":"광학제품 - 사진관"},{"name":"토평사임당어린이집[아이행복]","tel":"031-558-7942","addr":"경기도 구리시 토평동 955번지 토평마을e편한세상 103동 102호","category":"학원 - 유아원"}]},{"lat":"37.588696808","long":"127.14701358","items":[{"name":"살롱드공감","tel":"031-558-4495","addr":"경기도 구리시 토평동 662-3번지 태융캐슬 A동 1층 101호","category":"서적문구 - 기타서적문구"},{"name":"코사마트","tel":"031-566-3337","addr":"경기도 구리시 토평동 662-3번지 태웅캐슬 코사마트","category":"유통업 영리 - 슈퍼마켓"},{"name":"해오름독서실","tel":"031-569-1288","addr":"경기도 구리시 토평동 662-3번지 2층","category":"학원 - 독서실"},{"name":"헤어가라사대","tel":"031-567-9364","addr":"경기도 구리시 토평동 662-3번지 태융캐슬 1층 102호","category":"보건위생 - 미용원"}]},{"lat":"37.593476342","long":"127.150782","items":[{"name":"살롱드엠제이","tel":"031-567-9522","addr":"경기도 구리시 토평동 998-3번지 한주빌딩 101호","category":"보건위생 - 미용원"},{"name":"잉글리쉬무무수택제2학원","tel":"031-566-9905","addr":"경기도 구리시 토평동 998-3번지 한주빌딩 3층","category":"학원 - 보습학원"},{"name":"토평원조뼈다귀","tel":"031-554-4777","addr":"경기도 구리시 토평동 998-3번지 한주빌딩 1층","category":"일반휴게음식 - 일반한식"}]},{"lat":"37.590227358","long":"127.14792232","items":[{"name":"상상컴퍼니","tel":"031-000-0000","addr":"경기도 구리시 토평동 968-2번지 토평드림빌 203호","category":"레져용품 - 스포츠·레져용품"},{"name":"엄나무보쌈","tel":"031-565-7088","addr":"경기도 구리시 토평동 968-2번지 1층","category":"일반휴게음식 - 일반한식"}]},{"lat":"37.590203035","long":"127.14570308","items":[{"name":"새벽을여는종민이","tel":"070-8807-0448","addr":"경기도 구리시 토평동 975-9번지 1층","category":"일반휴게음식 - 일반한식"}]},{"lat":"37.579698213","long":"127.14520754","items":[{"name":"서울산업","tel":"031-556-4664","addr":"경기도 구리시 토평동 509-1번지","category":"건축자재 - 기타건축자재"}]},{"lat":"37.58625901","long":"127.15117531","items":[{"name":"세광GTC","tel":"02-465-4533","addr":"경기도 구리시 토평동 360-2번지","category":"건축자재 - 목재·석재·철물"}]},{"lat":"37.586142096","long":"127.15100525","items":[{"name":"세광하이웰 주식회사","tel":"02-465-4533","addr":"경기도 구리시 토평동 360번지","category":"주방용구 - 주방용구"}]},{"lat":"37.585980575","long":"127.143091","items":[{"name":"세븐일레븐구리여고점","tel":"","addr":"경기도 구리시 토평동 955번지 토평마을e편한세상 1층 101호","category":"유통업 영리 - 편 의 점"},{"name":"숨은씨앗미술교습소","tel":"031-556-1125","addr":"경기도 구리시 토평동 955번지 토평마을e편한세상 상가 202호","category":"학원 - 예·체능계학원"},{"name":"이마트24 구리이편한점","tel":"","addr":"경기도 구리시 토평동 955번지 이편한세상 상가동 101호","category":"유통업 영리 - 편 의 점"}]},{"lat":"37.593393744","long":"127.15198207","items":[{"name":"세븐일레븐토평원룸점","tel":"031-1577-0711","addr":"경기도 구리시 토평동 1000-7번지 1층","category":"유통업 영리 - 편 의 점"}]},{"lat":"37.590671104","long":"127.14606629","items":[{"name":"소망24시열쇠","tel":"031-557-9400","addr":"경기도 구리시 토평동 972-6번지","category":"기타 - 기타 전문점"},{"name":"에스플러스네일아트","tel":"031-564-3301","addr":"경기도 구리시 토평동 972-6번지 1층 1호","category":"보건위생 - 미용원"}]},{"lat":"37.587478585","long":"127.14856234","items":[{"name":"속초참코다리냉면","tel":"031-558-1108","addr":"경기도 구리시 토평동 270-3번지","category":"일반휴게음식 - 일반한식"}]},{"lat":"37.587675805","long":"127.14936659","items":[{"name":"송죽골","tel":"031-564-0770","addr":"경기도 구리시 토평동 325-6(1.2층)","category":"일반휴게음식 - 일반한식"}]},{"lat":"37.590843371","long":"127.14517215","items":[{"name":"수라간","tel":"031-551-5818","addr":"경기도 구리시 토평동 964-2번지 안광프라자 1층 2호","category":"음료식품 - 기타음료식품"},{"name":"안광고시원","tel":"031-551-9494","addr":"경기도 구리시 토평동 964-2번지","category":"학원 - 독서실"},{"name":"안광프라자","tel":"031-556-2486","addr":"경기도 구리시 토평동 964-2번지","category":"숙박업 - 여관/기타숙박업"},{"name":"외지","tel":"031-551-8891","addr":"경기도 구리시 토평동 964-2번지 안광프라자 1층 101호","category":"일반휴게음식 - 일반한식"},{"name":"챠밍침장","tel":"031-569-7888","addr":"경기도 구리시 토평동 964-2번지 안광프라자 1층","category":"직물 - 침구·수예점"}]},{"lat":"37.584116917","long":"127.14193271","items":[{"name":"수림화원","tel":"031-555-5122","addr":"경기도 구리시 토평동 688-1번지 원예하우스 가동 2호","category":"문화.취미 - 화원"},{"name":"예그리나","tel":"070-8825-6288","addr":"경기도 구리시 토평동 688-1","category":"문화.취미 - 화원"},{"name":"와유스튜디오초록비율","tel":"031-566-5434","addr":"경기도 구리시 토평동 688-1","category":"문화.취미 - 문화취미기타"},{"name":"위스플라워","tel":"031-567-3994","addr":"경기도 구리시 토평동 688-1번지","category":"문화.취미 - 화원"},{"name":"코일리아 (Koilia)","tel":"031-111-1111","addr":"경기도 구리시 토평동 688-1번지","category":"문화.취미 - 화원"},{"name":"코코네위드플랜트","tel":"031-576-2668","addr":"경기도 구리시 토평동 688-1번지 다동","category":"문화.취미 - 화원"}]},{"lat":"37.587480459","long":"127.15423468","items":[{"name":"수목원","tel":"031-565-6025","addr":"경기도 구리시 토평동 61-15 1층","category":"일반휴게음식 - 일반한식"}]},{"lat":"37.593808264","long":"127.15192628","items":[{"name":"수택정훈태권도장","tel":"","addr":"경기도 구리시 토평동 999-3번지 승민빌딩 4층","category":"학원 - 예·체능계학원"},{"name":"아에이오우","tel":"","addr":"경기도 구리시 토평동 999-3번지 승민빌딩 4층","category":"문화.취미 - 애완동물"},{"name":"차이나 타운","tel":"031-553-1312","addr":"경기도 구리시 토평동 999-3번지 승민빌딩","category":"일반휴게음식 - 중국식"},{"name":"치킨매니아(토평점)","tel":"","addr":"경기도 구리시 토평동 999-3번지","category":"일반휴게음식 - 스넥"},{"name":"키즈체육도장","tel":"031-562-2979","addr":"경기도 구리시 토평동 999-3번지 승민빌딩 4층","category":"회원제형태 - 학원"}]},{"lat":"37.591726237","long":"127.15253355","items":[{"name":"수택초등학교","tel":"031-564-4163","addr":"경기도 구리시 토평동 1007번지 수택초등학교","category":"학원 - 초중고교육기관"},{"name":"수택초등학교병설유치원[아이행복]","tel":"031-564-4162","addr":"경기도 구리시 토평동 1007번지","category":"학원 - 유치원"}]},{"lat":"37.590093763","long":"127.14665395","items":[{"name":"술퍼마켓","tel":"031-565-2040","addr":"경기도 구리시 토평동 976-6번지","category":"일반휴게음식 - 일반한식"},{"name":"아지노세카이","tel":"031-555-7809","addr":"경기도 구리시 토평동 976-6번지 101호","category":"일반휴게음식 - 일반한식"}]},{"lat":"37.590424134","long":"127.14908892","items":[{"name":"스시원참치","tel":"031-552-2828","addr":"경기도 구리시 토평동 966-4번지 프라임빌딩 2층","category":"일반휴게음식 - 일반한식"},{"name":"연안식당 구리토평점","tel":"031-566-4696","addr":"경기도 구리시 토평동 966-4번지 프라임빌딩 1층","category":"일반휴게음식 - 일반한식"},{"name":"이아이이고려대학교국제어학원 영어교육프","tel":"031-558-0594","addr":"경기도 구리시 토평동 966-4번지 프라임빌딩 5층","category":"학원 - 외국어학원"},{"name":"프라임빌딩","tel":"031-555-6181","addr":"경기도 구리시 토평동 966-4번지","category":"용역 서비스 - 부동산 중개·임대"}]},{"lat":"37.588586171","long":"127.14906268","items":[{"name":"스피드메이트 토평점","tel":"031-568-8858","addr":"경기도 구리시 토평동 989번지","category":"자동차정비 유지 - 자동차정비"}]},{"lat":"37.585953444","long":"127.15056333","items":[{"name":"시골산장","tel":"031-557-9638","addr":"경기도 구리시 토평동 364번지 1층","category":"일반휴게음식 - 일반한식"}]},{"lat":"37.590338017","long":"127.14583921","items":[{"name":"시그널렌탈","tel":"031-510-9595","addr":"경기도 구리시 토평동 975-2번지 래미안 B04호","category":"사무통신 - 기타 사무용품"}]},{"lat":"37.589229032","long":"127.14648246","items":[{"name":"시립토평마을 어린이집[아이행복]","tel":"031-551-7942","addr":"경기도 구리시 토평동 984번지","category":"학원 - 유아원"}]},{"lat":"37.592503274","long":"127.1507914","items":[{"name":"신성특수여객","tel":"070-4355-2853","addr":"경기도 구리시 토평동 1002-14번지","category":"여행 - 여객선"}]},{"lat":"37.589534217","long":"127.1474228","items":[{"name":"씨앤엘스타일 주식회사","tel":"070-7825-0720","addr":"경기도 구리시 토평동 978-10번지 토평주택 101호","category":"보건위생 - 의료용품"}]},{"lat":"37.581701241","long":"127.15022662","items":[{"name":"씽크독스쿨","tel":"031-562-1999","addr":"경기도 구리시 토평동 465-17번지","category":"문화.취미 - 애완동물"}]},{"lat":"37.584061547","long":"127.14304212","items":[{"name":"아이스쿠","tel":"031-554-2250","addr":"경기도 구리시 토평동 586번지 원예하우스 다동 2호","category":"문화.취미 - 화원"}]},{"lat":"37.579894042","long":"127.15436649","items":[{"name":"아일2331","tel":"02-111-1111","addr":"경기도 구리시 토평동 23-31번지 1층","category":"일반휴게음식 - 서양음식"}]},{"lat":"37.590093528","long":"127.14684643","items":[{"name":"아지트(Azit)","tel":"031-558-4217","addr":"경기도 구리시 토평동 976-5번지","category":"일반휴게음식 - 서양음식"}]},{"lat":"37.585785557","long":"127.14790238","items":[{"name":"애견마트","tel":"031-567-7788","addr":"경기도 구리시 토평동 617-3번지","category":"문화.취미 - 애완동물"},{"name":"애니케어동물병원","tel":"031-567-7589","addr":"경기도 구리시 토평동 617-3번지 2층","category":"기타의료기관 - 동물병원"},{"name":"애니케어몰","tel":"031-567-7589","addr":"경기도 구리시 토평동 617-3번지 2층","category":"문화.취미 - 애완동물"},{"name":"이오인터내셔널","tel":"031-552-0207","addr":"경기도 구리시 토평동 617-3번지 3층","category":"레져용품 - 골프용품 전문점"}]},{"lat":"37.585840807","long":"127.14692882","items":[{"name":"양평상회","tel":"031-562-8190","addr":"경기도 구리시 토평동 613-3번지","category":"신변잡화 - 기타잡화"}]},{"lat":"37.593501833","long":"127.15200493","items":[{"name":"엄들고기","tel":"031-556-9328","addr":"경기도 구리시 토평동 1000-6번지 1층","category":"일반휴게음식 - 일반한식"}]},{"lat":"37.585142281","long":"127.15078816","items":[{"name":"에덴종합인테리어","tel":"000-0000-0000","addr":"경기도 구리시 토평동 389번지","category":"건축자재 - 인테리어전문"},{"name":"초록나라어린이집[아이행복]","tel":"031-565-5084","addr":"경기도 구리시 토평동 389번지","category":"학원 - 유아원"}]},{"lat":"37.581675959","long":"127.14133948","items":[{"name":"에스골베리농원","tel":"031-550-2560","addr":"경기도 구리시 토평동 709번지 1층","category":"음료식품 - 농·축·수산품"}]},{"lat":"37.590339056","long":"127.15923366","items":[{"name":"에스피에이인터내셔널","tel":"031-558-0358","addr":"경기도 구리시 토평동 96번지","category":"기타 - 기타 전문점"}]},{"lat":"37.593448188","long":"127.15167646","items":[{"name":"엔더블유(NW)","tel":"031-555-0983","addr":"경기도 구리시 토평동 1000-9번지 광덕빌 B01호","category":"의류 - 정장"}]},{"lat":"37.588281957","long":"127.14734112","items":[{"name":"엔젤스포츠","tel":"031-792-8544","addr":"경기도 구리시 토평동 986-5번지 지층 3호","category":"학원 - 기타 교육기관"}]},{"lat":"37.584728115","long":"127.15056091","items":[{"name":"엘티메이드","tel":"02-497-5580","addr":"경기도 구리시 토평동 376-1번지","category":"건축자재 - 인테리어전문"}]},{"lat":"37.585702652","long":"127.14937405","items":[{"name":"연합렉카","tel":"031-558-4982","addr":"경기도 구리시 토평동 308번지 A동 203호","category":"자동차정비 유지 - 견인서비스"}]},{"lat":"37.590031479","long":"127.14600846","items":[{"name":"영기획","tel":"02-959-2830","addr":"경기도 구리시 토평동 975-6번지 204호","category":"문화.취미 - 문화취미기타"}]},{"lat":"37.57901094","long":"127.14728925","items":[{"name":"영농조합법인지양","tel":"070-8818-2009","addr":"경기도 구리시 토평동 465-160","category":"문화.취미 - 화원"}]},{"lat":"37.585704441","long":"127.14792487","items":[{"name":"옛날보리밥집 부페","tel":"","addr":"경기도 구리시 토평동 282-3번지 1층","category":"일반휴게음식 - 일반한식"}]},{"lat":"37.583336628","long":"127.14648246","items":[{"name":"오백년누룽지백숙","tel":"031-556-6501","addr":"경기도 구리시 토평동 557-11번지 1층","category":"일반휴게음식 - 일반한식"}]},{"lat":"37.589896799","long":"127.14562324","items":[{"name":"오징어나라","tel":"031-555-7389","addr":"경기도 구리시 토평동 974-4번지 1층","category":"일반휴게음식 - 일반한식"}]},{"lat":"37.590004655","long":"127.14583857","items":[{"name":"오픈유어마우스","tel":"031-111-1111","addr":"경기도 구리시 토평동 975-7번지 102호","category":"일반휴게음식 - 서양음식"},{"name":"올드락","tel":"031-563-6782","addr":"경기도 구리시 토평동 975-7번지 103호","category":"일반휴게음식 - 서양음식"},{"name":"호듀옷장","tel":"031-0000-0000","addr":"경기도 구리시 토평동 975-7번지 1층 101호","category":"의류 - 정장"}]},{"lat":"37.582868519","long":"127.14615324","items":[{"name":"우리기업","tel":"031-568-8884","addr":"경기도 구리시 토평동 557-4번지","category":"기타 - 기계공구"}]},{"lat":"37.588661816","long":"127.14615302","items":[{"name":"우리라온어린이집[아이행복]","tel":"031-553-7433","addr":"경기도 구리시 토평동 959번지 상록아파트 502동 101호","category":"학원 - 유아원"}]},{"lat":"37.580562893","long":"127.14542428","items":[{"name":"우성창고","tel":"031-556-2002","addr":"경기도 구리시 토평동 526-2번지","category":"용역 서비스 - 보관및 창고업"}]},{"lat":"37.590229089","long":"127.14650702","items":[{"name":"유다","tel":"","addr":"경기도 구리시 토평동 976-1번지 1층","category":"일반휴게음식 - 일식·회집"}]},{"lat":"37.585146848","long":"127.14709731","items":[{"name":"이디야커피 구리벌말점","tel":"031-555-7277","addr":"경기도 구리시 토평동 614-4번지","category":"일반휴게음식 - 서양음식"}]},{"lat":"37.592116067","long":"127.15062079","items":[{"name":"이레종합상사","tel":"031-565-0948","addr":"경기도 구리시 토평동 1002-10번지 1층","category":"건축자재 - 인테리어전문"},{"name":"이삭토스트 토평점","tel":"031-553-6320","addr":"경기도 구리시 토평동 1002-10번지","category":"일반휴게음식 - 스넥"}]},{"lat":"37.589815875","long":"127.14548722","items":[{"name":"이마트24 구리토평점","tel":"","addr":"경기도 구리시 토평동 974-5번지 1층","category":"유통업 영리 - 편 의 점"},{"name":"한미음향","tel":"031-568-6767","addr":"경기도 구리시 토평동 974-5번지","category":"전기제품 - 가전제품"}]},{"lat":"37.590587233","long":"127.14834195","items":[{"name":"전주콩나물국밥","tel":"031-556-7793","addr":"경기도 구리시 토평동 966번지 진성프라자빌딩","category":"일반휴게음식 - 일반한식"}]},{"lat":"37.593142071","long":"127.15150601","items":[{"name":"정육식당 소와 돼지","tel":"031-555-0901","addr":"경기도 구리시 토평동 1001-10번지","category":"음료식품 - 정육점"},{"name":"정육식당소와돼지","tel":"031-555-0901","addr":"경기도 구리시 토평동 1001-10번지","category":"일반휴게음식 - 일반한식"}]},{"lat":"37.585918445","long":"127.14229836","items":[{"name":"정전기협회한국지부(KOREA CHAPTER ESD)","tel":"031-750-9200","addr":"경기도 구리시 토평동 955번지 토평마을e편한세상 107동 304호","category":"회원제형태 - 학원"}]},{"lat":"37.586731039","long":"127.14834577","items":[{"name":"조이점프","tel":"031-565-7600","addr":"경기도 구리시 토평동 275-4번지 3층","category":"일반휴게음식 - 일반한식"}]},{"lat":"37.583676308","long":"127.14867947","items":[{"name":"주식회사 대원개발","tel":"031-565-8100","addr":"경기도 구리시 토평동 447-1번지","category":"건축자재 - 인테리어전문"}]},{"lat":"37.580706124","long":"127.15342849","items":[{"name":"주식회사 월드조명","tel":"031-558-9601","addr":"경기도 구리시 토평동 44-3번지","category":"건축자재 - 조명기구"}]},{"lat":"37.585647211","long":"127.15048347","items":[{"name":"주식회사 지스타일","tel":"031-558-7409","addr":"경기도 구리시 토평동 378-1번지","category":"서적문구 - 완구점"}]},{"lat":"37.579842566","long":"127.15233995","items":[{"name":"주식회사코모레비","tel":"031-568-1148","addr":"경기도 구리시 토평동 458-1번지 나동","category":"신변잡화 - 기념품점"}]},{"lat":"37.585621774","long":"127.14920406","items":[{"name":"준마트","tel":"031-565-7880","addr":"경기도 구리시 토평동 304번지 1층","category":"유통업 영리 - 슈퍼마켓"},{"name":"크로스헤어","tel":"031-555-4940","addr":"경기도 구리시 토평동 304번지","category":"보건위생 - 미용원"}]},{"lat":"37.580531052","long":"127.1419034","items":[{"name":"준연서","tel":"031-565-8808","addr":"경기도 구리시 토평동 516","category":"건축자재 - 목재·석재·철물"}]},{"lat":"37.579012141","long":"127.15353829","items":[{"name":"지엘(GL)유소년FC","tel":"031-558-4667","addr":"경기도 구리시 토평동 462-1번지 외1필지","category":"학원 - 기타 교육기관"}]},{"lat":"37.589725147","long":"127.14600787","items":[{"name":"지직스","tel":"031-556-7371","addr":"경기도 구리시 토평동 977-17번지 1층","category":"일반휴게음식 - 일반한식"}]},{"lat":"37.593087584","long":"127.15184558","items":[{"name":"진 인테리어","tel":"031-557-7500","addr":"경기도 구리시 토평동 1001-8번지","category":"건축자재 - 인테리어전문"},{"name":"크린토피아","tel":"031-557-5005","addr":"경기도 구리시 토평동 1001-8번지 1층","category":"수리서비스 - 세탁소"}]},{"lat":"37.580952446","long":"127.14364763","items":[{"name":"진성물류","tel":"031-587-7884","addr":"경기도 구리시 토평동 516-5번지","category":"용역 서비스 - 보관및 창고업"}]},{"lat":"37.589732598","long":"127.14728731","items":[{"name":"참숯뒷통고기","tel":"031-562-1500","addr":"경기도 구리시 토평동 978-13번지 1층","category":"일반휴게음식 - 일반한식"}]},{"lat":"37.589731849","long":"127.14789872","items":[{"name":"청해진동태찜","tel":"031-566-7468","addr":"경기도 구리시 토평동 978-4번지 104호","category":"일반휴게음식 - 일반한식"}]},{"lat":"37.590814282","long":"127.14687047","items":[{"name":"춘향골 추어탕","tel":"031-566-5455","addr":"경기도 구리시 토평동 965-1번지 토평동L빌딩 104호","category":"일반휴게음식 - 일반한식"},{"name":"포유(4U)/서로좋은 주식회사","tel":"","addr":"경기도 구리시 토평동 965-1번지 L빌딩 102호","category":"일반휴게음식 - 서양음식"},{"name":"햇살온누리약국","tel":"031-568-8086","addr":"경기도 구리시 토평동 965-1번지 토평동L빌딩 101호","category":"약국 - 약국"}]},{"lat":"37.584622068","long":"127.14889643","items":[{"name":"카엠모터스","tel":"031-555-6323","addr":"경기도 구리시 토평동 290-1번지","category":"자동차정비 유지 - 카인테리어"}]},{"lat":"37.59050879","long":"127.14617921","items":[{"name":"카와","tel":"","addr":"경기도 구리시 토평동 972-8번지","category":"일반휴게음식 - 서양음식"}]},{"lat":"37.582480231","long":"127.14686574","items":[{"name":"카타리나꽃농원","tel":"031-555-7078","addr":"경기도 구리시 토평동 536-3","category":"문화.취미 - 화원"}]},{"lat":"37.580145092","long":"127.15531795","items":[{"name":"카페 시토스","tel":"031-556-1007","addr":"경기도 구리시 토평동 23-27번지 토평동밀알교회3층","category":"일반휴게음식 - 서양음식"}]},{"lat":"37.590507604","long":"127.14715294","items":[{"name":"카페&욜로~풋","tel":"031-558-8878","addr":"경기도 구리시 토평동 970-1번지 1층","category":"일반휴게음식 - 서양음식"}]},{"lat":"37.589509173","long":"127.14579233","items":[{"name":"카페977","tel":"031-1111-1111","addr":"경기도 구리시 토평동 977-2번지 1층","category":"일반휴게음식 - 서양음식"}]},{"lat":"37.584620823","long":"127.14247709","items":[{"name":"커피나무농원","tel":"070-8824-6288","addr":"경기도 구리시 토평동 591-79번지 실주소 688-1","category":"문화.취미 - 화원"}]},{"lat":"37.58006781","long":"127.1523404","items":[{"name":"코리아팜","tel":"031-569-5603","addr":"경기도 구리시 토평동 457번지","category":"농업 - 농기계"}]},{"lat":"37.586731958","long":"127.14759853","items":[{"name":"코스모자동차공업사","tel":"031-554-2770","addr":"경기도 구리시 토평동 621-6번지 자동차수리점","category":"자동차정비 유지 - 자동차정비"}]},{"lat":"37.579479766","long":"127.1542298","items":[{"name":"크로바밧데리","tel":"","addr":"경기도 구리시 토평동 35-1번지","category":"자동차정비 유지 - 자동차부품"}]},{"lat":"37.587452169","long":"127.14806412","items":[{"name":"크린업","tel":"031-554-0544","addr":"경기도 구리시 토평동 269-4번지 율림빌딩 1층","category":"수리서비스 - 세탁소"}]},{"lat":"37.590121851","long":"127.14578218","items":[{"name":"키노야","tel":"031-568-0701","addr":"경기도 구리시 토평동 975-8번지 1층","category":"일반휴게음식 - 일식·회집"}]},{"lat":"37.585983674","long":"127.14798202","items":[{"name":"타이어월드(구리점)","tel":"031-568-2202","addr":"경기도 구리시 토평동 618-2번지","category":"자동차정비 유지 - 자동차시트·타이어"}]},{"lat":"37.585565329","long":"127.15111732","items":[{"name":"태림목재상사","tel":"031-551-1452","addr":"경기도 구리시 토평동 378-7","category":"건축자재 - 목재·석재·철물"}]},{"lat":"37.585394697","long":"127.15067544","items":[{"name":"태신바이오사이언스/원격지","tel":"031-563-0199","addr":"경기도 구리시 토평동 378-9번지","category":"기타 - 기타 전문점"}]},{"lat":"37.58916967","long":"127.14340269","items":[{"name":"토평고등학교","tel":"031-560-6000","addr":"경기도 구리시 토평동 962번지 토평고등학교","category":"학원 - 초중고교육기관"},{"name":"토평고등학교 매점","tel":"031-560-6000","addr":"경기도 구리시 토평동 962번지 토평고등학교 1층","category":"음료식품 - 기타음료식품"}]},{"lat":"37.584255488","long":"127.14659744","items":[{"name":"토평영양탕","tel":"031-567-3695","addr":"경기도 구리시 토평동 564-5번지","category":"일반휴게음식 - 일반한식"}]},{"lat":"37.587253438","long":"127.14848265","items":[{"name":"토평점현대자동차","tel":"031-564-9940","addr":"경기도 구리시 토평동 270-21 1,2층","category":"자동차정비 유지 - 자동차정비"}]},{"lat":"37.589781117","long":"127.14442285","items":[{"name":"토평중학교","tel":"031-556-6194","addr":"경기도 구리시 토평동 963번지 토평중학교","category":"학원 - 초중고교육기관"}]},{"lat":"37.585615121","long":"127.14729068","items":[{"name":"토평철물건재","tel":"031-562-8190","addr":"경기도 구리시 토평동 613-12번지 1층","category":"건축자재 - 목재·석재·철물"},{"name":"필라펙토(Pilafecto) 고현정","tel":"","addr":"경기도 구리시 토평동 613-12번지 3층","category":"레저업소 - 헬스클럽"},{"name":"필라펙토(pilafecto)권세미","tel":"","addr":"경기도 구리시 토평동 613-12번지 3층","category":"레저업소 - 헬스클럽"},{"name":"한촌설렁탕 구리토평점","tel":"031-555-1982","addr":"경기도 구리시 토평동 613-12번지 2층","category":"일반휴게음식 - 일반한식"}]},{"lat":"37.587481165","long":"127.14645645","items":[{"name":"토평초등학교","tel":"031-563-5105","addr":"경기도 구리시 토평동 611-3번지 토평초등학교","category":"학원 - 초중고교육기관"},{"name":"토평초등학교병설유치원[아이행복]","tel":"031-563-8498","addr":"경기도 구리시 토평동 611-3번지 토평초등학교","category":"학원 - 유치원"}]},{"lat":"37.590147394","long":"127.14700505","items":[{"name":"통도야지","tel":"031-557-9295","addr":"경기도 구리시 토평동 976-4번지 1층","category":"일반휴게음식 - 일반한식"}]},{"lat":"37.593034651","long":"127.15095097","items":[{"name":"통문장토평영어교습소","tel":"031-555-3305","addr":"경기도 구리시 토평동 1002번지 102호","category":"회원제형태 - 학원"},{"name":"행복한밥상","tel":"031-554-1316","addr":"경기도 구리시 토평동 1002번지","category":"일반휴게음식 - 일반한식"}]},{"lat":"37.58514621","long":"127.1476181","items":[{"name":"파라나 구리점","tel":"031-557-8485","addr":"경기도 구리시 토평동 288번지","category":"보건위생 - 화장품"}]},{"lat":"37.58884351","long":"127.15917392","items":[{"name":"파란상자","tel":"031-555-8102","addr":"경기도 구리시 토평동 13-2번지","category":"직물 - 침구·수예점"}]},{"lat":"37.585288721","long":"127.14895434","items":[{"name":"파스타아미고","tel":"031-562-4357","addr":"경기도 구리시 토평동 298번지 1층,2층","category":"일반휴게음식 - 서양음식"}]},{"lat":"37.587063408","long":"127.14915028","items":[{"name":"팜스인터내셔날","tel":"","addr":"경기도 구리시 토평동 273번지 A동 118호","category":"레져용품 - 골프용품 전문점"}]},{"lat":"37.588615041","long":"127.14756821","items":[{"name":"푸른들과 초록이야기","tel":"031-568-1158","addr":"경기도 구리시 토평동 986번지","category":"음료식품 - 농·축·수산품"}]},{"lat":"37.593592273","long":"127.15173336","items":[{"name":"푸른유통","tel":"","addr":"경기도 구리시 토평동 1000-4번지 현하우스 402호","category":"음료식품 - 농·축·수산품"}]},{"lat":"37.584975094","long":"127.14756116","items":[{"name":"풍어촌","tel":"031-523-9045","addr":"경기도 구리시 토평동 289-4번지","category":"일반휴게음식 - 일반한식"}]},{"lat":"37.590311917","long":"127.14506923","items":[{"name":"하얀어린이집","tel":"031-551-3333","addr":"경기도 구리시 토평동 973번지 1층","category":"학원 - 유치원"}]},{"lat":"37.593701088","long":"127.15117875","items":[{"name":"할말있는 동태탕","tel":"031-566-0777","addr":"경기도 구리시 토평동 1000번지","category":"일반휴게음식 - 일반한식"}]},{"lat":"37.587811429","long":"127.14898191","items":[{"name":"행복디자인","tel":"031-555-5534","addr":"경기도 구리시 토평동 325-1번지 1층 일부","category":"건축자재 - 인테리어전문"}]},{"lat":"37.582367318","long":"127.14336726","items":[{"name":"현대목재합판상사","tel":"031-556-0033","addr":"경기도 구리시 토평동 549번지","category":"건축자재 - 기타건축자재"}]}]