[{"lat":"37.106999782","long":"126.81641153","items":[{"name":"농업회사법인 주식회사 크리켓팜","tel":"031-351-0344","addr":"경기도 화성시 우정읍 멱우리 33-5번지","category":"문화.취미 - 애완동물"}]},{"lat":"37.110144591","long":"126.80536703","items":[{"name":"농장직영","tel":"031-358-3874","addr":"경기도 화성시 우정읍 멱우리 147-9번지","category":"음료식품 - 정육점"},{"name":"버들로당구장","tel":"031-8059-2120","addr":"경기도 화성시 우정읍 멱우리 147-9번지 2층","category":"레저업소 - 당 구 장"},{"name":"버들로횟집","tel":"031-351-9288","addr":"경기도 화성시 우정읍 멱우리 147-9번지","category":"일반휴게음식 - 일식·회집"},{"name":"사거리한식부페","tel":"031-358-3874","addr":"경기도 화성시 우정읍 멱우리 147-9","category":"일반휴게음식 - 일반한식"}]},{"lat":"37.108116014","long":"126.80464103","items":[{"name":"대성스텐","tel":"031-351-5986","addr":"경기도 화성시 우정읍 멱우리 211-4 13/","category":"용역 서비스 - 기타용역서비스"}]},{"lat":"37.109999166","long":"126.80461362","items":[{"name":"두산지게차판매써비스","tel":"031-353-6260","addr":"경기도 화성시 우정읍 멱우리 147-16번지","category":"자동차판매 - 기타운송"}]},{"lat":"37.11536651","long":"126.81385947","items":[{"name":"에이원그레이팅","tel":"02-966-0661","addr":"경기도 화성시 우정읍 멱우리 126-10번지","category":"건축자재 - 기타건축자재"}]},{"lat":"37.110166153","long":"126.8130511","items":[{"name":"월드테크","tel":"070-7545-2351","addr":"경기도 화성시 우정읍 멱우리 122-26","category":"기타 - 기계공구"}]},{"lat":"37.093807973","long":"126.81616266","items":[{"name":"중국관","tel":"031-358-7500","addr":"경기도 화성시 우정읍 멱우리 523-5번지","category":"일반휴게음식 - 중국식"}]},{"lat":"37.10611077","long":"126.80711","items":[{"name":"창덕CDR","tel":"02-805-8111","addr":"경기도 화성시 우정읍 멱우리 226-4, 227-4","category":"신변잡화 - 기타잡화"}]},{"lat":"37.11008763","long":"126.80363459","items":[{"name":"형제카공업사","tel":"031-351-0572","addr":"경기도 화성시 우정읍 멱우리 206-2번지 1층","category":"자동차정비 유지 - 자동차정비"}]},{"lat":"37.098695816","long":"126.8188054","items":[{"name":"화성상사","tel":"031-351-7727","addr":"경기도 화성시 우정읍 멱우리 513-1번지","category":"자동차정비 유지 - 자동차부품"}]}]