[{"lat":"37.420578027","long":"126.99225162","items":[{"name":"(주)과천청산학원","tel":"02-507-0501","addr":"경기도 과천시 원문동 4번지 래미안슈르 4074~4080호","category":"회원제형태 - 학원"},{"name":"(주)래미안휘트니스","tel":"02-3678-9933","addr":"경기도 과천시 원문동 4","category":"회원제형태 - 레져업소"},{"name":"(주)신양이앤씨","tel":"02-3679-8574","addr":"경기도 과천시 원문동 4번지 래미안슈르 1층 1002호 , C상가","category":"전기제품 - 가전제품"},{"name":"(주)엘림텍","tel":"02-504-9100","addr":"경기도 과천시 원문동 4번지 래미안슈르 B동 지하 23-1호","category":"건축자재 - 기타건축자재"},{"name":"60계과천점","tel":"02-507-2528","addr":"경기도 과천시 원문동 4번지 래미안 슈르 B30호","category":"일반휴게음식 - 스넥"},{"name":"GS25과천래미안점","tel":"","addr":"경기도 과천시 원문동 4번지 1층 1086~1087호","category":"유통업 영리 - 편 의 점"},{"name":"GS25과천삼성점","tel":"","addr":"경기도 과천시 원문동 4번지 래미안슈르C상가 1005,1006호","category":"유통업 영리 - 편 의 점"},{"name":"감성실용음악학원","tel":"02-507-5079","addr":"경기도 과천시 원문동 4번지","category":"학원 - 예·체능계학원"},{"name":"고봉민김밥인","tel":"02-503-3503","addr":"경기도 과천시 원문동 4번지 래미안슈르상가1064,1065,1066호 B","category":"일반휴게음식 - 스넥"},{"name":"고봉민김밥인","tel":"02-503-3503","addr":"경기도 과천시 원문동 4번지 래미안슈르상가1064,1065,1066호 B","category":"음식점업 - 분식"},{"name":"과천서울이비인후과의원","tel":"02-502-8080","addr":"경기도 과천시 원문동 4번지 래미안슈르 상가동 3027호","category":"의원 - 의원"},{"name":"과천식자재마트","tel":"02-504-3378","addr":"경기도 과천시 원문동 4번지 레미안슈르 상가 지하1층","category":"소매업 - 슈퍼마켓"},{"name":"과천청산학원","tel":"02-507-0541","addr":"경기도 과천시 원문동 4번지 상가동 4061,4062,4063,4064호","category":"학원 - 보습학원"},{"name":"교촌치킨과천1호점","tel":"02-503-9952","addr":"경기도 과천시 원문동 4번지 래미안슈르아파트 상가 1023호","category":"일반휴게음식 - 스넥"},{"name":"국선생","tel":"02-504-9455","addr":"경기도 과천시 원문동 4번지 래미안슈르 상가 1032호","category":"일반휴게음식 - 일반한식"},{"name":"그린옵티마약국","tel":"02-503-1717","addr":"경기도 과천시 원문동 4번지 래미안슈르4상가 3025","category":"약국 - 약국"},{"name":"김동수음악학원","tel":"02-503-3237","addr":"경기도 과천시 원문동 4번지 래미안슈르 상가 A동 4층 4004-17호 ,18,19호","category":"학원 - 예·체능계학원"},{"name":"김재훈 태권도장","tel":"02-507-2210","addr":"경기도 과천시 원문동 4번지 래미안슈르 상가 D동 4001~4005호","category":"학원 - 예·체능계학원"},{"name":"나이스가이","tel":"","addr":"경기도 과천시 원문동 4번지 래미안슈르 A동 1층 1013호","category":"보건위생 - 미용원"},{"name":"낙원떡집","tel":"02-503-3397","addr":"경기도 과천시 원문동 4번지 래미안슈르 상가 A동 1층 1016호","category":"음료식품 - 제과점"},{"name":"네츄럴휴","tel":"02-502-8277","addr":"경기도 과천시 원문동 4번지 래미안슈르 A동 3층 3026호","category":"보건위생 - 화장품"},{"name":"대성 식자재마트","tel":"02-504-3378","addr":"경기도 과천시 원문동 4번지 레미안슈르상가 지하1층","category":"유통업 영리 - 슈퍼마켓"},{"name":"대치엠에스학원","tel":"02-504-3007","addr":"경기도 과천시 원문동 4번지 4003,4004","category":"학원 - 보습학원"},{"name":"더나은의원","tel":"031-1588-2623","addr":"경기도 과천시 원문동 4번지 래미안슈르 3층 3011호~3022호","category":"의원 - 의원"},{"name":"도도한네일","tel":"02-3678-8118","addr":"경기도 과천시 원문동 4번지 제상가 (6번지)동 1층 1014호","category":"보건위생 - 피부미용실"},{"name":"라헬","tel":"031-3418-6608","addr":"경기도 과천시 원문동 4번지 래미안 슈르 상가동 1025호","category":"의류 - 정장"},{"name":"락앤웍","tel":"02-3678-8288","addr":"경기도 과천시 원문동 4번지 래미안슈르D상가 3층 3001호","category":"일반휴게음식 - 중국식"},{"name":"래미안명품","tel":"02-507-0775","addr":"경기도 과천시 원문동 4번지 래미안슈르 상가 A동 1038호","category":"수리서비스 - 세탁소"},{"name":"래미안황금족발","tel":"070-7529-8843","addr":"경기도 과천시 원문동 4번지 B동 지하1층 23-1호","category":"일반휴게음식 - 일반한식"},{"name":"레이첼홈","tel":"070-7571-9908","addr":"경기도 과천시 원문동 4번지 래미안슈르 상가 1052호","category":"직물 - 침구·수예점"},{"name":"리드앤톡영어학원","tel":"","addr":"경기도 과천시 원문동 4번지 3023호,3024호","category":"학원 - 외국어학원"},{"name":"리디아","tel":"02-538-7503","addr":"경기도 과천시 원문동 4 래미안슈르B상가 1083-2호","category":"의류 - 정장"},{"name":"리쌤주산암산수학교습소","tel":"","addr":"경기도 과천시 원문동 4번지 래미안슈르 상가동 2층 2029호","category":"학원 - 보습학원"},{"name":"리틀라운지","tel":"02-502-0520","addr":"경기도 과천시 원문동 4번지 래미안상가B동1층1067호,1070호","category":"일반휴게음식 - 서양음식"},{"name":"맑음2(malgm2)","tel":"02-507-2567","addr":"경기도 과천시 원문동 4번지 래미안슈르 상가 B동 1067-2호","category":"일반휴게음식 - 스넥"},{"name":"모닝글로리","tel":"02-502-3727","addr":"경기도 과천시 원문동 4래미안종합상가1095,1096호","category":"서적문구 - 문구용품"},{"name":"물결한의원","tel":"02-3679-1075","addr":"경기도 과천시 원문동 4번지 래미안슈르B상가 2045호","category":"의원 - 한의원"},{"name":"미술나라 미술교습소","tel":"02-507-2833","addr":"경기도 과천시 원문동 4번지 래미안 슈르 상가 A동 4004-14호","category":"학원 - 예·체능계학원"},{"name":"바짝독서실","tel":"02-504-0912","addr":"경기도 과천시 원문동 4번지 래미안슈르 4층 4004호","category":"학원 - 독서실"},{"name":"바탕소창작소","tel":"02-502-5885","addr":"경기도 과천시 원문동 4 래미안슈르 상가-2056","category":"학원 - 예·체능계학원"},{"name":"법무사동고사무소","tel":"02-3418-0101","addr":"경기도 과천시 원문동 4번지 래미안슈르 상가 4045호","category":"용역 서비스 - 법률회계서비스(개인)"},{"name":"벨루카테이블","tel":"02-502-5018","addr":"경기도 과천시 원문동 4번지 래미안 슈르 A동 1007호","category":"일반휴게음식 - 서양음식"},{"name":"별영어원서학원","tel":"02-504-1149","addr":"경기도 과천시 원문동 4번지 래미안슈르상가동 B동4049-4052호","category":"학원 - 보습학원"},{"name":"병천순대국","tel":"070-4135-1233","addr":"경기도 과천시 원문동 4번지 래미안 슈르 A동 2층 2035호,2036호","category":"일반휴게음식 - 일반한식"},{"name":"비비헤어(b.b hair)","tel":"02-507-4325","addr":"경기도 과천시 원문동 4번지 래미안슈르B상가2층2053호","category":"보건위생 - 미용원"},{"name":"비타민","tel":"02-503-0502","addr":"경기도 과천시 원문동 4번지 래미안 슈르 상가(4번지)동 1층 1099-1100호","category":"음료식품 - 농·축·수산품"},{"name":"삼성119세탁소","tel":"02-507-7119","addr":"경기도 과천시 원문동 4번지 래미안종합상가B동1076","category":"수리서비스 - 세탁소"},{"name":"삼성공인중개사사무소","tel":"02-507-8888","addr":"경기도 과천시 원문동 4번지 래미안슈르A상가1층 1022호","category":"용역 서비스 - 부동산 중개·임대"},{"name":"상우약국","tel":"02-504-3121","addr":"경기도 과천시 원문동 4번지 래미안슈르 B동 3078호~3079호","category":"약국 - 약국"},{"name":"새과천공인중개사","tel":"02-502-0177","addr":"경기도 과천시 원문동 4 래미안슈르상가C동1013호","category":"용역 서비스 - 부동산 중개·임대"},{"name":"서울음악학원","tel":"02-502-5540","addr":"경기도 과천시 원문동 4 래미안슈르상가동2055,2056호","category":"학원 - 예·체능계학원"},{"name":"성모 미용실","tel":"02-502-7707","addr":"경기도 과천시 원문동 4번지 래미안슈르 B동 1102호","category":"보건위생 - 미용원"},{"name":"세레니끄과천점","tel":"02-3679-1580","addr":"경기도 과천시 원문동 4번지 D상가 2001호","category":"보건위생 - 화장품"},{"name":"세탁을위한사람들","tel":"070-7696-4800","addr":"경기도 과천시 원문동 4번지 1층 레미안슈르B상가","category":"수리서비스 - 세탁소"},{"name":"소소공방","tel":"02-6382-5238","addr":"경기도 과천시 원문동 4번지 래미안슈르상가층2050호","category":"문화.취미 - 문화취미기타"},{"name":"슈르 음악학원","tel":"02-502-7458","addr":"경기도 과천시 원문동 4번지 래미안슈르상가동 B동 2055,2056호","category":"학원 - 예·체능계학원"},{"name":"슈르동물병원","tel":"02-3418-7500","addr":"경기도 과천시 원문동 4번지 래미안슈르 상가 1010호","category":"기타의료기관 - 동물병원"},{"name":"슈르야채가게","tel":"02-502-3353","addr":"경기도 과천시 원문동 4번지 B동 상가 1055호","category":"음료식품 - 농·축·수산품"},{"name":"슈르어린이집[아이행복]","tel":"02-3678-6262","addr":"경기도 과천시 원문동 4번지","category":"학원 - 유아원"},{"name":"슈르케이학원","tel":"02-502-0579","addr":"경기도 과천시 원문동 4번지 래미안슈르 상가동 4층 4046호,4047호","category":"학원 - 보습학원"},{"name":"스위티 코리아","tel":"02-504-4009","addr":"경기도 과천시 원문동 4번지 래미안슈르 A동 1층 1033호","category":"유통업 영리 - 슈퍼마켓"},{"name":"스타일 미용실","tel":"02-507-5300","addr":"경기도 과천시 원문동 4번지 래미안슈프제 상가동 B27호 B28호","category":"보건위생 - 미용원"},{"name":"스테디커피","tel":"02-504-9231","addr":"경기도 과천시 원문동 4번지 래미안슈르상가 B동 1층 1089호","category":"일반휴게음식 - 서양음식"},{"name":"아이디센터","tel":"02-502-5454","addr":"경기도 과천시 원문동 4번지 래미안슈르 상가동 1층 1026호","category":"건축자재 - 인테리어전문"},{"name":"아트스토리중앙미술학원","tel":"02-503-0941","addr":"경기도 과천시 원문동 4번지 래미안슈르 상가동 2042호, 2043호, 2044호","category":"학원 - 예·체능계학원"},{"name":"알파공인중개사사무소","tel":"02-504-1100","addr":"경기도 과천시 원문동 4 래미안상가 C-1013","category":"용역 서비스 - 부동산 중개·임대"},{"name":"엠일공팔스터디클럽","tel":"070-8248-3515","addr":"경기도 과천시 원문동 4번지 래미안슈르상가동2001호~2002호 2001호","category":"회원제형태 - 학원"},{"name":"엠티","tel":"070-4410-3131","addr":"경기도 과천시 원문동 4번지 래미안슈르 상가동 1058호","category":"사무통신 - 통신기기"},{"name":"여우별 네일","tel":"02-3679-3367","addr":"경기도 과천시 원문동 4번지 레미안슈르 상가 A동 2027호","category":"보건위생 - 피부미용실"},{"name":"연세박상학의원","tel":"02-503-7581","addr":"경기도 과천시 원문동 4번지 래미안슈르상가 B동 2072호 ~ 2073호","category":"의원 - 의원"},{"name":"열두달작은강의국어교습소","tel":"02-470-2078","addr":"경기도 과천시 원문동 4번지 래미안슈르 상가동 1074호","category":"회원제형태 - 학원"},{"name":"영재개발놀이원","tel":"02-504-0533","addr":"경기도 과천시 원문동 4번지 래미안슈르상가 b동3층 영재개발놀이원","category":"서적문구 - 기타서적문구"},{"name":"오레시피과천원문점","tel":"02-504-5353","addr":"경기도 과천시 원문동 4번지 래미안슈르 상가 A동 1층 1004호","category":"음료식품 - 기타음료식품"},{"name":"오성설비","tel":"02-502-4846","addr":"경기도 과천시 원문동 4 삼성슈르B-1085","category":"수리서비스 - 기타수리서비스"},{"name":"오스플라워(Oh_s_flowers)","tel":"02-3679-5625","addr":"경기도 과천시 원문동 4번지 래미안슈르 B동 2074호","category":"문화.취미 - 문화취미기타"},{"name":"원조명","tel":"02-503-5888","addr":"경기도 과천시 원문동 4번지 래미안슈르 상가동 1101호","category":"건축자재 - 조명기구"},{"name":"위즈음악교습소","tel":"031-504-3332","addr":"경기도 과천시 원문동 4번지 래미안슈르 4005호","category":"학원 - 예·체능계학원"},{"name":"이윤희명품에스테틱","tel":"02-502-9993","addr":"경기도 과천시 원문동 4번지 상가동 2015-2017호","category":"보건위생 - 피부미용실"},{"name":"인스타일","tel":"031-504-2007","addr":"경기도 과천시 원문동 4번지 래미안슈르상가B동1077-1호","category":"의류 - 정장"},{"name":"입시스토리학원","tel":"02-573-0137","addr":"경기도 과천시 원문동 4번지 레미안슈르C 상가 상가동 4001호,4002호","category":"학원 - 외국어학원"},{"name":"전주반찬","tel":"02-503-2008","addr":"경기도 과천시 원문동 4번지 래미안슈르 1037호","category":"음료식품 - 기타음료식품"},{"name":"정희머리터","tel":"02-503-1084","addr":"경기도 과천시 원문동 4번지 래미안슈르 B동 1084호 상가","category":"보건위생 - 미용원"},{"name":"주식회사 두인컴","tel":"02-703-1079","addr":"경기도 과천시 원문동 4번지 렘안슈르 A동 3036호","category":"용역 서비스 - 소프트웨어"},{"name":"지우개","tel":"","addr":"경기도 과천시 원문동 4번지 래미안슈르 상가 B동 4081호","category":"보건위생 - 피부미용실"},{"name":"찌니손만두","tel":"02-502-5010","addr":"경기도 과천시 원문동 4번지 래미안슈르 상가 1021호","category":"일반휴게음식 - 일반한식"},{"name":"참치명가","tel":"02-504-3737","addr":"경기도 과천시 원문동 4번지 A동 4층 4002-2-7호","category":"일반휴게음식 - 일식·회집"},{"name":"치어스과천원문점","tel":"02-503-0098","addr":"경기도 과천시 원문동 4번지 래미안슈르 상가 B동 지하층 23-2호 1층 ,3,4호","category":"일반휴게음식 - 주점"},{"name":"캐롤","tel":"02-595-7020","addr":"경기도 과천시 원문동 4 래미안슈르상가 비-1078","category":"의류 - 정장"},{"name":"커피에반하다","tel":"070-4143-4865","addr":"경기도 과천시 원문동 4 래미안슈르 A-1029","category":"일반휴게음식 - 서양음식"},{"name":"컬투치킨&카페","tel":"02-504-9293","addr":"경기도 과천시 원문동 4번지 래미안슈르 A동 4층 4002호-9호","category":"일반휴게음식 - 스넥"},{"name":"케이매쓰수학학원","tel":"02-503-3845","addr":"경기도 과천시 원문동 4번지 상가 4003-4,4003-5, 4003-6","category":"학원 - 보습학원"},{"name":"케이지아발레하우스학원","tel":"02-507-8255","addr":"경기도 과천시 원문동 4번지 래미안 슈르 2001호","category":"학원 - 예·체능계학원"},{"name":"케이지이학원","tel":"02-3418-1236","addr":"경기도 과천시 원문동 4번지 래미안슈르제상가 2009호,2010호,2011호,2012호","category":"학원 - 보습학원"},{"name":"크라스플러스 과천독서실","tel":"02-3679-8209","addr":"경기도 과천시 원문동 4번지 래미안슈르 상가동 2층 2001-2007호","category":"학원 - 독서실"},{"name":"크라스플러스과천점","tel":"02-3679-8209","addr":"경기도 과천시 원문동 4번지 상가동 2층 래미안슈르 2001-2007호","category":"용역 서비스 - 사무서비스"},{"name":"크린토피아(과천3단지)","tel":"02-507-5559","addr":"경기도 과천시 원문동 4 래미안슈르 상가-1090","category":"수리서비스 - 세탁소"},{"name":"탑내과의원","tel":"02-502-8833","addr":"경기도 과천시 원문동 4번지 래미안슈르 상가동 제3054~3060호","category":"의원 - 의원"},{"name":"토로베이킹스튜디오&카페","tel":"031-341-9797","addr":"경기도 과천시 원문동 4번지 래미안슈르상가 B동 25호","category":"음료식품 - 제과점"},{"name":"토종한우","tel":"02-504-2977","addr":"경기도 과천시 원문동 4 삼성래미안 A-1041","category":"음료식품 - 정육점"},{"name":"플러쉬(PLUSH)","tel":"070-8866-6932","addr":"경기도 과천시 원문동 4번지 래미안슈르 상가 B동 2049호","category":"의류 - 정장"},{"name":"플레이팩토수학교습소","tel":"02-503-6382","addr":"경기도 과천시 원문동 4번지 래미안슈르 상가동 4048호","category":"학원 - 보습학원"},{"name":"피크닉","tel":"02-503-3659","addr":"경기도 과천시 원문동 4번지 래미안슈르상가A동 2029호","category":"일반휴게음식 - 스넥"},{"name":"핏 스튜디오(Fit studio)","tel":"02-503-3033","addr":"경기도 과천시 원문동 4번지 래미안 슈르 상가 A동 2층 2037호","category":"학원 - 기능학원"},{"name":"한가람약국","tel":"02-3679-0778","addr":"경기도 과천시 원문동 4번지 래미안 슈르 상가동 2층 2054호","category":"약국 - 약국"},{"name":"한방명의선인한의원","tel":"02-508-6077","addr":"경기도 과천시 원문동 4번지 래미안슈르4상가A동3034호~3044호","category":"의원 - 한의원"},{"name":"한우축산","tel":"02-502-6888","addr":"경기도 과천시 원문동 4번지 래미안슈르상가제1층 상가-1091","category":"소매업 - 식육"},{"name":"헤어락","tel":"02-503-1204","addr":"경기도 과천시 원문동 4번지 래미안 슈르 1030호","category":"보건위생 - 미용원"},{"name":"헤어에이드","tel":"02-503-9000","addr":"경기도 과천시 원문동 4번지 2층 2013,2014호","category":"보건위생 - 미용원"},{"name":"헤이미스","tel":"031-447-3000","addr":"경기도 과천시 원문동 4번지 래미안슈르상가 지층 B26호","category":"보건위생 - 미용원"},{"name":"호밀호두","tel":"031-507-5152","addr":"경기도 과천시 원문동 4번지 래미안 슈르 B동 1층 1408호","category":"일반휴게음식 - 일반한식"},{"name":"홍글리쉬(Honglish)","tel":"02-504-5988","addr":"경기도 과천시 원문동 4번지 래미안슈르 2025호","category":"서적문구 - 출판 및 인쇄물"}]},{"lat":"37.411828443","long":"126.98539647","items":[{"name":"60계과천점","tel":"02-507-2528","addr":"경기도 과천시 원문동 4번지 래미안 슈르 B27호","category":"음식점업 - 치킨"}]},{"lat":"37.457075605","long":"127.02727239","items":[{"name":"GS26과천래미안점","tel":"02-504-2031","addr":"경기도 과천시 원문동 4번지 래미안 슈르 상가동 1층 1086, 1087","category":"소매업 - 편의점"}]},{"lat":"37.459354971","long":"127.02805302","items":[{"name":"경희대석사태권도장","tel":"02-3418-8888","addr":"경기도 과천시 원문동 4래미안슈르상가,제2층2077-2081호","category":"교육서비스업 - 태권도장"},{"name":"설렘 꽃 작업실","tel":"02-3418-5545","addr":"경기도 과천시 원문동 4번지 래미안슈르 상가동 1층 1059호","category":"소매업 - 화초 및 산식물 소매업"},{"name":"슈르네일","tel":"02-502-9587","addr":"경기도 과천시 원문동 4번지 래미안슈르 상가 B동 1081호","category":"서비스 - 네일아트"},{"name":"자연인의집","tel":"02-503-3647","addr":"경기도 과천시 원문동 4","category":"소매업 - 생화, 금붕어"},{"name":"지혜의 샘 - 지샘논술","tel":"","addr":"경기도 과천시 원문동 4번지 래미안 슈르 B동 4층 73호","category":"교육서비스업 - 교습소"}]},{"lat":"37.428191537","long":"126.99247651","items":[{"name":"고래즉석떡볶이","tel":"02-502-1567","addr":"경기도 과천시 원문동 4번지 래미안슈르 상가 1031호","category":"음식점업 - 분식"},{"name":"슈르동물병원","tel":"02-3418-7500","addr":"경기도 과천시 원문동 4번지 래미안슈르 상가 1010호","category":"보건업 - 수의업"}]},{"lat":"37.447797006","long":"127.0167256","items":[{"name":"과천1호(굽네치킨)","tel":"02-503-9294","addr":"경기도 과천시 원문동 4번지 래미안슈르A상가 1011호","category":"음식점업 - 프랜차이즈음식점"},{"name":"물결한의원","tel":"02-3679-1075","addr":"경기도 과천시 원문동 4번지 래미안슈르B상가 2045호","category":"보건업 - 한의원"},{"name":"전주반찬","tel":"02-502-2008","addr":"경기도 과천시 원문동 4번지 래미안슈르A상가 1037호","category":"도소매 - 반찬"},{"name":"참치명가","tel":"02-504-3737","addr":"경기도 과천시 원문동 4번지 A동 4층 4002-2-7호","category":"음식점업 - 일식"}]},{"lat":"37.461272944","long":"127.03299305","items":[{"name":"과천서울이비인후과의원","tel":"02-502-8080","addr":"경기도 과천시 원문동 4번지 래미안슈르 상가동 3027호","category":"보건업 - 이비인후과"}]},{"lat":"37.452218998","long":"127.02829926","items":[{"name":"과천청산학원","tel":"02-507-0501","addr":"경기도 과천시 원문동 4번지 래미안슈르 상가동 4061,4062,4063,4064호","category":"교육서비스업 - 학원"}]},{"lat":"37.455411209","long":"127.00669076","items":[{"name":"과천콩국수","tel":"02-504-3071","addr":"경기도 과천시 원문동 4번지 래미안슈르 B동 4층 4045호","category":"음식점업 - 한식"}]},{"lat":"37.426749933","long":"126.9924993","items":[{"name":"교촌치킨(과천1호점)","tel":"02-503-9952","addr":"경기도 과천시 원문동 4번지 래미안슈르A상가 1023호","category":"음식점업 - 치킨, 호프"},{"name":"나이스가이","tel":"02-3679-1118","addr":"경기도 과천시 원문동 4번지 래미안슈르 A동 1층 1013호","category":"서비스 - 미용업"},{"name":"라헬","tel":"02-3418-6608","addr":"경기도 과천시 원문동 4번지 래미안슈르 상가 1025호","category":"소매업 - 의류"},{"name":"상우약국","tel":"02-504-3121","addr":"경기도 과천시 원문동 4번지 래미안슈르 B동 3078호~3079호","category":"소매업 - 약국"},{"name":"순수헤어","tel":"02-502-2365","addr":"경기도 과천시 원문동 4번지 래미안슈르 B 상가 1069","category":"서비스 - 두발미용업"},{"name":"오스플라워","tel":"02-3679-5625","addr":"경기도 과천시 원문동 4번지 래미안슈르 B동 2074호","category":"서비스 - 생화"},{"name":"월드공인중개사사무소","tel":"02-504-0333","addr":"경기도 과천시 원문동 4번지 래미안슈르A상가 1005호","category":"부동산업 - 부당산중개업"},{"name":"홍익떡집","tel":"02-757-3340","addr":"경기도 과천시 원문동 4번지 래미안슈르종합상가동1027호~1028호","category":"도소매 - 떡방앗간"}]},{"lat":"37.452158246","long":"126.99300436","items":[{"name":"그린옵티마약국","tel":"02-503-1717","addr":"경기도 과천시 원문동 4번지 래미안슈르4상가 3025호","category":"소매업 - 약국"}]},{"lat":"37.423911882","long":"126.99388927","items":[{"name":"김동수음악학원","tel":"02-503-3327","addr":"경기도 과천시 원문동 4번지 래미안슈르 상가 A동 4층 4004-17,18,19호","category":"서비스 - 음악"}]},{"lat":"37.427911942","long":"126.98964076","items":[{"name":"김재훈 태권도장","tel":"02-507-2210","addr":"경기도 과천시 원문동 4번지 래미안슈르D상가 상가 D동 4001~4005호","category":"교육서비스업 - 태권도"}]},{"lat":"37.437634433","long":"126.99855428","items":[{"name":"낙원떡집","tel":"02-503-3397","addr":"경기도 과천시 원문동 4번지 래미안슈르상가 A동 1층 1016호","category":"도소매 - 떡류"}]},{"lat":"37.421893612","long":"126.99364097","items":[{"name":"남산 과 수원","tel":"","addr":"경기도 과천시 원문동 4번지 래미안슈르 327동 801호","category":"용역 서비스 - 부동산 중개·임대"}]},{"lat":"37.4205780269","long":"126.9922516242","items":[{"name":"더나은의원","tel":"02-1588-2623","addr":"경기도 과천시 원문동 4번지 래미안 슈르 3층 3011호~3022호","category":"보건업 - 통증의학과"},{"name":"미소야","tel":"02-3679-5988","addr":"경기도 과천시 원문동 4,래미안슈르상가A상가1035-1036호","category":"일반휴게음식 - 스넥"},{"name":"삼점일(3.1)","tel":"02-914-0634","addr":"경기도 과천시 원문동 4 , 래미안슈르 상가 B동 1701호","category":"의류 - 정장"},{"name":"순수헤어","tel":"02-502-2365","addr":"경기도 과천시 원문동 4 래미안슈르 B 상가 1069","category":"보건위생 - 미용원"},{"name":"인스타일","tel":"02-504-2007","addr":"경기도 과천시 원문동 4번지 래미안슈르상가B동1077-1호","category":"소매업 - 의류, 잡화"}]},{"lat":"37.428470935","long":"126.99350459","items":[{"name":"락앤웍","tel":"02-3678-8288","addr":"경기도 과천시 원문동 4번지 래미안슈르D상가 3층 3001호","category":"음식점업 - 중국음식점업"},{"name":"애플부동산공인중개사사무소","tel":"02-503-6363","addr":"경기도 과천시 원문동 4번지 래미안슈르제상가 4번지 1층 1033호","category":"부동산업 - 부동산중개업"},{"name":"원조명","tel":"","addr":"경기도 과천시 원문동 4번지 래미안슈르 상가동 1101호","category":"도소매 - 조명"}]},{"lat":"37.457578964","long":"127.03252817","items":[{"name":"래미안명품","tel":"02-507-0775","addr":"경기도 과천시 원문동 4번지 래미안슈르 상가 A동 1038호","category":"서비스 - 세탁"}]},{"lat":"37.461606363","long":"127.03280104","items":[{"name":"래미안황금족발","tel":"02-502-9983","addr":"경기도 과천시 원문동 4번지 래미안 슈르상가 B동 지하1층","category":"음식점업 - 한식"}]},{"lat":"37.425803854","long":"126.99222829","items":[{"name":"리드앤톡영어학원","tel":"02-503-3750","addr":"경기도 과천시 원문동 4번지 래미안 슈르 3024호 3023호, 3024호","category":"교육서비스업 - 영어학원"},{"name":"리틀라운지","tel":"02-502-0520","addr":"경기도 과천시 원문동 4번지 래미안상가B동1층1057호,1070호","category":"음식점업 - 카페"}]},{"lat":"37.454384113","long":"127.00089281","items":[{"name":"리디아","tel":"02-538-7503","addr":"경기도 과천시 원문동 4번지 래미안슈르 B상가 1083-2호","category":"소매업 - 의류"}]},{"lat":"37.424245484","long":"127.00805617","items":[{"name":"맑음2(Malgm2)","tel":"02-507-2567","addr":"경기도 과천시 원문동 4번지 래미안슈르상가B동 1067-2","category":"음식점업 - 휴게음식"}]},{"lat":"37.432326698","long":"126.98825025","items":[{"name":"매일공인중개사사무소","tel":"02-503-1800","addr":"경기도 과천시 원문동 4번지 래미안슈르 상가(4번지)동 1층1045호","category":"부동산업 - 부동산중개업"},{"name":"플러쉬(PLUSH)","tel":"","addr":"경기도 과천시 원문동 4번지 래미안슈르 상가 B동 2049호","category":"소매업 - 의류"}]},{"lat":"37.463579379","long":"127.03346872","items":[{"name":"모닝글로리","tel":"02-502-3727","addr":"경기도 과천시 원문동 4번지 래미안종합상가1095, 1096호","category":"소매업 - 문구"}]},{"lat":"37.456912055","long":"127.03319475","items":[{"name":"목우촌 웰빙마을","tel":"02-3679-6363","addr":"경기도 과천시 원문동 4번지 래미안슈르상가B동1097호,1098호","category":"도소매 - 축산물판매, 즉석식품판매"}]},{"lat":"37.421533258","long":"126.99428495","items":[{"name":"미래클 가정 어린이집[아이행복]","tel":"02-503-6730","addr":"경기도 과천시 원문동 4번지 래미안슈르 328동 102호","category":"학원 - 유아원"}]},{"lat":"37.446581315","long":"126.99697166","items":[{"name":"미소야","tel":"02-3679-5988","addr":"경기도 과천시 원문동 4번지 래미안슈르상가A상가1035-1036호","category":"음식점업 - 분식"}]},{"lat":"37.453663262","long":"127.0069167","items":[{"name":"미주공인중개사사무소","tel":"02-503-8949","addr":"경기도 과천시 원문동 4번지 래미안슈르B상가 1063호","category":"서비스 - 부동산중개업"}]},{"lat":"37.434021393","long":"126.99807994","items":[{"name":"바짝독서실","tel":"02-504-0912","addr":"경기도 과천시 원문동 4번지 래미안슈르 A동 4층 4004호","category":"서비스 - 독서실운영"}]},{"lat":"37.424191356","long":"127.00941185","items":[{"name":"병천순대국","tel":"","addr":"경기도 과천시 원문동 4번지 래미안 슈르 A동 2층 2035호, 2036호","category":"음식점업 - 한식"}]},{"lat":"37.428083503","long":"126.99350464","items":[{"name":"비비헤어","tel":"02-507-4325","addr":"경기도 과천시 원문동 4번지 래미안슈르B상가2층2053호","category":"서비스 - 미용실"},{"name":"서울웰치과의원","tel":"02-507-2994","addr":"경기도 과천시 원문동 4, 래미안슈르C상가3층301~304호","category":"보건업 - 치과"},{"name":"컬투치킨&카페","tel":"02-504-9293","addr":"경기도 과천시 원문동 4번지 래미안슈르 A동 4층 4002호-9호","category":"음식점업 - 치킨"}]},{"lat":"37.448545446","long":"127.0097756","items":[{"name":"비타민","tel":"02-503-0502","addr":"경기도 과천시 원문동 4번지 래미안 슈르 상가(4번지)동 1층 1099-1100호","category":"도소매 - 야채, 청과"}]},{"lat":"37.427245524","long":"126.99295115","items":[{"name":"삼성119세탁소","tel":"02-507-7119","addr":"경기도 과천시 원문동 4번지 래미안종합상가B동1076","category":"서비스 - 세탁업"},{"name":"슈르점핑다이어트","tel":"","addr":"경기도 과천시 원문동 4번지 래미안슈르 B동 4층 4074호, 4075호","category":"도소매 - 건강기능식품"}]},{"lat":"37.452885568","long":"127.0290793","items":[{"name":"삼점일(3.1)","tel":"02-507-7331","addr":"경기도 과천시 원문동 4번지 래미안슈르 상가 B동 1071호","category":"소매업 - 의류"}]},{"lat":"37.446462575","long":"127.02327979","items":[{"name":"성심공인중개사사무소","tel":"02-504-6262","addr":"경기도 과천시 원문동 4번지 래미안슈르 A동 상가1014호","category":"부동산업 - 부동산중개업"}]},{"lat":"37.449662816","long":"126.99877961","items":[{"name":"세탁을위한사람들","tel":"070-7696-4800","addr":"경기도 과천시 원문동 4번지 레미안슈르B상가 1073호","category":"서비스 - 세탁편의점"}]},{"lat":"37.429444392","long":"127.00285936","items":[{"name":"솔로몬공인중개사사무소","tel":"02-503-7744","addr":"경기도 과천시 원문동 4번지 래미안슈르 상가D동 1층 1007호","category":"부동산업 - 공인중개사"}]},{"lat":"37.460850212","long":"127.0299411","items":[{"name":"슈르 음악학원","tel":"02-502-7458","addr":"경기도 과천시 원문동 4번지 래미안슈르 상가동 B동 2055,2056호","category":"교육서비스업 - 음악학원"}]},{"lat":"37.449770924","long":"126.99844057","items":[{"name":"스타일 미용실","tel":"02-507-5300","addr":"경기도 과천시 원문동 4번지 B1층 29호","category":"서비스 - 미용업"}]},{"lat":"37.449635537","long":"126.99419132","items":[{"name":"신세계공인중개사사무소","tel":"02-502-3717","addr":"경기도 과천시 원문동 4번지 래미안 종합상가 B동 1088호","category":"부동산업 - 부동산중개업"}]},{"lat":"37.463462111","long":"127.03399992","items":[{"name":"쌈촌과천점","tel":"","addr":"경기도 과천시 원문동 4 래미안슈르상가C동지하B1-B7","category":"음식점업 - 한식"}]},{"lat":"37.447300577","long":"127.02286188","items":[{"name":"아이엔아이스포츠클럽","tel":"02-3679-5044","addr":"경기도 과천시 원문동 4번지 래미안슈르상가 B동 4층 4065~4069호","category":"서비스 - 어린이생활체육"}]},{"lat":"37.460436026","long":"127.02872024","items":[{"name":"아트(ART)","tel":"","addr":"경기도 과천시 원문동 4번지 래미안 슈르 제상가동 1054호","category":"소매업 - 의류"}]},{"lat":"37.420713098","long":"126.99140434","items":[{"name":"아트앤하트(평안지국)","tel":"02-503-8932","addr":"경기도 과천시 원문동 4번지 래미안슈르 341동 1602호","category":"회원제형태 - 서적"}]},{"lat":"37.431075023","long":"126.99624978","items":[{"name":"여우별 네일","tel":"02-3679-3367","addr":"경기도 과천시 원문동 4번지 래미안슈르 상가 A동 2027호","category":"서비스 - 네일샵"}]},{"lat":"37.459299634","long":"127.03346697","items":[{"name":"연세박상학의원","tel":"02-503-7581","addr":"경기도 과천시 원문동 4번지 래미안슈르상가 B동 2072호~2073호","category":"보건업 - 내과"}]},{"lat":"37.455688686","long":"127.02405083","items":[{"name":"오레시피과천원문점","tel":"02-504-5353","addr":"경기도 과천시 원문동 4번지 래미안슈르 상가 1층 A-1004호","category":"소매업 - 반찬가게"}]},{"lat":"37.421181833","long":"126.99384441","items":[{"name":"은복J삼마","tel":"02-3679-0341","addr":"경기도 과천시 원문동 4번지 래미안슈르 329동 201호","category":"의류 - 정장"}]},{"lat":"37.452519048","long":"127.00125452","items":[{"name":"정희머리터","tel":"02-503-1084","addr":"경기도 과천시 원문동 4번지 래미안슈르 B동 1084호","category":"서비스 - 미용업"}]},{"lat":"37.426885033","long":"126.99194569","items":[{"name":"줌카롱","tel":"","addr":"경기도 과천시 원문동 4번지 래미안슈르상가 B동 3층 3081호","category":"음식점업 - 디저트"}]},{"lat":"37.419839009","long":"126.9902861","items":[{"name":"지우개","tel":"","addr":"경기도 과천시 원문동 4번지 래미안슈르 상가 B동 4081호","category":"서비스 - 피부미용"}]},{"lat":"37.435463037","long":"126.99916456","items":[{"name":"찌니손만두","tel":"02-502-5010","addr":"경기도 과천시 원문동 4번지 래미안슈르A상가 1021호","category":"음식점업 - 분식"}]},{"lat":"37.448545567","long":"126.99855365","items":[{"name":"치어스과천원문점","tel":"02-503-0098","addr":"경기도 과천시 원문동 4번지 래미안슈르상가지하1층B동23-2,3,4호","category":"음식점업 - 호프"}]},{"lat":"37.459850327","long":"127.0289461","items":[{"name":"커피에반하다","tel":"070-4143-4865","addr":"경기도 과천시 원문동 4번지 래미안슈르 A동 1029호","category":"음식점업 - 휴게음식"}]},{"lat":"37.427686932","long":"126.99200206","items":[{"name":"케이지아발레하우스학원","tel":"02-507-8255","addr":"경기도 과천시 원문동 4번지 래미안 슈르 2001호","category":"교육서비스업 - 발레학원"},{"name":"한가람약국","tel":"02-3679-0778","addr":"경기도 과천시 원문동 4번지 래미안 슈르 상가동 2층 2054호","category":"소매업 - 약국"}]},{"lat":"37.42891224","long":"126.99139179","items":[{"name":"케이지이학원","tel":"02-3418-1236","addr":"경기도 과천시 원문동 4번지 래미안슈르제상가 2009호, 2010호, 2011호, 2012호","category":"교육서비스업 - 학원"}]},{"lat":"37.434913459","long":"127.00531124","items":[{"name":"크라스플러스 과천독서실","tel":"02-3679-8209","addr":"경기도 과천시 원문동 4번지 래미안슈르 상가동 2층 2001-2007호","category":"서비스 - 독서실운영"}]},{"lat":"37.454356965","long":"127.00855552","items":[{"name":"크린토피아(과천3단지)","tel":"02-507-5559","addr":"경기도 과천시 원문동 4 래미안슈르 상가 B1090","category":"서비스 - 세탁중개"}]},{"lat":"37.424659801","long":"126.99508671","items":[{"name":"토종한우","tel":"02-504-2977","addr":"경기도 과천시 원문동 4번지 래미안슈르A상가 1041호","category":"소매업 - 식육"}]},{"lat":"37.461939718","long":"127.03285768","items":[{"name":"파리바게뜨(과천3단지점)","tel":"02-507-8287","addr":"경기도 과천시 원문동 4, 래미안슈르상가 1001, 1002, 1044호","category":"음식점업 - 제과점"}]},{"lat":"37.424272449","long":"127.00936667","items":[{"name":"한방명의선인한의원","tel":"02-508-6077","addr":"경기도 과천시 원문동 4번지 래미안슈르4상가A동3034호~3044호","category":"보건업 - 한의원"}]},{"lat":"37.422938499","long":"126.9905906","items":[{"name":"형제푸드","tel":"031-2644-0996","addr":"경기도 과천시 원문동 2번지","category":"일반휴게음식 - 일반한식"}]},{"lat":"37.447878761","long":"127.00872455","items":[{"name":"호밀호두","tel":"02-507-5152","addr":"경기도 과천시 원문동 4번지 래미안슈르 B동 1층 1048호","category":"음식점업 - 휴게음식업"}]},{"lat":"37.429876627","long":"126.99525564","items":[{"name":"화이트치과","tel":"02-502-8803","addr":"경기도 과천시 원문동 4번지 B동-2051.2052호","category":"보건업 - 치과"}]}]