[{"lat":"37.445941622","long":"127.00844188","items":[{"name":"(주)까사밤비니","tel":"02-3678-8975","addr":"경기도 과천시 과천동 140-21번지","category":"가구 - 기타가구"}]},{"lat":"37.454131848","long":"127.00216993","items":[{"name":"(주)도곡에스파뇰","tel":"02-502-5849","addr":"경기도 과천시 과천동 363-16번지","category":"음료식품 - 기타음료식품"},{"name":"(주)도곡에스파뇰/엘올리보","tel":"02-502-5849","addr":"경기도 과천시 과천동 363-16번지","category":"일반휴게음식 - 서양음식"}]},{"lat":"37.447941755","long":"126.99567194","items":[{"name":"(주)디자인그룹진","tel":"02-578-7144","addr":"경기도 과천시 과천동 538-7번지 2층","category":"건축자재 - 인테리어전문"}]},{"lat":"37.450996158","long":"126.99582987","items":[{"name":"(주)서울자연치유아카데미","tel":"02-6248-9788","addr":"경기도 과천시 과천동 461-3번지","category":"음료식품 - 기타음료식품"}]},{"lat":"37.454239962","long":"127.00144661","items":[{"name":"(주)세리포리아헬스케어","tel":"02-6380-5225","addr":"경기도 과천시 과천동 370-8번지 2층","category":"보건위생 - 화장품"},{"name":"GS25과천빌리지점","tel":"","addr":"경기도 과천시 과천동 370-8번지 1층","category":"유통업 영리 - 편 의 점"}]},{"lat":"37.450933044","long":"126.99514049","items":[{"name":"(주)아이.피.에스시스템","tel":"02-503-5411","addr":"경기도 과천시 과천동 471-2번지","category":"전기제품 - 기타전기제품"},{"name":"노걸대","tel":"02-504-0908","addr":"경기도 과천시 과천동 451-24번지","category":"음식점업 - 일반음식점"},{"name":"주식회사 피피티","tel":"02-503-5411","addr":"경기도 과천시 과천동 471-2번지","category":"전기제품 - 기타전기제품"}]},{"lat":"37.449329439","long":"126.99858751","items":[{"name":"(주)에이스텍인코리아","tel":"02-507-8272","addr":"경기도 과천시 과천동 523-7,1층103호~104호","category":"자동차정비 유지 - 자동차정비"},{"name":"네비월드","tel":"02-504-4600","addr":"경기도 과천시 과천동 523-7번지 가원건축 1층 102호","category":"자동차정비 유지 - 자동차부품"}]},{"lat":"37.451825267","long":"127.00061034","items":[{"name":"(주)엘케이오토","tel":"02-571-1151","addr":"경기도 과천시 과천동 449-9번지 A동","category":"자동차판매 - 수입자동차"}]},{"lat":"37.450770849","long":"126.99491448","items":[{"name":"(주)의회정책연구원","tel":"070-4411-7605","addr":"경기도 과천시 과천동 471-8번지 201호","category":"용역 서비스 - 사무서비스"}]},{"lat":"37.45751952","long":"127.00750464","items":[{"name":"(주)자전거와 사람들","tel":"02-503-9945","addr":"경기도 과천시 과천동 18-5번지","category":"레져용품 - 스포츠·레져용품"},{"name":"몽피오레코리아","tel":"02-796-5437","addr":"경기도 과천시 과천동 18-5번지 지하1층","category":"의류 - 정장"}]},{"lat":"37.447302263","long":"127.0035035","items":[{"name":"(주)조경코리아","tel":"070-4416-5089","addr":"경기도 과천시 과천동 230-10번지","category":"건축자재 - 인테리어전문"}]},{"lat":"37.448635522","long":"127.01017114","items":[{"name":"(주)터알","tel":"02-888-4020","addr":"경기도 과천시 과천동 133-1번지 2층","category":"서적문구 - 출판 및 인쇄물"}]},{"lat":"37.449662816","long":"126.99877961","items":[{"name":"(주)피앤씨하우징","tel":"02-3478-0042","addr":"경기도 과천시 과천동 458-5번지","category":"용역 서비스 - 종합용역"},{"name":"과천공업사","tel":"02-507-8581","addr":"경기도 과천시 과천동 458-5번지","category":"자동차정비 유지 - 자동차정비"},{"name":"리폼샵고리","tel":"02-504-5049","addr":"경기도 과천시 과천동 458-5번지 외2필지 B동 3층","category":"가구 - 기타가구"},{"name":"우리분식","tel":"02-502-2087","addr":"경기도 과천시 과천동 458-5번지 A동 1층","category":"일반휴게음식 - 스넥"},{"name":"해오름공인중개사사무소","tel":"02-504-9006","addr":"경기도 과천시 과천동 458-5번지 B동 1층","category":"음료식품 - 기타음료식품"}]},{"lat":"37.44990601","long":"127.00880381","items":[{"name":"333플라워","tel":"02-503-5333","addr":"경기도 과천시 과천동 112-5번지","category":"문화.취미 - 화원"}]},{"lat":"37.453852532","long":"127.00152573","items":[{"name":"B.K산업","tel":"02-503-9644","addr":"경기도 과천시 과천동 369-1번지","category":"기타 - 기타 전문점"}]},{"lat":"37.456381921","long":"127.02685398","items":[{"name":"GS25과천관문점","tel":"02-504-5747","addr":"경기도 과천시 과천동 513-4번지 1층","category":"소매업 - 편의점"}]},{"lat":"37.447968685","long":"126.99419151","items":[{"name":"GS25과천관문점","tel":"","addr":"경기도 과천시 과천동 513-4번지 1층","category":"유통업 영리 - 편 의 점"},{"name":"S포토","tel":"02-3418-1295","addr":"경기도 과천시 과천동 513-4번지","category":"광학제품 - 사진관"},{"name":"남태령 호프치킨","tel":"02-507-8292","addr":"경기도 과천시 과천동 513-4번지","category":"일반휴게음식 - 스넥"},{"name":"산사람들의 자연산야생상황버섯","tel":"02-8880-9049","addr":"경기도 과천시 과천동 513-4번지 203호","category":"음료식품 - 농·축·수산품"},{"name":"서울동물병원","tel":"02-503-7787","addr":"경기도 과천시 과천동 513-4번지 1층","category":"기타의료기관 - 동물병원"}]},{"lat":"37.433470865","long":"126.98741392","items":[{"name":"GS25과천빌리지","tel":"02-504-0138","addr":"경기도 과천시 과천동 370-8번지 1층","category":"소매업 - 편의점"}]},{"lat":"37.449770924","long":"126.99844057","items":[{"name":"GS25과천양지점","tel":"","addr":"경기도 과천시 과천동 458-7번지 102호","category":"유통업 영리 - 편 의 점"},{"name":"엄마손김밥왕돈까스","tel":"02-504-0048","addr":"경기도 과천시 과천동 458-7번지","category":"일반휴게음식 - 일반한식"},{"name":"핀다커피","tel":"070-8875-2500","addr":"경기도 과천시 과천동 458-7번지 101호","category":"일반휴게음식 - 일반한식"}]},{"lat":"37.449878946","long":"126.99633853","items":[{"name":"GYMSPORTKOREA","tel":"02-3476-1162","addr":"경기도 과천시 과천동 555-64, 517","category":"의류 - 기타의류"},{"name":"플라워테크","tel":"02-503-5166","addr":"경기도 과천시 과천동 555-64번지 온돌마루 2층 202호","category":"문화.취미 - 화원"}]},{"lat":"37.451690112","long":"127.00033911","items":[{"name":"K.ONE CAFE","tel":"031-111-1111","addr":"경기도 과천시 과천동 449-54번지 1층","category":"일반휴게음식 - 일반한식"}]},{"lat":"37.448797746","long":"127.00941398","items":[{"name":"가9넷","tel":"02-3476-4440","addr":"경기도 과천시 과천동 135-12번지","category":"가구 - 일반가구"}]},{"lat":"37.451744161","long":"127.00588816","items":[{"name":"가건대리석","tel":"02-502-5020","addr":"경기도 과천시 과천동 123-17번지","category":"건축자재 - 기타건축자재"}]},{"lat":"37.446581315","long":"126.99697166","items":[{"name":"강남 유리","tel":"02-581-2787","addr":"경기도 과천시 과천동 530-4번지","category":"건축자재 - 유리"}]},{"lat":"37.446905699","long":"126.99744627","items":[{"name":"강남공인중개사","tel":"02-502-2114","addr":"경기도 과천시 과천동 524-10번지 촌돼지마을 101호","category":"부동산업 - 부동산중개업"},{"name":"몬스터","tel":"","addr":"경기도 과천시 과천동 529-26번지","category":"문화.취미 - 화원"}]},{"lat":"37.449410553","long":"126.99931078","items":[{"name":"강남상회","tel":"02-503-6144","addr":"경기도 과천시 과천동 347-18번지 1층","category":"음료식품 - 기타음료식품"},{"name":"강남상회","tel":"02-503-6144","addr":"경기도 과천시 과천동 347-18번지","category":"음료식품 - 기타음료식품"},{"name":"면빨","tel":"02-504-7799","addr":"경기도 과천시 과천동 347-18번지","category":"일반휴게음식 - 일반한식"},{"name":"선암진미식당","tel":"070-8180-8186","addr":"경기도 과천시 과천동 347-18번지 강남슈퍼 101호","category":"일반휴게음식 - 일반한식"},{"name":"씨엠(CM)","tel":"02-3418-6032","addr":"경기도 과천시 과천동 347-18번지","category":"자동차정비 유지 - 자동차부품"}]},{"lat":"37.453302512","long":"126.9929477","items":[{"name":"갤러리 다선","tel":"02-502-6535","addr":"경기도 과천시 과천동 489-6번지","category":"문화.취미 - 화랑"}]},{"lat":"37.454266975","long":"127.00044074","items":[{"name":"건세바이오메디 주식회사","tel":"02-568-0361","addr":"경기도 과천시 과천동 371-1번지 그레이스 102호","category":"건강식품 - 기타건강식품"}]},{"lat":"37.450572847","long":"126.99941244","items":[{"name":"경마장SK세차","tel":"02-507-5102","addr":"경기도 과천시 과천동 455-16번지 1층","category":"자동차정비 유지 - 세차장"},{"name":"경마장주유소","tel":"02-507-5100","addr":"경기도 과천시 과천동 455-16번지","category":"연료판매점 - SK주유소"},{"name":"스피드메이트(경마장주유소점)","tel":"02-504-3335","addr":"경기도 과천시 과천동 455-16번지 경마장주유소","category":"자동차정비 유지 - 자동차정비"},{"name":"피자헛 과천우면점","tel":"02-3679-1588","addr":"경기도 과천시 과천동 455-16번지 2층","category":"일반휴게음식 - 서양음식"}]},{"lat":"37.440940958","long":"127.01032859","items":[{"name":"경마장오리집","tel":"02-502-7500","addr":"경기도 과천시 과천동 647-2번지","category":"일반휴게음식 - 일반한식"}]},{"lat":"37.442328641","long":"127.0076054","items":[{"name":"경마장주유소","tel":"02-507-5100","addr":"경기도 과천시 과천동 455-16번지","category":"도소매 - 휘발유 등"},{"name":"골드플라워","tel":"02-503-3184","addr":"경기도 과천시 과천동 655-1번지","category":"회원제형태 - 기타4"},{"name":"금비플라워","tel":"02-3486-6485","addr":"경기도 과천시 과천동 655-1번지","category":"문화.취미 - 화원"},{"name":"단지 꽃","tel":"02-3418-2369","addr":"경기도 과천시 과천동 655-1번지","category":"문화.취미 - 화원"},{"name":"민영플라워","tel":"02-504-9199","addr":"경기도 과천시 과천동 655-1번지","category":"문화.취미 - 화원"},{"name":"삼정건설","tel":"02-503-3183","addr":"경기도 과천시 과천동 655-1번지","category":"용역 서비스 - 기타용역서비스"},{"name":"지우플라워","tel":"02-929-5050","addr":"경기도 과천시 과천동 655-1번지","category":"문화.취미 - 화원"}]},{"lat":"37.445049676","long":"127.00735696","items":[{"name":"고향분재","tel":"02-503-6500","addr":"경기도 과천시 과천동 186-12번지","category":"문화.취미 - 화원"}]},{"lat":"37.454609362","long":"127.00081369","items":[{"name":"골플라워","tel":"02-3679-4663","addr":"경기도 과천시 과천동 372-8번지 반하우스 B동 201호","category":"문화.취미 - 화원"}]},{"lat":"37.4267499326","long":"126.9924993020","items":[{"name":"곰스넥","tel":"02-504-5922","addr":"경기도 과천시 과천동 새서울쇼핑 지하층 51호","category":"일반휴게음식 - 일반한식"}]},{"lat":"37.41654967","long":"126.98509038","items":[{"name":"과천愛살어리랏다공인중개사사무소","tel":"02-504-0905","addr":"경기도 과천시 과천동 148-1번지 1층","category":"부동산업 - 부동산중개업"}]},{"lat":"37.447797006","long":"127.0167256","items":[{"name":"과천공업사","tel":"02-507-8581","addr":"경기도 과천시 과천동 458-5번지","category":"서비스 - 자동차부분수리"},{"name":"면빨","tel":"02-504-7799","addr":"경기도 과천시 과천동 347-18번지","category":"음식점업 - 휴게음식"},{"name":"신가네광양불고기","tel":"02-502-5270","addr":"경기도 과천시 과천동 358-4번지","category":"음식점업 - 한식"}]},{"lat":"37.450302371","long":"127.01021651","items":[{"name":"과천농원","tel":"","addr":"경기도 과천시 과천동 103-31번지","category":"음료식품 - 농·축·수산품"}]},{"lat":"37.450969319","long":"127.00074599","items":[{"name":"과천농원","tel":"02-502-8387","addr":"경기도 과천시 과천동 454-18","category":"문화.취미 - 화원"}]},{"lat":"37.428804061","long":"126.99080431","items":[{"name":"과천농협선바위지점","tel":"02-507-6431","addr":"경기도 과천시 과천동 458-4번지","category":"도소매 -"}]},{"lat":"37.449797967","long":"126.99880221","items":[{"name":"과천농협선바위지점","tel":"02-507-6431","addr":"경기도 과천시 과천동 458-4번지","category":"유통업 비영리 - 농,축협 직영매장"}]},{"lat":"37.447905725","long":"126.99583016","items":[{"name":"과천모터스","tel":"02-502-2453","addr":"경기도 과천시 과천동 537번지","category":"자동차판매 - 이륜차판매"},{"name":"과천오토바이","tel":"02-503-2453","addr":"경기도 과천시 과천동 537번지","category":"수리서비스 - 레져용품수리"}]},{"lat":"37.451104452","long":"126.99992098","items":[{"name":"과천선바위재활용센터","tel":"02-507-8946","addr":"경기도 과천시 과천동 448번지 103호","category":"전기제품 - 가전제품"},{"name":"육대장 선바위점","tel":"02-3418-6787","addr":"경기도 과천시 과천동 448번지 1층","category":"일반휴게음식 - 일반한식"}]},{"lat":"37.427245524","long":"126.99295115","items":[{"name":"과천시 화훼협회","tel":"02-503-1118","addr":"경기도 과천시 과천동 358-4번지 1층","category":"도소매 -"},{"name":"내고향가마솥","tel":"02-3679-1174~5","addr":"경기도 과천시 과천동 135-3번지","category":"음식점업 - 한식"},{"name":"세련된닭장치쿱","tel":"02-503-7979","addr":"경기도 과천시 과천동 145-23번지 1층","category":"음식점업 - 치킨, 호프"},{"name":"아제타","tel":"02-503-3070","addr":"경기도 과천시 과천동 449-36번지","category":"음식점업 - 한식"}]},{"lat":"37.448077026","long":"126.99803383","items":[{"name":"과천점기아오토큐","tel":"02-503-6824","addr":"경기도 과천시 과천동 535-6번지","category":"자동차정비 유지 - 자동차정비"}]},{"lat":"37.450744034","long":"126.99931072","items":[{"name":"과천중앙식당","tel":"02-503-5363","addr":"경기도 과천시 과천동 457-1번지 1층","category":"일반휴게음식 - 일반한식"}]},{"lat":"37.442130442","long":"127.00705169","items":[{"name":"과천컨설팅","tel":"02-502-8993","addr":"경기도 과천시 과천동 448번지","category":"서비스 - 컨설팅"},{"name":"다솔농자재","tel":"02-3679-9787","addr":"경기도 과천시 과천동 657-2번지","category":"농업 - 기타농업관련"}]},{"lat":"37.450104033","long":"126.99386353","items":[{"name":"과천한우","tel":"02-504-0997","addr":"경기도 과천시 과천동 465-3번지 1층","category":"음료식품 - 정육점"},{"name":"마루엔데코","tel":"02-888-3311","addr":"경기도 과천시 과천동 465-3번지","category":"직물 - 카페트,커튼,천막,지물"}]},{"lat":"37.420578027","long":"126.99225162","items":[{"name":"과천한우","tel":"02-504-0997","addr":"경기도 과천시 과천동 465-3번지 1층","category":"소매업 - 축산물"},{"name":"낙지촌","tel":"02-3679-3335","addr":"경기도 과천시 과천동 28-18번지 1층","category":"음식점업 - 한식"},{"name":"마당놀이화로구이","tel":"02-504-0444","addr":"경기도 과천시 과천동 536-7 2층","category":"음식점업 - 일반음식점"},{"name":"명가공인중개사무소","tel":"02-504-4555","addr":"경기도 과천시 과천동 535-86번지","category":"부동산업 - 부동산중개업"},{"name":"선바위가마솥추어매운탕","tel":"02-502-5024","addr":"경기도 과천시 과천동 364-3번지 1층","category":"음식점업 - 한식"},{"name":"함지가든","tel":"02-503-5262","addr":"경기도 과천시 과천동 140-55","category":"음식점업 - 한식"},{"name":"해오름공인중개사사무소","tel":"02-504-9006","addr":"경기도 과천시 과천동 458-5번지 A동 1층","category":"부동산업 - 부동산중개업"}]},{"lat":"37.429354291","long":"127.00264469","items":[{"name":"광창공인중개사무소","tel":"02-3679-4989","addr":"경기도 과천시 과천동 147번지 1층","category":"부동산업 - 부동산중개업"}]},{"lat":"37.450077054","long":"127.0112223","items":[{"name":"광창배농원","tel":"02-502-5258","addr":"경기도 과천시 과천동 559","category":"음료식품 - 농·축·수산품"}]},{"lat":"37.448437349","long":"127.00935745","items":[{"name":"광창철물","tel":"02-502-2809","addr":"경기도 과천시 과천동 134-3번지","category":"건축자재 - 목재·석재·철물"}]},{"lat":"37.436796539","long":"127.00600056","items":[{"name":"국립과천과학관","tel":"02-3677-1366","addr":"경기도 과천시 과천동 706","category":"학원 - 기타 교육기관"},{"name":"국립과천과학관","tel":"02-3677-1366","addr":"경기도 과천시 과천동 706","category":"학원 - 기타 교육기관"}]},{"lat":"37.450104174","long":"126.99594296","items":[{"name":"그린OA","tel":"02-521-3416","addr":"경기도 과천시 과천동 462-10번지 102호","category":"사무통신 - 사무용 OA기기"},{"name":"신사와 나무","tel":"031-3679-3337","addr":"경기도 과천시 과천동 462-10번지","category":"문화.취미 - 화원"},{"name":"영진플라워","tel":"02-502-1863","addr":"경기도 과천시 과천동 462-10번지 102호","category":"문화.취미 - 화원"},{"name":"주식회사엔티엔","tel":"02-503-0939","addr":"경기도 과천시 과천동 462-10번지","category":"사무통신 - 컴퓨터"}]},{"lat":"37.44666248","long":"127.00705194","items":[{"name":"그린빌","tel":"02-507-2372","addr":"경기도 과천시 과천동 140-86","category":"건축자재 - 인테리어전문"}]},{"lat":"37.449545569","long":"126.99622555","items":[{"name":"길림인더스트리","tel":"02-567-7500","addr":"경기도 과천시 과천동 517-79번지 1층","category":"자동차정비 유지 - 자동차부품"}]},{"lat":"37.44699575","long":"126.99647439","items":[{"name":"김종석 Coffee","tel":"02-507-8178","addr":"경기도 과천시 과천동 541-4번지 1층","category":"일반휴게음식 - 스넥"}]},{"lat":"37.427939294","long":"126.99291716","items":[{"name":"김종석 Coffee","tel":"02-507-8178","addr":"경기도 과천시 과천동 541-4번지 1층","category":"음식점업 - 커피"},{"name":"다온뷰티","tel":"","addr":"경기도 과천시 과천동 555-107번지 1층","category":"소매업 - 화장품"},{"name":"봉평메밀막국수","tel":"02-504-0002","addr":"경기도 과천시 과천동 517-15번지 1층","category":"음식점업 - 막국수"},{"name":"우림원예가든센터","tel":"02-504-0445","addr":"경기도 과천시 과천동 345번지","category":"도소매 - 정원수, 종자"},{"name":"청계산화로구이","tel":"02-532-8181","addr":"경기도 과천시 과천동 189-15번지","category":"음식점업 - 한식"}]},{"lat":"37.452519048","long":"127.00125452","items":[{"name":"까페공이","tel":"070-7755-9372","addr":"경기도 과천시 과천동 358-4번지 2층","category":"일반휴게음식 - 서양음식"},{"name":"신가네불고기","tel":"02-502-5270","addr":"경기도 과천시 과천동 358-4번지","category":"일반휴게음식 - 일반한식"}]},{"lat":"37.41610735","long":"126.98025572","items":[{"name":"까페공이","tel":"070-7755-9372","addr":"경기도 과천시 과천동 358-4번지 2층","category":"음식점업 - 카페"}]},{"lat":"37.452302803","long":"127.00091547","items":[{"name":"꽃마루","tel":"02-3679-9787","addr":"경기도 과천시 과천동 449-7번지","category":"문화.취미 - 화원"}]},{"lat":"37.428470935","long":"126.99350459","items":[{"name":"꽃마루","tel":"02-3679-9787","addr":"경기도 과천시 과천동 449-7","category":"소매업 - 화원"},{"name":"에스엔케이 모터스(S&K MOTORS)","tel":"02-502-1119","addr":"경기도 과천시 과천동 145-23번지 1층","category":"서비스 - 자동차 정비업"}]},{"lat":"37.450996227","long":"127.00866828","items":[{"name":"꽃무지개","tel":"02-2057-0903","addr":"경기도 과천시 과천동 113-1","category":"문화.취미 - 화원"}]},{"lat":"37.443824392","long":"127.00413629","items":[{"name":"꽃밭에서","tel":"","addr":"경기도 과천시 과천동 207-4번지","category":"문화.취미 - 화원"}]},{"lat":"37.445383091","long":"127.00596701","items":[{"name":"나무21","tel":"02-503-1370","addr":"경기도 과천시 과천동 222-5번지","category":"문화.취미 - 화원"}]},{"lat":"37.456240004","long":"127.00952765","items":[{"name":"낙지촌","tel":"02-3649-3355","addr":"경기도 과천시 과천동 28-18번지 1층","category":"일반휴게음식 - 일반한식"}]},{"lat":"37.453662698","long":"127.01511052","items":[{"name":"난경농원","tel":"","addr":"경기도 과천시 과천동 80-1번지","category":"문화.취미 - 화원"}]},{"lat":"37.424777023","long":"127.00916335","items":[{"name":"난경농원","tel":"","addr":"경기도 과천시 과천동 80-1","category":"도소매 - 난재배, 분화"}]},{"lat":"37.426749933","long":"126.9924993","items":[{"name":"남태령 호프치킨","tel":"","addr":"경기도 과천시 과천동 513-4번지","category":"음식점업 - 간이음식점"},{"name":"주식회사 케이원스튜디오","tel":"","addr":"경기도 과천시 과천동 449-54번지 1층","category":"음식점업 - 기타음식점업, 공간임대"}]},{"lat":"37.450518487","long":"126.99378437","items":[{"name":"남태령원주추어탕","tel":"02-503-7779","addr":"경기도 과천시 과천동 468-5번지","category":"일반휴게음식 - 일반한식"}]},{"lat":"37.44854549","long":"127.00897322","items":[{"name":"내고향가마솥","tel":"02-3679-1174","addr":"경기도 과천시 과천동 135-3번지","category":"일반휴게음식 - 일반한식"}]},{"lat":"37.451636067","long":"127.00122063","items":[{"name":"노걸대","tel":"02-504-0908","addr":"경기도 과천시 과천동 451-24번지","category":"일반휴게음식 - 일반한식"}]},{"lat":"37.447662665","long":"127.00297236","items":[{"name":"농업회사법인 대성화훼종묘(주)","tel":"02-503-9094","addr":"경기도 과천시 과천동 260-8번지","category":"문화.취미 - 화원"}]},{"lat":"37.442049265","long":"127.0090292","items":[{"name":"느티나무집","tel":"02-502-5417","addr":"경기도 과천시 과천동 653-9번지","category":"일반휴게음식 - 일반한식"},{"name":"서해숯불민물장어","tel":"02-502-5417","addr":"경기도 과천시 과천동 653-9번지 1층","category":"일반휴게음식 - 일반한식"}]},{"lat":"37.449996153","long":"126.9979207","items":[{"name":"다온뷰티","tel":"","addr":"경기도 과천시 과천동 555-107번지 1층","category":"보건위생 - 화장품"}]},{"lat":"37.443743227","long":"127.00727778","items":[{"name":"대봉참숯갈비","tel":"","addr":"경기도 과천시 과천동 186-14번지 허브빌","category":"일반휴게음식 - 일반한식"},{"name":"분재원","tel":"02-503-7697","addr":"경기도 과천시 과천동 186-14번지 중일부","category":"문화.취미 - 화원"}]},{"lat":"37.448022884","long":"126.99633869","items":[{"name":"대흥건장","tel":"02-503-1360","addr":"경기도 과천시 과천동 535-11번지","category":"직물 - 카페트,커튼,천막,지물"},{"name":"짜임","tel":"02-504-0024","addr":"경기도 과천시 과천동 535-11번지","category":"가구 - 일반가구"}]},{"lat":"37.444770433","long":"127.00491604","items":[{"name":"데코가드닝","tel":"02-504-6633","addr":"경기도 과천시 과천동 221-5","category":"건축자재 - 인테리어전문"},{"name":"분재예가원","tel":"02-502-0280","addr":"경기도 과천시 과천동 221-5 221-6","category":"문화.취미 - 화원"}]},{"lat":"37.43271462","long":"126.99297302","items":[{"name":"도담양고기","tel":"02-504-3010","addr":"경기도 과천시 과천동 157번지","category":"음식점업 - 한식"}]},{"lat":"37.451104022","long":"127.01339229","items":[{"name":"도담양고기","tel":"02-504-3010","addr":"경기도 과천시 과천동 157번지","category":"일반휴게음식 - 일반한식"},{"name":"신화전자","tel":"02-504-3128","addr":"경기도 과천시 과천동 157번지 지층","category":"전기제품 - 가전제품"}]},{"lat":"37.448410227","long":"127.01086048","items":[{"name":"동다송","tel":"02-502-7800","addr":"경기도 과천시 과천동 145-5번지 2층","category":"일반휴게음식 - 일반한식"},{"name":"동다송2호","tel":"02-502-7800","addr":"경기도 과천시 과천동 145-5번지 2층","category":"일반휴게음식 - 일반한식"},{"name":"마고","tel":"02-502-7890","addr":"경기도 과천시 과천동 145-5번지","category":"일반휴게음식 - 일반한식"}]},{"lat":"37.428191537","long":"126.99247651","items":[{"name":"동다송","tel":"02-502-7800","addr":"경기도 과천시 과천동 145-5번지 2층","category":"음식점업 - 한식"}]},{"lat":"37.448905787","long":"127.01072492","items":[{"name":"동방식품","tel":"02-529-9700","addr":"경기도 과천시 과천동 146-4번지","category":"음료식품 - 기타음료식품"}]},{"lat":"37.443662216","long":"127.00355997","items":[{"name":"동산플라워","tel":"02-503-6708","addr":"경기도 과천시 과천동 292-1번지","category":"문화.취미 - 화원"}]},{"lat":"37.444662306","long":"127.00049756","items":[{"name":"동진농원","tel":"02-503-1701","addr":"경기도 과천시 과천동 279-8번지","category":"문화.취미 - 화원"}]},{"lat":"37.436075741","long":"127.00583104","items":[{"name":"두번째집","tel":"","addr":"경기도 과천시 과천동 700","category":"음료식품 - 기타음료식품"}]},{"lat":"37.457742568","long":"127.02616497","items":[{"name":"두번째집","tel":"02-503-9970","addr":"경기도 과천시 과천동 700","category":"음식점업 - 한식"}]},{"lat":"37.452933515","long":"127.00180829","items":[{"name":"뒷골면옥","tel":"02-502-6645","addr":"경기도 과천시 과천동 365-2번지","category":"일반휴게음식 - 일반한식"},{"name":"뒷골상회","tel":"02-502-2638","addr":"경기도 과천시 과천동 365-2번지","category":"음료식품 - 기타음료식품"},{"name":"제로존","tel":"02-502-9906","addr":"경기도 과천시 과천동 365-2번지","category":"자동차정비 유지 - 카인테리어"}]},{"lat":"37.454933002","long":"127.01610531","items":[{"name":"뒷골면옥","tel":"02-502-6645","addr":"경기도 과천시 과천동 365-2번지","category":"음식점업 - 한식"}]},{"lat":"37.435463037","long":"126.99916456","items":[{"name":"뒷골상회","tel":"02-502-2638","addr":"경기도 과천시 과천동 365-2번지","category":"소매업 - 잡화, 점포"},{"name":"선암진미식당","tel":"02-3679-7963","addr":"경기도 과천시 과천동 347-18번지 강남슈퍼 101호","category":"음식점업 - 한식"}]},{"lat":"37.438886873","long":"127.00571815","items":[{"name":"디노월드","tel":"02-504-4975","addr":"경기도 과천시 과천동 758번지 국립과천과학관 1층","category":"신변잡화 - 기념품점"},{"name":"영농조합법인 벌말","tel":"02-502-2999","addr":"경기도 과천시 과천동 758번지","category":"자동차정비 유지 - 주차장"}]},{"lat":"37.447824739","long":"126.99788694","items":[{"name":"디아그모토(DIAG. MOTTO)","tel":"02-6053-9553","addr":"경기도 과천시 과천동 535-45번지","category":"자동차정비 유지 - 자동차부품"}]},{"lat":"37.424353377","long":"126.99392311","items":[{"name":"뚜바비앙(Tout va bien)","tel":"02-504-7003","addr":"경기도 과천시 과천동 555-106번지","category":"소매업 - 일반가구, 인테리어소품"}]},{"lat":"37.450239338","long":"126.99619158","items":[{"name":"라혜","tel":"02-6207-0708","addr":"경기도 과천시 과천동 461-2번지","category":"일반휴게음식 - 서양음식"},{"name":"한국오리지널절권도체육관","tel":"2-555-8955","addr":"경기도 과천시 과천동 364-9번지 지층101호 102호","category":"서비스 - 무술"}]},{"lat":"37.460348716","long":"127.00011276","items":[{"name":"레베니","tel":"02-504-1488","addr":"경기도 과천시 과천동 401번지","category":"문화.취미 - 골동품점"}]},{"lat":"37.439328299","long":"127.00771821","items":[{"name":"로얄전자","tel":"02-585-2052","addr":"경기도 과천시 과천동 671번지","category":"전기제품 - 가전제품"}]},{"lat":"37.449968902","long":"126.99411217","items":[{"name":"르노삼성","tel":"02-503-2277","addr":"경기도 과천시 과천동 464번지","category":"자동차정비 유지 - 자동차부품"}]},{"lat":"37.449996215","long":"126.999695","items":[{"name":"르노삼성자동차과천점","tel":"02-503-2277","addr":"경기도 과천시 과천동 464번지","category":"도소매 - 카센터"},{"name":"코다리명가","tel":"02-504-9247","addr":"경기도 과천시 과천동 347-8번지 1층","category":"일반휴게음식 - 일반한식"}]},{"lat":"37.449275296","long":"126.99672282","items":[{"name":"리치까페","tel":"","addr":"경기도 과천시 과천동 521번지 1층","category":"일반휴게음식 - 서양음식"}]},{"lat":"37.448103961","long":"126.99611266","items":[{"name":"마당놀이","tel":"","addr":"경기도 과천시 과천동 536-1번지","category":"음료식품 - 정육점"},{"name":"코피","tel":"02-504-4430","addr":"경기도 과천시 과천동 536-1번지 1층","category":"일반휴게음식 - 서양음식"}]},{"lat":"37.447941781","long":"126.99611268","items":[{"name":"마당놀이화로구이","tel":"02-504-0444","addr":"경기도 과천시 과천동 536-7 2층","category":"일반휴게음식 - 일반한식"}]},{"lat":"37.449131273","long":"127.0052778","items":[{"name":"만복주차장","tel":"02-504-6999","addr":"경기도 과천시 과천동 555-36번지","category":"자동차정비 유지 - 주차장"}]},{"lat":"37.446914402","long":"126.99277903","items":[{"name":"만화이야기","tel":"","addr":"경기도 과천시 과천동 513-82번지 201호","category":"서적문구 - 출판 및 인쇄물"}]},{"lat":"37.451383292","long":"127.01383309","items":[{"name":"메가테크 주식회사","tel":"02-3418-5090","addr":"경기도 과천시 과천동 533-1번지","category":"서비스 - 자동차 전문수리"},{"name":"장갈비","tel":"02-6401-8292","addr":"경기도 과천시 과천동 156-36번지 1층","category":"일반휴게음식 - 일반한식"},{"name":"횡성축산정육점","tel":"02-573-8292","addr":"경기도 과천시 과천동 156-36번지 1층","category":"음료식품 - 정육점"}]},{"lat":"37.444995668","long":"127.00569578","items":[{"name":"명수원","tel":"02-504-4529","addr":"경기도 과천시 과천동 221-8","category":"문화.취미 - 화원"}]},{"lat":"37.45321283","long":"127.00263332","items":[{"name":"모리스가죽공방","tel":"02-111-1111","addr":"경기도 과천시 과천동 363-1번지 Moris leather studio C동 101호","category":"문화.취미 - 문화취미기타"}]},{"lat":"37.447356013","long":"126.99430459","items":[{"name":"모티브강","tel":"02-535-3274","addr":"경기도 과천시 과천동 549-8번지","category":"직물 - 침구·수예점"}]},{"lat":"37.428606056","long":"126.99314303","items":[{"name":"문방구 카페","tel":"070-7724-4500","addr":"경기도 과천시 과천동 576-20번지 2층 일부호","category":"음식점업 - 카페"},{"name":"일신건재철물","tel":"02-502-2752","addr":"경기도 과천시 과천동 555-109번지","category":"소매업 - 철물"}]},{"lat":"37.452158246","long":"126.99300436","items":[{"name":"문방구 카페","tel":"070-7724-4500","addr":"경기도 과천시 과천동 576-20번지 2층","category":"일반휴게음식 - 서양음식"}]},{"lat":"37.450023176","long":"126.99775118","items":[{"name":"미래엠엔에스","tel":"02-3679-6674","addr":"경기도 과천시 과천동 555-106번지","category":"기타 - 기계공구"},{"name":"세븐스데이인에덴","tel":"02-504-7003","addr":"경기도 과천시 과천동 555-106번지","category":"가구 - 일반가구"}]},{"lat":"37.449635537","long":"126.99419132","items":[{"name":"미래종합주방","tel":"02-502-8800","addr":"경기도 과천시 과천동 517-4번지","category":"주방용구 - 주방용구"},{"name":"양지슈퍼","tel":"02-503-0337","addr":"경기도 과천시 과천동 517-4번지","category":"유통업 영리 - 슈퍼마켓"},{"name":"파랑반지","tel":"02-503-0337","addr":"경기도 과천시 과천동 517-4번지 장수식당 202호","category":"수리서비스 - 세탁소"}]},{"lat":"37.451050086","long":"126.99388602","items":[{"name":"민달팽이자활협동조합","tel":"02-507-0888","addr":"경기도 과천시 과천동 468-1번지","category":"용역 서비스 - 종합용역"}]},{"lat":"37.424885203","long":"126.99786587","items":[{"name":"밀숲(과천점)","tel":"02-3679-4376","addr":"경기도 과천시 과천동 521-6번지 1층","category":"음식점업 - 한식"}]},{"lat":"37.449464577","long":"126.99828237","items":[{"name":"밀숲(과천점)","tel":"02-3679-4376","addr":"경기도 과천시 과천동 521-6번지 1층","category":"일반휴게음식 - 일반한식"}]},{"lat":"37.448356269","long":"126.99660989","items":[{"name":"본수원갈비집","tel":"02-502-8434","addr":"경기도 과천시 과천동 522-33번지","category":"일반휴게음식 - 갈비전문점"}]},{"lat":"37.446410272","long":"127.00344699","items":[{"name":"봄빛농장","tel":"02-6397-3678","addr":"경기도 과천시 과천동 231-5번지","category":"문화.취미 - 화원"}]},{"lat":"37.439823753","long":"127.0096957","items":[{"name":"봉덕칼국수/정봉덕 주식회사","tel":"02-502-7952","addr":"경기도 과천시 과천동 642번지","category":"일반휴게음식 - 일반한식"}]},{"lat":"37.449239112","long":"126.99439479","items":[{"name":"봉평메밀막국수","tel":"02-504-0002","addr":"경기도 과천시 과천동 517-15번지","category":"일반휴게음식 - 일반한식"}]},{"lat":"37.447716034","long":"126.99011191","items":[{"name":"부모사","tel":"02-507-1342","addr":"경기도 과천시 과천동 506-8번지","category":"기타 - 비영리/대상"}]},{"lat":"37.450635942","long":"127.00038435","items":[{"name":"비스트 카라지 Beast Carage","tel":"070-8866-7011","addr":"경기도 과천시 과천동 454-23번지","category":"자동차정비 유지 - 카인테리어"}]},{"lat":"37.449356367","long":"126.99636118","items":[{"name":"빛돌커뮤니케이션","tel":"070-7622-5414","addr":"경기도 과천시 과천동 517-16번지 1층","category":"문화.취미 - 애완동물"}]},{"lat":"37.443662179","long":"126.99983087","items":[{"name":"뿌리농원","tel":"02-504-1548","addr":"경기도 과천시 과천동 330-11번지","category":"문화.취미 - 화원"}]},{"lat":"37.443878415","long":"127.00611385","items":[{"name":"삼성","tel":"","addr":"경기도 과천시 과천동 210-8번지","category":"용역 서비스 - 기타용역서비스"},{"name":"아이작(ISAC)","tel":"02-504-0670","addr":"경기도 과천시 과천동 372-15번지 1층","category":"음식점업 - 커피"}]},{"lat":"37.446905824","long":"127.00266724","items":[{"name":"삼우옥션갤러리","tel":"","addr":"경기도 과천시 과천동 262-1번지","category":"문화.취미 - 골동품점"}]},{"lat":"37.448302119","long":"127.01069096","items":[{"name":"삼원상사","tel":"02-6326-5959","addr":"경기도 과천시 과천동 145-1번지","category":"자동차정비 유지 - 자동차부품"}]},{"lat":"37.431804909","long":"126.99771853","items":[{"name":"새과천농원","tel":"02-502-8387","addr":"경기도 과천시 과천동 454-18","category":"소매업 - 원예"},{"name":"우리식당","tel":"02-502-2087","addr":"경기도 과천시 과천동 458-5번지 A동 1층","category":"음식점업 - 분식"}]},{"lat":"37.447797614","long":"126.99599968","items":[{"name":"샤넬헤어","tel":"02-507-8510","addr":"경기도 과천시 과천동 536-8번지 1층","category":"보건위생 - 미용원"},{"name":"접시식당","tel":"02-3679-1145","addr":"경기도 과천시 과천동 536-8번지 1층 상가","category":"일반휴게음식 - 일반한식"},{"name":"주식회사 삼국무역","tel":"","addr":"경기도 과천시 과천동 536-8번지","category":"보건위생 - 화장품"}]},{"lat":"37.447878761","long":"127.00872455","items":[{"name":"서울화원","tel":"02-502-4494","addr":"경기도 과천시 과천동 139-17","category":"문화.취미 - 화원"}]},{"lat":"37.447716514","long":"126.99583018","items":[{"name":"서진오토월드","tel":"031-502-0904","addr":"경기도 과천시 과천동 536-9번지","category":"자동차정비 유지 - 자동차정비"},{"name":"파인트그라픽스","tel":"070-4146-4334","addr":"경기도 과천시 과천동 536-9번지 매직카","category":"용역 서비스 - 사무서비스"}]},{"lat":"37.440382352","long":"127.01007994","items":[{"name":"서해숯불민물장어","tel":"02-502-5417","addr":"경기도 과천시 과천동 653-9번지 1층","category":"음식점업 - 한식"},{"name":"터치아이 발달센터","tel":"02-504-3520","addr":"경기도 과천시 과천동 647-4번지","category":"학원 - 기타 교육기관"}]},{"lat":"37.453185794","long":"127.00169527","items":[{"name":"선바위가마솥추어매운탕","tel":"02-502-5024","addr":"경기도 과천시 과천동 364-3번지 1층","category":"일반휴게음식 - 일반한식"}]},{"lat":"37.443770303","long":"126.99997777","items":[{"name":"선진농원","tel":"02-111-1111","addr":"경기도 과천시 과천동 330-12번지","category":"문화.취미 - 화원"}]},{"lat":"37.458795947","long":"127.02988385","items":[{"name":"성원공인중개사사무소","tel":"02-3678-4989","addr":"경기도 과천시 과천동 144-4번지 102호","category":"부동산업 - 부동산중개업및컨설팅"}]},{"lat":"37.449770809","long":"126.99603341","items":[{"name":"성지교역","tel":"02-3679-4220","addr":"경기도 과천시 과천동 555-95번지","category":"기타 - 기타 전문점"}]},{"lat":"37.448275097","long":"127.01055534","items":[{"name":"세련된닭장치쿱","tel":"02-503-7979","addr":"경기도 과천시 과천동 145-23번지 1층","category":"일반휴게음식 - 스넥"},{"name":"에스엔케이 모터스(S&K MOTORS)","tel":"02-502-1119","addr":"경기도 과천시 과천동 145-23번지 1층","category":"자동차정비 유지 - 자동차부품"}]},{"lat":"37.416691402","long":"126.97303723","items":[{"name":"세이지스튜디오","tel":"02-504-6788","addr":"경기도 과천시 과천동 366-7번지 비원 2층","category":"서비스 - 사진촬영"}]},{"lat":"37.452744296","long":"127.00108499","items":[{"name":"세이지의 작은 사진관","tel":"031-1111-1111","addr":"경기도 과천시 과천동 366-7번지 2층 202호","category":"광학제품 - 사진관"},{"name":"씨유과천선바위점","tel":"02-502-0862","addr":"경기도 과천시 과천동 366-7번지 1층","category":"유통업 영리 - 편 의 점"}]},{"lat":"37.450608675","long":"127.01078161","items":[{"name":"소공화원","tel":"02-507-4257","addr":"경기도 과천시 과천동 96-2번지","category":"문화.취미 - 화원"},{"name":"행운농원","tel":"02-504-1225","addr":"경기도 과천시 과천동 96-2","category":"문화.취미 - 화원"}]},{"lat":"37.294300648","long":"127.63960828","items":[{"name":"소연커피","tel":"02-503-6338","addr":"경기도 과천시 과천동 368번지","category":"음식점업 - 커피"}]},{"lat":"37.453600244","long":"127.00091544","items":[{"name":"소연커피","tel":"02-503-6338","addr":"경기도 과천시 과천동 368번지","category":"일반휴게음식 - 서양음식"}]},{"lat":"37.458654848","long":"127.00061014","items":[{"name":"소토보체(sotto voce)","tel":"02-3678-9582","addr":"경기도 과천시 과천동 415-4번지 1층 2층","category":"일반휴게음식 - 서양음식"}]},{"lat":"37.45141033","long":"126.99203253","items":[{"name":"솔토","tel":"02-504-6868","addr":"경기도 과천시 과천동 503-4번지 솔토","category":"일반휴게음식 - 일반한식"}]},{"lat":"37.434246552","long":"126.99620431","items":[{"name":"솔토","tel":"02-504-6868","addr":"경기도 과천시 과천동 502-10번지 1층","category":"음식점업 - 한식"}]},{"lat":"37.4473561","long":"127.01017102","items":[{"name":"송다","tel":"02-503-8087","addr":"경기도 과천시 과천동 142-3번지 지층1층","category":"음료식품 - 기타음료식품"},{"name":"우드스튜디오 움","tel":"031-228-3233","addr":"경기도 과천시 과천동 142-3번지","category":"가구 - 일반가구"}]},{"lat":"37.443968527","long":"127.00563924","items":[{"name":"순창농원","tel":"","addr":"경기도 과천시 과천동 217-2번지","category":"문화.취미 - 화원"}]},{"lat":"37.45085192","long":"127.01114328","items":[{"name":"순천향화원","tel":"02-574-2907","addr":"경기도 과천시 과천동 106번지","category":"문화.취미 - 화원"},{"name":"은혜로플라워","tel":"02-575-3244","addr":"경기도 과천시 과천동 106번지","category":"문화.취미 - 화원"}]},{"lat":"37.453960653","long":"127.00158224","items":[{"name":"스타일(STYLE)","tel":"02-504-7802","addr":"경기도 과천시 과천동 370-10번지","category":"자동차정비 유지 - 카인테리어"}]},{"lat":"37.448275263","long":"126.99847456","items":[{"name":"스톨즈인터내셔널","tel":"02-3418-6400","addr":"경기도 과천시 과천동 524-25번지","category":"자동차정비 유지 - 자동차부품"}]},{"lat":"37.452798366","long":"127.0018874","items":[{"name":"스톨커피(STALL COFFEE)","tel":"02-503-2638","addr":"경기도 과천시 과천동 354-1번지","category":"일반휴게음식 - 서양음식"}]},{"lat":"37.457183321","long":"127.02915992","items":[{"name":"스톨커피(STALL COFFEE)","tel":"02-503-2638","addr":"경기도 과천시 과천동 354-1번지","category":"음식점업 - 커피숍"}]},{"lat":"37.447968751","long":"126.99514079","items":[{"name":"시립 과천어린이집[아이행복]","tel":"02-507-6283","addr":"경기도 과천시 과천동 538-9번지 시립과천어린이집","category":"학원 - 유아원"}]},{"lat":"37.452824948","long":"126.9925522","items":[{"name":"쌍용환경","tel":"02-504-0626","addr":"경기도 과천시 과천동 488번지","category":"건축자재 - 기타건축자재"}]},{"lat":"37.427470731","long":"126.99244271","items":[{"name":"쌍용환경","tel":"02-503-3143","addr":"경기도 과천시 과천동 488번지","category":"도소매 - 건축자재"},{"name":"오토라인","tel":"02-502-3579","addr":"경기도 과천시 과천동 144-12번지","category":"도소매 - 자동차 정비업"}]},{"lat":"37.44827514","long":"127.00986598","items":[{"name":"씨유과천광창점","tel":"031-898-6568","addr":"경기도 과천시 과천동 143-2번지 101호","category":"유통업 영리 - 편 의 점"}]},{"lat":"37.452356115","long":"127.01633089","items":[{"name":"아우토벨트","tel":"02-504-6219","addr":"경기도 과천시 과천동 533-2번지 1층","category":"서비스 - 자동차정비"}]},{"lat":"37.447662547","long":"126.99761573","items":[{"name":"아우토벨트(Auto Welt)","tel":"02-416-8295","addr":"경기도 과천시 과천동 533-2번지","category":"자동차정비 유지 - 자동차정비"}]},{"lat":"37.452158637","long":"127.00058773","items":[{"name":"아제타","tel":"02-503-3070","addr":"경기도 과천시 과천동 449-36번지","category":"일반휴게음식 - 일반한식"}]},{"lat":"37.451329703","long":"126.99997748","items":[{"name":"알비모터스코리아(주) 과천지점","tel":"02-504-9020","addr":"경기도 과천시 과천동 449-15번지","category":"자동차판매 - 수입자동차"}]},{"lat":"37.423686817","long":"127.00897121","items":[{"name":"양지공인중개사사무소","tel":"02-503-3388","addr":"경기도 과천시 과천동 464번지 B동 102호","category":"서비스 - 공인중개사"}]},{"lat":"37.427686932","long":"126.99200206","items":[{"name":"엄마손김밥왕돈까스","tel":"02-504-0048","addr":"경기도 과천시 과천동 458-7번지","category":"음식점업 - 분식"}]},{"lat":"37.44985205","long":"126.99952548","items":[{"name":"에스플라워","tel":"02-507-1900","addr":"경기도 과천시 과천동 347-20","category":"문화.취미 - 화원"}]},{"lat":"37.450770898","long":"126.99567167","items":[{"name":"에이치엘 사이언스 과천대리점","tel":"031-421-9904","addr":"경기도 과천시 과천동 461-9번지 느티나무동 1호","category":"건강식품 - 기타건강식품"}]},{"lat":"37.453492138","long":"127.00213604","items":[{"name":"에코웍스아이(주)","tel":"02-576-5975","addr":"경기도 과천시 과천동 363-5번지 1층","category":"여행 - 렌터카"}]},{"lat":"37.46051993","long":"127.00144649","items":[{"name":"엘리사의집","tel":"02-595-0016","addr":"경기도 과천시 과천동 390-1번지","category":"건강식품 - 기타건강식품"}]},{"lat":"37.463300005","long":"127.03371728","items":[{"name":"엘올리보","tel":"02-502-1156","addr":"경기도 과천시 과천동 363-16번지","category":"음식점업 - 양식"}]},{"lat":"37.446355742","long":"126.99233838","items":[{"name":"엠디에스이","tel":"070-8875-2500","addr":"경기도 과천시 과천동 513-41번지 솔미르","category":"회원제형태 - 기타4"}]},{"lat":"37.428299546","long":"126.9912789","items":[{"name":"여우골한소반","tel":"02-503-7124","addr":"경기도 과천시 과천동 522-18번지","category":"음식점업 - 한식"}]},{"lat":"37.4502122","long":"126.99449639","items":[{"name":"열리는 어린이집[아이행복]","tel":"02-507-1798","addr":"경기도 과천시 과천동 468-7번지","category":"학원 - 유아원"}]},{"lat":"37.446049872","long":"127.00330008","items":[{"name":"영농조합법인서울초화생산자조","tel":"","addr":"경기도 과천시 과천동 231-4번지","category":"문화.취미 - 화원"}]},{"lat":"37.441887236","long":"127.00430576","items":[{"name":"영인농원","tel":"031-422-6673","addr":"경기도 과천시 과천동 302-1번지","category":"문화.취미 - 화원"}]},{"lat":"37.449716917","long":"127.00558295","items":[{"name":"예림식물원(농원)","tel":"02-507-9822","addr":"경기도 과천시 과천동 136-17","category":"문화.취미 - 화원"}]},{"lat":"37.454356965","long":"127.00855552","items":[{"name":"예림원","tel":"02-504-3812","addr":"경기도 과천시 과천동 36-6번지","category":"문화.취미 - 화원"},{"name":"천지라온","tel":"02-502-5620","addr":"경기도 과천시 과천동 36-6번지","category":"문화.취미 - 화원"}]},{"lat":"37.447824613","long":"127.01030667","items":[{"name":"오토라인","tel":"02-502-3579","addr":"경기도 과천시 과천동 144-12번지","category":"자동차정비 유지 - 자동차정비"}]},{"lat":"37.456103046","long":"127.02460476","items":[{"name":"오토룩","tel":"02-503-2638","addr":"경기도 과천시 과천동 369-5번지","category":"음식점업 - 커피숍"}]},{"lat":"37.453906581","long":"127.00077981","items":[{"name":"오토룩","tel":"02-504-3033","addr":"경기도 과천시 과천동 369-5번지","category":"자동차정비 유지 - 자동차정비"}]},{"lat":"37.433606937","long":"126.99822685","items":[{"name":"오페뜨(과천선바위점)","tel":"02-722-4231","addr":"경기도 과천시 과천동 369-9번지 1층","category":"음식점업 - 커피"}]},{"lat":"37.453717384","long":"127.00169526","items":[{"name":"오페뜨과천선바위점","tel":"070-4923-3303","addr":"경기도 과천시 과천동 369-9번지 1층","category":"일반휴게음식 - 서양음식"}]},{"lat":"37.44810409","long":"127.0068373","items":[{"name":"오페라빈","tel":"0505-365-8572","addr":"경기도 과천시 과천동 140-25번지","category":"일반휴게음식 - 서양음식"},{"name":"주식회사에스브이앤피","tel":"02-712-2633","addr":"경기도 과천시 과천동 140-25번지","category":"신변잡화 - 기타잡화"}]},{"lat":"37.424191356","long":"127.00941185","items":[{"name":"오페라빈","tel":"070-8830-1003","addr":"경기도 과천시 과천동 140-25번지 1층","category":"음식점업 - 카페"}]},{"lat":"37.455411209","long":"127.00669076","items":[{"name":"온누리 장작구이","tel":"02-502-5293","addr":"경기도 과천시 과천동 14-11번지","category":"일반휴게음식 - 일반한식"}]},{"lat":"37.412775565","long":"126.99552847","items":[{"name":"온누리장작구이","tel":"02-502-5293","addr":"경기도 과천시 과천동 14-11번지 1층 2층","category":"음식점업 - 한식"}]},{"lat":"37.454104704","long":"127.00813733","items":[{"name":"올레플라워","tel":"02-502-8488","addr":"경기도 과천시 과천동 36-7번지","category":"문화.취미 - 화원"},{"name":"한승플라워","tel":"02-3418-6547","addr":"경기도 과천시 과천동 36-7번지 4호","category":"문화.취미 - 화원"}]},{"lat":"37.447770672","long":"126.99771743","items":[{"name":"와우모터스","tel":"02-503-5477","addr":"경기도 과천시 과천동 533-1번지","category":"자동차정비 유지 - 자동차정비"}]},{"lat":"37.449905997","long":"127.00905244","items":[{"name":"우리화원","tel":"02-537-3315","addr":"경기도 과천시 과천동 111-2","category":"문화.취미 - 화원"}]},{"lat":"37.449410574","long":"127.00007926","items":[{"name":"우림원예가든센타","tel":"02-504-0445","addr":"경기도 과천시 과천동 345번지","category":"문화.취미 - 화원"}]},{"lat":"37.448545446","long":"127.0097756","items":[{"name":"원일시스템도어","tel":"02-507-9877","addr":"경기도 과천시 과천동 133-15번지 101호","category":"건축자재 - 기타건축자재"}]},{"lat":"37.448464474","long":"127.00730066","items":[{"name":"유한플라워","tel":"02-503-3835","addr":"경기도 과천시 과천동 136-24번지","category":"문화.취미 - 화원"}]},{"lat":"37.443463914","long":"127.00733427","items":[{"name":"윤화원","tel":"02-503-7842","addr":"경기도 과천시 과천동 189-22번지","category":"문화.취미 - 화원"}]},{"lat":"37.450158295","long":"126.99708439","items":[{"name":"율리스","tel":"070-4117-1154","addr":"경기도 과천시 과천동 555-69번지","category":"문화.취미 - 민예·공예품"}]},{"lat":"37.429047367","long":"126.99114321","items":[{"name":"이강산숯불닭갈비","tel":"02-3678-8595","addr":"경기도 과천시 과천동 140-11번지","category":"음식점업 - 한식"},{"name":"제니스베이커리","tel":"02-504-3508","addr":"경기도 과천시 과천동 555-98번지 1층","category":"음식점업 - 제과점"}]},{"lat":"37.44838339","long":"127.00714244","items":[{"name":"이강산숯불닭갈비","tel":"031-111-1111","addr":"경기도 과천시 과천동 140-11번지 1층","category":"일반휴게음식 - 일반한식"}]},{"lat":"37.450940272","long":"127.02482929","items":[{"name":"이레식당","tel":"02-507-6401","addr":"경기도 과천시 과천동 475-4번지","category":"음식점업 - 한식"}]},{"lat":"37.451356507","long":"126.99502743","items":[{"name":"이레식당","tel":"02-507-6410","addr":"경기도 과천시 과천동 475-4번지","category":"일반휴게음식 - 일반한식"},{"name":"이레출장부페","tel":"02-507-6401","addr":"경기도 과천시 과천동 475-4번지","category":"일반휴게음식 - 일반한식"}]},{"lat":"37.451023398","long":"127.00310798","items":[{"name":"이레플라워","tel":"02-3291-1501","addr":"경기도 과천시 과천동 349-2","category":"문화.취미 - 화원"}]},{"lat":"37.447941888","long":"126.99833897","items":[{"name":"이탈로모토 (유)","tel":"02-502-1946","addr":"경기도 과천시 과천동 527-5번지","category":"자동차판매 - 이륜차판매"}]},{"lat":"37.438102953","long":"126.99849776","items":[{"name":"이화수전통육개장","tel":"02-502-9995","addr":"경기도 과천시 과천동 28-19번지","category":"음식점업 - 한식"}]},{"lat":"37.45607783","long":"127.00941462","items":[{"name":"이화수전통육개장 경기과천점","tel":"02-502-9995","addr":"경기도 과천시 과천동 28-19번지","category":"일반휴게음식 - 일반한식"}]},{"lat":"37.449662809","long":"126.99858749","items":[{"name":"일신건재철물","tel":"02-502-2752","addr":"경기도 과천시 과천동 555-109번지","category":"기타 - 기계공구"},{"name":"하람","tel":"02-503-2751","addr":"경기도 과천시 과천동 555-109번지","category":"건축자재 - 목재·석재·철물"}]},{"lat":"37.451491391","long":"127.01405913","items":[{"name":"일호농원","tel":"02-834-3726","addr":"경기도 과천시 과천동 156-7번지","category":"문화.취미 - 화원"}]},{"lat":"37.450239185","long":"126.99388611","items":[{"name":"자동차세상","tel":"02-502-5502","addr":"경기도 과천시 과천동 465","category":"자동차정비 유지 - 자동차부품"}]},{"lat":"37.424299524","long":"127.00849677","items":[{"name":"자동차세상","tel":"02-502-5502","addr":"경기도 과천시 과천동 370-4번지 매일유업 상가 1층 1호","category":"도소매 - 자동차용품"}]},{"lat":"37.452383871","long":"126.99986442","items":[{"name":"자연사랑어린이집[아이행복]","tel":"02-503-3400","addr":"경기도 과천시 과천동 449-3번지","category":"학원 - 유아원"}]},{"lat":"37.447410283","long":"126.99799997","items":[{"name":"장스포츠","tel":"02-502-6366","addr":"경기도 과천시 과천동 528-9번지","category":"레져용품 - 스포츠·레져용품"}]},{"lat":"37.454384113","long":"127.00089281","items":[{"name":"정감식탁","tel":"02-503-6391","addr":"경기도 과천시 과천동 370-1번지 1층","category":"일반휴게음식 - 일반한식"}]},{"lat":"37.459354971","long":"127.02805302","items":[{"name":"정감식탁","tel":"02-503-6391","addr":"경기도 과천시 과천동 370-1번지 1층","category":"음식점업 - 한식"}]},{"lat":"37.453663262","long":"127.0069167","items":[{"name":"정글트리","tel":"02-3418-4722","addr":"경기도 과천시 과천동 40-2번지","category":"문화.취미 - 화원"}]},{"lat":"37.450077174","long":"126.99647413","items":[{"name":"제니스베이커리","tel":"02-504-3508","addr":"경기도 과천시 과천동 555-98번지 1층","category":"음료식품 - 제과점"}]},{"lat":"37.453879482","long":"127.00747051","items":[{"name":"제이네운동장","tel":"070-4763-5713","addr":"경기도 과천시 과천동 36-14번지","category":"문화.취미 - 애완동물"}]},{"lat":"37.45023929","long":"126.99538919","items":[{"name":"제이비이앤씨","tel":"02-503-8029","addr":"경기도 과천시 과천동 462-5번지","category":"용역 서비스 - 기타용역서비스"}]},{"lat":"37.444247869","long":"127.00302886","items":[{"name":"제주삼다수 관악대리점","tel":"02-504-8939","addr":"경기도 과천시 과천동 291-12번지 외1필지","category":"유통업 영리 - 기타유통업"}]},{"lat":"37.451969449","long":"127.00299497","items":[{"name":"주)한일식물원","tel":"02-507-0012","addr":"경기도 과천시 과천동 350-1번지","category":"문화.취미 - 화원"}]},{"lat":"37.442130422","long":"127.00758279","items":[{"name":"주식회사 골프앤스포츠","tel":"031-425-9462","addr":"경기도 과천시 과천동 657-11번지","category":"레져용품 - 골프용품 전문점"}]},{"lat":"37.44766252","long":"126.99702808","items":[{"name":"주식회사 드론뷰텍","tel":"02-578-7144","addr":"경기도 과천시 과천동 535-16번지 2층 206호","category":"광학제품 - 기타광학제품"}]},{"lat":"37.448131013","long":"126.9964969","items":[{"name":"주식회사 정가네 한상","tel":"02-1111-1111","addr":"경기도 과천시 과천동 535-86번지","category":"일반휴게음식 - 일반한식"},{"name":"지엠대우과천정비","tel":"02-3678-8255","addr":"경기도 과천시 과천동 535-86번지","category":"자동차정비 유지 - 자동차정비"}]},{"lat":"37.44530204","long":"127.00241863","items":[{"name":"주식회사 제이엔씨","tel":"02-502-5880","addr":"경기도 과천시 과천동 285번지","category":"레져용품 - 스포츠·레져용품"}]},{"lat":"37.425353203","long":"126.99069188","items":[{"name":"주식회사 좋구먼","tel":"02-502-0999","addr":"경기도 과천시 과천동 28-14번지","category":"음식점업 - 한식"}]},{"lat":"37.45633009","long":"127.00977631","items":[{"name":"주식회사 좋구먼","tel":"02-502-0999","addr":"경기도 과천시 과천동 28-14번지","category":"일반휴게음식 - 일반한식"}]},{"lat":"37.457273984","long":"127.02649259","items":[{"name":"주식회사과천엘피지충전소","tel":"02-3418-7100","addr":"경기도 과천시 과천동 30","category":"도소매 - 차량용가스충전"}]},{"lat":"37.455573223","long":"127.01021702","items":[{"name":"주식회사과천엘피지충전소","tel":"02-3418-7100","addr":"경기도 과천시 과천동 30번지","category":"연료판매점 - E1가스충전소"}]},{"lat":"37.453933613","long":"127.00089283","items":[{"name":"주식회사엠듀","tel":"02-555-0163","addr":"경기도 과천시 과천동 369-10번지","category":"회원제형태 - 학원"}]},{"lat":"37.450158274","long":"126.99666624","items":[{"name":"주식회사온에어네트웍스","tel":"02-1644-8410","addr":"경기도 과천시 과천동 555-100번지 1층","category":"서적문구 - 출판 및 인쇄물"}]},{"lat":"37.451185575","long":"127.00197784","items":[{"name":"지엘(GL)모터스","tel":"02-989-5282","addr":"경기도 과천시 과천동 348-5번지","category":"수리서비스 - 레져용품수리"}]},{"lat":"37.426470739","long":"126.99394545","items":[{"name":"짜임","tel":"02-504-0024","addr":"경기도 과천시 과천동 535-11번지","category":"도소매 - 가구제작"}]},{"lat":"37.452716837","long":"126.99266524","items":[{"name":"창영기업","tel":"02-525-6430","addr":"경기도 과천시 과천동 487번지","category":"기타 - 기타 전문점"}]},{"lat":"37.440490664","long":"127.00036209","items":[{"name":"천하제일화훼유통","tel":"02-6677-5293","addr":"경기도 과천시 과천동 318 2/5","category":"문화.취미 - 화원"}]},{"lat":"37.443103508","long":"127.00746985","items":[{"name":"청계산화로구이","tel":"02-532-8181","addr":"경기도 과천시 과천동 189-15번지","category":"일반휴게음식 - 일반한식"}]},{"lat":"37.448545567","long":"126.99855365","items":[{"name":"촌돼지마을","tel":"02-502-7852","addr":"경기도 과천시 과천동 524-10번지","category":"일반휴게음식 - 일반한식"}]},{"lat":"37.40199779","long":"126.98138937","items":[{"name":"카페그레아뜰리에","tel":"070-8863-0325","addr":"경기도 과천시 과천동 362-4번지 A동 1층","category":"음식점업 - 카페"}]},{"lat":"37.453023617","long":"127.00211344","items":[{"name":"카페그레아뜰리에","tel":"070-8863-0325","addr":"경기도 과천시 과천동 362-4번지 A동 1층","category":"일반휴게음식 - 서양음식"}]},{"lat":"37.411243999","long":"126.99844285","items":[{"name":"카페김엔정","tel":"070-7798-1206","addr":"경기도 과천시 과천동 650-10번지 1층","category":"음식점업 - 커피"}]},{"lat":"37.441553653","long":"127.01011395","items":[{"name":"카페김엔정","tel":"031-424-4259","addr":"경기도 과천시 과천동 650-10번지","category":"일반휴게음식 - 서양음식"}]},{"lat":"37.461355087","long":"127.02852841","items":[{"name":"코다리명가","tel":"02-504-9247","addr":"경기도 과천시 과천동 347-8번지 1층","category":"음식점업 - 한식"}]},{"lat":"37.444824451","long":"127.00663372","items":[{"name":"클리오농원","tel":"02-502-1159","addr":"경기도 과천시 과천동 220-1번지","category":"문화.취미 - 화원"}]},{"lat":"37.441076289","long":"126.99933378","items":[{"name":"킹물물","tel":"02-942-1562","addr":"경기도 과천시 과천동 324-8","category":"신변잡화 - 기타잡화"}]},{"lat":"37.44796889","long":"126.99767221","items":[{"name":"태광카오디오","tel":"02-504-5254","addr":"경기도 과천시 과천동 535-15번지","category":"자동차정비 유지 - 자동차부품"}]},{"lat":"37.450518809","long":"127.00024874","items":[{"name":"티스테이션과천점","tel":"02-3418-7404","addr":"경기도 과천시 과천동 454-9번지","category":"자동차정비 유지 - 자동차시트·타이어"}]},{"lat":"37.448770724","long":"127.00927837","items":[{"name":"퍼니처 은진수","tel":"02-3476-4440","addr":"경기도 과천시 과천동 135-4번지","category":"가구 - 일반가구"}]},{"lat":"37.4549968","long":"127.00131097","items":[{"name":"포티에스","tel":"","addr":"경기도 과천시 과천동 373-1번지 202호","category":"레져용품 - 스포츠·레져용품"}]},{"lat":"37.453519034","long":"127.00855546","items":[{"name":"플라워세림","tel":"031-404-0087","addr":"경기도 과천시 과천동 50-13번지","category":"문화.취미 - 화원"}]},{"lat":"37.453627282","long":"127.00146923","items":[{"name":"플로리아트플라워 디지인스쿨","tel":"02-515-7294","addr":"경기도 과천시 과천동 367-6번지 2층","category":"학원 - 기능학원"}]},{"lat":"37.44294135","long":"127.00685963","items":[{"name":"피루니엘 (PIRUNI.L)","tel":"031-000-0000","addr":"경기도 과천시 과천동 191번지","category":"신변잡화 - 기타잡화"}]},{"lat":"37.432326698","long":"126.98825025","items":[{"name":"핀다커피","tel":"070-8875-2500","addr":"경기도 과천시 과천동 458-7번지 101호","category":"음식점업 - 휴게음식"}]},{"lat":"37.443355811","long":"127.00685965","items":[{"name":"하나농원","tel":"031-702-4055","addr":"경기도 과천시 과천동 213-3번지","category":"문화.취미 - 화원"}]},{"lat":"37.453465105","long":"127.00180828","items":[{"name":"한국오리지널절권도체육관","tel":"02-555-8955","addr":"경기도 과천시 과천동 364-9번지 지층 101호 102호","category":"레저업소 - 헬스클럽"}]},{"lat":"37.456212998","long":"127.00908686","items":[{"name":"한성칼국수","tel":"02-502-7577","addr":"경기도 과천시 과천동 28-1번지","category":"일반휴게음식 - 일반한식"}]},{"lat":"37.42891224","long":"126.99139179","items":[{"name":"한성칼국수","tel":"02-502-7577","addr":"경기도 과천시 과천동 28-1번지","category":"음식점업 - 한식"}]},{"lat":"37.448689686","long":"126.99755915","items":[{"name":"한소반과천점","tel":"02-503-7124","addr":"경기도 과천시 과천동 522-18번지","category":"일반휴게음식 - 일반한식"}]},{"lat":"37.450023222","long":"126.99894911","items":[{"name":"한오토모빌레 (주) 양재서비스","tel":"031-000-0000","addr":"경기도 과천시 과천동 458-1번지","category":"자동차정비 유지 - 자동차부품"}]},{"lat":"37.446049759","long":"127.00808027","items":[{"name":"함지가든","tel":"02-503-5262","addr":"경기도 과천시 과천동 140-55번지 1층","category":"일반휴게음식 - 일반한식"}]},{"lat":"37.445049756","long":"127.0017745","items":[{"name":"해피라이프","tel":"02-522-0786","addr":"경기도 과천시 과천동 282-1번지 제2호","category":"기타 - 기타 전문점"}]},{"lat":"37.45287946","long":"127.00263332","items":[{"name":"헤이븐에듀케이션학원","tel":"02-503-0527","addr":"경기도 과천시 과천동 362-2번지 선암치안센터 B동 301호","category":"회원제형태 - 학원"}]},{"lat":"37.455933611","long":"127.0104205","items":[{"name":"현대오일뱅크(주)직영선암셀프주유소","tel":"02-503-0077","addr":"경기도 과천시 과천동 29-5번지","category":"연료판매점 - 현대정유(오일뱅크)"}]},{"lat":"37.453518699","long":"126.99233738","items":[{"name":"협신사무기","tel":"02-502-7015","addr":"경기도 과천시 과천동 495번지","category":"사무통신 - 사무용 OA기기"}]}]