[{"lat":"37.185559021","long":"127.10216555","items":[{"name":"(주) 이디야 동탄대로점","tel":"031-376-3722","addr":"경기도 화성시 오산동 1030-5번지 1층","category":"일반휴게음식 - 서양음식"},{"name":"동탄전기자재조명","tel":"","addr":"경기도 화성시 오산동 1030-6번지 1층 102호","category":"건축자재 - 조명기구"},{"name":"램킹","tel":"031-375-0058","addr":"경기도 화성시 오산동 1030-13번지 1층 전부호","category":"일반휴게음식 - 중국식"},{"name":"예다온중문","tel":"031-679-0507","addr":"경기도 화성시 오산동 1030-8번지 103호","category":"건축자재 - 기타건축자재"},{"name":"편의점마트","tel":"031-378-3890","addr":"경기도 화성시 오산동 1030-8번지 101호","category":"유통업 영리 - 슈퍼마켓"}]},{"lat":"37.195582412","long":"127.09749317","items":[{"name":"(주)맥서브_동탄앨리스빌","tel":"031-378-6540","addr":"경기도 화성시 오산동 1020번지 동탄역린스트라우스","category":"자동차정비 유지 - 주차장"},{"name":"구구향훠궈","tel":"031-2008-7299","addr":"경기도 화성시 오산동 1020번지 동탄역린스트라우스 상가동 2층 2042,2043호","category":"일반휴게음식 - 중국식"},{"name":"깐부치킨 동탄역앨리스빌점","tel":"031-373-3839","addr":"경기도 화성시 오산동 1020번지 동탄역 린스트라우스 판매시설동 2층 2032,2033호","category":"일반휴게음식 - 스넥"},{"name":"남승우소아청소년과의원","tel":"031-375-8842","addr":"경기도 화성시 오산동 1020번지 동탄역린스트라우스 2058,2059호","category":"의원 - 의원"},{"name":"늘솜초밥","tel":"031-375-4440","addr":"경기도 화성시 오산동 1020번지 동탄역린스트라우스 1054호","category":"일반휴게음식 - 일식·회집"},{"name":"다움헤어(DAWOOM HAIR)","tel":"031-373-0809","addr":"경기도 화성시 오산동 1020번지 동탄역린스트라우스 2층 2037,2038호","category":"보건위생 - 미용원"},{"name":"달달마녀","tel":"02-1111-1111","addr":"경기도 화성시 오산동 1020번지 동탄역린스트라우스 판매시설동 2층 2054호","category":"음료식품 - 기타음료식품"},{"name":"달달마녀","tel":"","addr":"경기도 화성시 오산동 1020번지 동탄역린스트라우스 판매시설동 2층 2054호","category":"음료식품 - 기타음료식품"},{"name":"더몰트하우스 동탄2신도시점","tel":"031-8050-2504","addr":"경기도 화성시 오산동 1020번지 동탄역린스트라우스 1096동 1100호","category":"일반휴게음식 - 서양음식"},{"name":"더브라운 동탄앨리스빌점","tel":"","addr":"경기도 화성시 오산동 1020번지 동탄역린스트라우스 2층 2029호~2031호","category":"일반휴게음식 - 서양음식"},{"name":"더샌드위치카페","tel":"","addr":"경기도 화성시 오산동 1020번지 동탄역린스트라우스 2층 2015호","category":"일반휴게음식 - 서양음식"},{"name":"더재즈스튜디오 피아노교습소","tel":"","addr":"경기도 화성시 오산동 1020번지 동탄역린스트라우스 상가동 3026호","category":"학원 - 예·체능계학원"},{"name":"더크라운헤어 동탄점","tel":"031-111-1111","addr":"경기도 화성시 오산동 1020번지 동탄역린스트라우스 2층 2053호","category":"보건위생 - 미용원"},{"name":"더트루옵티칼","tel":"031-377-1178","addr":"경기도 화성시 오산동 1020번지 동탄2택지개발지구씨12블럭 동탄역린스트라우스판매시설 1층 1107,1108호","category":"보건위생 - 안경"},{"name":"더포동탄점","tel":"031-374-4540","addr":"경기도 화성시 오산동 1020번지 동탄역린스트라우스 2층 2049호","category":"일반휴게음식 - 서양음식"},{"name":"동탄 전자담배 에이디 멀티샵 동탄역점","tel":"031-374-5977","addr":"경기도 화성시 오산동 1020번지 동탄역린스트라우스 1층 1075호","category":"기타 - 기타 전문점"},{"name":"동탄고기집 우심","tel":"","addr":"경기도 화성시 오산동 1020번지 동탄역린스트라우스 1층 1066호","category":"일반휴게음식 - 일반한식"},{"name":"드로잉기린 동2점","tel":"","addr":"경기도 화성시 오산동 1020번지 동탄역린스트라우스 판매시설동 1층 1042호","category":"의류 - 정장"},{"name":"디오큐(D.O.Q)","tel":"031-378-2112","addr":"경기도 화성시 오산동 1020번지 동탄역린스트라우스 1층 1082호","category":"일반휴게음식 - 일반한식"},{"name":"루다식탁","tel":"031-000-0000","addr":"경기도 화성시 오산동 1020번지 동탄역린스트라우스 2층 2023호","category":"일반휴게음식 - 일반한식"},{"name":"리얼'한 네일","tel":"031-373-4448","addr":"경기도 화성시 오산동 1020번지 동탄역린스트라우스 2층 2036호","category":"보건위생 - 피부미용실"},{"name":"마니 베이커리(MANI BAKERY)","tel":"","addr":"경기도 화성시 오산동 1020번지 동탄역린스트라우스 판매시설동 1층 1004호","category":"일반휴게음식 - 서양음식"},{"name":"마라식상마라탕","tel":"031-375-6998","addr":"경기도 화성시 오산동 1020번지 동탄역린스트라우스 1층 1114호","category":"일반휴게음식 - 중국식"},{"name":"맛깔참죽동탄역점","tel":"031-373-2011","addr":"경기도 화성시 오산동 1020번지 동탄역린스트라우스 1035호","category":"일반휴게음식 - 일반한식"},{"name":"모나룸(Mona Room)","tel":"031-8003-7114","addr":"경기도 화성시 오산동 1020번지 동탄역린스트라우스 1층 1101호","category":"의류 - 정장"},{"name":"바다나라","tel":"","addr":"경기도 화성시 오산동 1020번지 동탄역린스트라우스 1층 1021~1024호","category":"일반휴게음식 - 일식·회집"},{"name":"베베살롱","tel":"031-378-6651","addr":"경기도 화성시 오산동 1020번지 동탄역 린스트라우스 2006,2007호","category":"일반휴게음식 - 서양음식"},{"name":"벨라로사(BellaRosa)","tel":"031-376-2666","addr":"경기도 화성시 오산동 1020번지 동탄역린스트라우스판매시설 동탄2택지개발지구 씨12블럭 제2층 제2050호","category":"문화.취미 - 문화취미기타"},{"name":"본참치","tel":"031-377-5612","addr":"경기도 화성시 오산동 1020번지 동탄역린스트라우스 판매시설동 1층 1111호","category":"일반휴게음식 - 일식·회집"},{"name":"부자곱 동탄2점","tel":"031-373-5652","addr":"경기도 화성시 오산동 1020번지 동탄역 린스트라우스 1층 1069,1070호","category":"일반휴게음식 - 일반한식"},{"name":"서리서리멸치국수 동탄역점","tel":"031-377-2719","addr":"경기도 화성시 오산동 1020번지 동탄역린스트라우스 1층 1052호","category":"일반휴게음식 - 스넥"},{"name":"쇼무드(Show Mood)","tel":"","addr":"경기도 화성시 오산동 1020번지 동탄역린스트라우스 2층 2047호","category":"의류 - 정장"},{"name":"수레이블","tel":"","addr":"경기도 화성시 오산동 1020번지 동탄역린스트라우스 1층 1048호","category":"의류 - 정장"},{"name":"씨스페이스동탄역점","tel":"031-373-6767","addr":"경기도 화성시 오산동 1020번지 동탄역린스트라우스 1063호","category":"유통업 영리 - 편 의 점"},{"name":"앨리스(Alice)영어교습소","tel":"031-8058-6775","addr":"경기도 화성시 오산동 1020번지 동탄역린스트라우스 2008호","category":"학원 - 외국어학원"},{"name":"역전할머니맥주 동탄역점","tel":"","addr":"경기도 화성시 오산동 1020번지 동탄역린스트라우스 1층 1083호","category":"일반휴게음식 - 일반한식"},{"name":"오마리김밥","tel":"031-377-7536","addr":"경기도 화성시 오산동 1020번지 동탄역린스트라우스 1층 1095호","category":"일반휴게음식 - 스넥"},{"name":"오써니데이","tel":"","addr":"경기도 화성시 오산동 1020번지 동탄역린스트라우스 2층 2020호","category":"보건위생 - 피부미용실"},{"name":"오투닭갈비&부대찌개(동탄역점)","tel":"031-374-0225","addr":"경기도 화성시 오산동 1020번지 동탄역 린스트라우스 2층 2028호","category":"일반휴게음식 - 일반한식"},{"name":"우미린 세탁소","tel":"031-613-3440","addr":"경기도 화성시 오산동 1020번지 앨리스빌 1032호 동탄2신도시 C12BL","category":"수리서비스 - 세탁소"},{"name":"우미린어린이집[아이행복]","tel":"070-7625-7625","addr":"경기도 화성시 오산동 1020번지 동탄역린스트라우스 관리동","category":"학원 - 유아원"},{"name":"유의미커피로스터즈","tel":"031-8050-5055","addr":"경기도 화성시 오산동 1020번지 동탄역린스트라우스 1084일부,1805호","category":"일반휴게음식 - 서양음식"},{"name":"유카롱","tel":"","addr":"경기도 화성시 오산동 1020번지 동탄역린스트라우스 2층 2027호","category":"음료식품 - 기타음료식품"},{"name":"이교수 만두명가","tel":"031-376-4273","addr":"경기도 화성시 오산동 1020번지 동탄역린스트라우스 2층 2022호","category":"일반휴게음식 - 일반한식"},{"name":"이마트24 동탄앨리스빌점","tel":"","addr":"경기도 화성시 오산동 1020번지 우미앨리스빌 1105호","category":"유통업 영리 - 편 의 점"},{"name":"이정닭갈비","tel":"","addr":"경기도 화성시 오산동 1020번지 동탄역린스트라우스 2060 ,2061,2062호","category":"일반휴게음식 - 일반한식"},{"name":"이차돌 동탄역점","tel":"","addr":"경기도 화성시 오산동 1020번지 동탄역린스트라우스 판매시설동 1층 1071,1072,1073호","category":"일반휴게음식 - 일반한식"},{"name":"주식회사 모이리네일","tel":"031-377-4426","addr":"경기도 화성시 오산동 1020번지 앨리스빌 상가 2층 2026호","category":"보건위생 - 피부미용실"},{"name":"주아금방&카페","tel":"","addr":"경기도 화성시 오산동 1020번지 동탄역린스트라우스 1층 1102호","category":"일반휴게음식 - 서양음식"},{"name":"청년다방 동탄점","tel":"031-372-6969","addr":"경기도 화성시 오산동 1020번지 동탄역린스트라우스 2층 2052호","category":"일반휴게음식 - 스넥"},{"name":"타볼로1(TAVOL01)","tel":"031-8058-2439","addr":"경기도 화성시 오산동 1020번지 동탄역린스트라우스 2층2045,2046호","category":"일반휴게음식 - 서양음식"},{"name":"투썸플레이스 동탄역앨리스빌점","tel":"031-373-7789","addr":"경기도 화성시 오산동 1020번지 동탄역린스트라우스 판매시설동 2층 2065 ,2066호","category":"일반휴게음식 - 서양음식"},{"name":"파리바게트 동탄역점","tel":"","addr":"경기도 화성시 오산동 1020번지 동탄역린스트라우스 1115,1116,1117호","category":"음료식품 - 제과점"},{"name":"플리다(flieder)","tel":"031-8055-8595","addr":"경기도 화성시 오산동 1020번지 동탄역린스트라우스 앨리스빌 상가동 1층 1081호","category":"의류 - 정장"},{"name":"하츠코이","tel":"031-377-1375","addr":"경기도 화성시 오산동 1020번지 앨리스빌 1층 1033호","category":"일반휴게음식 - 일식·회집"},{"name":"한촌설렁탕 동탄역앨리스빌점","tel":"031-375-5917","addr":"경기도 화성시 오산동 1020번지 동탄역린스트라우스 2층 2034,2035호","category":"일반휴게음식 - 일반한식"},{"name":"헤르몬","tel":"","addr":"경기도 화성시 오산동 1020번지 동탄역린스트라우스 2층 2051호","category":"의류 - 정장"},{"name":"헤어오름","tel":"031-373-9780","addr":"경기도 화성시 오산동 1020번지 동탄역린스트라우스 2층 2011호,2012호","category":"보건위생 - 미용원"},{"name":"흑화당","tel":"031-111-1111","addr":"경기도 화성시 오산동 1020번지 동탄역린스트라우스 1층 1053호","category":"일반휴게음식 - 서양음식"},{"name":"희열쭈꾸미","tel":"031-377-7712","addr":"경기도 화성시 오산동 1020번지 동탄역린스트라우스 1층 1039호","category":"일반휴게음식 - 일반한식"}]},{"lat":"37.189140036","long":"127.09741756","items":[{"name":"(주)엠씨엔","tel":"031-379-3561","addr":"경기도 화성시 오산동 295번지","category":"사무통신 - 컴퓨터"}]},{"lat":"37.19741134","long":"127.09772072","items":[{"name":"(주)와이매스","tel":"031-8973-1006","addr":"경기도 화성시 오산동 969-5번지 지티엑스 808호","category":"서적문구 - 출판 및 인쇄물"},{"name":"고씨떡볶이동탄역점","tel":"","addr":"경기도 화성시 오산동 969-5번지 지티맥스광장프라자 1층 103호","category":"일반휴게음식 - 일반한식"},{"name":"국수나무 (동탄역점)","tel":"031-375-0011","addr":"경기도 화성시 오산동 969-5번지 106호","category":"일반휴게음식 - 일반한식"},{"name":"대부마트","tel":"031-613-6000","addr":"경기도 화성시 오산동 969-5번지 1층 105호","category":"유통업 영리 - 슈퍼마켓"},{"name":"마약먹태","tel":"031-378-9212","addr":"경기도 화성시 오산동 969-5번지 GTX광장프라자 1층 102호","category":"일반휴게음식 - 일반한식"},{"name":"맥스피드PC 동탄직영점","tel":"070-2748-5132","addr":"경기도 화성시 오산동 969-5번지 지티엑스광장프라자 201호","category":"레저업소 - 기타레져업소"},{"name":"부추황소곱창","tel":"","addr":"경기도 화성시 오산동 969-5번지 GTX광장프라자 110호","category":"일반휴게음식 - 일반한식"},{"name":"빨간냄비","tel":"031-372-6663","addr":"경기도 화성시 오산동 969-5번지 지티엑스광장프라자 1층 109호","category":"일반휴게음식 - 일반한식"},{"name":"손큰국밥동탄역점","tel":"031-000-0000","addr":"경기도 화성시 오산동 969-5번지 1층 107호","category":"일반휴게음식 - 일반한식"},{"name":"어게인베이징","tel":"031-376-8082","addr":"경기도 화성시 오산동 969-5번지 GTX광장프라자 101호","category":"일반휴게음식 - 중국식"},{"name":"어서오뎅","tel":"031-234-6126","addr":"경기도 화성시 오산동 969-5번지 2층 206호","category":"일반휴게음식 - 일반한식"},{"name":"여우 스킨","tel":"","addr":"경기도 화성시 오산동 969-5번지 607호","category":"보건위생 - 화장품"},{"name":"여장군","tel":"031-377-9970","addr":"경기도 화성시 오산동 969-5번지 108호","category":"일반휴게음식 - 일반한식"},{"name":"윤스킨앤왁싱","tel":"031-374-1447","addr":"경기도 화성시 오산동 969-5번지 1층 114호","category":"보건위생 - 피부미용실"},{"name":"이도비어 동탄역점","tel":"","addr":"경기도 화성시 오산동 969-5번지 1층 104호","category":"일반휴게음식 - 일반한식"},{"name":"이소(    )","tel":"031-000-0000","addr":"경기도 화성시 오산동 969-5번지 GTX광장프라자 2층 204호","category":"일반휴게음식 - 서양음식"},{"name":"제천인두꺼비식당","tel":"031-377-9925","addr":"경기도 화성시 오산동 969-5번지 GTX광장프라자 1층 115호","category":"일반휴게음식 - 일반한식"},{"name":"종로맥가 동탄역점","tel":"","addr":"경기도 화성시 오산동 969-5번지 GTX광장프라자 2층 202호","category":"일반휴게음식 - 주점"},{"name":"커피에반하다","tel":"031-374-9118","addr":"경기도 화성시 오산동 969-5번지 1층 112호","category":"일반휴게음식 - 서양음식"},{"name":"타워노래연습장","tel":"031-206-1920","addr":"경기도 화성시 오산동 969-5번지 301호","category":"레저업소 - 노 래 방"},{"name":"파트.엠 (PART.M)","tel":"","addr":"경기도 화성시 오산동 969-5번지 8층 817호","category":"용역 서비스 - 종합용역"},{"name":"헬로우","tel":"","addr":"경기도 화성시 오산동 969-5번지 1층 113호","category":"일반휴게음식 - 주점"},{"name":"혜화동돈까스극장동탄2신도시점","tel":"031-372-7996","addr":"경기도 화성시 오산동 969-5번지 GTX광장프라자 203호","category":"일반휴게음식 - 서양음식"}]},{"lat":"37.180273814","long":"127.1080819","items":[{"name":"(주)참맛푸드 참맛닭강정 동탄점","tel":"031-372-7942","addr":"경기도 화성시 오산동 1047번지 동탄2신도시금강펜테리움센트럴파크I 1층 106호","category":"일반휴게음식 - 스넥"},{"name":"가온공조","tel":"031-238-9097","addr":"경기도 화성시 오산동 1047번지 동탄2신도시금강펜테리움센트럴파크 1826동 304호","category":"용역 서비스 - 기타용역서비스"},{"name":"건어물상사","tel":"031-282-5514","addr":"경기도 화성시 오산동 1047번지 동탄2신도시 금강펜테리움 센트럴파크I 1822동 1001호","category":"음료식품 - 농·축·수산품"},{"name":"금강꼬마별어린이집[아이행복]","tel":"031-8058-1335","addr":"경기도 화성시 오산동 1047번지 동탄2신도시금강펜테리움센트럴파크I 1822동 101호","category":"학원 - 유아원"},{"name":"금강라온어린이집[아이행복]","tel":"031-378-0312","addr":"경기도 화성시 오산동 1047번지 금강펜테리움 센트럴파크 1차 관리동","category":"학원 - 유아원"},{"name":"금강열매어린이집[아이행복]","tel":"","addr":"경기도 화성시 오산동 1047번지 동탄2신도시 금강펜테리움 센트럴파크1 1827동 104호","category":"학원 - 유아원"},{"name":"비엔나피아노.수학","tel":"","addr":"경기도 화성시 오산동 1047번지 동탄2신도시금강펜테리움센트럴파크 1826동 302호","category":"학원 - 기타 교육기관"},{"name":"세진이엔지","tel":"031-373-2101","addr":"경기도 화성시 오산동 1047번지 동탄2신도시 금강펜테리움 센트럴파크I 1827동 702호","category":"용역 서비스 - 기타용역서비스"},{"name":"아소비 금강1차점","tel":"","addr":"경기도 화성시 오산동 1047번지 동탄2신도시금강펜테리움센트럴파크I 1832동 502호","category":"학원 - 기타 교육기관"},{"name":"애드피아","tel":"031-248-1858","addr":"경기도 화성시 오산동 1047번지 동탄신도시금강펜테리옴센트럴파크 1823동 1504호","category":"유통업 영리 - 기타유통업"},{"name":"애플트리 에듀홈","tel":"070-8841-0610","addr":"경기도 화성시 오산동 1047번지 동탄2신도시 금강펜테리움 센트럴파크I 1824동 102호","category":"학원 - 기타 교육기관"},{"name":"이지연개인과외교습","tel":"031-378-5185","addr":"경기도 화성시 오산동 1047번지 금강펜테리움센트럴파크동탄 1833동 502호","category":"학원 - 기타 교육기관"},{"name":"촌놈푸줏간","tel":"031-377-5544","addr":"경기도 화성시 오산동 1047번지 동탄2신도시금강펜테리움센트럴파크I 107호","category":"음료식품 - 정육점"},{"name":"카이로스교실","tel":"","addr":"경기도 화성시 오산동 1047번지 동탄2신도시금강펜테리움센트럴파크I 1830동 202호","category":"학원 - 기타 교육기관"}]},{"lat":"37.198051608","long":"127.09705697","items":[{"name":"(주)클래식스타","tel":"031-375-0015","addr":"경기도 화성시 오산동 968-2번지 동탄역퍼스트프라자 1동 902호","category":"학원 - 기타 교육기관"},{"name":"골프존파크 동탄역점","tel":"031-376-0883","addr":"경기도 화성시 오산동 968-2번지 1동 9층 903~905호","category":"레져용품 - 골프용품 전문점"},{"name":"김밥천국","tel":"031-377-1389","addr":"경기도 화성시 오산동 968-2번지 1동 110호","category":"일반휴게음식 - 일반한식"},{"name":"더(The) 수","tel":"031-377-1995","addr":"경기도 화성시 오산동 968-2번지 1동 1층 406호","category":"보건위생 - 화장품"},{"name":"동탄바이오","tel":"031-378-0133","addr":"경기도 화성시 오산동 968-2번지 3층 305호","category":"건강식품 - 기타건강식품"},{"name":"동탄퍼스트안과","tel":"031-372-7591","addr":"경기도 화성시 오산동 968-2번지 동탄역퍼스트프라자 7층","category":"의원 - 의원"},{"name":"무브명상센터","tel":"031-377-6670","addr":"경기도 화성시 오산동 968-2번지 동탄역퍼스트프라자 1동 404호","category":"레저업소 - 헬스클럽"},{"name":"무브요가 (Move Yoga)","tel":"031-377-6646","addr":"경기도 화성시 오산동 968-2번지 동탄역퍼스트프라자 1동 403호","category":"레저업소 - 헬스클럽"},{"name":"바른몸S한의원","tel":"031-373-4282","addr":"경기도 화성시 오산동 968-2번지 동탄역퍼스트프라자 405호","category":"의원 - 한의원"},{"name":"연세누리치과의원","tel":"031-378-2897","addr":"경기도 화성시 오산동 968-2번지 퍼스트프라자 303,304호","category":"의원 - 치과의원"},{"name":"위즈 필라테스","tel":"070-2482-0918","addr":"경기도 화성시 오산동 968-2번지 퍼스트프라자 506호","category":"레저업소 - 헬스클럽"},{"name":"이마트24 동탄역점","tel":"","addr":"경기도 화성시 오산동 968-2번지 퍼스트프라자 106호","category":"유통업 영리 - 편 의 점"},{"name":"이마트24 동탄역점","tel":"","addr":"경기도 화성시 오산동 968-2번지 퍼스트프라자 106호","category":"유통업 영리 - 편 의 점"},{"name":"장충동 막국수,족발,보쌈","tel":"031-8077-9969","addr":"경기도 화성시 오산동 968-2번지 동탄역 더퍼스트프라자 1층 102호","category":"일반휴게음식 - 일반한식"},{"name":"정통집 통탄역점","tel":"","addr":"경기도 화성시 오산동 968-2번지 동탄역 퍼스트프라자 1동 105호","category":"일반휴게음식 - 일반한식"},{"name":"주식회사 지알피에듀","tel":"031-375-3877","addr":"경기도 화성시 오산동 968-2번지 동탄역퍼스트프라자 501호","category":"용역 서비스 - 사무서비스"},{"name":"창의융합맞춤학원","tel":"031-375-3877","addr":"경기도 화성시 오산동 968-2번지 1동 501호","category":"학원 - 보습학원"},{"name":"캐슬현장식당","tel":"031-000-0000","addr":"경기도 화성시 오산동 968-2번지 1동 2층 205호","category":"일반휴게음식 - 일반한식"},{"name":"코지앤핏","tel":"070-4327-1609","addr":"경기도 화성시 오산동 968-2번지 퍼스트프라자 606호","category":"레저업소 - 헬스클럽"},{"name":"크림레몬스튜디오","tel":"031-241-9008","addr":"경기도 화성시 오산동 968-2번지 동탄역퍼스트프라자 1동 3층 302호","category":"광학제품 - 사진관"},{"name":"하이엠","tel":"031-304-0060","addr":"경기도 화성시 오산동 968-2번지 1003호","category":"건강식품 - 기타건강식품"}]},{"lat":"37.197275787","long":"127.09821615","items":[{"name":"24시 핸즈 동물의료센터","tel":"031-8077-2115","addr":"경기도 화성시 오산동 969-3번지 2층 201,202호","category":"기타의료기관 - 동물병원"},{"name":"고봉민김밥인 화성동탄역점","tel":"031-373-9007","addr":"경기도 화성시 오산동 969-3번지 1층 107호","category":"일반휴게음식 - 스넥"},{"name":"골프존24","tel":"031-373-6088","addr":"경기도 화성시 오산동 969-3번지 10층 1007호","category":"레저업소 - 스크린골프"},{"name":"그늘집","tel":"031-378-1872","addr":"경기도 화성시 오산동 969-3번지 우성KTX 10층 1008호","category":"일반휴게음식 - 일반한식"},{"name":"그린다","tel":"031-111-1111","addr":"경기도 화성시 오산동 969-3번지 우성케이티엑스타워 1층 126호","category":"의류 - 정장"},{"name":"금오설비","tel":"031-000-0000","addr":"경기도 화성시 오산동 969-3번지 101호","category":"건축자재 - 인테리어전문"},{"name":"노블에스테틱","tel":"031-378-1599","addr":"경기도 화성시 오산동 969-3번지 우성KTX타워 4층 9호","category":"보건위생 - 피부미용실"},{"name":"노블피부과의원","tel":"031-378-1599","addr":"경기도 화성시 오산동 969-3번지","category":"의원 - 의원"},{"name":"노이음악학원","tel":"031-374-5279","addr":"경기도 화성시 오산동 969-3번지 우성KTX타워 605호","category":"학원 - 예·체능계학원"},{"name":"놀숲 동탄역점","tel":"031-8055-8554","addr":"경기도 화성시 오산동 969-3번지 701호","category":"레저업소 - 기타레져업소"},{"name":"다다름작업실미술학원","tel":"","addr":"경기도 화성시 오산동 969-3번지 우성KTX타워 804호","category":"학원 - 예·체능계학원"},{"name":"다비치안경 동탄역사점","tel":"031-372-3726","addr":"경기도 화성시 오산동 969-3번지 117,209호","category":"보건위생 - 안경"},{"name":"대박폰(동탄)","tel":"031-357-3230","addr":"경기도 화성시 오산동 969-3번지 우성케이티멕스타워 1층 105호","category":"사무통신 - 통신기기"},{"name":"더봄스튜디오","tel":"031-376-7133","addr":"경기도 화성시 오산동 969-3번지 3층 310호 우성케이티엑스","category":"광학제품 - 사진관"},{"name":"더블유(W)학원","tel":"031-0000-0000","addr":"경기도 화성시 오산동 969-3번지 우성KTX타워 3층 301호","category":"학원 - 보습학원"},{"name":"던킨도너츠 동탄역점","tel":"","addr":"경기도 화성시 오산동 969-3번지 우성KTX타워 1층 111호","category":"음료식품 - 제과점"},{"name":"도원한의원","tel":"031-375-5075","addr":"경기도 화성시 오산동 969-3번지 305호","category":"의원 - 한의원"},{"name":"동탄메디삼육오의원","tel":"031-377-7264","addr":"경기도 화성시 오산동 969-3번지 우성케이티엑스타워 307호","category":"의원 - 의원"},{"name":"동탄메디케어","tel":"031-377-7264","addr":"경기도 화성시 오산동 969-3번지 우성케이티엑스타워 3층 307호","category":"건강식품 - 기타건강식품"},{"name":"동탄송도항외과","tel":"031-374-8822","addr":"경기도 화성시 오산동 969-3번지 우성 KTX타워 401호,402호","category":"의원 - 의원"},{"name":"동탄역당구장","tel":"031-613-0050","addr":"경기도 화성시 오산동 969-3번지 우성KTX타워 405호 404호, 405호","category":"레저업소 - 당 구 장"},{"name":"동탄역브이세븐(V7)사진관","tel":"","addr":"경기도 화성시 오산동 969-3번지 1층 126호","category":"광학제품 - 사진관"},{"name":"두근두근약국","tel":"031-377-2120","addr":"경기도 화성시 오산동 969-3번지 1층 102호,130호","category":"약국 - 약국"},{"name":"디딤마음상담연구소","tel":"031-373-9904","addr":"경기도 화성시 오산동 969-3번지 우성KTX타워 8층 801-2호","category":"보건위생 - 기타대인서비스"},{"name":"디딤마음상담연구소","tel":"031-373-9904","addr":"경기도 화성시 오산동 969-3번지 우성KTX타워 8층 801-2호","category":"보건위생 - 기타대인서비스"},{"name":"디딤정신건강의학과의원","tel":"031-373-9904","addr":"경기도 화성시 오산동 969-3번지 801-1호","category":"의원 - 의원"},{"name":"디이 (DE)어학원","tel":"02-372-4388","addr":"경기도 화성시 오산동 969-3번지 602호","category":"학원 - 외국어학원"},{"name":"라움요가","tel":"031-000-0000","addr":"경기도 화성시 오산동 969-3번지 9층 901호","category":"레저업소 - 헬스클럽"},{"name":"마이플란트 치과의원","tel":"031-374-7522","addr":"경기도 화성시 오산동 969-3번지 우성케이티엑스타워 3층 303호","category":"의원 - 치과의원"},{"name":"메가스터디엠베스트SE동탄역점학원","tel":"031-372-4913","addr":"경기도 화성시 오산동 969-3번지 우성KTX타워 706호 707호","category":"학원 - 보습학원"},{"name":"메이저 필드","tel":"031-376-5205","addr":"경기도 화성시 오산동 969-3번지 우성KTX타워 1005호","category":"레져용품 - 골프용품 전문점"},{"name":"명가순대국","tel":"031-373-7734","addr":"경기도 화성시 오산동 969-3번지 122호","category":"일반휴게음식 - 일반한식"},{"name":"명품","tel":"","addr":"경기도 화성시 오산동 969-3번지 210호","category":"보건위생 - 피부미용실"},{"name":"모찌왁싱","tel":"031-378-8281","addr":"경기도 화성시 오산동 969-3번지 125호","category":"보건위생 - 화장품"},{"name":"밀라노&홀릭(MILLANO&HOLIC)","tel":"","addr":"경기도 화성시 오산동 969-3번지 1층 114호","category":"의류 - 정장"},{"name":"바다양푼이동태탕","tel":"031-376-8542","addr":"경기도 화성시 오산동 969-3번지 우성KTX타워 211호","category":"일반휴게음식 - 일반한식"},{"name":"바퀴달린그림책미술학원 동탄센터학원","tel":"031-8058-3479","addr":"경기도 화성시 오산동 969-3번지 우성KTX타워 507호","category":"학원 - 예·체능계학원"},{"name":"박상천한의원","tel":"031-374-3101","addr":"경기도 화성시 오산동 969-3번지 우성KTX타워 506호","category":"의원 - 한의원"},{"name":"베스킨라빈스 동탄역점","tel":"031-376-3130","addr":"경기도 화성시 오산동 969-3번지 우성KTX타워 108,109호","category":"음료식품 - 제과점"},{"name":"보드람치킨","tel":"031-8003-2277","addr":"경기도 화성시 오산동 969-3번지 우성KTX타워 1층 121호","category":"일반휴게음식 - 스넥"},{"name":"세븐일레븐동탄우성점","tel":"","addr":"경기도 화성시 오산동 969-3번지 우성케이티엑스타워 1층 118호","category":"유통업 영리 - 편 의 점"},{"name":"아이끌림치과의원","tel":"031-8019-7542","addr":"경기도 화성시 오산동 969-3번지 우성KTX타워 7층 708호","category":"의원 - 치과의원"},{"name":"아이보람동탄센터 주식회사","tel":"031-376-9212","addr":"경기도 화성시 오산동 969-3번지 우성케이티엑스타워 508호","category":"서적문구 - 일반서적"},{"name":"아주시원한이비인후과","tel":"031-377-5082","addr":"경기도 화성시 오산동 969-3번지 3층 304호","category":"의원 - 의원"},{"name":"아티아티미술학원","tel":"031-372-1489","addr":"경기도 화성시 오산동 969-3번지 우성KTX타워 902호","category":"학원 - 예·체능계학원"},{"name":"오손도손 네일","tel":"031-378-8286","addr":"경기도 화성시 오산동 969-3번지 우성케이티엑스타워 1층 124호","category":"보건위생 - 피부미용실"},{"name":"와이키즈동탄2학원","tel":"031-831-8050","addr":"경기도 화성시 오산동 969-3번지 1101호","category":"학원 - 보습학원"},{"name":"우리슈퍼","tel":"","addr":"경기도 화성시 오산동 969-3번지 1층 118호","category":"유통업 영리 - 편 의 점"},{"name":"우성KTX타워관리단","tel":"031-378-5019","addr":"경기도 화성시 오산동 969-3번지 우성KTX타워 관리사무소","category":"자동차정비 유지 - 주차장"},{"name":"우정가","tel":"031-373-7965","addr":"경기도 화성시 오산동 969-3번지 206호","category":"일반휴게음식 - 일반한식"},{"name":"이&영헤어","tel":"","addr":"경기도 화성시 오산동 969-3번지 우성KTX타워 2층 208호","category":"보건위생 - 미용원"},{"name":"일리아나","tel":"","addr":"경기도 화성시 오산동 969-3번지 우성KTX타워 1층 128호","category":"음료식품 - 기타음료식품"},{"name":"정연한의원","tel":"02-1577-0000","addr":"경기도 화성시 오산동 969-3번지 우성KTX타워 403호","category":"의원 - 한의원"},{"name":"정오 커피","tel":"031-1111-1111","addr":"경기도 화성시 오산동 969-3번지 우성케이티엑스타워 1층 127호","category":"일반휴게음식 - 서양음식"},{"name":"지엘스어학원","tel":"031-377-6007","addr":"경기도 화성시 오산동 969-3번지 우성케이티엑스타워 802호","category":"학원 - 외국어학원"},{"name":"착한남자","tel":"031-000-0000","addr":"경기도 화성시 오산동 969-3번지 우성KTX타워 1층 129호","category":"보건위생 - 미용원"},{"name":"채에스테틱동탄점","tel":"070-7614-3579","addr":"경기도 화성시 오산동 969-3번지 3층 302호","category":"보건위생 - 피부미용실"},{"name":"첨벙첨벙","tel":"031-374-0447","addr":"경기도 화성시 오산동 969-3번지 8층 805호","category":"레저업소 - 수 영 장"},{"name":"코드지 동탄점","tel":"031-375-8451","addr":"경기도 화성시 오산동 969-3번지 우성KTX타워 1층 119,120호","category":"일반휴게음식 - 서양음식"},{"name":"타워PC카페","tel":"070-3377-6900","addr":"경기도 화성시 오산동 969-3번지 우성케이티엑스타워 7층 703호,704호","category":"레저업소 - 기타레져업소"},{"name":"핑크짐","tel":"031-7368-1472","addr":"경기도 화성시 오산동 969-3번지","category":"레저업소 - 헬스클럽"},{"name":"허쌤수학학원","tel":"031-372-6997","addr":"경기도 화성시 오산동 969-3번지 우성KTX타워 603호","category":"학원 - 보습학원"},{"name":"호이차동탄역점","tel":"","addr":"경기도 화성시 오산동 969-3번지 우성KTX타워 1층 116호","category":"일반휴게음식 - 서양음식"},{"name":"홍익뷰미술학원","tel":"031-377-5426","addr":"경기도 화성시 오산동 969-3번지 우성KTX타워 905호","category":"학원 - 예·체능계학원"},{"name":"화담정","tel":"","addr":"경기도 화성시 오산동 969-3번지 2층 207호","category":"일반휴게음식 - 일반한식"}]},{"lat":"37.197772286","long":"127.09705662","items":[{"name":"25센치꼬치앤오뎅바 동탄역점","tel":"031-372-9952","addr":"경기도 화성시 오산동 968-3번지 109호","category":"일반휴게음식 - 일반한식"},{"name":"국수집정","tel":"","addr":"경기도 화성시 오산동 968-3번지 로얄클래스 1층 105호","category":"일반휴게음식 - 일반한식"},{"name":"라리타코","tel":"070-4216-9964","addr":"경기도 화성시 오산동 968-3번지 로얄클래스 2층 203호","category":"일반휴게음식 - 일반한식"},{"name":"삼돈이동탄역점","tel":"02-1111-1111","addr":"경기도 화성시 오산동 968-3번지 110호","category":"일반휴게음식 - 일반한식"},{"name":"신사부대찌개품격삼겹살동탄역점","tel":"031-375-8857","addr":"경기도 화성시 오산동 968-3번지 로얄클래스 104호","category":"일반휴게음식 - 일반한식"},{"name":"신의주순대와쭈꾸미","tel":"031-376-0051","addr":"경기도 화성시 오산동 968-3번지 로얄클래스 1층 106호","category":"일반휴게음식 - 일반한식"},{"name":"와다이(동탄역)","tel":"031-376-2027","addr":"경기도 화성시 오산동 968-3번지 로얄클래스 1층 101호","category":"일반휴게음식 - 일반한식"},{"name":"주식회사 대연식당","tel":"031-8077-4969","addr":"경기도 화성시 오산동 968-3번지 로얄클래스 1층 113,114호","category":"일반휴게음식 - 일반한식"},{"name":"쭌노래연습장","tel":"031-377-7735","addr":"경기도 화성시 오산동 968-3번지 로얄클래스 402호","category":"레저업소 - 노 래 방"},{"name":"춘향전","tel":"031-000-0000","addr":"경기도 화성시 오산동 968-3번지 102호","category":"일반휴게음식 - 일반한식"},{"name":"칭따오양꼬치훠궈","tel":"02-1577-0000","addr":"경기도 화성시 오산동 968-3번지 107,108호","category":"일반휴게음식 - 중국식"},{"name":"캐롬당구","tel":"031-1111-1111","addr":"경기도 화성시 오산동 968-3번지 304,305호","category":"레져용품 - 스포츠·레져용품"},{"name":"해신(동탄역점)","tel":"031-377-0096","addr":"경기도 화성시 오산동 968-3번지 로얄클래스 3층 302호","category":"일반휴게음식 - 일식·회집"}]},{"lat":"37.189445408","long":"127.08675252","items":[{"name":"2동탄세탁소","tel":"031-8043-2954","addr":"경기도 화성시 오산동 993번지 동탄2신도시에일린의뜰 209 (상가)동 104호","category":"수리서비스 - 세탁소"},{"name":"그린팍(GREEN PARK)","tel":"031-8043-1755","addr":"경기도 화성시 오산동 993번지 동탄2신도시 에일린의뜰 209동 1층 111호","category":"보건위생 - 미용원"},{"name":"띠앗머리","tel":"031-372-0733","addr":"경기도 화성시 오산동 993번지 동탄2신도시에일린의뜰 209동 1층 103호","category":"보건위생 - 미용원"},{"name":"밥심 한식뷔페","tel":"070-4254-0160","addr":"경기도 화성시 오산동 993번지 동탄2신도시 에일린의뜰 107,108호","category":"일반휴게음식 - 일반한식"},{"name":"새론어린이집[아이행복]","tel":"031-377-9788","addr":"경기도 화성시 오산동 993번지 동탄2신도시에일린의뜰 1605동 102호","category":"학원 - 유아원"},{"name":"심리상담센터 마음(심)","tel":"","addr":"경기도 화성시 오산동 993번지 동탄2신도시에일린의뜰 1608동 101호","category":"보건위생 - 기타대인서비스"},{"name":"에일린빅스맘어린이집[아이행복]","tel":"031-373-7275","addr":"경기도 화성시 오산동 993번지 동탄2신도시에일린의뜰","category":"학원 - 유아원"},{"name":"프라임(PRIME)","tel":"","addr":"경기도 화성시 오산동 993번지 동탄2신도시에일린의뜰 1604동 301호","category":"자동차정비 유지 - 세차장"}]},{"lat":"37.18355311","long":"127.10863826","items":[{"name":"BBQ동탄수변점","tel":"031-377-8523","addr":"경기도 화성시 오산동 1040-4번지 1층 117호","category":"일반휴게음식 - 스넥"},{"name":"go동탄점핑","tel":"031-375-7447","addr":"경기도 화성시 오산동 1040-4번지 리더스뷰프라자 201호","category":"레저업소 - 헬스클럽"},{"name":"노랑머리","tel":"02-1577-0000","addr":"경기도 화성시 오산동 1040-4번지 2층 208호","category":"보건위생 - 미용원"},{"name":"데이지 필라테스(daisy pilates)","tel":"031-376-9501","addr":"경기도 화성시 오산동 1040-4번지 리더스뷰프라자 405호","category":"레저업소 - 헬스클럽"},{"name":"동탄가온치과의원","tel":"070-4610-2744","addr":"경기도 화성시 오산동 1040-4번지 리더스뷰프라자 306호","category":"의원 - 치과의원"},{"name":"동탄삼성의원","tel":"031-8077-2338","addr":"경기도 화성시 오산동 1040-4번지 리더스프라자 303,304호","category":"의원 - 의원"},{"name":"동탄주니어풋볼클럽","tel":"031-373-7013","addr":"경기도 화성시 오산동 1040-4번지 리더스뷰프라자 5층 506,507호","category":"학원 - 예·체능계학원"},{"name":"라니비니 슬라임 카페","tel":"031-3148-3184","addr":"경기도 화성시 오산동 1040-4번지 리더스뷰프라자 2층 202호","category":"일반휴게음식 - 서양음식"},{"name":"라온약국","tel":"031-375-8275","addr":"경기도 화성시 오산동 1040-4번지 105호, 106호일부","category":"약국 - 약국"},{"name":"뤼미에르발레스쿨학원","tel":"031-375-4770","addr":"경기도 화성시 오산동 1040-4번지 401호","category":"학원 - 예·체능계학원"},{"name":"비욘드잉글리쉬어학원","tel":"031-372-0579","addr":"경기도 화성시 오산동 1040-4번지 406호","category":"학원 - 외국어학원"},{"name":"새미기픈물","tel":"031-111-1111","addr":"경기도 화성시 오산동 1040-4번지 113호","category":"일반휴게음식 - 서양음식"},{"name":"아이스타줄넘기클럽","tel":"","addr":"경기도 화성시 오산동 1040-4번지 제2층 206,207호","category":"학원 - 예·체능계학원"},{"name":"아이원언어발달센터 (동탄2신도시점)","tel":"031-377-3538","addr":"경기도 화성시 오산동 1040-4번지 409, 410호","category":"학원 - 기타 교육기관"},{"name":"영재들의미술상자","tel":"070-8031-4038","addr":"경기도 화성시 오산동 1040-4번지 503호","category":"학원 - 예·체능계학원"},{"name":"줄리어드음악학원","tel":"031-374-2468","addr":"경기도 화성시 오산동 1040-4번지 501호","category":"학원 - 예·체능계학원"},{"name":"클래스미술학원","tel":"031-377-8177","addr":"경기도 화성시 오산동 1040-4번지 리더스뷰프라자 403호","category":"학원 - 예·체능계학원"}]},{"lat":"37.183997839","long":"127.10496763","items":[{"name":"COFFEE FACTORY 508","tel":"070-1111-1111","addr":"경기도 화성시 오산동 1036-20번지 101호","category":"일반휴게음식 - 서양음식"},{"name":"마르쉐 일르(Marche ILE)","tel":"031-663-0447","addr":"경기도 화성시 오산동 1036-19번지 101호","category":"의류 - 정장"},{"name":"모모 트리","tel":"031-000-0000","addr":"경기도 화성시 오산동 1036-19번지 1층","category":"의류 - 정장"},{"name":"치킨플러스 동탄신리점","tel":"031-376-9285","addr":"경기도 화성시 오산동 1036-20번지 1층 일부 102호","category":"일반휴게음식 - 스넥"}]},{"lat":"37.183418993","long":"127.10746689","items":[{"name":"EJ헤어","tel":"031-373-3525","addr":"경기도 화성시 오산동 1040-1번지 3층 305호","category":"보건위생 - 미용원"},{"name":"골프존파크 동탄 리베라점","tel":"031-378-0753","addr":"경기도 화성시 오산동 1040-1번지 베리프라자 4층 1호","category":"레저업소 - 스크린골프"},{"name":"배부장찌개가 (동탄리베라점)","tel":"031-376-0337","addr":"경기도 화성시 오산동 1040-1번지 베라프라자 1층 110호,111호","category":"일반휴게음식 - 일반한식"},{"name":"선도척추기공","tel":"","addr":"경기도 화성시 오산동 1040-1번지 5층 505호","category":"보건위생 - 기타대인서비스"},{"name":"수라채그릴","tel":"031-376-1000","addr":"경기도 화성시 오산동 1040-1번지 2층 201호~205호","category":"일반휴게음식 - 일반한식"},{"name":"아름다운아이들학원","tel":"031-663-0447","addr":"경기도 화성시 오산동 1040-1번지 5층 504호","category":"학원 - 보습학원"},{"name":"참다한홍삼 남동탄점","tel":"031-376-5346","addr":"경기도 화성시 오산동 1040-1번지 1층 105호","category":"건강식품 - 기타건강식품"},{"name":"프릴리키즈카페","tel":"031-372-5798","addr":"경기도 화성시 오산동 1040-1번지 5층 501,502호","category":"일반휴게음식 - 일반한식"}]},{"lat":"37.195051237","long":"127.08481019","items":[{"name":"Full Plate(풀플레잇)","tel":"031-000-0000","addr":"경기도 화성시 오산동 548-2번지","category":"일반휴게음식 - 일반한식"}]},{"lat":"37.184495188","long":"127.1028849","items":[{"name":"GS25동탄신리천점","tel":"","addr":"경기도 화성시 오산동 1035-1번지 1층 일부","category":"유통업 영리 - 편 의 점"},{"name":"고씨네 김밥","tel":"031-372-1536","addr":"경기도 화성시 오산동 1035-1번지 1층 일부호","category":"일반휴게음식 - 일반한식"}]},{"lat":"37.197104987","long":"127.09772034","items":[{"name":"GS25동탄신유점","tel":"","addr":"경기도 화성시 오산동 969-4번지 104호","category":"유통업 영리 - 편 의 점"},{"name":"꿈자라다 운동발달센터","tel":"031-375-7442","addr":"경기도 화성시 오산동 969-4번지 신유메디프라자 308호","category":"보건위생 - 기타대인서비스"},{"name":"네일 THE 맑음","tel":"070-5099-0844","addr":"경기도 화성시 오산동 969-4번지 509호","category":"보건위생 - 피부미용실"},{"name":"노랑통닭 동탄역점","tel":"031-377-5896","addr":"경기도 화성시 오산동 969-4번지 신유메디프라자 1층 109호","category":"일반휴게음식 - 스넥"},{"name":"더레이디스킨앤바디","tel":"031-373-1107","addr":"경기도 화성시 오산동 969-4번지 신유메디프라자 507호","category":"보건위생 - 화장품"},{"name":"동탄누리아동발달센터","tel":"031-378-0862","addr":"경기도 화성시 오산동 969-4번지 신유메디프라자 6층 608호","category":"보건위생 - 기타대인서비스"},{"name":"동탄최강학원","tel":"031-372-7077","addr":"경기도 화성시 오산동 969-4번지 신유메디프라자 510호","category":"학원 - 외국어학원"},{"name":"동탄탑치과의원","tel":"031-376-2802","addr":"경기도 화성시 오산동 969-4번지 5층 503-505호","category":"의원 - 치과의원"},{"name":"버클짐","tel":"031-377-9691","addr":"경기도 화성시 오산동 969-4번지 신유메디프라자 801~810호","category":"레저업소 - 헬스클럽"},{"name":"벤자롱스파","tel":"031-111-1111","addr":"경기도 화성시 오산동 969-4번지 신유메디프라자 3층 302호","category":"보건위생 - 피부미용실"},{"name":"비꼴로(Vicolo)","tel":"031-374-8489","addr":"경기도 화성시 오산동 969-4번지 신유메디프라자 1층 112호","category":"일반휴게음식 - 일반한식"},{"name":"비비큐 동탄역점","tel":"031-373-9255","addr":"경기도 화성시 오산동 969-4번지 신유메디프라자 1층 101호","category":"일반휴게음식 - 스넥"},{"name":"생활맥주 동탄역점","tel":"031-375-4497","addr":"경기도 화성시 오산동 969-4번지 신유메디프라자 1층 108호","category":"일반휴게음식 - 주점"},{"name":"아르티스 테마파크","tel":"031-377-4028","addr":"경기도 화성시 오산동 969-4번지 신유메디프라자 9층 901~910호","category":"레저업소 - 기타레져업소"},{"name":"아르티스 테마파크","tel":"031-547-9625","addr":"경기도 화성시 오산동 969-4번지 910호","category":"일반휴게음식 - 일반한식"},{"name":"우주라이크커피","tel":"031-8055-0977","addr":"경기도 화성시 오산동 969-4번지 신유메디프라자 1층 105호일부","category":"일반휴게음식 - 서양음식"},{"name":"유씨(UC)어학원","tel":"","addr":"경기도 화성시 오산동 969-4번지 603,604호","category":"학원 - 외국어학원"},{"name":"인디아테라피","tel":"031-378-1771","addr":"경기도 화성시 오산동 969-4번지 7층 709,710호","category":"보건위생 - 피부미용실"},{"name":"정읍애오늘","tel":"031-376-5432","addr":"경기도 화성시 오산동 969-4번지 2층 203,204호","category":"일반휴게음식 - 일반한식"},{"name":"지 (G)","tel":"","addr":"경기도 화성시 오산동 969-4번지 2층 201호","category":"일반휴게음식 - 일반한식"},{"name":"최용훈국어전문학원","tel":"031-377-3731","addr":"경기도 화성시 오산동 969-4번지 508호","category":"학원 - 보습학원"},{"name":"크라이오랩 동탄2신도시점","tel":"","addr":"경기도 화성시 오산동 969-4번지 306호","category":"보건위생 - 피부미용실"},{"name":"크리에듀학원","tel":"031-375-7913","addr":"경기도 화성시 오산동 969-4번지 신유메디프라자 605호","category":"학원 - 보습학원"},{"name":"크린토피아 동탄역점","tel":"031-372-0119","addr":"경기도 화성시 오산동 969-4번지 1층 102-1호","category":"수리서비스 - 세탁소"},{"name":"통파이브동탄역점","tel":"","addr":"경기도 화성시 오산동 969-4번지 1층 103호","category":"일반휴게음식 - 주점"},{"name":"포베이 동탄역점","tel":"031-374-1998","addr":"경기도 화성시 오산동 969-4번지 2층 205호","category":"일반휴게음식 - 일반한식"},{"name":"헤어인폼","tel":"031-373-8860","addr":"경기도 화성시 오산동 969-4번지 207호","category":"보건위생 - 미용원"}]},{"lat":"37.203608195","long":"127.08891969","items":[{"name":"GS25동탄아이비점","tel":"","addr":"경기도 화성시 오산동 971번지 (오산동, C-5블록)반도유보라 카림애비뉴2차 판매시설 1층 W151호","category":"유통업 영리 - 편 의 점"},{"name":"굽네치킨 동탄역점","tel":"031-372-9495","addr":"경기도 화성시 오산동 971번지 동탄역반도유보라아이비파크7.0 106동 115호","category":"일반휴게음식 - 스넥"},{"name":"늘솜 피아노","tel":"","addr":"경기도 화성시 오산동 971번지 동탄역 반도유보라 아이비파크 7.0 102동 301호","category":"학원 - 기타 교육기관"},{"name":"반도7차라온어린이집[아이행복]","tel":"031-8050-5235","addr":"경기도 화성시 오산동 971번지 동탄역반도유보라아이비파크7.0","category":"학원 - 유아원"},{"name":"반찬포유","tel":"","addr":"경기도 화성시 오산동 971번지 동탄역반도유보라아이비파크7.0 106동1층136일부호","category":"음료식품 - 기타음료식품"},{"name":"베이직 아동 발달센터","tel":"031-000-0000","addr":"경기도 화성시 오산동 971번지 동탄역반도유보라아이비파크7.0 105동 501호","category":"학원 - 기타 교육기관"},{"name":"블랙울프","tel":"070-5096-5848","addr":"경기도 화성시 오산동 971번지 동탄역반도유보라아이비파크7.0 106동 119호","category":"일반휴게음식 - 서양음식"},{"name":"사비오(SABIO)펜싱클럽","tel":"031-378-5009","addr":"경기도 화성시 오산동 971번지 동탄역반도유보라아이비파크7.0 106동3층 315~317호","category":"학원 - 예·체능계학원"},{"name":"수어울림사고력수학교습소","tel":"031-3308-2568","addr":"경기도 화성시 오산동 971번지 동탄역반도유보라아이비파크7.0 판매시설동 2층 W239호","category":"학원 - 보습학원"},{"name":"신우한식뷔페","tel":"031-372-0977","addr":"경기도 화성시 오산동 971번지 동탄역반도유보라아이비파크7.0 106동 3층 310~314호","category":"일반휴게음식 - 일반한식"},{"name":"여우애김밥 동탄역점","tel":"031-377-2356","addr":"경기도 화성시 오산동 971번지 동탄역반도유보라아이비파크7.0 106동 1층 132호","category":"일반휴게음식 - 스넥"},{"name":"오마뎅 동탄반도유보라7차점","tel":"031-8077-9956","addr":"경기도 화성시 오산동 971번지 동탄역반도유보라아이비파크7.0 106동 1층 111호","category":"일반휴게음식 - 일반한식"},{"name":"투다리 카림2차점","tel":"031-375-9924","addr":"경기도 화성시 오산동 971번지 동탄역반도유보라아이비파크7.0 105동 1층 113호","category":"일반휴게음식 - 일반한식"}]},{"lat":"37.181280867","long":"127.11043687","items":[{"name":"GS25동탄힐즈점","tel":"","addr":"경기도 화성시 오산동 1046번지 화성동탄2센트럴힐즈동탄아파트 상가동 105호","category":"유통업 영리 - 편 의 점"},{"name":"춘희삼겹살","tel":"031-373-9958","addr":"경기도 화성시 오산동 1046번지 화성동탄2센트럴힐즈 상가동 103호","category":"일반휴게음식 - 일반한식"},{"name":"파리바게트 동탄센트럴힐즈점","tel":"031-375-3374","addr":"경기도 화성시 오산동 1046번지 단지내근린상가 101호,102호","category":"음료식품 - 제과점"}]},{"lat":"37.185442394","long":"127.10155727","items":[{"name":"STCO 동탄2 신도시점","tel":"031-375-5824","addr":"경기도 화성시 오산동 1030-3번지 1층","category":"레져용품 - 스포츠·레져용품"},{"name":"정원상사","tel":"070-7856-0989","addr":"경기도 화성시 오산동 1031-1번지 1층 102호","category":"건축자재 - 목재·석재·철물"}]},{"lat":"37.20186281","long":"127.09729825","items":[{"name":"Shooting Ice cream(슈팅아이스크림)","tel":"031-375-4322","addr":"경기도 화성시 오산동 1019번지 1050호","category":"음료식품 - 기타음료식품"},{"name":"고우시","tel":"031-837-8088","addr":"경기도 화성시 오산동 1019번지 라스플로레스 426~430호","category":"일반휴게음식 - 일식·회집"},{"name":"그린 테이블","tel":"","addr":"경기도 화성시 오산동 1019번지 라스플로레스 B동 1055호","category":"일반휴게음식 - 서양음식"},{"name":"다이아","tel":"","addr":"경기도 화성시 오산동 1019번지 B동 1052호","category":"신변잡화 - 액세서리"},{"name":"당신의 부동산공인중개사사무소","tel":"031-000-0000","addr":"경기도 화성시 오산동 1019번지 1083호","category":"용역 서비스 - 부동산 중개·임대"},{"name":"대원","tel":"031-266-7299","addr":"경기도 화성시 오산동 1019번지 5층 518호","category":"일반휴게음식 - 일반한식"},{"name":"더영진아이티학원","tel":"031-8055-8883","addr":"경기도 화성시 오산동 1019번지 동탄라스플로레스 441호","category":"학원 - 컴퓨터학원"},{"name":"동탄건강생활","tel":"031-8015-2630","addr":"경기도 화성시 오산동 1019번지 라스플로레스 B동 4층 425호","category":"건강식품 - 기타건강식품"},{"name":"동탄롤라스타","tel":"031-373-5007","addr":"경기도 화성시 오산동 1019번지 434동 440호","category":"레저업소 - 기타레져업소"},{"name":"동탄명가한식뷔페","tel":"031-372-5584","addr":"경기도 화성시 오산동 1019번지 라스플로레스 2층 204, 205호","category":"일반휴게음식 - 일반한식"},{"name":"동탄짐보리","tel":"031-8015-7770","addr":"경기도 화성시 오산동 1019번지 라스플로레스 D동 4층 409호","category":"레저업소 - 기타레져업소"},{"name":"라스분식","tel":"031-831-3644","addr":"경기도 화성시 오산동 1019번지 라스플로레스 1층 1016호","category":"일반휴게음식 - 일반한식"},{"name":"라화쿵부 동탄점","tel":"","addr":"경기도 화성시 오산동 1019번지 1층 1018호,1019호","category":"일반휴게음식 - 중국식"},{"name":"롯데리아 동탄CGV점","tel":"031-378-2018","addr":"경기도 화성시 오산동 1019번지 라스폴로레스 1층 1095호","category":"일반휴게음식 - 서양음식"},{"name":"리안헤어","tel":"031-375-8788","addr":"경기도 화성시 오산동 1019번지 2층 219호","category":"보건위생 - 미용원"},{"name":"맘풀테라피카페","tel":"070-4567-4444","addr":"경기도 화성시 오산동 1019번지 4층 403호","category":"일반휴게음식 - 서양음식"},{"name":"메디팜 범환약국","tel":"031-373-1410","addr":"경기도 화성시 오산동 1019번지 A동 1114,1115호","category":"약국 - 약국"},{"name":"멜팅웍","tel":"","addr":"경기도 화성시 오산동 1019번지 리스플로레스 3층 309호","category":"일반휴게음식 - 중국식"},{"name":"명가한식뷔페","tel":"070-8947-4490","addr":"경기도 화성시 오산동 1019번지 2층 203호","category":"일반휴게음식 - 일반한식"},{"name":"모우만 동탄점","tel":"","addr":"경기도 화성시 오산동 1019번지 라스플로레스 1층 1040,1041호","category":"일반휴게음식 - 일반한식"},{"name":"못난이꽈배기(동탄1호점)","tel":"070-7543-4375","addr":"경기도 화성시 오산동 1019번지 라플로레스 1층 1093호","category":"일반휴게음식 - 서양음식"},{"name":"몽짬뽕","tel":"","addr":"경기도 화성시 오산동 1019번지 라스플로렌스판매시설 1층 1017 ,1079 일부호","category":"일반휴게음식 - 중국식"},{"name":"미스터힐링 동탄역점","tel":"031-375-2022","addr":"경기도 화성시 오산동 1019번지 2층 220호","category":"보건위생 - 기타대인서비스"},{"name":"밥집","tel":"","addr":"경기도 화성시 오산동 1019번지 210호 라스플로레스","category":"일반휴게음식 - 일반한식"},{"name":"베러댄와플 라스플로레스점","tel":"031-377-3103","addr":"경기도 화성시 오산동 1019번지 라스플로레스 1층 1130호","category":"일반휴게음식 - 서양음식"},{"name":"빌라드스킨 피부과의원","tel":"031-111-1111","addr":"경기도 화성시 오산동 1019번지 4층 442,443호","category":"의원 - 의원"},{"name":"살롱드프롬 2동탄점","tel":"031-375-9089","addr":"경기도 화성시 오산동 1019번지 2층 라스플로레스 247호","category":"보건위생 - 미용원"},{"name":"스타슬라임(플레이 카페)","tel":"031-377-5010","addr":"경기도 화성시 오산동 1019번지 라스플로레스 447호 446호, 447호","category":"서적문구 - 완구점"},{"name":"스트라이크존 동탄역 구장","tel":"031-375-0919","addr":"경기도 화성시 오산동 1019번지 513호,514호,515호","category":"레저업소 - 기타레져업소"},{"name":"썬로스팅하우스","tel":"","addr":"경기도 화성시 오산동 1019번지 1층 1094호","category":"일반휴게음식 - 서양음식"},{"name":"씨부떡","tel":"031-377-2799","addr":"경기도 화성시 오산동 1019번지 라스플로레스 1층 1125호","category":"일반휴게음식 - 스넥"},{"name":"아들딸한의원","tel":"031-376-9203","addr":"경기도 화성시 오산동 1019번지 라스플로레스 A동 336gh","category":"의원 - 한의원"},{"name":"아이러브밀가루","tel":"031-8043-7033","addr":"경기도 화성시 오산동 1019번지 라스플로레스 308호 307호,308호","category":"학원 - 기타 교육기관"},{"name":"아이폰엔젤 동탄아이폰수리센터","tel":"070-7677-4105","addr":"경기도 화성시 오산동 1019번지 동탄라스플로레스 4층 407호","category":"수리서비스 - 사무·통신기기수리"},{"name":"알파문구동탄역점","tel":"031-376-2042","addr":"경기도 화성시 오산동 1019번지 2층 222호","category":"서적문구 - 문구용품"},{"name":"애월애","tel":"031-374-8818","addr":"경기도 화성시 오산동 1019번지 라스폴로레스 1층 1074호~1076호","category":"일반휴게음식 - 일반한식"},{"name":"얌얌브레드 동탄점","tel":"031-377-1526","addr":"경기도 화성시 오산동 1019번지 라스플로레스 A동 1층 1100호","category":"일반휴게음식 - 서양음식"},{"name":"에리카헤어 동탄점","tel":"031-377-1177","addr":"경기도 화성시 오산동 1019번지 라스플로레스 1층 1023,1024호","category":"보건위생 - 미용원"},{"name":"우리집 건어물","tel":"031-111-1111","addr":"경기도 화성시 오산동 1019번지 B동 1048호","category":"음료식품 - 기타음료식품"},{"name":"위대한탄생 산부인과","tel":"031-365-4799","addr":"경기도 화성시 오산동 1019번지 332동 346호","category":"의원 - 의원"},{"name":"위대한탄생 산후조리원","tel":"031-365-4799","addr":"경기도 화성시 오산동 1019번지 라스플로레스 A동 338-342호","category":"기타의료기관 - 산후조리원"},{"name":"윙키즈","tel":"031-378-0901","addr":"경기도 화성시 오산동 1019번지 라스플로레스 5층 507호","category":"일반휴게음식 - 일반한식"},{"name":"유달리","tel":"02-4518-3148","addr":"경기도 화성시 오산동 1019번지 1층 1010,1011호","category":"일반휴게음식 - 서양음식"},{"name":"이디야 동탄역CGV점","tel":"031-372-6241","addr":"경기도 화성시 오산동 1019번지 라스플로레스 5층 519호","category":"일반휴게음식 - 서양음식"},{"name":"이마트24 동탄라스점","tel":"031-000-0000","addr":"경기도 화성시 오산동 1019번지 1층 1106호","category":"유통업 영리 - 편 의 점"},{"name":"이지치과의원","tel":"031-377-2662","addr":"경기도 화성시 오산동 1019번지 312-313호","category":"의원 - 치과의원"},{"name":"장군닭강정","tel":"","addr":"경기도 화성시 오산동 1019번지 1008호","category":"일반휴게음식 - 일반한식"},{"name":"전주밥상","tel":"031-378-0446","addr":"경기도 화성시 오산동 1019번지 322,323호 라스플로레서","category":"일반휴게음식 - 일반한식"},{"name":"주식회사 엘케이무역","tel":"02-1111-1111","addr":"경기도 화성시 오산동 1019번지 C동 325호","category":"전기제품 - 기타전기제품"},{"name":"지미원","tel":"","addr":"경기도 화성시 오산동 1019번지 2층 229호","category":"음료식품 - 기타음료식품"},{"name":"커피베이 (동탄2신도시 CGV점)","tel":"031-376-9898","addr":"경기도 화성시 오산동 1019번지 5층 520호","category":"일반휴게음식 - 서양음식"},{"name":"타이팰리스","tel":"","addr":"경기도 화성시 오산동 1019번지 라스폴로레스 502호","category":"레저업소 - 헬스클럽"},{"name":"탄사진관","tel":"031-376-5778","addr":"경기도 화성시 오산동 1019번지 라스플로레스 2층 246호","category":"광학제품 - 사진관"},{"name":"탕화쿵푸마라탕전문점","tel":"031-747-8874","addr":"경기도 화성시 오산동 1019번지 1층 1056호","category":"일반휴게음식 - 중국식"},{"name":"투썸플레이스 동탄라스플로레스","tel":"031-372-2504","addr":"경기도 화성시 오산동 1019번지 라스플로레스 1층 1029,1030,1031호","category":"일반휴게음식 - 서양음식"},{"name":"퍼스널사진관","tel":"031-373-1109","addr":"경기도 화성시 오산동 1019번지 라스플로레스 D동 2층 208호","category":"광학제품 - 사진관"},{"name":"하이맨비뇨의학과의원","tel":"","addr":"경기도 화성시 오산동 1019번지 C동 329호","category":"의원 - 의원"},{"name":"허그맘 허그인 동탄 심리상담 센타","tel":"031-378-3866","addr":"경기도 화성시 오산동 1019번지 4층 412호","category":"보건위생 - 기타대인서비스"},{"name":"홍루이젠 동탄역라스점","tel":"","addr":"경기도 화성시 오산동 1019번지 B동 1032호","category":"일반휴게음식 - 스넥"},{"name":"홍콩반점0410플러스 동탄역북부점","tel":"031-935-5787","addr":"경기도 화성시 오산동 1019번지 2층 230호","category":"일반휴게음식 - 중국식"},{"name":"황제밥상","tel":"031-375-2930","addr":"경기도 화성시 오산동 1019번지 동탄(2)택지개발지구 L3-2블록 동탄라스플로레스 1층 22","category":"일반휴게음식 - 일반한식"}]},{"lat":"37.203804648","long":"127.09133051","items":[{"name":"the북스","tel":"031-793-5553","addr":"경기도 화성시 오산동 972번지 동탄역반도유보라아이비파크6.0 805동 2404호","category":"서적문구 - 출판 및 인쇄물"},{"name":"반도다누리어린이집[아이행복]","tel":"031-376-0828","addr":"경기도 화성시 오산동 972번지 동탄역반도유보라 아이비파크6.0관리동","category":"학원 - 유아원"},{"name":"백마크리닝 동탄3호점","tel":"031-000-0000","addr":"경기도 화성시 오산동 972번지 동탄역반도유보라아이비파크6.0 상가 B동 105호","category":"수리서비스 - 세탁소"},{"name":"수원화성동탄콜밴","tel":"","addr":"경기도 화성시 오산동 972번지 동탄역반도유보라아이비파크6.0 806동 201호","category":"여행 - 기타교통수단"},{"name":"씨유동탄카림점","tel":"031-373-5486","addr":"경기도 화성시 오산동 972번지 동탄역 반도유보라 아이비파크6.0 B층 101호","category":"유통업 영리 - 편 의 점"},{"name":"앨리스 펀 몬테소리","tel":"","addr":"경기도 화성시 오산동 972번지 동탄역반도유보라아이비파크6.0 806동 2층 4호","category":"학원 - 기타 교육기관"},{"name":"와이알유디(YRUd)","tel":"","addr":"경기도 화성시 오산동 972번지 동탄역 반도유보라 아이비파크6.0 805동","category":"신변잡화 - 액세서리"},{"name":"이마트24 동탄역카림점","tel":"","addr":"경기도 화성시 오산동 972번지 동탄역반도유보라아이비파크6.0 A동 101호","category":"유통업 영리 - 편 의 점"}]},{"lat":"37.195055953","long":"127.0908022","items":[{"name":"가을햇살수제떡케익","tel":"031-663-0447","addr":"경기도 화성시 오산동 988번지 동탄역반도유보라아이비파크5.0 1510동 201호","category":"음료식품 - 제과점"},{"name":"꿈나래어린이집[아이행복]","tel":"031-373-2589","addr":"경기도 화성시 오산동 988번지 동탄역반도유보라아이비파크5.0","category":"학원 - 유아원"},{"name":"반도5세탁","tel":"031-375-5990","addr":"경기도 화성시 오산동 988번지 동탄역반도유보라아이비파크5.0 상가1509동 지1층 B106호","category":"수리서비스 - 세탁소"},{"name":"이마트24 동탄반도유보라","tel":"","addr":"경기도 화성시 오산동 988번지 동탄역반도유보라아이비파크5.0 상가 1509동 B105호","category":"유통업 영리 - 편 의 점"}]},{"lat":"37.18489115","long":"127.10347103","items":[{"name":"가장맛있는족발","tel":"031-376-5845","addr":"경기도 화성시 오산동 1033-5번지","category":"일반휴게음식 - 일반한식"},{"name":"글라트","tel":"031-377-1007","addr":"경기도 화성시 오산동 1032-2번지","category":"보건위생 - 안경"},{"name":"더율헤어","tel":"031-377-4563","addr":"경기도 화성시 오산동 1032-1번지 104호","category":"보건위생 - 미용원"},{"name":"또바기","tel":"031-375-0430","addr":"경기도 화성시 오산동 1030-15번지 1층 일부호","category":"일반휴게음식 - 스넥"},{"name":"미인돼지","tel":"031-378-9296","addr":"경기도 화성시 오산동 1032-5번지","category":"일반휴게음식 - 일반한식"},{"name":"선이홈케어","tel":"031-1855-3212","addr":"경기도 화성시 오산동 1032-1번지 201호","category":"용역 서비스 - 종합용역"},{"name":"소호칼국수","tel":"","addr":"경기도 화성시 오산동 1033-4번지 102호 103호","category":"일반휴게음식 - 일반한식"},{"name":"오투닭갈비부대찌개","tel":"031-375-4203","addr":"경기도 화성시 오산동 1033-3번지 1층","category":"일반휴게음식 - 일반한식"},{"name":"용가마순대","tel":"031-376-6577","addr":"경기도 화성시 오산동 1032-4번지 1층","category":"일반휴게음식 - 일반한식"},{"name":"자연다움","tel":"031-252-9786","addr":"경기도 화성시 오산동 1032-8번지 202호","category":"음료식품 - 기타음료식품"},{"name":"카브라더스","tel":"031-372-5431","addr":"경기도 화성시 오산동 1032-4번지 1층","category":"자동차정비 유지 - 자동차부품"},{"name":"하남돼지집 동탄대로점","tel":"031-375-0418","addr":"경기도 화성시 오산동 1033-4번지 1층 상가","category":"일반휴게음식 - 일반한식"}]},{"lat":"37.181861408","long":"127.10607961","items":[{"name":"강주연 개인과외","tel":"","addr":"경기도 화성시 오산동 1044번지 반도유보라아이비파크3 1810동 701호","category":"학원 - 기타 교육기관"},{"name":"다올건축","tel":"","addr":"경기도 화성시 오산동 1044번지 반도유보라아이비파크3 1814동 1004호","category":"용역 서비스 - 기타용역서비스"},{"name":"동탄 수달 수학교실","tel":"","addr":"경기도 화성시 오산동 1044번지 반도유보라아이비파크3 1808동 205호","category":"학원 - 기타 교육기관"},{"name":"마이제이헤어","tel":"031-376-1230","addr":"경기도 화성시 오산동 1044번지 반도유보라아이비파크3 상가동 1층 108호","category":"보건위생 - 미용원"},{"name":"바른치킨 왕배초점","tel":"031-375-5840","addr":"경기도 화성시 오산동 1044번지 반도유보라아이비파크3 110호","category":"일반휴게음식 - 스넥"},{"name":"반도숲어린이집[아이행복]","tel":"031-378-0804","addr":"경기도 화성시 오산동 1044번지 반도유보라아이비파크3 1813동 104호","category":"학원 - 유아원"},{"name":"반도한울어린이집[아이행복]","tel":"031-373-1186","addr":"경기도 화성시 오산동 1044번지 반도유보라아이비파크3 관리동","category":"학원 - 유아원"},{"name":"삼성세탁","tel":"031-377-0963","addr":"경기도 화성시 오산동 1044번지 반도유보라아이비파크3 상가동 1층 106호","category":"수리서비스 - 세탁소"},{"name":"씨유동탄유보라점","tel":"031-691-8304","addr":"경기도 화성시 오산동 1044번지 반도유보라아이파크 3 상가동 101호","category":"유통업 영리 - 편 의 점"},{"name":"에뜨왈어린이집[아이행복]","tel":"031-374-3121","addr":"경기도 화성시 오산동 1044번지 반도유보라아이비파크3 1802동 101호","category":"학원 - 유아원"},{"name":"에이포인트(A.POINT)","tel":"","addr":"경기도 화성시 오산동 1044번지 반도유보라아이비파크3 1803동 14층 4호","category":"용역 서비스 - 사무서비스"},{"name":"엘리트영어과외방","tel":"032-000-0000","addr":"경기도 화성시 오산동 1044번지 반도유보라아이비파크3 1806동 203호","category":"학원 - 기타 교육기관"},{"name":"엠디오토 출장세차 경기화성점","tel":"","addr":"경기도 화성시 오산동 1044번지 반도유보라아이비파크3 1802동 1704호","category":"자동차정비 유지 - 세차장"},{"name":"청담클루빌","tel":"031-373-3010","addr":"경기도 화성시 오산동 1044번지 반도유보라아이비파크3 1804동 102호","category":"학원 - 기타 교육기관"},{"name":"청솔어린이집[아이행복]","tel":"031-8043-0332","addr":"경기도 화성시 오산동 1044번지 반도유보라3차 1804동 101호","category":"학원 - 유아원"},{"name":"킹잉글리쉬","tel":"","addr":"경기도 화성시 오산동 1044번지 반도유보라아이비파크3 1803동 803호","category":"학원 - 기타 교육기관"}]},{"lat":"37.188469779","long":"127.09022019","items":[{"name":"개인과외","tel":"031-8043-3626","addr":"경기도 화성시 오산동 1001번지 동탄역더샵센트럴시티2차 1611동 903호","category":"학원 - 기타 교육기관"},{"name":"능률영어포스코교실","tel":"031-1577-0551","addr":"경기도 화성시 오산동 1001번지 동탄역더샵센트럴시티2차 1617동 302호","category":"학원 - 기타 교육기관"},{"name":"더샵꿈모아어린이집[아이행복]","tel":"031-372-2883","addr":"경기도 화성시 오산동 1001번지 동탄역더샵센트럴시티2차 1612동 103호","category":"학원 - 유아원"},{"name":"비상잉글리시아이","tel":"","addr":"경기도 화성시 오산동 1001번지 동탄역더샵센트럴시티2차 1620동 403호","category":"학원 - 기타 교육기관"},{"name":"슬라임 쮸","tel":"","addr":"경기도 화성시 오산동 1001번지 동탄역더샵센트럴시티2차 1617동 1303호","category":"신변잡화 - 기타잡화"},{"name":"시립더사랑어린이집[아이행복]","tel":"031-8077-9675","addr":"경기도 화성시 오산동 1001번지 동탄역더샵센트럴시티2차","category":"학원 - 유아원"},{"name":"아소비 동탄포스코2차점","tel":"","addr":"경기도 화성시 오산동 1001번지 동탄역더샵센트럴시티2차 1620동 1402호","category":"학원 - 기타 교육기관"},{"name":"월드크리닝 동탄역센트럴시티2차점","tel":"031-373-0363","addr":"경기도 화성시 오산동 1001번지 동탄역더샵센트럴시티2차 상가 107호","category":"수리서비스 - 세탁소"},{"name":"킹콩떡볶이(동탄초교점)","tel":"","addr":"경기도 화성시 오산동 1001번지 동탄역더샵센트럴시티2차 근린생활시설동 104호","category":"일반휴게음식 - 스넥"},{"name":"헤럴드영어교실더샵2차점","tel":"","addr":"경기도 화성시 오산동 1001번지 동탄역더샵센트럴시티2차 1614동 2003호","category":"학원 - 기타 교육기관"}]},{"lat":"37.187580335","long":"127.08663784","items":[{"name":"경희대 LION STAR 태권도장","tel":"031-000-0000","addr":"경기도 화성시 오산동 997-3번지 동탄안강프라이빗에듀 404,405호","category":"학원 - 예·체능계학원"},{"name":"고고 점핑다이어트","tel":"032-378-0062","addr":"경기도 화성시 오산동 997-3번지 동탄안강프라이빗에듀 304호","category":"건강식품 - 기타건강식품"},{"name":"루나피아노교습소","tel":"","addr":"경기도 화성시 오산동 997-3번지 동탄안강 프라이빗 에듀 403호 일부","category":"학원 - 예·체능계학원"},{"name":"마마트 동탄점","tel":"","addr":"경기도 화성시 오산동 997-3번지 107호","category":"유통업 영리 - 슈퍼마켓"},{"name":"유니팝미술교습소","tel":"070-8737-7725","addr":"경기도 화성시 오산동 997-3번지 501호","category":"학원 - 예·체능계학원"},{"name":"이산수학학원","tel":"","addr":"경기도 화성시 오산동 997-3번지 안강프라이빗에듀 701호,702호","category":"학원 - 보습학원"},{"name":"플랜트 동탄2신도시점","tel":"070-4270-2407","addr":"경기도 화성시 오산동 997-3번지 6층 603,604호","category":"용역 서비스 - 사무서비스"},{"name":"호치킨 화성동탄에듀몰점","tel":"031-373-5727","addr":"경기도 화성시 오산동 997-3번지 109호","category":"일반휴게음식 - 스넥"}]},{"lat":"37.20211084","long":"127.09113704","items":[{"name":"경희대 슈퍼키즈 태권도장","tel":"031-373-9075","addr":"경기도 화성시 오산동 973번지 동탄역반도유보라아이비파크8.0 207동 e110,e111호","category":"학원 - 예·체능계학원"},{"name":"놀작마이아트혜윰아트센터미술교습소","tel":"","addr":"경기도 화성시 오산동 973번지 C-8블럭 카림에비뉴 207동 E114호","category":"학원 - 예·체능계학원"},{"name":"더마스튜디오","tel":"","addr":"경기도 화성시 오산동 973번지 동탄역반도유보라아이비파크8.0 207동 1층 E106호","category":"보건위생 - 화장품"},{"name":"도도약국","tel":"031-374-7570","addr":"경기도 화성시 오산동 973번지 동탄역반도유보라아이비파크8.0카림애비뉴2차EAST 207동지하1층01032호","category":"약국 - 약국"},{"name":"동탄역반도어린이집[아이행복]","tel":"031-376-8879","addr":"경기도 화성시 오산동 973번지 동탄역반도유보라아이비파크8.0 관리동 어린이집","category":"학원 - 유아원"},{"name":"떡사장","tel":"031-377-2444","addr":"경기도 화성시 오산동 973번지 동탄역반도유보라 아이비파크8.0 판매시설동 지하 E009호","category":"일반휴게음식 - 일반한식"},{"name":"라라뷰티","tel":"","addr":"경기도 화성시 오산동 973번지 동탄역반도유보라아이비파크8.0 207동 지하1층 E032호","category":"보건위생 - 피부미용실"},{"name":"라보떼(LA BEAUTE)","tel":"031-5423-2085","addr":"경기도 화성시 오산동 973번지 반도유보라아이비파크8.0 동탄(2)택지개발지구 C-88L 206동 406호","category":"보건위생 - 화장품"},{"name":"로모","tel":"031-8055-8744","addr":"경기도 화성시 오산동 973번지 동탄역반도유보라아이비파크8.0 207동 지하1층 45호","category":"의류 - 기타의류"},{"name":"로엔필라테스","tel":"","addr":"경기도 화성시 오산동 973번지 동탄역반도유보라아이비파크8.0 206동 9층 7호","category":"레저업소 - 헬스클럽"},{"name":"루아부띠끄","tel":"","addr":"경기도 화성시 오산동 973번지 동탄역반도유보라아이비파크8.0 207동 E101호","category":"보건위생 - 피부미용실"},{"name":"리드인 논술 교습소","tel":"","addr":"경기도 화성시 오산동 973번지 동탄역 반도유보라 아이비파크 8.0 207동 215호","category":"학원 - 예·체능계학원"},{"name":"메가커피동탄반도카림2차점","tel":"031-378-1568","addr":"경기도 화성시 오산동 973번지 207동 지1층 E004호 동탄역 반도유보라 아이비파크8.0","category":"일반휴게음식 - 서양음식"},{"name":"모차르트음악학원","tel":"031-372-6175","addr":"경기도 화성시 오산동 973번지 동탄역반도유보라아이비파크8.0 ,E115,E116","category":"학원 - 예·체능계학원"},{"name":"무이다므(mooie dame)","tel":"031-000-0000","addr":"경기도 화성시 오산동 973번지 동탄역 반도유보라 아이비파크 8.0 207동 E043호","category":"의류 - 정장"},{"name":"미스터라운지","tel":"","addr":"경기도 화성시 오산동 973번지 동탄역반도유보라아이비파크8.0 207동 지하1층 E039호","category":"보건위생 - 미용원"},{"name":"박장대소불고기","tel":"031-373-5824","addr":"경기도 화성시 오산동 973번지 동탄역반도유보라아이비파크8.0 207동 2층 E224호","category":"일반휴게음식 - 일반한식"},{"name":"반도청과","tel":"","addr":"경기도 화성시 오산동 973번지 동탄역반도유보라아이비파크8.0 207동 지하1층 E003호","category":"음료식품 - 농·축·수산품"},{"name":"베이프캠프","tel":"","addr":"경기도 화성시 오산동 973번지 동탄역반도유보라아이비파크8.0 207동 1층 E107호","category":"기타 - 기타 전문점"},{"name":"보니타","tel":"031-378-8077","addr":"경기도 화성시 오산동 973번지 동탄역반도유보라아이비파크8.0 207동 지하1층 E046호","category":"보건위생 - 피부미용실"},{"name":"보라옷수선","tel":"","addr":"경기도 화성시 오산동 973번지 동탄역반도유보라아이비파크8.0 207동 E207호","category":"수리서비스 - 세탁소"},{"name":"비비큐(BBQ) 동탄여울공원점","tel":"031-1588-9282","addr":"경기도 화성시 오산동 973번지 동탄역반도유보라아이비파크8.0 207동 지1층 E030호","category":"일반휴게음식 - 스넥"},{"name":"살롱우아한","tel":"031-8055-0993","addr":"경기도 화성시 오산동 973번지 동탄역반도유보라아이비파크8.0 207동 1층 E123호","category":"보건위생 - 미용원"},{"name":"서울유보라치과의원","tel":"031-375-5275","addr":"경기도 화성시 오산동 973번지 동탄역 반도유보라 아이비파크 8.0 207동 2층 212~214호","category":"의원 - 치과의원"},{"name":"슈가앤카롱","tel":"","addr":"경기도 화성시 오산동 973번지 동탄역반도유보라아이비파크8.0 지하 037호","category":"일반휴게음식 - 서양음식"},{"name":"신의주순대와쭈꾸미","tel":"031-376-7847","addr":"경기도 화성시 오산동 973번지 동탄역반도유보라아이비파크8.0 207동 1층E131, E132호","category":"일반휴게음식 - 일반한식"},{"name":"에그부띠크","tel":"","addr":"경기도 화성시 오산동 973번지 동탄역반도유보라아이비파크8.0 카림애비뉴2차판매시설 207동 E105호","category":"일반휴게음식 - 서양음식"},{"name":"에이플레이스","tel":"031-373-3554","addr":"경기도 화성시 오산동 973번지 동탄역반도유보라아이비파크8.0 207동 지하1층 J017호","category":"문화.취미 - 수족관"},{"name":"에코엠","tel":"","addr":"경기도 화성시 오산동 973번지 동탄역반도유보라아이비파크8.0오피스텔 201동 30층 3호","category":"기타 - 기계공구"},{"name":"여울수기원","tel":"031-376-9912","addr":"경기도 화성시 오산동 973번지 동탄역반도유보라아이비파크8.0 207동 J208호","category":"보건위생 - 화장품"},{"name":"오감랭귀지어학원","tel":"031-375-0586","addr":"경기도 화성시 오산동 973번지 동탄역반도유보라아이비파크8.0 1층 E128~130호","category":"학원 - 외국어학원"},{"name":"오늘 그리고 네일","tel":"","addr":"경기도 화성시 오산동 973번지 동탄역반도유보라아이비파크8.0 207동 지하1층 E042호","category":"보건위생 - 피부미용실"},{"name":"올가드림뷰티","tel":"031-377-2885","addr":"경기도 화성시 오산동 973번지 동탄역반도유보라아이비파크8.0 207동 E211호","category":"보건위생 - 피부미용실"},{"name":"올프레쉬(All fresh)","tel":"041-575-4578","addr":"경기도 화성시 오산동 973번지 동탄역카림아비뉴2차 판매시설 지하1층 01044호","category":"음료식품 - 농·축·수산품"},{"name":"우디헤어","tel":"","addr":"경기도 화성시 오산동 973번지 동탄역 반도유보라 아이비파크 8.0 1층E108호,109호","category":"보건위생 - 미용원"},{"name":"우아한","tel":"031-8055-0993","addr":"경기도 화성시 오산동 973번지 동탄역반도유보라아이비파크8.0 207동 1층 E122호","category":"문화.취미 - 화원"},{"name":"일등포차","tel":"","addr":"경기도 화성시 오산동 973번지 동탄역반도유보라아이비파크8.0 2층 E255호","category":"일반휴게음식 - 주점"},{"name":"정성가득찬","tel":"","addr":"경기도 화성시 오산동 973번지 동탄역 반도유보라 아이비파크 8.0 207동 지하1층 E041호","category":"음료식품 - 기타음료식품"},{"name":"제이에스테틱","tel":"031-8058-5262","addr":"경기도 화성시 오산동 973번지 동탄역반도유보라아이비파크8.0 207동 E209호","category":"보건위생 - 피부미용실"},{"name":"조이(Joy) 떡볶이","tel":"","addr":"경기도 화성시 오산동 973번지 동탄역 반도유보라 아이비파크 8.0 지1층 E049호","category":"일반휴게음식 - 스넥"},{"name":"주식회사 이솔루션","tel":"02-1111-1111","addr":"경기도 화성시 오산동 973번지 동탄역반도유보라아이비파크8.0 206동 3104호","category":"전기제품 - 기타전기제품"},{"name":"카림파크 정육점","tel":"031-377-4252","addr":"경기도 화성시 오산동 973번지 동탄역반도유보라아이비파크8.0 207동 지하1층 E014호","category":"음료식품 - 정육점"},{"name":"카페블루잼","tel":"031-000-0000","addr":"경기도 화성시 오산동 973번지 동탄역 반도유보라 아이비파크8.0 207동 지하1층 E008호","category":"일반휴게음식 - 서양음식"},{"name":"커피에 반하다 2동탄반도8차점","tel":"","addr":"경기도 화성시 오산동 973번지 동탄역 반도유보라 아이비파크 8.0 지1층 E016호","category":"일반휴게음식 - 서양음식"},{"name":"텀브커피 동탄 카림2차","tel":"031-8058-6459","addr":"경기도 화성시 오산동 973번지 동탄역반도유보라아이비파크8.0 207동 지층 E204호 1층","category":"일반휴게음식 - 서양음식"},{"name":"파리바게뜨 동탄여울공원점","tel":"02-0000-0000","addr":"경기도 화성시 오산동 973번지 동탄역반도유보라아이비파크8.0 207동 지하1층 E301호","category":"음료식품 - 제과점"},{"name":"필헤어","tel":"031-377-8561","addr":"경기도 화성시 오산동 973번지 동탄역반도유보라아이비파크8.0 207동 지하1층 E047호","category":"보건위생 - 미용원"},{"name":"핏네일","tel":"","addr":"경기도 화성시 오산동 973번지 동탄역반도유보라아이비파크8.0 207동 E103호","category":"보건위생 - 피부미용실"},{"name":"홍베이팡(동탄여울공원점)","tel":"070-4142-0101","addr":"경기도 화성시 오산동 973번지 동탄역반도유보라아이비파크8.0 207동 지하1층 15호","category":"일반휴게음식 - 서양음식"},{"name":"홍춘천 치즈 닭갈비","tel":"","addr":"경기도 화성시 오산동 973번지 동탄역 반도유보라 아이비파크 8.0 225,226호","category":"일반휴게음식 - 일반한식"},{"name":"후다닭&파닭","tel":"031-373-9992","addr":"경기도 화성시 오산동 973번지 동탄역 반도유보라 아이비파크 8.0 207동 지하1층 E040호","category":"일반휴게음식 - 스넥"}]},{"lat":"37.197772706","long":"127.09652724","items":[{"name":"고래몽","tel":"031-000-0000","addr":"경기도 화성시 오산동 968-7번지 동탄KTX중앙파크뷰 1층 106호","category":"일반휴게음식 - 일식·회집"},{"name":"근본 퍼스널 트레이닝","tel":"031-376-4556","addr":"경기도 화성시 오산동 968-7번지 동탄케이티엑스중앙파크뷰 4층 401호","category":"레저업소 - 헬스클럽"},{"name":"금강의 해오름","tel":"031-308-9811","addr":"경기도 화성시 오산동 968-7번지 동탄KTX중앙파크뷰 113,113-1,114호","category":"일반휴게음식 - 일반한식"},{"name":"김영희동태찜&코다리냉면","tel":"031-372-5533","addr":"경기도 화성시 오산동 968-7번지 1층 107,108호","category":"일반휴게음식 - 일반한식"},{"name":"씨에이차(CH)개발 (매점)","tel":"031-308-9811","addr":"경기도 화성시 오산동 968-7번지 KTX중앙파크뷰 101호 (오산,0번지","category":"음료식품 - 기타음료식품"},{"name":"주식회사 헬로스마일 동탄점","tel":"031-375-5412","addr":"경기도 화성시 오산동 968-7번지 301호","category":"학원 - 기타 교육기관"},{"name":"케이(K)팝노래연습장","tel":"031-374-8265","addr":"경기도 화성시 오산동 968-7번지 206호","category":"레저업소 - 노 래 방"}]},{"lat":"37.197717694","long":"127.09772111","items":[{"name":"골든벨노래연습장","tel":"031-376-0667","addr":"경기도 화성시 오산동 969-6번지 202,203호","category":"레저업소 - 노 래 방"},{"name":"도틔대가","tel":"","addr":"경기도 화성시 오산동 969-6번지 1층 101호","category":"일반휴게음식 - 일반한식"},{"name":"돌배기집 동탄역점","tel":"031-377-9001","addr":"경기도 화성시 오산동 969-6번지 광장프리미엄빌2차 1층 109,110,111호","category":"일반휴게음식 - 일반한식"},{"name":"바다어부","tel":"031-372-0059","addr":"경기도 화성시 오산동 969-6번지 1층 105호 광장프리미엄빌ll","category":"일반휴게음식 - 일식·회집"},{"name":"불독PC방","tel":"070-6257-5789","addr":"경기도 화성시 오산동 969-6번지 광장프리미엄빌 304,305호","category":"레저업소 - 기타레져업소"},{"name":"비어첸 동탄역점","tel":"031-375-6466","addr":"경기도 화성시 오산동 969-6번지 201호","category":"일반휴게음식 - 주점"},{"name":"송이네 양꼬치","tel":"","addr":"경기도 화성시 오산동 969-6번지 1층 112호","category":"일반휴게음식 - 일반한식"},{"name":"신풍닭발","tel":"031-376-3096","addr":"경기도 화성시 오산동 969-6번지 1층 107호","category":"일반휴게음식 - 일반한식"},{"name":"아가솜 모유 육아상담실","tel":"031-372-2103","addr":"경기도 화성시 오산동 969-6번지 GTX광장프라자2 1308호","category":"학원 - 기타 교육기관"},{"name":"육회지존 동탄역점","tel":"031-374-7181","addr":"경기도 화성시 오산동 969-6번지 1층 106호","category":"일반휴게음식 - 일반한식"},{"name":"정마트","tel":"031-000-0000","addr":"경기도 화성시 오산동 969-6번지 광장프리미엄빌1 103호","category":"유통업 영리 - 슈퍼마켓"},{"name":"제주백정의 필살기","tel":"","addr":"경기도 화성시 오산동 969-6번지 1층 108호","category":"일반휴게음식 - 일반한식"}]},{"lat":"37.197501974","long":"127.09705629","items":[{"name":"곱창고 동탄역점","tel":"031-372-5979","addr":"경기도 화성시 오산동 968-4번지 동탄역리코빌 1층 111호","category":"일반휴게음식 - 일반한식"},{"name":"동탄역리코빌 관리단","tel":"031-375-2228","addr":"경기도 화성시 오산동 968-4번지","category":"자동차정비 유지 - 주차장"},{"name":"레하브레인발달센터/레하솔루션 주식회사","tel":"070-8624-3002","addr":"경기도 화성시 오산동 968-4번지 동탄역리코빌 405호","category":"보건위생 - 기타대인서비스"},{"name":"로얄자카르타","tel":"070-4616-4144","addr":"경기도 화성시 오산동 968-4번지 1층 101호","category":"일반휴게음식 - 주점"},{"name":"문꼬야","tel":"031-372-1834","addr":"경기도 화성시 오산동 968-4번지 동탄역리코빌 107,108호","category":"일반휴게음식 - 일반한식"},{"name":"문어집2호점","tel":"02-1111-1111","addr":"경기도 화성시 오산동 968-4번지 1층 106호","category":"일반휴게음식 - 일반한식"},{"name":"백채김치찌개","tel":"031-373-0840","addr":"경기도 화성시 오산동 968-4번지 1층 110일부호","category":"일반휴게음식 - 일반한식"},{"name":"북경","tel":"031-377-3123","addr":"경기도 화성시 오산동 968-4번지 402호","category":"보건위생 - 화장품"},{"name":"북경","tel":"","addr":"경기도 화성시 오산동 968-4번지 4층 402호","category":"보건위생 - 화장품"},{"name":"신라통돼지","tel":"031-372-7760","addr":"경기도 화성시 오산동 968-4번지 동탄역리코빌 3층 302호","category":"일반휴게음식 - 일반한식"},{"name":"씨유동탄리코빌점","tel":"080-080-3663","addr":"경기도 화성시 오산동 968-4번지 104호","category":"유통업 영리 - 편 의 점"},{"name":"장수본가해장국","tel":"031-372-6669","addr":"경기도 화성시 오산동 968-4번지 동탄역리코빌 105호","category":"일반휴게음식 - 일반한식"},{"name":"컴포즈커피 동탄역점","tel":"031-1577-0000","addr":"경기도 화성시 오산동 968-4번지","category":"일반휴게음식 - 서양음식"},{"name":"크로양스뽀","tel":"031-8043-8815","addr":"경기도 화성시 오산동 968-4번지 7층 18호","category":"보건위생 - 화장품"},{"name":"탭 컨테이너","tel":"031-374-2282","addr":"경기도 화성시 오산동 968-4번지 동탄역리코빌 2층 202호","category":"일반휴게음식 - 주점"},{"name":"파티파티노래연습장","tel":"031-387-7501","addr":"경기도 화성시 오산동 968-4번지 303~305호","category":"레저업소 - 노 래 방"},{"name":"풍천장어 참숯불구이 장어사랑","tel":"031-377-7929","addr":"경기도 화성시 오산동 968-4번지 동탄역리코빌 2층 201호","category":"일반휴게음식 - 일반한식"},{"name":"플레이","tel":"031-111-1111","addr":"경기도 화성시 오산동 968-4번지 리코빌 301호","category":"서적문구 - 완구점"}]},{"lat":"37.184305359","long":"127.10360539","items":[{"name":"공감식탁","tel":"031-372-9092","addr":"경기도 화성시 오산동 1035-4번지 1층","category":"일반휴게음식 - 일반한식"},{"name":"돼지정원","tel":"02-1111-1111","addr":"경기도 화성시 오산동 1036-12번지 1층","category":"일반휴게음식 - 일반한식"},{"name":"맥주jip","tel":"","addr":"경기도 화성시 오산동 1033-9번지 101호","category":"일반휴게음식 - 주점"},{"name":"소소한","tel":"","addr":"경기도 화성시 오산동 1033-9번지 102호","category":"일반휴게음식 - 서양음식"},{"name":"오스테리아오르토","tel":"031-223-5214","addr":"경기도 화성시 오산동 1036-11번지 1층 전부","category":"일반휴게음식 - 서양음식"}]},{"lat":"37.183862751","long":"127.10488862","items":[{"name":"구십일(91)브릭 (91Brick)","tel":"031-000-0000","addr":"경기도 화성시 오산동 1036-18번지 1층 101호","category":"일반휴게음식 - 서양음식"}]},{"lat":"37.197493384","long":"127.09652689","items":[{"name":"굿왁싱","tel":"031-273-0580","addr":"경기도 화성시 오산동 968-6번지 윤정프라자 4층 403호","category":"보건위생 - 피부미용실"},{"name":"닥터오심리상담센터","tel":"031-374-8508","addr":"경기도 화성시 오산동 968-6번지 901호","category":"보건위생 - 기타대인서비스"},{"name":"닥터오심리상담센터","tel":"031-374-8508","addr":"경기도 화성시 오산동 968-6번지 윤정프라자 901호","category":"보건위생 - 기타대인서비스"},{"name":"더씨티케이 주식회사","tel":"031-8015-2662","addr":"경기도 화성시 오산동 968-6번지 윤정프라자 504-2호","category":"용역 서비스 - 사무서비스"},{"name":"맹드라이브동탄실내운전연습장","tel":"031-373-2860","addr":"경기도 화성시 오산동 968-6번지 동탄역윤장프라자 1동 5층 506호","category":"학원 - 기능학원"},{"name":"발리노래연습장","tel":"","addr":"경기도 화성시 오산동 968-6번지 505호","category":"레저업소 - 노 래 방"},{"name":"버드소리 동탄점","tel":"041-374-3774","addr":"경기도 화성시 오산동 968-6번지 윤정프라자 302호","category":"일반휴게음식 - 서양음식"},{"name":"생아구 한마리","tel":"031-000-0000","addr":"경기도 화성시 오산동 968-6번지 원정프라자 1층 112,113호","category":"일반휴게음식 - 일반한식"},{"name":"서울바른치과교정과치과의원","tel":"031-375-8528","addr":"경기도 화성시 오산동 968-6번지 301호,306호","category":"의원 - 치과의원"},{"name":"세븐일레븐동탄윤정점","tel":"","addr":"경기도 화성시 오산동 968-6번지 윤정프라자 105호","category":"유통업 영리 - 편 의 점"},{"name":"아날로그(Analog)","tel":"070-2224-8804","addr":"경기도 화성시 오산동 968-6번지 동탄역윤정프라자 1동 2층 204호","category":"일반휴게음식 - 서양음식"},{"name":"아이들책","tel":"031-8003-2012","addr":"경기도 화성시 오산동 968-6번지 동탄역윤정프라자 114호","category":"회원제형태 - 서적"},{"name":"연세동의보감한의원","tel":"031-373-7573","addr":"경기도 화성시 오산동 968-6번지 윤정프라자 4층 6호","category":"의원 - 한의원"},{"name":"이디야 화성동탄역1호점","tel":"031-374-1039","addr":"경기도 화성시 오산동 968-6번지 동탄역윤정프라자 1동 1층 106호","category":"일반휴게음식 - 서양음식"},{"name":"인천생갈비","tel":"031-375-1172","addr":"경기도 화성시 오산동 968-6번지 동탄역윤정프라자 2층 201호","category":"일반휴게음식 - 일반한식"},{"name":"조개까는돼지(동탄점)","tel":"031-372-0588","addr":"경기도 화성시 오산동 968-6번지 동탄역윤정프라자 1층 111호","category":"일반휴게음식 - 일반한식"},{"name":"주식회사 더센터오브필라테스동탄","tel":"031-377-9496","addr":"경기도 화성시 오산동 968-6번지 윤정프라자 401호","category":"레저업소 - 헬스클럽"},{"name":"징기스칸램","tel":"031-297-9148","addr":"경기도 화성시 오산동 968-6번지 동탄역윤정프라자 1층 109호,110호","category":"일반휴게음식 - 일반한식"},{"name":"탐나는토탈 뷰티스토리","tel":"","addr":"경기도 화성시 오산동 968-6번지 윤정프라자 7층 706호","category":"보건위생 - 피부미용실"},{"name":"프리미엄 PC 2.0","tel":"","addr":"경기도 화성시 오산동 968-6번지 2층 205,206호","category":"레저업소 - 기타레져업소"}]},{"lat":"37.184025557","long":"127.1041681","items":[{"name":"그레이라운지","tel":"031-378-0827","addr":"경기도 화성시 오산동 1036-15번지 1층","category":"일반휴게음식 - 서양음식"},{"name":"꼬망","tel":"031-658-7458","addr":"경기도 화성시 오산동 1036-15번지 1층","category":"의류 - 정장"}]},{"lat":"37.18441256","long":"127.10468665","items":[{"name":"기아오토큐 동탄리베라점","tel":"031-375-2612","addr":"경기도 화성시 오산동 1038-5번지","category":"자동차정비 유지 - 자동차정비"},{"name":"닥치고곱창","tel":"031-372-9795","addr":"경기도 화성시 오산동 1038-4번지 101호","category":"일반휴게음식 - 일반한식"},{"name":"마스타 긴급출동 & 동탄배터리","tel":"031-372-4204","addr":"경기도 화성시 오산동 1032-9번지 101호","category":"자동차정비 유지 - 자동차부품"},{"name":"바다향","tel":"070-1111-1111","addr":"경기도 화성시 오산동 1038-2번지 1층","category":"일반휴게음식 - 일반한식"},{"name":"봉샹스","tel":"","addr":"경기도 화성시 오산동 1032-9번지 104호","category":"의류 - 정장"},{"name":"정피쉬","tel":"031-374-2102","addr":"경기도 화성시 오산동 1038-4번지 1층","category":"음료식품 - 농·축·수산품"},{"name":"하이골프/썬인터네셔널동탄점","tel":"031-1566-0209","addr":"경기도 화성시 오산동 1038-1번지 1층","category":"레져용품 - 스포츠·레져용품"}]},{"lat":"37.184721035","long":"127.10218698","items":[{"name":"기어 바이크 (gear bike)","tel":"","addr":"경기도 화성시 오산동 1031-14번지 104호","category":"수리서비스 - 레져용품수리"},{"name":"꼬메 쌤쁘레(Come Sempre)","tel":"031-1111-1111","addr":"경기도 화성시 오산동 1034-4번지 1층 102호","category":"보건위생 - 미용원"},{"name":"명륜진사갈비","tel":"031-372-7492","addr":"경기도 화성시 오산동 1036-6번지 1층 전부호","category":"일반휴게음식 - 일반한식"},{"name":"백채김치찌개","tel":"070-4189-0042","addr":"경기도 화성시 오산동 1034-3번지 1층","category":"일반휴게음식 - 일반한식"},{"name":"쎄카스팀세차 화성동탄중부점","tel":"031-000-0000","addr":"경기도 화성시 오산동 1034-2번지 1층","category":"자동차정비 유지 - 세차장"},{"name":"월남국수 동탄신리천점","tel":"","addr":"경기도 화성시 오산동 1034-4번지 1층 101호","category":"일반휴게음식 - 서양음식"},{"name":"월남국수 동탄신리천점","tel":"031-378-4003","addr":"경기도 화성시 오산동 1034-4번지 1층","category":"일반휴게음식 - 서양음식"},{"name":"콰이찬","tel":"031-378-8279","addr":"경기도 화성시 오산동 1034-3번지 1층 102호","category":"일반휴게음식 - 중국식"},{"name":"호식이두마리치킨","tel":"031-378-4495","addr":"경기도 화성시 오산동 1031-14번지 103호","category":"일반휴게음식 - 일반한식"}]},{"lat":"37.188580354","long":"127.0868304","items":[{"name":"기흥오토바이수리","tel":"031-376-4750","addr":"경기도 화성시 오산동 844-6","category":"자동차판매 - 이륜차판매"}]},{"lat":"37.186468357","long":"127.09171572","items":[{"name":"네일 에일린(aileen)","tel":"","addr":"경기도 화성시 오산동 1017번지 동탄2LHC26단지 상가동 111호","category":"보건위생 - 피부미용실"},{"name":"뮤직스토리","tel":"031-8003-0038","addr":"경기도 화성시 오산동 1017번지 동탄2LH C26단지 상가 2층 202호","category":"레져용품 - 악기점"},{"name":"부엔까미노 (BUEN CAMINO)","tel":"031-374-3965","addr":"경기도 화성시 오산동 1017번지 동탄2LHC26단지 상가동 112호","category":"일반휴게음식 - 일반한식"},{"name":"시립동탄행복어린이집[아이행복]","tel":"031-377-8501","addr":"경기도 화성시 오산동 1017번지 LH행복주택","category":"학원 - 유아원"},{"name":"씨유동탄행복한점","tel":"080-080-3663","addr":"경기도 화성시 오산동 1017번지 동탄2 LH C26단지 102호","category":"유통업 영리 - 편 의 점"},{"name":"원할머니보쌈 족발 박가부대찌개 동탄2행복","tel":"031-375-8155","addr":"경기도 화성시 오산동 1017번지 동탄2LH C26단지 상가동 1층 110-1호","category":"일반휴게음식 - 일반한식"},{"name":"한별미술심리클리닉","tel":"","addr":"경기도 화성시 오산동 1017번지 동탄2LHC26단지 2604동 308호","category":"보건위생 - 기타대인서비스"},{"name":"홍신각","tel":"031-377-9892","addr":"경기도 화성시 오산동 1017번지 동탄2 LHC26단지 108,109호","category":"일반휴게음식 - 중국식"}]},{"lat":"37.183943583","long":"127.10519278","items":[{"name":"네일그리다","tel":"031-377-5733","addr":"경기도 화성시 오산동 1036-21번지 1층","category":"보건위생 - 화장품"},{"name":"영시스템","tel":"070-8285-2869","addr":"경기도 화성시 오산동 1036-21번지 202호","category":"용역 서비스 - 기타용역서비스"},{"name":"카페보라","tel":"031-378-0701","addr":"경기도 화성시 오산동 1036-21번지 1층 101호","category":"일반휴게음식 - 서양음식"}]},{"lat":"37.18396999","long":"127.10591356","items":[{"name":"노블아이 경희한의원","tel":"031-8077-2488","addr":"경기도 화성시 오산동 1039-1번지 양지프라자 4층","category":"의원 - 한의원"},{"name":"노블아이 키즈의원","tel":"031-8077-2488","addr":"경기도 화성시 오산동 1039-1번지 양지프라자 4층","category":"의원 - 의원"},{"name":"노블약국","tel":"031-111-1111","addr":"경기도 화성시 오산동 1038-9번지 10번지 1층 102,103호","category":"약국 - 약국"},{"name":"노블약국","tel":"031-376-5835","addr":"경기도 화성시 오산동 1039-1번지 102호,103호","category":"약국 - 약국"},{"name":"박선장만선호코다리","tel":"031-372-4455","addr":"경기도 화성시 오산동 1038-9번지 1층","category":"일반휴게음식 - 일반한식"},{"name":"비피터","tel":"031-372-0017","addr":"경기도 화성시 오산동 1036-22번지 1층","category":"일반휴게음식 - 서양음식"},{"name":"스팀보이 게러지 동탄점","tel":"","addr":"경기도 화성시 오산동 1038-8번지 102호","category":"자동차정비 유지 - 세차장"},{"name":"오늘도 사랑해","tel":"","addr":"경기도 화성시 오산동 1039-1번지 201호,202호","category":"일반휴게음식 - 일식·회집"},{"name":"주식회사 노블아이산후조리원","tel":"","addr":"경기도 화성시 오산동 1039-1번지 501호,502호","category":"기타의료기관 - 산후조리원"},{"name":"지유가오카브레드","tel":"031-373-1565","addr":"경기도 화성시 오산동 1038-8번지 1층 101호 일부호","category":"일반휴게음식 - 일반한식"},{"name":"킹대패1900동탄직영점","tel":"070-7766-3392","addr":"경기도 화성시 오산동 1039-1번지 양지프라자1동1층117-119호","category":"일반휴게음식 - 일반한식"}]},{"lat":"37.185162167","long":"127.10263803","items":[{"name":"다돈","tel":"031-376-9295","addr":"경기도 화성시 오산동 1031-7번지 1층","category":"일반휴게음식 - 일반한식"},{"name":"동탄기획","tel":"031-8015-2067","addr":"경기도 화성시 오산동 1031-3번지 1층","category":"서적문구 - 출판 및 인쇄물"},{"name":"오토오아시스동탄2신도시점","tel":"","addr":"경기도 화성시 오산동 1030-14번지 1층","category":"자동차정비 유지 - 자동차부품"},{"name":"왕배태권도장","tel":"031-373-9075","addr":"경기도 화성시 오산동 1031-3번지 1층 101호","category":"학원 - 예·체능계학원"},{"name":"해피쉐프푸드","tel":"070-4162-3231","addr":"경기도 화성시 오산동 1031-5번지 1층 일부호","category":"일반휴게음식 - 일반한식"},{"name":"황제중화요리","tel":"031-378-6432","addr":"경기도 화성시 오산동 1031-6번지 1층","category":"일반휴게음식 - 중국식"}]},{"lat":"37.184891996","long":"127.10246875","items":[{"name":"도니1985","tel":"031-375-0057","addr":"경기도 화성시 오산동 1031-12번지 102호","category":"일반휴게음식 - 일반한식"},{"name":"두꺼비 부대찌개","tel":"031-373-2428","addr":"경기도 화성시 오산동 1031-10번지 1층","category":"일반휴게음식 - 일반한식"},{"name":"또봉이통닭","tel":"031-376-4498","addr":"경기도 화성시 오산동 1034-6번지 1층 일부호","category":"일반휴게음식 - 스넥"},{"name":"상화돈까스","tel":"031-375-4044","addr":"경기도 화성시 오산동 1031-9번지 102,103호","category":"일반휴게음식 - 서양음식"},{"name":"생고기가맛있는집","tel":"031-377-0661","addr":"경기도 화성시 오산동 1034-5번지 1층 101호","category":"일반휴게음식 - 일반한식"},{"name":"순자매뼈감자탕","tel":"031-372-3707","addr":"경기도 화성시 오산동 1031-9번지 1층","category":"일반휴게음식 - 일반한식"},{"name":"푸드랑마카롱디저트","tel":"02-1111-1111","addr":"경기도 화성시 오산동 1034-5번지 102호","category":"음료식품 - 기타음료식품"},{"name":"허니네일","tel":"031-373-7751","addr":"경기도 화성시 오산동 1034-6번지 1층 104호","category":"보건위생 - 피부미용실"}]},{"lat":"37.186137016","long":"127.08894492","items":[{"name":"도유어린이집[아이행복]","tel":"031-373-7581","addr":"경기도 화성시 오산동 1018번지 남해오네뜨더테라스 1711동 101호","category":"학원 - 유아원"}]},{"lat":"37.185939745","long":"127.0876158","items":[{"name":"동양사무용가구","tel":"031-374-4122","addr":"경기도 화성시 오산동 879-2","category":"가구 - 일반가구"}]},{"lat":"37.197888493","long":"127.09821692","items":[{"name":"동탄가발히트모","tel":"","addr":"경기도 화성시 오산동 969-2번지 동탄역리치안 4층 405호","category":"보건위생 - 미용재료"},{"name":"동탄역튼튼척의원","tel":"031-378-6301","addr":"경기도 화성시 오산동 969-2번지 동탄역리치안 2층 201호","category":"의원 - 의원"},{"name":"동탄프라자약국","tel":"02-302-5562","addr":"경기도 화성시 오산동 969-2번지 1층 108호","category":"약국 - 약국"},{"name":"뚱보집(동탄역점)","tel":"031-377-2228","addr":"경기도 화성시 오산동 969-2번지 1층 101호","category":"일반휴게음식 - 일반한식"},{"name":"마약보쌈&족발 동탄SRT점","tel":"031-377-5398","addr":"경기도 화성시 오산동 969-2번지 1층 117호","category":"일반휴게음식 - 일반한식"},{"name":"마음아안녕 정신건강의학과의원","tel":"031-372-7506","addr":"경기도 화성시 오산동 969-2번지 4층 406호","category":"의원 - 의원"},{"name":"부촌","tel":"031-377-1501","addr":"경기도 화성시 오산동 969-2번지 동탄역 리치안 2층 210,211호","category":"일반휴게음식 - 일반한식"},{"name":"빽다방 동탄역남부점","tel":"031-376-6579","addr":"경기도 화성시 오산동 969-2번지 동탄역리치안 상가 109호","category":"일반휴게음식 - 서양음식"},{"name":"산수유한의원","tel":"031-8077-2579","addr":"경기도 화성시 오산동 969-2번지 403호","category":"의원 - 한의원"},{"name":"서민반찬","tel":"031-378-0947","addr":"경기도 화성시 오산동 969-2번지 동탄역리치안 110호","category":"음료식품 - 기타음료식품"},{"name":"스텔라메이(Stella mae)","tel":"070-8813-7578","addr":"경기도 화성시 오산동 969-2번지 리치안상가 1층 116호 동탄역","category":"의류 - 정장"},{"name":"신나는신경외과의원","tel":"031-377-7815","addr":"경기도 화성시 오산동 969-2번지 407호 408호 409호","category":"의원 - 의원"},{"name":"윤헤어","tel":"","addr":"경기도 화성시 오산동 969-2번지 동탄역리치안 405호 일부호","category":"보건위생 - 미용원"},{"name":"윤헤어","tel":"","addr":"경기도 화성시 오산동 969-2번지 4층 405호","category":"보건위생 - 미용원"},{"name":"자담치킨 동탄역점","tel":"031-373-9288","addr":"경기도 화성시 오산동 969-2번지 동탄역 리치한 1층 102호","category":"일반휴게음식 - 스넥"},{"name":"채과원 동탄점","tel":"031-376-7610","addr":"경기도 화성시 오산동 969-2번지 동탄역 리치안 103,104,203,1207호","category":"일반휴게음식 - 서양음식"},{"name":"탑스칼프 동탄점","tel":"031-337-8599","addr":"경기도 화성시 오산동 969-2번지 동탄역리치안 3층 307호","category":"보건위생 - 화장품"},{"name":"프레지던트 핏","tel":"02-4668-6434","addr":"경기도 화성시 오산동 969-2번지 4층 412호","category":"의류 - 정장"},{"name":"헤어 쁘띠블랑(Hair 쁘띠블랑)","tel":"","addr":"경기도 화성시 오산동 969-2번지 2층 204호","category":"보건위생 - 미용원"}]},{"lat":"37.188775574","long":"127.09097511","items":[{"name":"동탄초병설유치원[아이행복]","tel":"031-378-4763","addr":"경기도 화성시 오산동 1005번지 동탄초등학교","category":"학원 - 유치원"}]},{"lat":"37.184775699","long":"127.10146631","items":[{"name":"디자인엔트","tel":"031-233-9003","addr":"경기도 화성시 오산동 1036-1번지 101,103,104호","category":"직물 - 카페트,커튼,천막,지물"},{"name":"마약양꼬치동탄점","tel":"031-375-5377","addr":"경기도 화성시 오산동 1030-2번지","category":"일반휴게음식 - 일반한식"},{"name":"오동족발보쌈","tel":"031-377-4388","addr":"경기도 화성시 오산동 1030-2번지 101호","category":"일반휴게음식 - 일반한식"}]},{"lat":"37.190442212","long":"127.09135997","items":[{"name":"따스한햇살어린이집[아이행복]","tel":"031-375-7952","addr":"경기도 화성시 오산동 964 풍성신미주@ 관리동 1층","category":"학원 - 유아원"}]},{"lat":"37.184330962","long":"127.10527214","items":[{"name":"마일레길우모터스","tel":"031-372-3236","addr":"경기도 화성시 오산동 1038-6번지","category":"자동차정비 유지 - 자동차정비"},{"name":"투썸 화성동탄신리점","tel":"031-374-6255","addr":"경기도 화성시 오산동 1038-7번지 1층","category":"일반휴게음식 - 서양음식"}]},{"lat":"37.203195679","long":"127.09813348","items":[{"name":"메디약국","tel":"031-372-7731","addr":"경기도 화성시 오산동 967-3번지 B동 123호","category":"약국 - 약국"},{"name":"메디피움 동탄의원","tel":"02-1899-0050","addr":"경기도 화성시 오산동 967-3번지 우성르보아시티 A동 301-311,B동305-311호","category":"의원 - 의원"},{"name":"메디피움동탄치과의원","tel":"02-1899-0050","addr":"경기도 화성시 오산동 967-3번지 우성르보아시티 B동 301-304호","category":"의원 - 치과의원"},{"name":"커피에반하다 동탄우성르보아시티점","tel":"031-377-5356","addr":"경기도 화성시 오산동 967-3번지 B동 1층 121호","category":"일반휴게음식 - 서양음식"}]},{"lat":"37.184107617","long":"127.10303079","items":[{"name":"명태어장","tel":"031-375-0235","addr":"경기도 화성시 오산동 1036-9번지","category":"일반휴게음식 - 일반한식"},{"name":"수철이네 왕새우튀김 동탄점","tel":"031-372-3533","addr":"경기도 화성시 오산동 1036-10번지 1층 일부호","category":"일반휴게음식 - 일반한식"},{"name":"알키미아","tel":"031-8077-2442","addr":"경기도 화성시 오산동 1036-10번지 1층 일부호","category":"일반휴게음식 - 서양음식"},{"name":"족발야시장 동탄대로점","tel":"031-378-4969","addr":"경기도 화성시 오산동 1035-2번지 1층","category":"일반휴게음식 - 일반한식"},{"name":"종로맥가 동탄신리천점","tel":"031-375-7728","addr":"경기도 화성시 오산동 1036-8번지 1층 전부호","category":"일반휴게음식 - 주점"}]},{"lat":"37.184829461","long":"127.10182675","items":[{"name":"미스코리아에스테틱","tel":"031-377-5560","addr":"경기도 화성시 오산동 1034-1번지 103호","category":"보건위생 - 피부미용실"},{"name":"반올림피자샵 2동탄점","tel":"031-375-7780","addr":"경기도 화성시 오산동 1036-3번지 102호","category":"일반휴게음식 - 서양음식"},{"name":"수가베딩","tel":"","addr":"경기도 화성시 오산동 1034-1번지 1층 102호","category":"직물 - 침구·수예점"},{"name":"킹왕짱쪽갈비","tel":"031-372-0163","addr":"경기도 화성시 오산동 1036-2번지","category":"일반휴게음식 - 일반한식"}]},{"lat":"37.184142913","long":"127.10390924","items":[{"name":"베르사유(VERSAYOU)","tel":"031-378-1158","addr":"경기도 화성시 오산동 1033-8번지 지하1층","category":"일반휴게음식 - 서양음식"},{"name":"수비드랩","tel":"031-376-8244","addr":"경기도 화성시 오산동 1036-14번지 1층","category":"일반휴게음식 - 서양음식"}]},{"lat":"37.185941545","long":"127.08505938","items":[{"name":"성일공구철물건자재","tel":"031-372-0956","addr":"경기도 화성시 오산동 900-1","category":"건축자재 - 기타건축자재"}]},{"lat":"37.184557439","long":"127.10385348","items":[{"name":"세컨드 플레이버 (2ND FLAVOR)","tel":"031-372-2900","addr":"경기도 화성시 오산동 1033-6번지 1층","category":"일반휴게음식 - 서양음식"}]},{"lat":"37.188301848","long":"127.08567009","items":[{"name":"슈퍼키즈 발레 학원","tel":"","addr":"경기도 화성시 오산동 995-1번지 지스타프라자2 604,605호","category":"학원 - 예·체능계학원"},{"name":"슈퍼키즈(super kids)","tel":"031-377-9917","addr":"경기도 화성시 오산동 995-1번지 지스타프라자ll 6,7층 전체호","category":"학원 - 기타 교육기관"},{"name":"신사부대찌개&품격삼겹살","tel":"","addr":"경기도 화성시 오산동 995-1번지 204호","category":"일반휴게음식 - 일반한식"},{"name":"자이언트 피트니스2호점","tel":"031-373-7553","addr":"경기도 화성시 오산동 995-1번지 401~405호","category":"레저업소 - 헬스클럽"},{"name":"휘카페동탄점","tel":"031-1522-6991","addr":"경기도 화성시 오산동 995-1번지 106호","category":"일반휴게음식 - 서양음식"}]},{"lat":"37.188942005","long":"127.09716954","items":[{"name":"아이코어필라테스","tel":"031-376-9152","addr":"경기도 화성시 오산동 239번지 c-12앨리스빌3025호","category":"레저업소 - 헬스클럽"}]},{"lat":"37.192806445","long":"127.08653098","items":[{"name":"아프리카짐바브웨","tel":"031-375-1156","addr":"경기도 화성시 오산동 567 비닐하우스4,5호","category":"문화.취미 - 민예·공예품"}]},{"lat":"37.1961411372","long":"127.0973924981","items":[{"name":"오케타니(통곡)육아상담실","tel":"053-291-0488","addr":"경기도 화성시 오산동 동탄2택지개발지구 C-12블럭 동탄린스트라우스더센트럴 201동 1301호","category":"보건위생 - 기타대인서비스"}]},{"lat":"37.184359632","long":"127.10335771","items":[{"name":"왔쏘","tel":"031-376-2936","addr":"경기도 화성시 오산동 1035-3번지 1층","category":"일반휴게음식 - 일반한식"}]},{"lat":"37.19297051","long":"127.08382808","items":[{"name":"인맥C&M","tel":"031-376-1399","addr":"경기도 화성시 오산동 813-1","category":"기타 - 기타 전문점"}]},{"lat":"37.185967057","long":"127.08722167","items":[{"name":"중흥미소어린이집[아이행복]","tel":"031-8043-1355","addr":"경기도 화성시 오산동 1011번지 중흥S-클래스 1701동 101호","category":"학원 - 유아원"}]},{"lat":"37.196885635","long":"127.09002714","items":[{"name":"진소푸드","tel":"","addr":"경기도 화성시 오산동 985번지 업무복합3블럭(6-3)블럭 로트","category":"일반휴게음식 - 위탁급식업"}]},{"lat":"37.199941435","long":"127.08827349","items":[{"name":"커피피플","tel":"070-7787-0721","addr":"경기도 화성시 오산동 967-721번지 동탄여울공원","category":"일반휴게음식 - 서양음식"}]},{"lat":"37.184170031","long":"127.10380792","items":[{"name":"크래프트 한스","tel":"","addr":"경기도 화성시 오산동 1036-13번지 1층","category":"일반휴게음식 - 주점"}]},{"lat":"37.180501773","long":"127.10499671","items":[{"name":"토브예술문화원","tel":"031-374-3144","addr":"경기도 화성시 오산동 1048번지 3층","category":"학원 - 예·체능계학원"},{"name":"토브카페선교회","tel":"031-374-3144","addr":"경기도 화성시 오산동 1048번지","category":"일반휴게음식 - 서양음식"}]},{"lat":"37.188414788","long":"127.10279997","items":[{"name":"햇쌀가득한 쌀","tel":"031-372-2930","addr":"경기도 화성시 오산동 336-3","category":"음료식품 - 미곡상"}]},{"lat":"37.19186182","long":"127.09661004","items":[{"name":"협성세라믹/원격지","tel":"031-377-5916","addr":"경기도 화성시 오산동 175-2","category":"기타 - 기타 전문점"}]},{"lat":"37.185719353","long":"127.09322392","items":[{"name":"화성동탄경찰서복지위원회","tel":"031-639-1122","addr":"경기도 화성시 오산동 962-1번지","category":"일반휴게음식 - 위탁급식업"}]}]