[{"lat":"37.884225313","long":"127.20957338","items":[{"name":"가은냉동","tel":"031-536-4428","addr":"경기도 포천시 군내면 용정리 270-4번지 1층","category":"용역 서비스 - 기타용역서비스"}]},{"lat":"37.881085403","long":"127.21221307","items":[{"name":"권진영헤어쿨","tel":"031-535-2311","addr":"경기도 포천시 군내면 용정리 48-1번지","category":"보건위생 - 미용원"},{"name":"권진영헤어쿨","tel":"535-2311","addr":"경기도 포천시 군내면 용정리 48-1번지","category":"서비스 - 미용"}]},{"lat":"37.879082746","long":"127.21366231","items":[{"name":"대성사무용싱크대","tel":"031-533-8959","addr":"경기도 포천시 군내면 용정리 47-5번지 가동 1층 101호","category":"주방용구 - 주방용구"},{"name":"떡갈비쌈밥집","tel":"031-542-6966","addr":"경기도 포천시 군내면 용정리 47-5번지 2층","category":"일반휴게음식 - 일반한식"},{"name":"떡갈비쌈밥집","tel":"542-6966","addr":"경기도 포천시 군내면 용정리 47-5번지","category":"음식 - 한식"},{"name":"삼성유통","tel":"031-535-0825","addr":"경기도 포천시 군내면 용정리 47-5번지 1층","category":"신변잡화 - 기타잡화"},{"name":"제일유통","tel":"031-532-2454","addr":"경기도 포천시 군내면 용정리 47-5번지","category":"음료식품 - 기타음료식품"}]},{"lat":"37.87985885","long":"127.19719431","items":[{"name":"대성중장비정비센타","tel":"031-536-3338","addr":"경기도 포천시 군내면 용정리 434-2번지","category":"기타 - 기계공구"}]},{"lat":"37.874138482","long":"127.20749937","items":[{"name":"대신프라스틱","tel":"031-000-0000","addr":"경기도 포천시 군내면 용정리 180-4번지","category":"건축자재 - 기타건축자재"}]},{"lat":"37.884220533","long":"127.20188909","items":[{"name":"맛있는 밥상","tel":"533-2779","addr":"경기도 포천시 군내면 용정리 476-5번지 에이원타운 2층","category":"음식 - 한식"},{"name":"맛있는밥집","tel":"070-7529-8843","addr":"경기도 포천시 군내면 용정리 476-5번지 에이원타운 2층 204,205호","category":"일반휴게음식 - 일반한식"}]},{"lat":"37.882413195","long":"127.20510109","items":[{"name":"모네가구","tel":"","addr":"경기도 포천시 군내면 용정리 482번지 2층","category":"가구 - 일반가구"},{"name":"주식회사 디자이던(Design dawn)","tel":"02-2272-5077","addr":"경기도 포천시 군내면 용정리 482번지","category":"서적문구 - 출판 및 인쇄물"}]},{"lat":"37.885945306","long":"127.21002152","items":[{"name":"반월건설기계(영북종합중기)","tel":"031-531-1179","addr":"경기도 포천시 군내면 용정리 291-4번지","category":"기타 - 기계공구"},{"name":"반월건설기계(포천포크레인)","tel":"031-535-5225","addr":"경기도 포천시 군내면 용정리 291-4번지","category":"기타 - 기계공구"},{"name":"선단지게차","tel":"031-541-2029","addr":"경기도 포천시 군내면 용정리 291-4번지","category":"기타 - 기계공구"},{"name":"설운지게차","tel":"031-535-5225","addr":"경기도 포천시 군내면 용정리 291-4번지 1층","category":"기타 - 기계공구"}]},{"lat":"37.872722154","long":"127.22349809","items":[{"name":"선경하이퍼마켓","tel":"536-9484","addr":"경기도 포천시 군내면 용정리 2-3번지","category":"소매업 - 잡화"},{"name":"송림정","tel":"536-7535","addr":"경기도 포천시 군내면 용정리 2-3번지 나동1층","category":"음식 - 한식"}]},{"lat":"37.872136614","long":"127.22346225","items":[{"name":"선경하이퍼마켓","tel":"031-536-9484","addr":"경기도 포천시 군내면 용정리 3-2","category":"음료식품 - 기타음료식품"},{"name":"송림정","tel":"031-536-7535","addr":"경기도 포천시 군내면 용정리 3-2번지","category":"일반휴게음식 - 일반한식"}]},{"lat":"37.885558587","long":"127.20963394","items":[{"name":"솔이기획","tel":"031-534-5103","addr":"경기도 포천시 군내면 용정리 265-3번지","category":"전기제품 - 기타전기제품"}]},{"lat":"37.882835076","long":"127.20071455","items":[{"name":"씨유용정산업단지점","tel":"080-080-3663","addr":"경기도 포천시 군내면 용정리 475-2번지 101호 행복주택 근린생활시설 상가동","category":"유통업 영리 - 편 의 점"},{"name":"용정마트(cu)","tel":"","addr":"경기도 포천시 군내면 용정리 475-2번지","category":"편의점 - 잡화"}]},{"lat":"37.882942863","long":"127.20090808","items":[{"name":"용정식당","tel":"031-827-1331","addr":"경기도 포천시 군내면 용정리 343-6번지","category":"음료식품 - 기타음료식품"}]},{"lat":"37.884221244","long":"127.2014685","items":[{"name":"용정철물","tel":"031-535-2100","addr":"경기도 포천시 군내면 용정리 476-4번지 가동 외 1필지","category":"건축자재 - 목재·석재·철물"}]},{"lat":"37.878721886","long":"127.21393408","items":[{"name":"용화주유수","tel":"534-7877","addr":"경기도 포천시 군내면 용정리 47-8번지","category":"소매업 - 주유소"}]},{"lat":"37.883607537","long":"127.20210341","items":[{"name":"이마트24 용정산업단지점","tel":"","addr":"경기도 포천시 군내면 용정리 477번지 다동 117,118호","category":"유통업 영리 - 편 의 점"}]},{"lat":"37.871830447","long":"127.22338178","items":[{"name":"이마트24 포천청성점","tel":"02-6916-1500","addr":"경기도 포천시 군내면 용정리 3-3번지","category":"유통업 영리 - 편 의 점"},{"name":"이마트24 포천청성점","tel":"02-6916-1500","addr":"경기도 포천시 군내면 용정리 3-3번지","category":"유통업 영리 - 편 의 점"},{"name":"이마트24포천청성점","tel":"","addr":"경기도 포천시 군내면 용정리 3-3번지","category":"소매업 - 편의점"},{"name":"하나로편의점","tel":"031-544-7703","addr":"경기도 포천시 군내면 용정리 3-3번지","category":"유통업 영리 - 슈퍼마켓"}]},{"lat":"37.881554431","long":"127.21190749","items":[{"name":"주식회사신금강","tel":"031-531-6280","addr":"경기도 포천시 군내면 용정리 237-27번지","category":"건축자재 - 기타건축자재"}]},{"lat":"37.872137486","long":"127.22299627","items":[{"name":"키조개한우소머리국밥","tel":"031-533-6252","addr":"경기도 포천시 군내면 용정리 3-7번지","category":"일반휴게음식 - 일반한식"},{"name":"키조개한우소머리국밥","tel":"533-6252","addr":"경기도 포천시 군내면 용정리 3-7번지","category":"음식 - 한식"}]},{"lat":"37.881025277","long":"127.21055335","items":[{"name":"티제이티제이(TJTJ)","tel":"031-532-1763","addr":"경기도 포천시 군내면 용정리 237-2번지","category":"직물 - 기타직물"}]},{"lat":"37.886835905","long":"127.20030465","items":[{"name":"포천시탁구협회","tel":"","addr":"경기도 포천시 군내면 용정리 321번지","category":"생활 - 탁구협회"}]},{"lat":"37.87316807","long":"127.2111564","items":[{"name":"활기찬농원","tel":"031-534-1930","addr":"경기도 포천시 군내면 용정리 99번지","category":"음료식품 - 농·축·수산품"}]},{"lat":"37.882279966","long":"127.20919283","items":[{"name":"황토굼","tel":"031-111-1111","addr":"경기도 포천시 군내면 용정리 239-6번지","category":"음료식품 - 농·축·수산품"}]}]