[{"lat":"37.012744679","long":"127.32575377","items":[{"name":"농업인자율모임로컬팜","tel":"031-671-3100","addr":"경기도 안성시 보개면 양복리 150-1번지","category":"음료식품 - 농·축·수산품"},{"name":"카페로컬팜","tel":"031-671-3003","addr":"경기도 안성시 보개면 양복리 150-1번지","category":"일반휴게음식 - 서양음식"}]},{"lat":"37.012215996","long":"127.32797628","items":[{"name":"두리마을운영위원회","tel":"031-677-1575","addr":"경기도 안성시 보개면 양복리 210","category":"레저업소 - 기타레져업소"},{"name":"안성슈퍼","tel":"031-675-3914","addr":"경기도 안성시 보개면 양복리 210번지","category":"유통업 영리 - 슈퍼마켓"}]},{"lat":"37.016694846","long":"127.32111847","items":[{"name":"두향","tel":"031-672-3217","addr":"경기도 안성시 보개면 양복리 237-3번지","category":"일반휴게음식 - 일반한식"}]},{"lat":"37.013746112","long":"127.31858925","items":[{"name":"사랑나누기 음악봉사단","tel":"031-8052-9400","addr":"경기도 안성시 보개면 양복리 904-1번지","category":"기타 - 비영리/비대상"}]},{"lat":"37.01477735","long":"127.31364947","items":[{"name":"신흥","tel":"031-673-7047","addr":"경기도 안성시 보개면 양복리 911-2번지","category":"농업 - 농기계"}]},{"lat":"37.014860298","long":"127.32312215","items":[{"name":"안성공예가회","tel":"031-676-6543","addr":"경기도 안성시 보개면 양복리 238-2번지","category":"레저업소 - 기타레져업소"},{"name":"안성시시설관리공단","tel":"031-678-6804","addr":"경기도 안성시 보개면 양복리 238-2번지","category":"레저업소 - 수 영 장"},{"name":"해피모닝푸드트럭","tel":"031-672-5077","addr":"경기도 안성시 보개면 양복리 238-2번지 일원","category":"일반휴게음식 - 일반한식"}]},{"lat":"37.013275606","long":"127.31592432","items":[{"name":"안성옹기","tel":"031-674-2578","addr":"경기도 안성시 보개면 양복리 887번지","category":"주방용구 - 주방용식기"}]},{"lat":"37.014910034","long":"127.31459388","items":[{"name":"양협주유소","tel":"031-677-1991","addr":"경기도 안성시 보개면 양복리 910-3","category":"연료판매점 - 주유소"},{"name":"운동장주유소","tel":"031-676-4524","addr":"경기도 안성시 보개면 양복리 910-3번지","category":"연료판매점 - GS주유소"}]},{"lat":"37.014913626","long":"127.31665017","items":[{"name":"우리농원","tel":"031-671-3348","addr":"경기도 안성시 보개면 양복리 908-6번지","category":"음료식품 - 농·축·수산품"}]},{"lat":"37.012688527","long":"127.31645001","items":[{"name":"은봉옹기","tel":"031-674-2578","addr":"경기도 안성시 보개면 양복리 887-1","category":"레저업소 - 기타레져업소"}]},{"lat":"37.014746397","long":"127.3151438","items":[{"name":"좋은환경산업","tel":"031-675-5464","addr":"경기도 안성시 보개면 양복리 898-3 외2필지","category":"건축자재 - 기타건축자재"}]},{"lat":"37.012222663","long":"127.32220096","items":[{"name":"주식회사 리얼팜","tel":"031-677-0718","addr":"경기도 안성시 보개면 양복리 264-1번지 비지터센터 202호","category":"농업 - 농기계"}]},{"lat":"37.013052001","long":"127.31869874","items":[{"name":"하나농원","tel":"031-673-9293","addr":"경기도 안성시 보개면 양복리 875-1번지","category":"음료식품 - 농·축·수산품"}]}]