[{"lat":"37.27757366","long":"127.03567096","items":[{"name":"(사)한국주유소협회경기도지회","tel":"031-216-4141","addr":"경기도 수원시 팔달구 우만동 146번지 송림빌딩 202호","category":"기타 - 비영리/비대상"},{"name":"(주)전문가닷컴","tel":"02-572-9200","addr":"경기도 수원시 팔달구 우만동 146번지 송림빌딩 304호","category":"용역 서비스 - 정보서비스"},{"name":"금종약초인삼사","tel":"031-213-1690","addr":"경기도 수원시 팔달구 우만동 146번지 송림빌딩 지하1층 104호","category":"건강식품 - 인삼제품"},{"name":"동아문고","tel":"031-111-1111","addr":"경기도 수원시 팔달구 우만동 146번지 송림빌딩 7층 701호","category":"서적문구 - 일반서적"},{"name":"방방존","tel":"031-302-4896","addr":"경기도 수원시 팔달구 우만동 146번지 송림빌딩 1동 3층 301호","category":"레저업소 - 기타레져업소"},{"name":"송림골프","tel":"031-215-9200","addr":"경기도 수원시 팔달구 우만동 146번지 일부 지하2층","category":"회원제형태 - 레져업소"},{"name":"송림스크린&골프연습장","tel":"031-215-9200","addr":"경기도 수원시 팔달구 우만동 146번지 송림빌딩 지하2층","category":"레저업소 - 스크린골프"},{"name":"알케이 빌리어즈 클럽(RK Billiards Club)","tel":"031-214-4448","addr":"경기도 수원시 팔달구 우만동 146번지 송림빌딩 지하1층138-1,140-1,140,141,142,145,151,155,157,160호","category":"레져용품 - 스포츠·레져용품"},{"name":"영인매점","tel":"","addr":"경기도 수원시 팔달구 우만동 146번지 송림빌딩 5층","category":"일반휴게음식 - 일반한식"},{"name":"요양원 마실","tel":"031-8002-8588","addr":"경기도 수원시 팔달구 우만동 146번지 송림빌딩 9층 901호","category":"기타의료기관 - 기타의료기관 및 기타"},{"name":"을용이곱창","tel":"031-212-0056","addr":"경기도 수원시 팔달구 우만동 146번지 송림빌딩 101호","category":"일반휴게음식 - 일반한식"},{"name":"정원볼링센터","tel":"031-211-8020","addr":"경기도 수원시 팔달구 우만동 146번지 송림빌딩 지하2층","category":"레저업소 - 볼 링 장"},{"name":"주식회사 힐링그룹","tel":"031-216-8663","addr":"경기도 수원시 팔달구 우만동 146번지 송림빌딩 지하 111호","category":"보건위생 - 의료용품"},{"name":"콜허벌라이프","tel":"031-215-8208","addr":"경기도 수원시 팔달구 우만동 146번지 송림빌딩 706호","category":"건강식품 - 기타건강식품"},{"name":"토가동수원점","tel":"031-205-8802","addr":"경기도 수원시 팔달구 우만동 146번지 송림빌딩 702호","category":"전기제품 - 기타전기제품"},{"name":"통큰짬뽕","tel":"031-215-2311","addr":"경기도 수원시 팔달구 우만동 146번지 외3필지송림빌딩 101호","category":"일반휴게음식 - 중국식"},{"name":"티앤피베이스볼아카데미","tel":"","addr":"경기도 수원시 팔달구 우만동 146번지 송림빌딩 지하3층 301호","category":"학원 - 예·체능계학원"},{"name":"프린팅 25 (PRINTING 25)","tel":"031-216-8664","addr":"경기도 수원시 팔달구 우만동 146번지 송림빌딩 B111호","category":"용역 서비스 - 종합용역"},{"name":"하루맘마","tel":"031-215-8246","addr":"경기도 수원시 팔달구 우만동 146번지 송림빌딩 101호","category":"일반휴게음식 - 일반한식"},{"name":"한마음유통","tel":"031-214-0712","addr":"경기도 수원시 팔달구 우만동 146번지 송림빌딩 701호","category":"건강식품 - 기타건강식품"},{"name":"헤나킹수원팔달센타","tel":"031-212-2360","addr":"경기도 수원시 팔달구 우만동 146번지 송림빌딩 406호","category":"보건위생 - 화장품"},{"name":"화단길요양원","tel":"031-302-7799","addr":"경기도 수원시 팔달구 우만동 146번지 송림빌딩 8층","category":"기타의료기관 - 기타의료기관 및 기타"},{"name":"휴엔스파&휴엔조이","tel":"031-215-2300","addr":"경기도 수원시 팔달구 우만동 146 5층,6층","category":"보건위생 - 사우나"}]},{"lat":"37.287295209","long":"127.03752459","items":[{"name":"(주)노블젠","tel":"031-278-6790","addr":"경기도 수원시 팔달구 우만동 228번지 수원월드컵경기장 4층","category":"농업 - 비료,사료,종자"},{"name":"디자인티키","tel":"031-202-9252","addr":"경기도 수원시 팔달구 우만동 228번지 수원월드컵경기장 제3별관제 1층","category":"용역 서비스 - 종합용역"},{"name":"로렌","tel":"031-243-5479","addr":"경기도 수원시 팔달구 우만동 228 코오롱스포렉스1층","category":"의류 - 정장"},{"name":"수원시생활체육스킨수쿠버연합회","tel":"031-259-2154","addr":"경기도 수원시 팔달구 우만동 228번지 1층 유윤스포츠","category":"레져용품 - 스포츠·레져용품"},{"name":"스포푸드","tel":"070-7529-3407","addr":"경기도 수원시 팔달구 우만동 228번지 수원월드컵경기장 내매점","category":"음료식품 - 기타음료식품"},{"name":"월드컵스크린","tel":"031-252-0782","addr":"경기도 수원시 팔달구 우만동 228번지 수원월드컵경기장 3층","category":"레저업소 - 스크린골프"},{"name":"월드컵스포츠","tel":"031-259-2153","addr":"경기도 수원시 팔달구 우만동 228번지 월드컵스포츠센터 2층","category":"레저업소 - 기타레져업소"},{"name":"월드컵에스엔지","tel":"031-248-8282","addr":"경기도 수원시 팔달구 우만동 228수원월드컵경기장스포츠센타3층","category":"유통업 영리 - 복지매장"},{"name":"월드컵편의점","tel":"031-258-9662","addr":"경기도 수원시 팔달구 우만동 228번지","category":"유통업 영리 - 편 의 점"},{"name":"이노웨딩","tel":"031-241-7676","addr":"경기도 수원시 팔달구 우만동 228번지 수원월드컵경기장","category":"용역 서비스 - 혼례서비스"},{"name":"이여사나무김밥수원월드컵점","tel":"031-252-8007","addr":"경기도 수원시 팔달구 우만동 228번지 1층 유윤스포츠","category":"일반휴게음식 - 일반한식"},{"name":"지엠(GM)스포츠","tel":"031-207-0038","addr":"경기도 수원시 팔달구 우만동 228번지","category":"레져용품 - 스포츠·레져용품"},{"name":"카페베네","tel":"031-247-4680","addr":"경기도 수원시 팔달구 우만동 228번지 1층 유윤스포츠","category":"일반휴게음식 - 서양음식"},{"name":"한솥도시락(수원월드컵스포츠센터점)","tel":"031-244-5552","addr":"경기도 수원시 팔달구 우만동 228번지 수원월드컵경기장 1층 수원월드컵경기장","category":"일반휴게음식 - 일반한식"}]},{"lat":"37.281213233","long":"127.03769094","items":[{"name":"(주)마이크로이미징/원격지","tel":"031-212-6280","addr":"경기도 수원시 팔달구 우만동 26-25번지 트레보 205호","category":"기타 - 기타 전문점"},{"name":"김샘수학광교서적","tel":"031-8002-5599","addr":"경기도 수원시 팔달구 우만동 26-25번지 트레보 607호","category":"서적문구 - 일반서적"},{"name":"나우교역","tel":"031-893-8228","addr":"경기도 수원시 팔달구 우만동 26-25번지 트레보오피스텔 104호","category":"서적문구 - 과학기자재"},{"name":"디자인연","tel":"070-8682-5215","addr":"경기도 수원시 팔달구 우만동 26-25번지 트레보오피스텔 1116호","category":"용역 서비스 - 사무서비스"},{"name":"리케이온 광교 서적","tel":"031-8081-1100","addr":"경기도 수원시 팔달구 우만동 26-25번지 트레보오피스텔 321호","category":"회원제형태 - 서적"},{"name":"비방","tel":"031-214-5611","addr":"경기도 수원시 팔달구 우만동 26-25번지 트레보 상가 105호 106호","category":"약국 - 한약방"},{"name":"수제도시락 온리밥","tel":"031-215-8388","addr":"경기도 수원시 팔달구 우만동 26-25번지 트레보 상가 1층 103호","category":"음료식품 - 기타음료식품"},{"name":"아이씨엠","tel":"031-212-3348","addr":"경기도 수원시 팔달구 우만동 26-25번지 트레보 415호","category":"보건위생 - 의료용품"},{"name":"주식회사 마이크로이미징","tel":"031-212-6280","addr":"경기도 수원시 팔달구 우만동 26-25번지 트레보 205호","category":"광학제품 - 기타광학제품"},{"name":"카카오솔트","tel":"031-271-8892","addr":"경기도 수원시 팔달구 우만동 26-25번지 트레보 1층 113호","category":"음료식품 - 기타음료식품"},{"name":"카페몽상","tel":"031-228-1112","addr":"경기도 수원시 팔달구 우만동 26-25번지 1층","category":"일반휴게음식 - 서양음식"},{"name":"카페토키(cafe talky)","tel":"031-217-7894","addr":"경기도 수원시 팔달구 우만동 26-25번지 트레보 108호","category":"일반휴게음식 - 스넥"},{"name":"트레보편의점","tel":"070-8630-8282","addr":"경기도 수원시 팔달구 우만동 26-25번지 트레보 107호","category":"유통업 영리 - 슈퍼마켓"},{"name":"하나린텍","tel":"031-216-9380","addr":"경기도 수원시 팔달구 우만동 26-25번지 트레보오피스텔 1013호","category":"전기제품 - 기타전기제품"}]},{"lat":"37.278601918","long":"127.03147688","items":[{"name":"(주)미래법률경매정보","tel":"031-891-3300","addr":"경기도 수원시 팔달구 우만동 562-6번지 미래에셋빌딩 4층","category":"건축자재 - 부동산 분양"}]},{"lat":"37.280926837","long":"127.03033889","items":[{"name":"(주)미래플랫폼","tel":"031-305-8200","addr":"경기도 수원시 팔달구 우만동 549-10번지 아석빌딩 3층","category":"사무통신 - 통신기기"},{"name":"중앙측기","tel":"031-225-4980","addr":"경기도 수원시 팔달구 우만동 549-10번지 아석빌딩 2302호","category":"사무통신 - 기타 사무용품"}]},{"lat":"37.287152261","long":"127.03308143","items":[{"name":"(주)미소항공여행사","tel":"031-243-3337","addr":"경기도 수원시 팔달구 우만동 499-3번지","category":"여행 - 관광여행"},{"name":"리베오션","tel":"031-0000-0000","addr":"경기도 수원시 팔달구 우만동 499-3번지","category":"레져용품 - 스포츠·레져용품"},{"name":"세무사최윤재사무소","tel":"031-244-3119","addr":"경기도 수원시 팔달구 우만동 499-3번지 2층","category":"용역 서비스 - 법률회계서비스(개인)"},{"name":"원사진실","tel":"031-242-2563","addr":"경기도 수원시 팔달구 우만동 499-3번지","category":"광학제품 - 사진관"},{"name":"제이워크 스포츠","tel":"031-258-4875","addr":"경기도 수원시 팔달구 우만동 499-3번지 상가 1층","category":"레져용품 - 스포츠·레져용품"}]},{"lat":"37.286071763","long":"127.03005884","items":[{"name":"(주)삼립식품경기수원대리점","tel":"031-251-5510","addr":"경기도 수원시 팔달구 우만동 493-11번지","category":"유통업 영리 - 슈퍼마켓"}]},{"lat":"37.284765651","long":"127.0283669","items":[{"name":"(주)선진엔에스","tel":"031-236-3631","addr":"경기도 수원시 팔달구 우만동 508-14번지 청송빌딩 305호","category":"기타 - 기계공구"},{"name":"고 프로 다이브(GO PRO DIVE)","tel":"031-244-3060","addr":"경기도 수원시 팔달구 우만동 508-14번지 402호","category":"레져용품 - 스포츠·레져용품"},{"name":"서미가","tel":"031-255-9954","addr":"경기도 수원시 팔달구 우만동 508-14번지 청송빌딩 1층 103호","category":"일반휴게음식 - 일반한식"},{"name":"수랏간 떡볶이","tel":"031-247-5677","addr":"경기도 수원시 팔달구 우만동 508-14번지 청송빌딩 1층 104호","category":"일반휴게음식 - 스넥"},{"name":"안경창고싸군우만점","tel":"031-245-0678","addr":"경기도 수원시 팔달구 우만동 508-14번지 청송빌딩 1층 102호","category":"보건위생 - 안경"},{"name":"주식회사 태진이엔씨","tel":"031-234-5454","addr":"경기도 수원시 팔달구 우만동 508-14번지 청송빌딩 304호","category":"용역 서비스 - 기타용역서비스"},{"name":"청송심씨정이공파어비리종친회","tel":"031-258-0410","addr":"경기도 수원시 팔달구 우만동 508-14번지 청송빌딩","category":"자동차정비 유지 - 주차장"},{"name":"행복가득치과의원","tel":"","addr":"경기도 수원시 팔달구 우만동 508-14번지 301,302호","category":"의원 - 치과의원"}]},{"lat":"37.289370379","long":"127.02600024","items":[{"name":"(주)소나무급식센터","tel":"031-251-4310","addr":"경기도 수원시 팔달구 우만동 472-1번지","category":"유통업 영리 - 기타유통업"}]},{"lat":"37.284322744","long":"127.03421922","items":[{"name":"(주)수원벤더","tel":"031-241-0992","addr":"경기도 수원시 팔달구 우만동 532-29번지","category":"회원제형태 - 기타4"},{"name":"에피파니 헤어","tel":"","addr":"경기도 수원시 팔달구 우만동 532-29번지","category":"보건위생 - 미용원"},{"name":"우리아이사랑음악학원","tel":"031-257-4688","addr":"경기도 수원시 팔달구 우만동 532-29번지 1층","category":"학원 - 예·체능계학원"}]},{"lat":"37.288954737","long":"127.03136803","items":[{"name":"(주)에코크린","tel":"031-255-5667","addr":"경기도 수원시 팔달구 우만동 481-2번지 1층","category":"용역 서비스 - 종합용역"},{"name":"포토애드","tel":"031-245-0508","addr":"경기도 수원시 팔달구 우만동 481-2번지","category":"용역 서비스 - 종합용역"},{"name":"희망상사","tel":"031-257-1747","addr":"경기도 수원시 팔달구 우만동 481-2번지","category":"자동차정비 유지 - 카인테리어"}]},{"lat":"37.292008899","long":"127.03264355","items":[{"name":"(주)엠피탑","tel":"070-8250-3481","addr":"경기도 수원시 팔달구 우만동 300-5번지 우만공단602호","category":"전기제품 - 가전제품"},{"name":"내츄럴발란스강남점","tel":"031-400-4362","addr":"경기도 수원시 팔달구 우만동 300-5번지 우만공단B103","category":"문화.취미 - 애완동물"},{"name":"마운틴리서치코리아","tel":"031-248-3446","addr":"경기도 수원시 팔달구 우만동 300-5번지 (701B)","category":"레져용품 - 스포츠·레져용품"},{"name":"아웃도어트레일","tel":"02-955-4125","addr":"경기도 수원시 팔달구 우만동 300-5번지 우만공단 B동 204호","category":"의류 - 정장"}]},{"lat":"37.280989865","long":"127.03053061","items":[{"name":"(주)영재교육","tel":"031-216-3000","addr":"경기도 수원시 팔달구 우만동 549-5번지","category":"서적문구 - 전문서적"},{"name":"아이푸드","tel":"031-217-3040","addr":"경기도 수원시 팔달구 우만동 549-5번지 아석빌딩","category":"음료식품 - 기타음료식품"}]},{"lat":"37.290928982","long":"127.0268578","items":[{"name":"(주)올애드미디어","tel":"","addr":"경기도 수원시 팔달구 우만동 583-2번지 202호","category":"용역 서비스 - 종합용역"}]},{"lat":"37.277267077","long":"127.0365052","items":[{"name":"(주)윈드21여행사","tel":"031-217-6000","addr":"경기도 수원시 팔달구 우만동 140-4번지 송암빌딩 201호","category":"여행 - 관광여행"},{"name":"더도그맨션","tel":"02-1111-1111","addr":"경기도 수원시 팔달구 우만동 140-4번지 송암빌딩 5층","category":"문화.취미 - 애완동물"},{"name":"알레르망","tel":"031-213-2795","addr":"경기도 수원시 팔달구 우만동 140-4번지 송암빌딩 1층","category":"직물 - 침구·수예점"},{"name":"엔플란트치과의원","tel":"031-237-7528","addr":"경기도 수원시 팔달구 우만동 140-4번지 송암빌딩 2층","category":"의원 - 치과의원"},{"name":"올데이피티 (All-day PT)","tel":"031-214-3340","addr":"경기도 수원시 팔달구 우만동 140-4번지 송암빌딩","category":"레저업소 - 헬스클럽"}]},{"lat":"37.2825395","long":"127.03108371","items":[{"name":"(주)평창에프앤비","tel":"031-898-9919","addr":"경기도 수원시 팔달구 우만동 527-22번지 샤인골든 2층 201호","category":"음료식품 - 기타음료식품"},{"name":"모터피플","tel":"031-257-9221","addr":"경기도 수원시 팔달구 우만동 527-22번지 샤인골든빌 102호","category":"자동차정비 유지 - 카인테리어"},{"name":"삼성디지탈OA","tel":"031-217-5858","addr":"경기도 수원시 팔달구 우만동 527-22 제에이동호1층","category":"사무통신 - 컴퓨터"}]},{"lat":"37.278546256","long":"127.03747547","items":[{"name":"(주)한내중기","tel":"031-227-1637","addr":"경기도 수원시 팔달구 우만동 135-62번지","category":"기타 - 기계공구"},{"name":"월드파워텔(주)","tel":"031-216-0130","addr":"경기도 수원시 팔달구 우만동 135-62번지","category":"사무통신 - 통신기기"},{"name":"크로바통신","tel":"031-216-0130","addr":"경기도 수원시 팔달구 우만동 135-62번지","category":"사무통신 - 통신기기"}]},{"lat":"37.277014566","long":"127.03728309","items":[{"name":"(주)향남관광여행사","tel":"031-221-4037","addr":"경기도 수원시 팔달구 우만동 141-6번지 204호","category":"여행 - 관광여행"},{"name":"(주)향남관광여행사","tel":"031-221-4037","addr":"경기도 수원시 팔달구 우만동 141-6번지 204호","category":"여행 - 관광여행"},{"name":"김밥천국","tel":"031-212-4527","addr":"경기도 수원시 팔달구 우만동 141-6,1층103~104호","category":"일반휴게음식 - 일반한식"},{"name":"반도당구장","tel":"031-216-8420","addr":"경기도 수원시 팔달구 우만동 141-6번지 보람 상가 지층 2호","category":"레저업소 - 당 구 장"},{"name":"뽀까뽀까 야채곱창","tel":"031-212-0703","addr":"경기도 수원시 팔달구 우만동 141-6번지 102호","category":"일반휴게음식 - 일반한식"},{"name":"신통치킨우만점","tel":"031-213-2539","addr":"경기도 수원시 팔달구 우만동 141-6번지","category":"일반휴게음식 - 스넥"},{"name":"아주꽃화원","tel":"031-215-3682","addr":"경기도 수원시 팔달구 우만동 141-6번지 보림 상가 101호","category":"문화.취미 - 화원"},{"name":"파리바케트 우만점","tel":"031-213-2626","addr":"경기도 수원시 팔달구 우만동 141-6번지 105,106,107호","category":"음료식품 - 제과점"}]},{"lat":"37.279878117","long":"127.04275315","items":[{"name":"119양푼이","tel":"031-216-1194","addr":"경기도 수원시 팔달구 우만동 58-27번지 준하우스 102호","category":"일반휴게음식 - 일반한식"},{"name":"고시원","tel":"031-213-5916","addr":"경기도 수원시 팔달구 우만동 58-27번지","category":"학원 - 독서실"},{"name":"공간룸카페","tel":"031-213-5916","addr":"경기도 수원시 팔달구 우만동 58-27번지 2층","category":"일반휴게음식 - 서양음식"},{"name":"미스터초밥왕","tel":"031-217-5150","addr":"경기도 수원시 팔달구 우만동 58-27번지 103호","category":"일반휴게음식 - 일식·회집"},{"name":"비츠(Beats)","tel":"031-234-9492","addr":"경기도 수원시 팔달구 우만동 58-27번지 1층","category":"전기제품 - 가전제품"},{"name":"아이애드맥스","tel":"031-215-0745","addr":"경기도 수원시 팔달구 우만동 58-27번지 102호","category":"용역 서비스 - 사무서비스"},{"name":"프레젠떼","tel":"070-8977-8471","addr":"경기도 수원시 팔달구 우만동 58-27번지 1층 102호","category":"일반휴게음식 - 일반한식"}]},{"lat":"37.279322693","long":"127.03166884","items":[{"name":"1988고기불패","tel":"031-217-7788","addr":"경기도 수원시 팔달구 우만동 561-8번지 아이월드 가동 2층","category":"일반휴게음식 - 일반한식"},{"name":"다중지능음악미술학원","tel":"t031-214-1370","addr":"경기도 수원시 팔달구 우만동 561-8번지 가동 204호 205호 아이월드","category":"학원 - 예·체능계학원"},{"name":"더힐링","tel":"031-213-4512","addr":"경기도 수원시 팔달구 우만동 561-8번지 아이월드 가동 301호","category":"보건위생 - 화장품"},{"name":"도담합기도체육관","tel":"031-305-0040","addr":"경기도 수원시 팔달구 우만동 561-8번지 가동208호,209호","category":"학원 - 예·체능계학원"},{"name":"라인업","tel":"031-302-1293","addr":"경기도 수원시 팔달구 우만동 561-8번지 아이월드 가동 3층 307호","category":"건강식품 - 기타건강식품"},{"name":"바인스튜디오","tel":"031-217-9736","addr":"경기도 수원시 팔달구 우만동 561-8번지 아이월드 가동 5층 1호","category":"학원 - 예·체능계학원"},{"name":"배가족발","tel":"031-212-0460","addr":"경기도 수원시 팔달구 우만동 561-8번지 아이월드동 117호","category":"일반휴게음식 - 일반한식"},{"name":"브라더양꼬치","tel":"031-213-0212","addr":"경기도 수원시 팔달구 우만동 561-8번지 아이월드 가동 1층 109호","category":"일반휴게음식 - 일반한식"},{"name":"블럭아카데미우만교육원","tel":"031-214-1379","addr":"경기도 수원시 팔달구 우만동 561-8번지 아이월드 가동 206호","category":"학원 - 기타 교육기관"},{"name":"비상잉글리시아이빨간펜수학의달인학원","tel":"031-214-0509","addr":"경기도 수원시 팔달구 우만동 561-8번지 아이월드 가동 4층 407호","category":"학원 - 보습학원"},{"name":"용추","tel":"031-211-5983","addr":"경기도 수원시 팔달구 우만동 561-8번지 아이월드103,104호","category":"일반휴게음식 - 일반한식"},{"name":"우만동수원골프점","tel":"031-216-7753","addr":"경기도 수원시 팔달구 우만동 561-8번지 아이월드 가동 110~115호","category":"레저업소 - 스크린골프"},{"name":"짝태&노가리","tel":"031-212-0762","addr":"경기도 수원시 팔달구 우만동 561-8번지","category":"일반휴게음식 - 주점"},{"name":"파리바게뜨 (수원메르디앙점)","tel":"031-213-8222","addr":"경기도 수원시 팔달구 우만동 561-8번지 106호 101 102 아이월드","category":"음료식품 - 제과점"},{"name":"하우스터디월드센터독서실","tel":"031-212-0903","addr":"경기도 수원시 팔달구 우만동 561-8번지 아이월드 가동 503호","category":"학원 - 독서실"},{"name":"하우스터디월드센터모임공간","tel":"031-212-0903","addr":"경기도 수원시 팔달구 우만동 561-8번지 아이월드 가동 5층 503호","category":"용역 서비스 - 사무서비스"}]},{"lat":"37.283178591","long":"127.03364366","items":[{"name":"1991(일구구일)","tel":"031-241-6812","addr":"경기도 수원시 팔달구 우만동 530-24번지 2층","category":"일반휴게음식 - 일반한식"},{"name":"GS25수원우만점","tel":"","addr":"경기도 수원시 팔달구 우만동 530-24번지 1층","category":"유통업 영리 - 편 의 점"},{"name":"버디통닭 본점","tel":"031-254-7989","addr":"경기도 수원시 팔달구 우만동 530-24번지 1층","category":"일반휴게음식 - 스넥"}]},{"lat":"37.286711742","long":"127.02894267","items":[{"name":"21세기할인마트","tel":"031-258-0640","addr":"경기도 수원시 팔달구 우만동 488-2번지 1층","category":"유통업 영리 - 슈퍼마켓"}]},{"lat":"37.27709574","long":"127.03700125","items":[{"name":"228카페(228Cafe)","tel":"070-3644-4893","addr":"경기도 수원시 팔달구 우만동 139-5번지","category":"일반휴게음식 - 서양음식"},{"name":"꽃미경네반찬&뷔페식백반","tel":"031-212-8285","addr":"경기도 수원시 팔달구 우만동 139-5번지 1층","category":"일반휴게음식 - 일반한식"},{"name":"신세대","tel":"031-212-0446","addr":"경기도 수원시 팔달구 우만동 139-5번지 지하1층","category":"레저업소 - 노 래 방"},{"name":"유니베라수원지사","tel":"031-233-2335","addr":"경기도 수원시 팔달구 우만동 139-5번지 2층","category":"보건위생 - 화장품"},{"name":"준아트","tel":"031-216-7579","addr":"경기도 수원시 팔달구 우만동 139-5번지 1층 3호","category":"가구 - 기타가구"},{"name":"편의점사랑","tel":"031-212-5672","addr":"경기도 수원시 팔달구 우만동 139-5번지","category":"유통업 영리 - 슈퍼마켓"}]},{"lat":"37.290766775","long":"127.02697052","items":[{"name":"24시해장국","tel":"031-255-4588","addr":"경기도 수원시 팔달구 우만동 583-4번지","category":"일반휴게음식 - 일반한식"}]},{"lat":"37.289433234","long":"127.02708287","items":[{"name":"2`AN FlowerCoffee(이안플라워커피)","tel":"031-000-0000","addr":"경기도 수원시 팔달구 우만동 589-14번지 지층","category":"문화.취미 - 화원"}]},{"lat":"37.285152095","long":"127.03264085","items":[{"name":"311번길","tel":"","addr":"경기도 수원시 팔달구 우만동 515-5번지 아침햇살 1층 101호","category":"일반휴게음식 - 서양음식"}]},{"lat":"37.277012559","long":"127.04360857","items":[{"name":"345헤어살롱","tel":"031-217-9100","addr":"경기도 수원시 팔달구 우만동 577-1번지 3층","category":"보건위생 - 미용원"},{"name":"맨발의청춘","tel":"031-211-9494","addr":"경기도 수원시 팔달구 우만동 577-1번지","category":"일반휴게음식 - 일반한식"},{"name":"약국식당","tel":"031-213-9934","addr":"경기도 수원시 팔달구 우만동 577-1번지 명진빌딩","category":"일반휴게음식 - 서양음식"},{"name":"커피나무","tel":"031-211-1927","addr":"경기도 수원시 팔달구 우만동 577-1번지 명진빌딩 102,202","category":"일반휴게음식 - 서양음식"},{"name":"휘트니스클럽S아주대점","tel":"031-8031-9688","addr":"경기도 수원시 팔달구 우만동 577-1번지","category":"회원제형태 - 레져업소"}]},{"lat":"37.286432441","long":"127.02886364","items":[{"name":"365풀잎플라워","tel":"031-207-4151","addr":"경기도 수원시 팔달구 우만동 492-1번지 지하층","category":"문화.취미 - 화원"},{"name":"더블유케이(WK)컨설팅","tel":"031-548-1919","addr":"경기도 수원시 팔달구 우만동 492-1번지 2층 201호","category":"용역 서비스 - 사무서비스"},{"name":"미래 종합 건축","tel":"031-307-8384","addr":"경기도 수원시 팔달구 우만동 492-1번지","category":"건축자재 - 인테리어전문"}]},{"lat":"37.282989598","long":"127.03277531","items":[{"name":"369당구클럽","tel":"031-306-3686","addr":"경기도 수원시 팔달구 우만동 530-2번지 정훈빌딩 3층","category":"레저업소 - 당 구 장"},{"name":"공룡치킨","tel":"031-304-0707","addr":"경기도 수원시 팔달구 우만동 530-2번지 정훈빌딩 1층 101,102호","category":"일반휴게음식 - 스넥"},{"name":"기종이네우럭매운탕","tel":"031-252-9077","addr":"경기도 수원시 팔달구 우만동 530-2,1층104호,105호","category":"일반휴게음식 - 일반한식"},{"name":"놀라go pc존","tel":"","addr":"경기도 수원시 팔달구 우만동 530-2번지 정훈빌딩 2층","category":"레저업소 - 기타레져업소"}]},{"lat":"37.27876061","long":"127.04344037","items":[{"name":"3Q(삼큐)","tel":"031-212-3658","addr":"경기도 수원시 팔달구 우만동 573-6번지","category":"일반휴게음식 - 스넥"},{"name":"유쾌육회","tel":"","addr":"경기도 수원시 팔달구 우만동 573-6번지 지하1층","category":"일반휴게음식 - 일반한식"},{"name":"지지고아주대점","tel":"031-212-2259","addr":"경기도 수원시 팔달구 우만동 573-6번지","category":"일반휴게음식 - 일반한식"},{"name":"크라켄","tel":"070-4327-5286","addr":"경기도 수원시 팔달구 우만동 573-6번지 3층","category":"일반휴게음식 - 일반한식"},{"name":"특별한사진관","tel":"031-212-3533","addr":"경기도 수원시 팔달구 우만동 573-6번지 2층","category":"광학제품 - 사진관"},{"name":"퓨로쥬스","tel":"070-5121-4552","addr":"경기도 수원시 팔달구 우만동 573-6번지 1층 2호","category":"일반휴게음식 - 서양음식"}]},{"lat":"37.279130257","long":"127.04277531","items":[{"name":"47ave.","tel":"031-216-0656","addr":"경기도 수원시 팔달구 우만동 58-20번지 1층","category":"일반휴게음식 - 일반한식"},{"name":"미스터쉐프","tel":"031-212-1884","addr":"경기도 수원시 팔달구 우만동 58-20번지 1층","category":"일반휴게음식 - 일반한식"}]},{"lat":"37.284566462","long":"127.0325053","items":[{"name":"611옛날통닭","tel":"031-242-0612","addr":"경기도 수원시 팔달구 우만동 523-11번지 거신빌딩","category":"일반휴게음식 - 일반한식"},{"name":"리앤초이치과의원","tel":"031-245-2872","addr":"경기도 수원시 팔달구 우만동 523-11번지","category":"의원 - 치과의원"},{"name":"이클루학원","tel":"031-548-2349","addr":"경기도 수원시 팔달구 우만동 523-11번지 거신빌딩 301호","category":"학원 - 보습학원"},{"name":"파리바게뜨","tel":"031-241-8282","addr":"경기도 수원시 팔달구 우만동 523-11번지 거신빌딩 1층 일부","category":"음료식품 - 제과점"},{"name":"한큐","tel":"031-253-3821","addr":"경기도 수원시 팔달구 우만동 523-11번지","category":"레저업소 - 당 구 장"}]},{"lat":"37.287432801","long":"127.02783778","items":[{"name":"Art Story","tel":"031-247-3559","addr":"경기도 수원시 팔달구 우만동 474-12번지","category":"문화.취미 - 문화취미기타"},{"name":"매일유업 영통유기농대리점","tel":"031-224-9966","addr":"경기도 수원시 팔달구 우만동 474-12","category":"음료식품 - 기타음료식품"}]},{"lat":"37.283124843","long":"127.03241452","items":[{"name":"BHC(치킨)우만점","tel":"031-248-6692","addr":"경기도 수원시 팔달구 우만동 529번지 스타맨션 101호","category":"일반휴게음식 - 서양음식"},{"name":"한국프로","tel":"031-215-3037","addr":"경기도 수원시 팔달구 우만동 529번지 스타맨션","category":"자동차정비 유지 - 자동차부품"}]},{"lat":"37.277490497","long":"127.04244746","items":[{"name":"Bou Bou Works","tel":"070-7536-5293","addr":"경기도 수원시 팔달구 우만동 68-10번지 1층","category":"의류 - 정장"},{"name":"불량워터와 잡동사니","tel":"031-211-7108","addr":"경기도 수원시 팔달구 우만동 68-10번지","category":"서적문구 - 완구점"}]},{"lat":"37.286098671","long":"127.03058886","items":[{"name":"CNKorea","tel":"031-256-4714","addr":"경기도 수원시 팔달구 우만동 503-12번지","category":"보건위생 - 화장품"},{"name":"가마솥통닭","tel":"031-254-8803","addr":"경기도 수원시 팔달구 우만동 503-12번지","category":"일반휴게음식 - 주점"},{"name":"겹살과막창이만났을때","tel":"031-244-8794","addr":"경기도 수원시 팔달구 우만동 503-12번지","category":"일반휴게음식 - 일반한식"},{"name":"다옴칼국수","tel":"031-241-3454","addr":"경기도 수원시 팔달구 우만동 503-12번지","category":"일반휴게음식 - 일반한식"},{"name":"사단법인 도농문화콘텐츠연구회","tel":"070-4205-1233","addr":"경기도 수원시 팔달구 우만동 503-12번지 지하층","category":"용역 서비스 - 종합용역"},{"name":"스튜디오하루","tel":"031-253-9405","addr":"경기도 수원시 팔달구 우만동 503-12번지 1층 2호","category":"광학제품 - 사진관"},{"name":"허브노래연습장","tel":"031-242-4998","addr":"경기도 수원시 팔달구 우만동 503-12번지 2층","category":"레저업소 - 노 래 방"}]},{"lat":"37.277013339","long":"127.04127457","items":[{"name":"DOUX(듀)","tel":"070-4409-0904","addr":"경기도 수원시 팔달구 우만동 102-1번지","category":"일반휴게음식 - 서양음식"},{"name":"라곰","tel":"031-259-0072","addr":"경기도 수원시 팔달구 우만동 102-1번지 드림타워 102호","category":"의류 - 정장"},{"name":"민플라워","tel":"031-232-3431","addr":"경기도 수원시 팔달구 우만동 102-1번지 드림타워","category":"문화.취미 - 화원"},{"name":"붉은벼슬","tel":"070-7776-3838","addr":"경기도 수원시 팔달구 우만동 102-1번지 드림타워 1층 103호","category":"일반휴게음식 - 스넥"},{"name":"수아트","tel":"031-253-0222","addr":"경기도 수원시 팔달구 우만동 102-1번지 드림타워 105호","category":"보건위생 - 미용재료"},{"name":"정이찬방","tel":"031-211-3805","addr":"경기도 수원시 팔달구 우만동 102-1번지 드림타워 106호","category":"음료식품 - 기타음료식품"},{"name":"착한미용실","tel":"031-216-8087","addr":"경기도 수원시 팔달구 우만동 102-1번지 드림타워 101호","category":"보건위생 - 미용원"}]},{"lat":"37.279157116","long":"127.04328273","items":[{"name":"GS25수원만석점","tel":"","addr":"경기도 수원시 팔달구 우만동 58-13번지 1층","category":"유통업 영리 - 편 의 점"},{"name":"렉스","tel":"031-215-8317","addr":"경기도 수원시 팔달구 우만동 58-13번지","category":"일반휴게음식 - 칵테일바"},{"name":"천애부 달인우동","tel":"031-213-4538","addr":"경기도 수원시 팔달구 우만동 58-13번지 2층","category":"일반휴게음식 - 일식·회집"}]},{"lat":"37.27884508","long":"127.03195055","items":[{"name":"GS25수원본점","tel":"080-555-2525","addr":"경기도 수원시 팔달구 우만동 561-13번지 103호","category":"유통업 영리 - 편 의 점"},{"name":"레삐헤어코디","tel":"031-217-7171","addr":"경기도 수원시 팔달구 우만동 561-13번지 외1필지OK빌딩 104호","category":"보건위생 - 미용원"},{"name":"보니따필라테스수원우만점평생교육원","tel":"031-215-1926","addr":"경기도 수원시 팔달구 우만동 561-13번지 3층 301호","category":"레저업소 - 헬스클럽"},{"name":"엄마손뷔페","tel":"031-3720-9451","addr":"경기도 수원시 팔달구 우만동 561-13번지 2층 201호","category":"일반휴게음식 - 일반한식"},{"name":"유한회사한신관광","tel":"031-245-1177","addr":"경기도 수원시 팔달구 우만동 561-13번지 OK빌딩 3층 302호","category":"여행 - 관광여행"},{"name":"치어스","tel":"031-217-6060","addr":"경기도 수원시 팔달구 우만동 561-13번지 외1필지","category":"일반휴게음식 - 일반한식"},{"name":"프린세스","tel":"031-217-0010","addr":"경기도 수원시 팔달구 우만동 561-13번지 5층","category":"보건위생 - 피부미용실"},{"name":"프린세스","tel":"031-217-0010","addr":"경기도 수원시 팔달구 우만동 561-13번지 502호","category":"보건위생 - 피부미용실"}]},{"lat":"37.289622375","long":"127.0274438","items":[{"name":"GS25우만1동점","tel":"02-2006-2485","addr":"경기도 수원시 팔달구 우만동 587-21번지","category":"유통업 영리 - 편 의 점"}]},{"lat":"37.279239047","long":"127.04074574","items":[{"name":"GS25우만빌리지점","tel":"","addr":"경기도 수원시 팔달구 우만동 47-4번지 1층 및 지하1층","category":"유통업 영리 - 편 의 점"},{"name":"엘 피아노 음악 교습소","tel":"031-111-1111","addr":"경기도 수원시 팔달구 우만동 47-4번지 2층 일부","category":"학원 - 예·체능계학원"}]},{"lat":"37.28779299","long":"127.0288641","items":[{"name":"GS25우만센트럴점","tel":"","addr":"경기도 수원시 팔달구 우만동 485-3번지 1층","category":"유통업 영리 - 편 의 점"}]},{"lat":"37.285566853","long":"127.03147952","items":[{"name":"GS25우만싱싱점","tel":"","addr":"경기도 수원시 팔달구 우만동 503-17번지 1층","category":"유통업 영리 - 편 의 점"}]},{"lat":"37.278400546","long":"127.04241411","items":[{"name":"GS25우만아주로점","tel":"","addr":"경기도 수원시 팔달구 우만동 57-2번지 1층","category":"유통업 영리 - 편 의 점"},{"name":"온앤온(ON&ON)","tel":"031-215-1874","addr":"경기도 수원시 팔달구 우만동 57-2번지 2층","category":"일반휴게음식 - 서양음식"}]},{"lat":"37.27890497","long":"127.04286539","items":[{"name":"GS당구장","tel":"070-4789-2144","addr":"경기도 수원시 팔달구 우만동 58-6번지 2층","category":"레저업소 - 당 구 장"},{"name":"더블유 527","tel":"","addr":"경기도 수원시 팔달구 우만동 58-6번지 1층 102호","category":"의류 - 정장"},{"name":"따봉헤어","tel":"070-8285-5117","addr":"경기도 수원시 팔달구 우만동 58-6번지 3층","category":"보건위생 - 미용원"},{"name":"알촌","tel":"031-214-8116","addr":"경기도 수원시 팔달구 우만동 58-6번지 1층","category":"일반휴게음식 - 일반한식"},{"name":"정보기획","tel":"031-212-0900","addr":"경기도 수원시 팔달구 우만동 58-6번지 101동 102호","category":"서적문구 - 출판 및 인쇄물"}]},{"lat":"37.285954564","long":"127.03034072","items":[{"name":"K비젼안경","tel":"031-258-0090","addr":"경기도 수원시 팔달구 우만동 504번지 1층","category":"보건위생 - 안경"},{"name":"개미노래연습장","tel":"031-248-5059","addr":"경기도 수원시 팔달구 우만동 504번지 지하","category":"레저업소 - 노 래 방"},{"name":"우만당구클럽","tel":"031-243-5093","addr":"경기도 수원시 팔달구 우만동 504번지 2층","category":"레저업소 - 당 구 장"},{"name":"파티하우스","tel":"031-223-5214","addr":"경기도 수원시 팔달구 우만동 504번지","category":"일반휴게음식 - 일반한식"},{"name":"한우정육점","tel":"031-244-2272","addr":"경기도 수원시 팔달구 우만동 504번지","category":"음료식품 - 정육점"}]},{"lat":"37.27840344","long":"127.03250288","items":[{"name":"LG오휘동수원","tel":"031-233-2883","addr":"경기도 수원시 팔달구 우만동 436번지 신아빌딩 6층","category":"보건위생 - 화장품"}]},{"lat":"37.278517623","long":"127.0425833","items":[{"name":"MANKOKU","tel":"070-7724-8899","addr":"경기도 수원시 팔달구 우만동 65-1번지 1층","category":"일반휴게음식 - 일반한식"},{"name":"집현전정보센타","tel":"031-212-9203","addr":"경기도 수원시 팔달구 우만동 65-1번지 1층","category":"용역 서비스 - 사무서비스"}]},{"lat":"37.279232737","long":"127.03105992","items":[{"name":"MD","tel":"031-211-5115","addr":"경기도 수원시 팔달구 우만동 562-10번지 수원산부인과건물 1층","category":"보건위생 - 화장품"}]},{"lat":"37.290567988","long":"127.02958681","items":[{"name":"OH 텔레콤","tel":"031-256-2010","addr":"경기도 수원시 팔달구 우만동 466-1번지 남정빌딩 1층 4호","category":"사무통신 - 통신기기"},{"name":"레전드 엔터테인먼트","tel":"031-256-2010","addr":"경기도 수원시 팔달구 우만동 466-1번지 남정빌딩 104호","category":"사무통신 - 통신기기"},{"name":"별커피","tel":"070-0000-0000","addr":"경기도 수원시 팔달구 우만동 466-1번지 남정빌딩 101호","category":"일반휴게음식 - 서양음식"},{"name":"우리농수산물","tel":"070-8612-9729","addr":"경기도 수원시 팔달구 우만동 466-1번지 남정빌딩 1층 106호","category":"음료식품 - 농·축·수산품"},{"name":"정안건설주식회사","tel":"031-202-6781","addr":"경기도 수원시 팔달구 우만동 466-1번지 남정빌딩 202호","category":"용역 서비스 - 기타용역서비스"},{"name":"주식회사아이디커뮤니케이션매리","tel":"02-552-7479","addr":"경기도 수원시 팔달구 우만동 466-1번지 남정빌딩 1층","category":"회원제형태 - 기타4"},{"name":"타잔떡볶이","tel":"031-257-5288","addr":"경기도 수원시 팔달구 우만동 466-1번지 남정빌딩","category":"일반휴게음식 - 스넥"},{"name":"헤어샵다올","tel":"031-254-3123","addr":"경기도 수원시 팔달구 우만동 466-1번지 남정빌딩 1층 2호","category":"보건위생 - 미용원"}]},{"lat":"37.291369598","long":"127.03089528","items":[{"name":"S-마트초연점","tel":"031-221-4040","addr":"경기도 수원시 팔달구 우만동 300번지 주공4단지아파트","category":"유통업 영리 - 슈퍼마켓"},{"name":"주공정육점","tel":"031-254-1400","addr":"경기도 수원시 팔달구 우만동 300번지 주공4단지아파트","category":"음료식품 - 정육점"},{"name":"헤어갤러리20000","tel":"031-245-3377","addr":"경기도 수원시 팔달구 우만동 300번지 우만주공4단지 상가 109호","category":"보건위생 - 미용원"}]},{"lat":"37.282683917","long":"127.03000124","items":[{"name":"SD유통","tel":"031-233-8664","addr":"경기도 수원시 팔달구 우만동 528-2번지","category":"자동차정비 유지 - 자동차부품"}]},{"lat":"37.28129595","long":"127.03163577","items":[{"name":"art studio 토요일","tel":"031-111-1111","addr":"경기도 수원시 팔달구 우만동 555-4번지 1층 101호","category":"문화.취미 - 문화취미기타"}]},{"lat":"37.287703361","long":"127.02660868","items":[{"name":"kim''s Komputer(킴스코퓨터)","tel":"031-257-8706","addr":"경기도 수원시 팔달구 우만동 473-3번지","category":"사무통신 - 컴퓨터"},{"name":"서호카프라자","tel":"031-247-8549","addr":"경기도 수원시 팔달구 우만동 473-3번지","category":"자동차정비 유지 - 자동차정비"}]},{"lat":"37.288315136","long":"127.03083777","items":[{"name":"가나유통","tel":"031-241-4103","addr":"경기도 수원시 팔달구 우만동 482-12번지 2층","category":"사무통신 - 기타 사무용품"}]},{"lat":"37.279067822","long":"127.04083586","items":[{"name":"가든정육점","tel":"031-213-6293","addr":"경기도 수원시 팔달구 우만동 47-2번지 101호","category":"음료식품 - 정육점"},{"name":"맨(MAN)가위소리","tel":"031-217-5084","addr":"경기도 수원시 팔달구 우만동 47-2번지 104호","category":"보건위생 - 미용원"},{"name":"엔젤음악학원","tel":"031-217-7059","addr":"경기도 수원시 팔달구 우만동 47-2번지 202호","category":"학원 - 예·체능계학원"},{"name":"올레분식 우만점","tel":"031-548-4949","addr":"경기도 수원시 팔달구 우만동 47-2번지 1층 103호","category":"일반휴게음식 - 스넥"},{"name":"클릭닷컴","tel":"031-216-8747","addr":"경기도 수원시 팔달구 우만동 47-2번지","category":"사무통신 - 컴퓨터"}]},{"lat":"37.278932291","long":"127.04199718","items":[{"name":"가마치치킨","tel":"031-211-9957","addr":"경기도 수원시 팔달구 우만동 54번지 1층","category":"일반휴게음식 - 스넥"},{"name":"굽네치킨","tel":"031-216-8899","addr":"경기도 수원시 팔달구 우만동 54번지 외2필지(53-4,55-1) 102호","category":"일반휴게음식 - 일반한식"},{"name":"더머랭","tel":"","addr":"경기도 수원시 팔달구 우만동 54번지 104호","category":"음료식품 - 기타음료식품"},{"name":"바바든든","tel":"031-212-1001","addr":"경기도 수원시 팔달구 우만동 54번지","category":"일반휴게음식 - 일반한식"},{"name":"여우미장","tel":"031-211-6820","addr":"경기도 수원시 팔달구 우만동 54번지 외2필지","category":"보건위생 - 미용원"},{"name":"주공카센타","tel":"031-212-6860","addr":"경기도 수원시 팔달구 우만동 54번지","category":"자동차정비 유지 - 자동차정비"},{"name":"주식회사 바비든든","tel":"031-212-1001","addr":"경기도 수원시 팔달구 우만동 54번지","category":"일반휴게음식 - 일반한식"},{"name":"창고형핸드폰 수원아주대점","tel":"031-211-7444","addr":"경기도 수원시 팔달구 우만동 54번지 54오 2필지","category":"사무통신 - 통신기기"},{"name":"카페드갤러리","tel":"","addr":"경기도 수원시 팔달구 우만동 54번지 1층","category":"일반휴게음식 - 서양음식"},{"name":"크레이지(Crazy)맨붕떡볶이","tel":"031-217-0039","addr":"경기도 수원시 팔달구 우만동 54번지 1층","category":"일반휴게음식 - 스넥"},{"name":"투고샐러드아주대점","tel":"","addr":"경기도 수원시 팔달구 우만동 54번지 1층 107호","category":"일반휴게음식 - 서양음식"}]},{"lat":"37.2893158746","long":"127.0281654406","items":[{"name":"가브리엘","tel":"02-6499-3972","addr":"경기도 수원시 팔달구 우만동 469-7번지 1층","category":"의류 - 정장"},{"name":"가브리엘","tel":"","addr":"경기도 수원시 팔달구 우만동 469-7번지","category":"의류 - 정장"},{"name":"아트싸인","tel":"031-246-8501","addr":"경기도 수원시 팔달구 우만동 469-7번지 1층","category":"용역 서비스 - 종합용역"}]},{"lat":"37.289153484","long":"127.02911267","items":[{"name":"가야유통","tel":"031-243-2827","addr":"경기도 수원시 팔달구 우만동 478-11번지 1층","category":"음료식품 - 농·축·수산품"},{"name":"대한오에이시스템가구","tel":"031-222-7644","addr":"경기도 수원시 팔달구 우만동 478-11번지 1층","category":"가구 - 일반가구"}]},{"lat":"37.287405288","long":"127.03002549","items":[{"name":"가온천연염색방","tel":"","addr":"경기도 수원시 팔달구 우만동 484-24번지","category":"보건위생 - 미용원"},{"name":"황금당","tel":"031-243-9622","addr":"경기도 수원시 팔달구 우만동 484-24번지","category":"신변잡화 - 시계"}]},{"lat":"37.285484917","long":"127.03478354","items":[{"name":"가자골프","tel":"031-207-3377","addr":"경기도 수원시 팔달구 우만동 519-1번지","category":"레져용품 - 골프용품 전문점"}]},{"lat":"37.275679564","long":"127.04205188","items":[{"name":"가츠스시","tel":"031-217-1040","addr":"경기도 수원시 팔달구 우만동 85-3번지 우만동R타워 2층 205호","category":"일반휴게음식 - 일반한식"},{"name":"로체르비노","tel":"070-4046-1422","addr":"경기도 수원시 팔달구 우만동 85-3번지 우만동R타워 113호","category":"의류 - 정장"},{"name":"박승철헤어스투디오 아주대점","tel":"031-286-1004","addr":"경기도 수원시 팔달구 우만동 85-3번지 우만동R타워 101,102호","category":"보건위생 - 미용원"},{"name":"벌가네과일야채","tel":"070-1111-1111","addr":"경기도 수원시 팔달구 우만동 85-3번지 우만동R타워 1층 107호","category":"음료식품 - 농·축·수산품"},{"name":"비씨800Coffee&Tea","tel":"031-211-3755","addr":"경기도 수원시 팔달구 우만동 85-3번지 우만동아이타워 114호","category":"일반휴게음식 - 서양음식"},{"name":"비엔씨사이언스","tel":"","addr":"경기도 수원시 팔달구 우만동 85-3번지 우만동R타워 815호","category":"서적문구 - 과학기자재"},{"name":"샐러드픽","tel":"031-309-2344","addr":"경기도 수원시 팔달구 우만동 85-3번지 우만동R타워 1층 104호","category":"일반휴게음식 - 일반한식"},{"name":"서울아주치과","tel":"031-214-2880","addr":"경기도 수원시 팔달구 우만동 85-3번지 우만동R타워 301호","category":"의원 - 치과의원"},{"name":"수원칼국수","tel":"031-214-9943","addr":"경기도 수원시 팔달구 우만동 85-3번지 우만동R타워 105,106호","category":"일반휴게음식 - 일반한식"},{"name":"스핀","tel":"031-214-4805","addr":"경기도 수원시 팔달구 우만동 85-3번지 우만동R타워 108호","category":"신변잡화 - 액세서리"},{"name":"아싸비어 아주대점","tel":"","addr":"경기도 수원시 팔달구 우만동 85-3번지 우만동R타워 1층 111호","category":"음료식품 - 기타음료식품"},{"name":"장미꽃과나이팅게일 피부과의원","tel":"031-268-5652","addr":"경기도 수원시 팔달구 우만동 85-3번지 아이타워 304호","category":"의원 - 의원"},{"name":"지골드","tel":"031-222-3753","addr":"경기도 수원시 팔달구 우만동 85-3번지 우만동R타워 108호","category":"신변잡화 - 액세서리"},{"name":"청춘약국","tel":"031-212-5156","addr":"경기도 수원시 팔달구 우만동 85-3번지 우만동R타워 113호","category":"약국 - 약국"},{"name":"텐동네코","tel":"","addr":"경기도 수원시 팔달구 우만동 85-3번지 우만동R타워 112호","category":"일반휴게음식 - 일식·회집"},{"name":"포메인 아주대점","tel":"031-216-6645","addr":"경기도 수원시 팔달구 우만동 85-3번지 우만동아이타워 204호","category":"일반휴게음식 - 서양음식"},{"name":"화이트미디어","tel":"031-258-0055","addr":"경기도 수원시 팔달구 우만동 85-3번지 아이타워 112호","category":"사무통신 - 컴퓨터"}]},{"lat":"37.284351029","long":"127.02905462","items":[{"name":"가현테크","tel":"031-244-8128","addr":"경기도 수원시 팔달구 우만동 508-4번지 3층","category":"용역 서비스 - 소프트웨어"},{"name":"한국후지시스템","tel":"031-244-8026","addr":"경기도 수원시 팔달구 우만동 508-4번지","category":"전기제품 - 냉열기기"}]},{"lat":"37.28837844","long":"127.02983413","items":[{"name":"갈비코리아","tel":"031-242-5236","addr":"경기도 수원시 팔달구 우만동 483-16번지","category":"일반휴게음식 - 일반한식"}]},{"lat":"37.275959235","long":"127.0409696","items":[{"name":"강선화헤어뷰티","tel":"031-212-4023","addr":"경기도 수원시 팔달구 우만동 92-1, 블루하우스 720호","category":"보건위생 - 미용원"},{"name":"교촌치킨","tel":"031-212-0404","addr":"경기도 수원시 팔달구 우만동 92-1번지 외2필지 블루하우스 111호","category":"일반휴게음식 - 서양음식"},{"name":"굿바디 통합의학 연구센타","tel":"02-1111-1111","addr":"경기도 수원시 팔달구 우만동 92-1번지 블루하우스 303호","category":"보건위생 - 기타대인서비스"},{"name":"그집김치찌개","tel":"031-215-2223","addr":"경기도 수원시 팔달구 우만동 92-1번지 블루하우스 1층","category":"일반휴게음식 - 일반한식"},{"name":"더치아쿠아","tel":"031-215-7735","addr":"경기도 수원시 팔달구 우만동 92-1번지 블루하우스 112호","category":"문화.취미 - 수족관"},{"name":"동수원요리전문학원","tel":"031-213-5330","addr":"경기도 수원시 팔달구 우만동 92-1번지 상록블루하우스 4층 403호","category":"회원제형태 - 학원"},{"name":"뜰커피30호 아주대점","tel":"031-212-4552","addr":"경기도 수원시 팔달구 우만동 92-1번지 109-2호","category":"일반휴게음식 - 서양음식"},{"name":"미연머리세계","tel":"031-213-4346","addr":"경기도 수원시 팔달구 우만동 92-1번지 블루하우스 108호","category":"보건위생 - 미용원"},{"name":"브이아이피(VIP) 리무진","tel":"031-308-4438","addr":"경기도 수원시 팔달구 우만동 92-1번지 블루하우스 6층 620호","category":"여행 - 관광여행"},{"name":"삼일타일","tel":"031-215-3131","addr":"경기도 수원시 팔달구 우만동 92-1번지 블루하우스 114호","category":"건축자재 - 건축용 요업제품"},{"name":"아모레 카운셀러","tel":"031-216-6313","addr":"경기도 수원시 팔달구 우만동 92-1번지","category":"보건위생 - 화장품"},{"name":"아모레 카운셀러","tel":"043-294-3304","addr":"경기도 수원시 팔달구 우만동 92-1번지 블루하우스 304호","category":"보건위생 - 화장품"},{"name":"아모레 카운셀러","tel":"031-216-6313","addr":"경기도 수원시 팔달구 우만동 92-1번지 블루하우스 304호","category":"보건위생 - 화장품"},{"name":"아모레 카운셀러","tel":"033-762-3965","addr":"경기도 수원시 팔달구 우만동 92-1번지 블루하우스 304호","category":"보건위생 - 화장품"},{"name":"아모레 카운셀러","tel":"041-622-9531","addr":"경기도 수원시 팔달구 우만동 92-1번지 블루하우스 304호","category":"보건위생 - 화장품"},{"name":"아모레 카운셀러","tel":"031-216-6313","addr":"경기도 수원시 팔달구 우만동 92-1번지 블루하우스 304호","category":"보건위생 - 화장품"},{"name":"아모레 카운셀러","tel":"031-216-6313","addr":"경기도 수원시 팔달구 우만동 92-1번지 블루하우스 304호","category":"보건위생 - 화장품"},{"name":"아모레 카운셀러","tel":"031-216-6313","addr":"경기도 수원시 팔달구 우만동 92-1번지 블루하우스 304호","category":"보건위생 - 화장품"},{"name":"아모레 카운셀러","tel":"031-216-6313","addr":"경기도 수원시 팔달구 우만동 92-1번지 블루하우스 304호","category":"보건위생 - 화장품"},{"name":"아모레카운셀러","tel":"031-216-6313","addr":"경기도 수원시 팔달구 우만동 92-1번지 블루하우스 304호","category":"보건위생 - 화장품"},{"name":"아모레카운셀러","tel":"032-432-9066","addr":"경기도 수원시 팔달구 우만동 92-1번지 블루하우스 304호","category":"보건위생 - 화장품"},{"name":"아모레카운셀러","tel":"031-216-6313","addr":"경기도 수원시 팔달구 우만동 92-1번지 블루하우스 304호","category":"보건위생 - 화장품"},{"name":"아모레카운셀러","tel":"042-544-5505","addr":"경기도 수원시 팔달구 우만동 92-1번지 블루하우스 304호","category":"보건위생 - 화장품"},{"name":"아모레카운셀러","tel":"031-216-6313","addr":"경기도 수원시 팔달구 우만동 92-1번지 블루하우스 304호","category":"보건위생 - 화장품"},{"name":"아모레카운셀러","tel":"031-216-6313","addr":"경기도 수원시 팔달구 우만동 92-1번지 블루하우스 304호","category":"보건위생 - 화장품"},{"name":"아모레카운셀러","tel":"031-216-6313","addr":"경기도 수원시 팔달구 우만동 92-1번지 블루하우스 3층 304호","category":"보건위생 - 화장품"},{"name":"아모레카운셀러","tel":"031-216-6313","addr":"경기도 수원시 팔달구 우만동 92-1번지 블루하우스 3층 304호","category":"보건위생 - 화장품"},{"name":"아모레퍼시픽","tel":"02-934-5990","addr":"경기도 수원시 팔달구 우만동 92-1번지 블루하우스 304호","category":"보건위생 - 화장품"},{"name":"아주좋은이웃심리치유센터","tel":"031-8004-7676","addr":"경기도 수원시 팔달구 우만동 92-1번지 블루하우스 506호","category":"기타 - 비영리/대상"},{"name":"엠씨엠휘트니스클럽","tel":"031-217-6788","addr":"경기도 수원시 팔달구 우만동 92-1번지 블루하우스 501호","category":"회원제형태 - 레져업소"},{"name":"엠씨엠휘트니스클럽","tel":"031-217-6788","addr":"경기도 수원시 팔달구 우만동 92-1번지 블루하우스 501호","category":"회원제형태 - 레져업소"},{"name":"유완진치과의원","tel":"031-211-3254","addr":"경기도 수원시 팔달구 우만동 92-1번지 블루하우스 405호","category":"의원 - 치과의원"},{"name":"율학원","tel":"031-216-9114","addr":"경기도 수원시 팔달구 우만동 92-1번지 블루하우스 505호","category":"학원 - 보습학원"},{"name":"이마트24아주대원룸점","tel":"031-212-2444","addr":"경기도 수원시 팔달구 우만동 92-1번지 101,102호 일부","category":"유통업 영리 - 편 의 점"},{"name":"이씨엠(ECM)","tel":"070-7530-5999","addr":"경기도 수원시 팔달구 우만동 92-1번지 블루하우스 113호","category":"기타 - 기타 전문점"},{"name":"자칭공주","tel":"","addr":"경기도 수원시 팔달구 우만동 92-1번지 블루하우스 605호","category":"의류 - 정장"},{"name":"전주명가콩나물국밥","tel":"031-213-4748","addr":"경기도 수원시 팔달구 우만동 92-1번지 블루하우스 110-1호","category":"일반휴게음식 - 일반한식"},{"name":"조성재수학전문학원","tel":"031-212-4253","addr":"경기도 수원시 팔달구 우만동 92-1번지 블루하우스 406호","category":"학원 - 보습학원"},{"name":"주식회사 오늘부동산중개법인","tel":"031-213-2525","addr":"경기도 수원시 팔달구 우만동 92-1번지 블루하우스 117호","category":"회원제형태 - 기타4"},{"name":"참사랑꽃방","tel":"031-214-7388","addr":"경기도 수원시 팔달구 우만동 92-1번지 불루하우스 107호","category":"문화.취미 - 화원"},{"name":"채선당 아주대점","tel":"031-217-7323","addr":"경기도 수원시 팔달구 우만동 92-1번지 블루하우스 2층 206,207호","category":"일반휴게음식 - 일반한식"},{"name":"크리쉬나요가원","tel":"031-211-2196","addr":"경기도 수원시 팔달구 우만동 92-1번지 블루하우스 407호","category":"레저업소 - 헬스클럽"},{"name":"프리미엄 옛날통닭","tel":"031-214-9989","addr":"경기도 수원시 팔달구 우만동 92-1번지 블루하우스 111호","category":"일반휴게음식 - 일반한식"},{"name":"프리카페 아주대점","tel":"02-6951-3007","addr":"경기도 수원시 팔달구 우만동 92-1번지 블루하우스 3층 306호","category":"용역 서비스 - 사무서비스"},{"name":"피플노래연습장","tel":"031-211-8558","addr":"경기도 수원시 팔달구 우만동 92-1번지 블루하우스 208호","category":"레저업소 - 노 래 방"},{"name":"항아리참숯갈비","tel":"031-211-1466","addr":"경기도 수원시 팔달구 우만동 92-1번지 블루하우스 109호","category":"일반휴게음식 - 일반한식"},{"name":"헤르본","tel":"031-214-3517","addr":"경기도 수원시 팔달구 우만동 92-1번지 블루하우스 719호","category":"회원제형태 - 기타4"}]},{"lat":"37.282404489","long":"127.03047474","items":[{"name":"강성에이치엔","tel":"070-8835-4306","addr":"경기도 수원시 팔달구 우만동 527-33번지 조이빌라 1층 상가","category":"건축자재 - 인테리어전문"}]},{"lat":"37.279845308","long":"127.03159011","items":[{"name":"강씨네식탁","tel":"070-8613-0907","addr":"경기도 수원시 팔달구 우만동 558-3번지","category":"음료식품 - 기타음료식품"},{"name":"뜨는회세꼬시","tel":"031-214-8848","addr":"경기도 수원시 팔달구 우만동 558-3번지","category":"일반휴게음식 - 일식·회집"},{"name":"진차이나","tel":"031-212-6061","addr":"경기도 수원시 팔달구 우만동 558-3번지","category":"일반휴게음식 - 중국식"},{"name":"탑올림피아드학원","tel":"031-893-9010","addr":"경기도 수원시 팔달구 우만동 558-3번지 2층","category":"학원 - 보습학원"}]},{"lat":"37.286315528","long":"127.02783741","items":[{"name":"강원건업","tel":"070-7725-0406","addr":"경기도 수원시 팔달구 우만동 489-10번지 1층","category":"용역 서비스 - 기타용역서비스"},{"name":"드림씨앤피","tel":"031-255-7234","addr":"경기도 수원시 팔달구 우만동 489-10번지 1층","category":"서적문구 - 출판 및 인쇄물"}]},{"lat":"37.280512275","long":"127.03072212","items":[{"name":"강원도양구손두부","tel":"031-203-6245","addr":"경기도 수원시 팔달구 우만동 557번지 1층","category":"일반휴게음식 - 일반한식"},{"name":"힐링","tel":"031-269-0600","addr":"경기도 수원시 팔달구 우만동 557번지 1층 102호","category":"일반휴게음식 - 서양음식"}]},{"lat":"37.286458291","long":"127.03378032","items":[{"name":"개성손만두 수원점","tel":"031-241-0222","addr":"경기도 수원시 팔달구 우만동 518-1번지 ,1,2층","category":"일반휴게음식 - 일반한식"}]},{"lat":"37.288514031","long":"127.02783814","items":[{"name":"개성시대","tel":"031-254-2537","addr":"경기도 수원시 팔달구 우만동 475번지","category":"보건위생 - 미용원"},{"name":"참사랑 종합설비","tel":"031-111-1111","addr":"경기도 수원시 팔달구 우만동 475번지","category":"건축자재 - 인테리어전문"}]},{"lat":"37.284151879","long":"127.03294492","items":[{"name":"갱순이토스트&김밥분식","tel":"031-251-1715","addr":"경기도 수원시 팔달구 우만동 523-31번지 1층","category":"일반휴게음식 - 스넥"},{"name":"귀여운여우","tel":"031-302-2789","addr":"경기도 수원시 팔달구 우만동 523-31번지 1층","category":"의류 - 정장"}]},{"lat":"37.285152269","long":"127.0319417","items":[{"name":"건강을나르는사람들","tel":"","addr":"경기도 수원시 팔달구 우만동 514-11번지","category":"음료식품 - 농·축·수산품"},{"name":"스타일헤어","tel":"031-248-3239","addr":"경기도 수원시 팔달구 우만동 514-11번지 1층","category":"보건위생 - 미용원"}]},{"lat":"37.277626626","long":"127.03941443","items":[{"name":"건강한푸드","tel":"031-304-1612","addr":"경기도 수원시 팔달구 우만동 110-4번지 은석빌딩 101호","category":"일반휴게음식 - 일반한식"},{"name":"은진식당","tel":"031-212-7469","addr":"경기도 수원시 팔달구 우만동 110-4번지","category":"일반휴게음식 - 일반한식"}]},{"lat":"37.283260092","long":"127.03203118","items":[{"name":"건국우유동수원보급소","tel":"031-5779-3343","addr":"경기도 수원시 팔달구 우만동 525-14번지 101호","category":"음료식품 - 기타음료식품"},{"name":"은희헤어","tel":"","addr":"경기도 수원시 팔달구 우만동 525-14번지 101호","category":"보건위생 - 미용원"}]},{"lat":"37.280962609","long":"127.03147778","items":[{"name":"건화교역","tel":"031-244-4455","addr":"경기도 수원시 팔달구 우만동 555-6번지 좌측상가 1층","category":"주방용구 - 주방용구"},{"name":"대일","tel":"031-212-8484","addr":"경기도 수원시 팔달구 우만동 555-6번지 동명빌리지 상가 102호","category":"의류 - 기타의류"},{"name":"레인보우","tel":"031-213-7390","addr":"경기도 수원시 팔달구 우만동 555-6번지","category":"회원제형태 - 기타4"},{"name":"수원동명사","tel":"031-217-8111","addr":"경기도 수원시 팔달구 우만동 555-6번지","category":"서적문구 - 출판 및 인쇄물"}]},{"lat":"37.28389915","long":"127.03463627","items":[{"name":"경기OA","tel":"031-1670-7802","addr":"경기도 수원시 팔달구 우만동 532-11번지 1층","category":"사무통신 - 사무용 OA기기"}]},{"lat":"37.281710189","long":"127.03258311","items":[{"name":"경기사무기","tel":"031-217-0018","addr":"경기도 수원시 팔달구 우만동 553-11번지","category":"사무통신 - 사무용 OA기기"},{"name":"생존학원","tel":"031-217-8225","addr":"경기도 수원시 팔달구 우만동 553-11번지","category":"학원 - 보습학원"},{"name":"월드탁구클럽","tel":"031-221-3630","addr":"경기도 수원시 팔달구 우만동 553-11번지 3층","category":"레저업소 - 기타레져업소"},{"name":"제일 건축 디자인","tel":"031-252-4042","addr":"경기도 수원시 팔달구 우만동 553-11번지 웰빙프라자 1층","category":"건축자재 - 인테리어전문"},{"name":"주식회사버틀러시스템","tel":"031-213-9992","addr":"경기도 수원시 팔달구 우만동 553-11번지 201호","category":"건축자재 - 기타건축자재"}]},{"lat":"37.275490198","long":"127.04250278","items":[{"name":"경기의료기","tel":"031-244-2071","addr":"경기도 수원시 팔달구 우만동 85-1번지 동양빌딩내1층102호","category":"기타의료기관 - 기타의료기관 및 기타"},{"name":"동양주차장","tel":"031-213-1045","addr":"경기도 수원시 팔달구 우만동 85-1번지","category":"자동차정비 유지 - 주차장"},{"name":"매표소","tel":"031-212-3673","addr":"경기도 수원시 팔달구 우만동 85-1번지","category":"신변잡화 - 기타잡화"},{"name":"백년식당 서서갈비/(주)에스엠푸드","tel":"031-217-3892","addr":"경기도 수원시 팔달구 우만동 85-1번지 ,2,3층","category":"일반휴게음식 - 일반한식"},{"name":"보성한의원","tel":"031-215-4975","addr":"경기도 수원시 팔달구 우만동 85-1번지 동양부페 4층 401호","category":"의원 - 한의원"},{"name":"키뮤커피(kimu coffee)","tel":"031-211-4097","addr":"경기도 수원시 팔달구 우만동 85-1번지 1층 103 ,104,105","category":"일반휴게음식 - 서양음식"}]},{"lat":"37.279600611","long":"127.036946","items":[{"name":"경기프린팅","tel":"031-267-0745","addr":"경기도 수원시 팔달구 우만동 131-4번지 월드캐슬 102호","category":"서적문구 - 출판 및 인쇄물"},{"name":"경희대검도교실","tel":"031-216-6769","addr":"경기도 수원시 팔달구 우만동 131-4번지 월드캐슬빌딩 4층","category":"학원 - 예·체능계학원"},{"name":"그림의집 미술교습소","tel":"031-211-7792","addr":"경기도 수원시 팔달구 우만동 131-4번지 월드캐슬 1층 101호","category":"학원 - 예·체능계학원"},{"name":"나무늘보 공작소","tel":"031-212-7981","addr":"경기도 수원시 팔달구 우만동 131-4번지 월드캐슬 105호","category":"문화.취미 - 문화취미기타"},{"name":"뮤즈피아노음악학원","tel":"031-213-9111","addr":"경기도 수원시 팔달구 우만동 131-4번지","category":"학원 - 예·체능계학원"},{"name":"손수","tel":"070-8227-7762","addr":"경기도 수원시 팔달구 우만동 131-4번지 월드캐슬 104호","category":"일반휴게음식 - 서양음식"},{"name":"월드탑플러스학원","tel":"031-212-0045","addr":"경기도 수원시 팔달구 우만동 131-4번지 월드캐슬 2층","category":"학원 - 보습학원"},{"name":"유니드","tel":"031-214-4493","addr":"경기도 수원시 팔달구 우만동 131-4번지 월드캐슬 105호","category":"신변잡화 - 기타잡화"},{"name":"이해법셀파수학학원","tel":"031-215-8960","addr":"경기도 수원시 팔달구 우만동 131-4번지 3층","category":"학원 - 보습학원"}]},{"lat":"37.288846807","long":"127.03055603","items":[{"name":"경자네밥상&호프","tel":"031-253-0252","addr":"경기도 수원시 팔달구 우만동 482번지 1층","category":"일반휴게음식 - 일반한식"},{"name":"동안피부바디","tel":"031-251-5294","addr":"경기도 수원시 팔달구 우만동 482번지","category":"보건위생 - 화장품"},{"name":"바람야식","tel":"031-258-8955","addr":"경기도 수원시 팔달구 우만동 482번지 1층","category":"일반휴게음식 - 일반한식"}]},{"lat":"37.278518171","long":"127.04091451","items":[{"name":"경화월드체육관","tel":"031-212-0772","addr":"경기도 수원시 팔달구 우만동 30-2번지","category":"학원 - 예·체능계학원"}]},{"lat":"37.282791516","long":"127.03220015","items":[{"name":"경희대박사 문무태권도장","tel":"031-244-7213","addr":"경기도 수원시 팔달구 우만동 529-14번지","category":"학원 - 예·체능계학원"}]},{"lat":"37.278735511","long":"127.03734025","items":[{"name":"고기의전당","tel":"031-211-0678","addr":"경기도 수원시 팔달구 우만동 135번지","category":"일반휴게음식 - 일반한식"},{"name":"훅","tel":"031-221-0678","addr":"경기도 수원시 팔달구 우만동 135번지 2층","category":"일반휴게음식 - 일반한식"}]},{"lat":"37.278985932","long":"127.04324881","items":[{"name":"고씨네","tel":"031-214-1579","addr":"경기도 수원시 팔달구 우만동 58-15번지 2층","category":"일반휴게음식 - 일반한식"},{"name":"고씨네/주식회사 팀씨에스피 고씨네 아주대","tel":"031-214-1579","addr":"경기도 수원시 팔달구 우만동 58-15번지 2층","category":"일반휴게음식 - 일식·회집"},{"name":"깐돌이네","tel":"070-7760-1382","addr":"경기도 수원시 팔달구 우만동 58-15번지 지하1층","category":"일반휴게음식 - 일반한식"},{"name":"빨강홍마라탕탕","tel":"","addr":"경기도 수원시 팔달구 우만동 58-15번지 1층","category":"일반휴게음식 - 중국식"},{"name":"아마스빈버블티 아주대점","tel":"031-211-2913","addr":"경기도 수원시 팔달구 우만동 58-15번지 1층","category":"일반휴게음식 - 서양음식"}]},{"lat":"37.285656387","long":"127.03374616","items":[{"name":"고은미용실","tel":"031-253-7364","addr":"경기도 수원시 팔달구 우만동 517-4번지","category":"보건위생 - 미용원"},{"name":"야후불닭발(본점)","tel":"031-254-5992","addr":"경기도 수원시 팔달구 우만동 517-4번지","category":"일반휴게음식 - 일반한식"}]},{"lat":"37.278761332","long":"127.04127546","items":[{"name":"고은콜라겐","tel":"031-211-1333","addr":"경기도 수원시 팔달구 우만동 30-3번지 제복합상가동 201","category":"보건위생 - 화장품"},{"name":"산해들","tel":"031-215-0742","addr":"경기도 수원시 팔달구 우만동 30-3번지 주공 상가 205호","category":"건강식품 - 기타건강식품"},{"name":"제삼교실수학교습소","tel":"070-4079-6132","addr":"경기도 수원시 팔달구 우만동 30-3 201-1호","category":"회원제형태 - 학원"},{"name":"주공보수","tel":"031-213-2434","addr":"경기도 수원시 팔달구 우만동 30-3번지 주공2단지아파트 복합상가 104호","category":"건축자재 - 목재·석재·철물"},{"name":"크린토피아","tel":"031-211-5029","addr":"경기도 수원시 팔달구 우만동 30-3번지 101-1호","category":"수리서비스 - 세탁소"},{"name":"하얀 세탁소","tel":"031-211-7679","addr":"경기도 수원시 팔달구 우만동 30-3번지","category":"수리서비스 - 세탁소"}]},{"lat":"37.278760733","long":"127.04307955","items":[{"name":"고칸 아주대점","tel":"031-212-4493","addr":"경기도 수원시 팔달구 우만동 61-1번지","category":"일반휴게음식 - 일식·회집"},{"name":"카르페디엠(CarpeDiem)","tel":"031-212-8464","addr":"경기도 수원시 팔달구 우만동 61-1번지","category":"일반휴게음식 - 서양음식"},{"name":"화이트스노우","tel":"031-211-0084","addr":"경기도 수원시 팔달구 우만동 61-1번지","category":"일반휴게음식 - 일반한식"}]},{"lat":"37.283763966","long":"127.03474898","items":[{"name":"고합상사","tel":"031-283-1370","addr":"경기도 수원시 팔달구 우만동 531-22번지","category":"용역 서비스 - 종합용역"},{"name":"주식회사씨앤에프(Clean&Food System co.,L","tel":"031-283-1370","addr":"경기도 수원시 팔달구 우만동 531-22번지","category":"용역 서비스 - 종합용역"}]},{"lat":"37.286350979","long":"127.03049874","items":[{"name":"고향숯불갈비","tel":"","addr":"경기도 수원시 팔달구 우만동 494-3번지","category":"일반휴게음식 - 일반한식"},{"name":"삼성엘지보라에어컨설치판매","tel":"031-224-3071","addr":"경기도 수원시 팔달구 우만동 494-3번지 2층","category":"용역 서비스 - 기타용역서비스"},{"name":"얼큰이 동태찌개","tel":"031-246-3011","addr":"경기도 수원시 팔달구 우만동 494-3번지","category":"일반휴게음식 - 일반한식"},{"name":"장수노래연습장","tel":"031-245-1531","addr":"경기도 수원시 팔달구 우만동 494-3번지","category":"레저업소 - 노 래 방"}]},{"lat":"37.279566012","long":"127.0314998","items":[{"name":"곤드레향기","tel":"031-0313-7595","addr":"경기도 수원시 팔달구 우만동 561번지","category":"일반휴게음식 - 일반한식"}]},{"lat":"37.283232573","long":"127.03394814","items":[{"name":"골든벨노래방","tel":"031-257-5140","addr":"경기도 수원시 팔달구 우만동 531-3번지","category":"레저업소 - 노 래 방"},{"name":"책바라기","tel":"02-241-2582","addr":"경기도 수원시 팔달구 우만동 531-3번지 1층 2호","category":"서적문구 - 일반서적"},{"name":"케이.앤.니트프로모숀","tel":"031-244-5195","addr":"경기도 수원시 팔달구 우만동 531-3번지","category":"의류 - 정장"}]},{"lat":"37.288513134","long":"127.03178511","items":[{"name":"골프메인","tel":"031-242-0101","addr":"경기도 수원시 팔달구 우만동 481-6번지 지성빌딩 103-4호","category":"레져용품 - 스포츠·레져용품"},{"name":"루마이코노샵","tel":"031-306-0013","addr":"경기도 수원시 팔달구 우만동 481-6번지 105,106호","category":"자동차정비 유지 - 자동차부품"},{"name":"월드카오디오","tel":"031-241-8072","addr":"경기도 수원시 팔달구 우만동 481-6번지 105호 105~106호","category":"자동차정비 유지 - 자동차부품"},{"name":"주식회사 탑기획","tel":"031-256-3004","addr":"경기도 수원시 팔달구 우만동 481-6번지 1층","category":"전기제품 - 냉열기기"},{"name":"주식회사 탑기획","tel":"031-1800-1497","addr":"경기도 수원시 팔달구 우만동 481-6번지","category":"전기제품 - 냉열기기"},{"name":"해송","tel":"070-7778-5769","addr":"경기도 수원시 팔달구 우만동 481-6번지 1층 101-102호","category":"의류 - 정장"}]},{"lat":"37.283430902","long":"127.03355355","items":[{"name":"공감뮤직음악교습소","tel":"031-893-3811","addr":"경기도 수원시 팔달구 우만동 530-15번지 2층","category":"학원 - 예·체능계학원"},{"name":"우랑돼랑 곱창","tel":"031-232-8038","addr":"경기도 수원시 팔달구 우만동 530-15번지 1층","category":"일반휴게음식 - 일반한식"},{"name":"큰집할매순대","tel":"","addr":"경기도 수원시 팔달구 우만동 530-15번지 1층","category":"일반휴게음식 - 일반한식"}]},{"lat":"37.276319866","long":"127.04028199","items":[{"name":"공감치과","tel":"031-214-2835","addr":"경기도 수원시 팔달구 우만동 96-30번지 우신빌딩 201호","category":"의원 - 치과의원"},{"name":"더헤어샵(The Hair Shop)","tel":"031-5420-0333","addr":"경기도 수원시 팔달구 우만동 96-30번지 우신빌딩 103호","category":"보건위생 - 미용원"},{"name":"샤인스킨케어","tel":"031-211-2338","addr":"경기도 수원시 팔달구 우만동 96-30번지 우신빌딩 201호","category":"회원제형태 - 기타4"},{"name":"용인이씨사간공파종회","tel":"031-239-9300","addr":"경기도 수원시 팔달구 우만동 96-30번지 우신빌딩","category":"자동차정비 유지 - 주차장"},{"name":"우만골남원추어탕","tel":"031-263-5279","addr":"경기도 수원시 팔달구 우만동 96-30번지 우신빌딩 1층","category":"일반휴게음식 - 일반한식"},{"name":"주식회사 본스타수원캠퍼스","tel":"031-211-3004","addr":"경기도 수원시 팔달구 우만동 96-30번지 우신빌딩 501, 502호","category":"학원 - 예·체능계학원"},{"name":"천궁의료기 아주지점","tel":"031-000-0000","addr":"경기도 수원시 팔달구 우만동 96-30번지 우신빌딩 202호","category":"보건위생 - 의료용품"},{"name":"파리바게트 우만주공점","tel":"031-212-3815","addr":"경기도 수원시 팔달구 우만동 96-30번지 우신빌딩 1층","category":"음료식품 - 제과점"}]},{"lat":"37.28723395","long":"127.03064566","items":[{"name":"광복페인트","tel":"031-244-9187","addr":"경기도 수원시 팔달구 우만동 495-1번지","category":"건축자재 - 페인트"}]},{"lat":"37.279710282","long":"127.0310601","items":[{"name":"광어9,900","tel":"031-216-9886","addr":"경기도 수원시 팔달구 우만동 557-12번지 1층","category":"일반휴게음식 - 일반한식"},{"name":"빈나영수학교습소","tel":"070-7783-9919","addr":"경기도 수원시 팔달구 우만동 557-12번지 201호","category":"학원 - 보습학원"},{"name":"아크로컬쳐","tel":"","addr":"경기도 수원시 팔달구 우만동 557-12번지 201호","category":"문화.취미 - 문화취미기타"}]},{"lat":"37.278156903","long":"127.04349643","items":[{"name":"광장노래연습장","tel":"031-212-8915","addr":"경기도 수원시 팔달구 우만동 575-1번지","category":"레저업소 - 노 래 방"},{"name":"낭만핫도그 아주대점","tel":"02-1577-0000","addr":"경기도 수원시 팔달구 우만동 575-1번지 아록빌딩 1층 104호","category":"일반휴게음식 - 서양음식"},{"name":"디오샵아주대점","tel":"","addr":"경기도 수원시 팔달구 우만동 575-1번지 아록빌딩 106호","category":"보건위생 - 미용원"},{"name":"북카페요기","tel":"","addr":"경기도 수원시 팔달구 우만동 575-1번지 아록빌딩 3층 302호","category":"레저업소 - 기타레져업소"},{"name":"송쥬얼리","tel":"070-4102-7770","addr":"경기도 수원시 팔달구 우만동 575-1번지 아록빌딩 1층 104호","category":"신변잡화 - 귀금속"},{"name":"싸인 이스케이프","tel":"031-211-8782","addr":"경기도 수원시 팔달구 우만동 575-1번지 아록빌딩 지하1층 101호","category":"레저업소 - 기타레져업소"},{"name":"아록당구타운","tel":"031-215-0203","addr":"경기도 수원시 팔달구 우만동 575-1번지 아록빌딩 6층","category":"레저업소 - 당 구 장"},{"name":"아리따움 아주대점","tel":"031-214-6827","addr":"경기도 수원시 팔달구 우만동 575-1번지 아록빌딩 103호","category":"보건위생 - 화장품"},{"name":"퀸스애비뉴","tel":"031-214-8400","addr":"경기도 수원시 팔달구 우만동 575-1번지 아록빌딩 4층 401호","category":"레저업소 - 노 래 방"},{"name":"탑플레이스PC","tel":"031-000-0000","addr":"경기도 수원시 팔달구 우만동 575-1번지 아록빌딩 2층 201호,202호","category":"레저업소 - 기타레져업소"},{"name":"포포PC방 비발디점","tel":"070-3936-9473","addr":"경기도 수원시 팔달구 우만동 575-1번지 아록빌딩 5층","category":"레저업소 - 기타레져업소"}]},{"lat":"37.28915303","long":"127.03108617","items":[{"name":"교촌치킨우만1호점","tel":"031-242-9985","addr":"경기도 수원시 팔달구 우만동 481번지 석우빌딩 1층","category":"일반휴게음식 - 스넥"},{"name":"사회적협동조합홀더맘심리언어발달센터","tel":"031-257-7553","addr":"경기도 수원시 팔달구 우만동 481번지 201호","category":"보건위생 - 기타대인서비스"},{"name":"이은교영수학원","tel":"031-243-1307","addr":"경기도 수원시 팔달구 우만동 481번지 2층 202호","category":"학원 - 보습학원"}]},{"lat":"37.278625464","long":"127.04341775","items":[{"name":"구뜰보쌈","tel":"031-214-3024","addr":"경기도 수원시 팔달구 우만동 573-7번지 2층","category":"일반휴게음식 - 일반한식"},{"name":"더진국 아주대점","tel":"031-216-9882","addr":"경기도 수원시 팔달구 우만동 573-7번지 1층","category":"일반휴게음식 - 일반한식"},{"name":"백팩맨","tel":"031-990-1560","addr":"경기도 수원시 팔달구 우만동 573-7번지 지하","category":"신변잡화 - 가방"},{"name":"이디야 아주대점","tel":"031-215-1822","addr":"경기도 수원시 팔달구 우만동 573-7번지 1층","category":"일반휴게음식 - 서양음식"}]},{"lat":"37.28590065","long":"127.02969793","items":[{"name":"구석탱이","tel":"031-243-4135","addr":"경기도 수원시 팔달구 우만동 492-15번지 1층 106호","category":"일반휴게음식 - 일반한식"},{"name":"오겹","tel":"","addr":"경기도 수원시 팔달구 우만동 492-15번지 1층","category":"일반휴게음식 - 일반한식"},{"name":"옷걸이","tel":"031-246-1884","addr":"경기도 수원시 팔달구 우만동 492-15번지","category":"의류 - 정장"},{"name":"이자카야키친","tel":"031-252-5898","addr":"경기도 수원시 팔달구 우만동 492-15번지 101호","category":"일반휴게음식 - 일반한식"},{"name":"홍경화산부인과","tel":"031-243-4162","addr":"경기도 수원시 팔달구 우만동 492-15번지","category":"의원 - 의원"}]},{"lat":"37.288207284","long":"127.02966491","items":[{"name":"구억미술학원","tel":"031-256-0809","addr":"경기도 수원시 팔달구 우만동 484번지","category":"학원 - 예·체능계학원"},{"name":"미래전자","tel":"031-236-4186","addr":"경기도 수원시 팔달구 우만동 484번지","category":"기타 - 기타 전문점"},{"name":"발라드","tel":"031-258-7824","addr":"경기도 수원시 팔달구 우만동 484번지","category":"일반휴게음식 - 일반한식"},{"name":"철과나무이야기","tel":"031-257-6111","addr":"경기도 수원시 팔달구 우만동 484번지 1층","category":"건축자재 - 인테리어전문"},{"name":"쿨독펫샵","tel":"031-269-1833","addr":"경기도 수원시 팔달구 우만동 484번지 삼익세라믹 상가 1동 3호","category":"문화.취미 - 애완동물"},{"name":"행복가득한어린이집[아이행복]","tel":"031-241-9771","addr":"경기도 수원시 팔달구 우만동 484번지 1층","category":"학원 - 유아원"}]},{"lat":"37.278935238","long":"127.03172507","items":[{"name":"군산아구찜","tel":"031-216-3538","addr":"경기도 수원시 팔달구 우만동 561-10번지","category":"일반휴게음식 - 일반한식"}]},{"lat":"37.285765033","long":"127.0316713","items":[{"name":"굳세어라돈순아","tel":"031-254-5430","addr":"경기도 수원시 팔달구 우만동 502-6번지","category":"일반휴게음식 - 일반한식"},{"name":"처음처럼","tel":"031-241-3308","addr":"경기도 수원시 팔달구 우만동 502-6번지","category":"일반휴게음식 - 일반한식"}]},{"lat":"37.28895535","long":"127.02869535","items":[{"name":"굿모닝마트정육","tel":"031-246-7767","addr":"경기도 수원시 팔달구 우만동 477번지 굿모닝마트내 나성복합상가아파트","category":"음료식품 - 정육점"},{"name":"굿모닝청과","tel":"031-246-7760","addr":"경기도 수원시 팔달구 우만동 477번지 굿모닝마트내 나성복합상가아파트","category":"음료식품 - 농·축·수산품"}]},{"lat":"37.278985855","long":"127.04347432","items":[{"name":"굿커피전문점","tel":"031-215-5383","addr":"경기도 수원시 팔달구 우만동 573-1번지","category":"일반휴게음식 - 서양음식"},{"name":"막창에 반함","tel":"","addr":"경기도 수원시 팔달구 우만동 573-1번지","category":"일반휴게음식 - 일반한식"},{"name":"맘스터치아주대점","tel":"031-216-1007","addr":"경기도 수원시 팔달구 우만동 573-1번지 2층","category":"일반휴게음식 - 일반한식"},{"name":"슈퍼스타코인노래연습장","tel":"031-212-9264","addr":"경기도 수원시 팔달구 우만동 573-1번지 3층","category":"레저업소 - 노 래 방"},{"name":"아롤도그","tel":"070-7818-5540","addr":"경기도 수원시 팔달구 우만동 573-1번지","category":"일반휴게음식 - 일반한식"},{"name":"프라이데이치맥하우스","tel":"031-111-1111","addr":"경기도 수원시 팔달구 우만동 573-1번지","category":"일반휴게음식 - 일반한식"}]},{"lat":"37.287900965","long":"127.02952948","items":[{"name":"굿타임","tel":"","addr":"경기도 수원시 팔달구 우만동 484-18","category":"회원제형태 - 기타1"},{"name":"임가네분식","tel":"031-000-0000","addr":"경기도 수원시 팔달구 우만동 484-18번지 1층","category":"일반휴게음식 - 스넥"},{"name":"컷트나라파마공장","tel":"031-243-2467","addr":"경기도 수원시 팔달구 우만동 484-18번지","category":"보건위생 - 미용원"}]},{"lat":"37.283124568","long":"127.03349705","items":[{"name":"궁돈숯돌생고기","tel":"031-257-5995","addr":"경기도 수원시 팔달구 우만동 530-21번지 1층","category":"일반휴게음식 - 일반한식"}]},{"lat":"37.29079327","long":"127.02947411","items":[{"name":"궁차이나","tel":"031-224-7745","addr":"경기도 수원시 팔달구 우만동 466번지 1층","category":"일반휴게음식 - 중국식"},{"name":"씨유수원연무점","tel":"031-242-8296","addr":"경기도 수원시 팔달구 우만동 466번지 1층","category":"유통업 영리 - 편 의 점"},{"name":"아지매해물칼국수","tel":"031-207-6594","addr":"경기도 수원시 팔달구 우만동 466번지","category":"일반휴게음식 - 일반한식"}]},{"lat":"37.283872411","long":"127.03353118","items":[{"name":"권안경","tel":"031-243-5154","addr":"경기도 수원시 팔달구 우만동 532-26번지","category":"보건위생 - 안경"},{"name":"꼬꼬마을","tel":"031-257-0441","addr":"경기도 수원시 팔달구 우만동 532-26번지","category":"일반휴게음식 - 주점"},{"name":"대성약초","tel":"070-4253-3474","addr":"경기도 수원시 팔달구 우만동 532-26번지 2층","category":"약국 - 한약방"}]},{"lat":"37.289126623","long":"127.02833453","items":[{"name":"귀뚜라미보일러철물","tel":"031-247-9200","addr":"경기도 수원시 팔달구 우만동 469-15번지 일부 1층","category":"건축자재 - 보일러·펌프·샷시"},{"name":"귀뚜라미철물","tel":"031-247-9963","addr":"경기도 수원시 팔달구 우만동 469-15번지 1층","category":"건축자재 - 목재·석재·철물"},{"name":"김여사네맛집","tel":"031-251-4757","addr":"경기도 수원시 팔달구 우만동 469-15번지 1층","category":"일반휴게음식 - 일반한식"},{"name":"머리염색 쉐반스","tel":"031-251-6008","addr":"경기도 수원시 팔달구 우만동 469-15번지 1층","category":"보건위생 - 미용원"},{"name":"투고카페(ToGoCafe)","tel":"070-8181-3133","addr":"경기도 수원시 팔달구 우만동 469-15번지 1층","category":"일반휴게음식 - 서양음식"},{"name":"페리카나","tel":"031-244-7926","addr":"경기도 수원시 팔달구 우만동 469-15번지","category":"일반휴게음식 - 주점"}]},{"lat":"37.278601714","long":"127.03231128","items":[{"name":"귀여운동물병원","tel":"031-211-8333","addr":"경기도 수원시 팔달구 우만동 436번지 뉴신아빌딩 D동 102호","category":"기타의료기관 - 동물병원"},{"name":"뚜레쥬르 수원우만","tel":"031-213-6660","addr":"경기도 수원시 팔달구 우만동 436번지 신아빌딩 D동 101호","category":"음료식품 - 제과점"}]},{"lat":"37.278733858","long":"127.04261724","items":[{"name":"그럼통닭호프","tel":"031-216-7508","addr":"경기도 수원시 팔달구 우만동 57-1번지 1층","category":"일반휴게음식 - 일반한식"}]},{"lat":"37.282845776","long":"127.03138828","items":[{"name":"그루터기어린이집[아이행복]","tel":"031-247-3609","addr":"경기도 수원시 팔달구 우만동 529-7번지 월드빌리지 1층","category":"학원 - 유아원"}]},{"lat":"37.279213105","long":"127.03717134","items":[{"name":"그리고미술교습소","tel":"031-212-8234","addr":"경기도 수원시 팔달구 우만동 133번지 월드프라자 105호","category":"학원 - 예·체능계학원"},{"name":"글쓰기보약 국어전문학원","tel":"031-216-9127","addr":"경기도 수원시 팔달구 우만동 133번지 월드프라자 401호","category":"학원 - 보습학원"},{"name":"뉴초이스헤어","tel":"031-216-5560","addr":"경기도 수원시 팔달구 우만동 133번지 월드프라자 108호","category":"보건위생 - 미용원"},{"name":"더오름","tel":"031-212-3388","addr":"경기도 수원시 팔달구 우만동 133번지 월드프라자 404호","category":"보건위생 - 기타대인서비스"},{"name":"도도네일","tel":"031-213-5541","addr":"경기도 수원시 팔달구 우만동 133번지 월드프라자 102호","category":"보건위생 - 화장품"},{"name":"뜨라레플라워공방","tel":"031-305-8755","addr":"경기도 수원시 팔달구 우만동 133번지 월드프라자 106호","category":"문화.취미 - 문화취미기타"},{"name":"메르디앙세탁소","tel":"031-217-2225","addr":"경기도 수원시 팔달구 우만동 133번지 월드프라자 104호","category":"수리서비스 - 세탁소"},{"name":"블랑드블랑","tel":"031-212-8615","addr":"경기도 수원시 팔달구 우만동 133번지 월드프라자 1층 110호","category":"일반휴게음식 - 서양음식"},{"name":"삼공삼공영어멘토수학학원","tel":"031-215-2874","addr":"경기도 수원시 팔달구 우만동 133번지 월드프라자 202호","category":"학원 - 보습학원"},{"name":"삼성영어우만학원","tel":"031-217-5105","addr":"경기도 수원시 팔달구 우만동 133번지 월드프라자 4층","category":"학원 - 보습학원"},{"name":"아주바둑교습소","tel":"031-214-3553","addr":"경기도 수원시 팔달구 우만동 133번지 월드프라자 403호","category":"학원 - 기타 교육기관"},{"name":"엠버악세사리","tel":"031-276-4076","addr":"경기도 수원시 팔달구 우만동 133번지 월드프라자 106호","category":"신변잡화 - 액세서리"},{"name":"엠베스트에스이공부학원","tel":"031-214-8805","addr":"경기도 수원시 팔달구 우만동 133번지 월드프라자 1동 4층 402호","category":"학원 - 보습학원"},{"name":"엠프렙학원","tel":"031-215-9056","addr":"경기도 수원시 팔달구 우만동 133번지 월드프라자 301호","category":"학원 - 보습학원"},{"name":"예인피아노학원","tel":"031-211-5018","addr":"경기도 수원시 팔달구 우만동 133번지 월드프라자 503호","category":"학원 - 예·체능계학원"},{"name":"오르다코리아 수원지사","tel":"031-234-2191","addr":"경기도 수원시 팔달구 우만동 133번지 월드프라자 204호","category":"회원제형태 - 서적"},{"name":"용인대한국태권도장","tel":"031-216-0055","addr":"경기도 수원시 팔달구 우만동 133번지 월드프라자 501호","category":"학원 - 예·체능계학원"},{"name":"윤선생영어 수원팔달센터","tel":"031-233-4433","addr":"경기도 수원시 팔달구 우만동 133번지 월드프라자 602호","category":"서적문구 - 일반서적"},{"name":"윤선생영어숲팔달학원","tel":"031-000-0000","addr":"경기도 수원시 팔달구 우만동 133번지 월드프라자 601,602호","category":"학원 - 보습학원"},{"name":"이든네이쳐 수원우만총국","tel":"070-8255-7900","addr":"경기도 수원시 팔달구 우만동 133번지 월드프라자 205호","category":"건강식품 - 기타건강식품"},{"name":"이롬경기용인신갈점","tel":"031-286-4556","addr":"경기도 수원시 팔달구 우만동 133번지 월드프라자 205호","category":"건강식품 - 기타건강식품"},{"name":"이롬황성주생식상록수지점","tel":"031-417-8933","addr":"경기도 수원시 팔달구 우만동 133번지 월드프라자 205호","category":"유통업 영리 - 통신판매업2"},{"name":"이티비티동수원어학원","tel":"031-212-0825","addr":"경기도 수원시 팔달구 우만동 133번지 월드프라자 6층 603호","category":"회원제형태 - 학원"},{"name":"자연반찬","tel":"031-217-6033","addr":"경기도 수원시 팔달구 우만동 133번지 월드프라자 1층 101호","category":"일반휴게음식 - 일반한식"},{"name":"점핑스타","tel":"031-217-2131","addr":"경기도 수원시 팔달구 우만동 133번지 월드프라자 603호","category":"레저업소 - 기타레져업소"},{"name":"지니어스영어학원","tel":"031-111-1111","addr":"경기도 수원시 팔달구 우만동 133번지 월드프라자 303호","category":"학원 - 외국어학원"},{"name":"튼튼영어수원팔달교육본부","tel":"031-217-3232","addr":"경기도 수원시 팔달구 우만동 133번지 월드프라자 403-2호","category":"서적문구 - 일반서적"},{"name":"피자에땅","tel":"031-221-3651","addr":"경기도 수원시 팔달구 우만동 133번지 월드프라자 107호","category":"일반휴게음식 - 서양음식"}]},{"lat":"37.282043876","long":"127.0313316","items":[{"name":"그린아트21","tel":"031-217-8006","addr":"경기도 수원시 팔달구 우만동 550-1번지 102호","category":"농업 - 기타농업관련"},{"name":"디자인디비","tel":"031-211-0979","addr":"경기도 수원시 팔달구 우만동 550-1번지","category":"용역 서비스 - 종합용역"}]},{"lat":"37.281430842","long":"127.03269576","items":[{"name":"금강인테리어","tel":"031-212-8500","addr":"경기도 수원시 팔달구 우만동 553-16번지 1층 104호","category":"건축자재 - 인테리어전문"},{"name":"떡시루","tel":"031-215-5952","addr":"경기도 수원시 팔달구 우만동 553-16번지","category":"음료식품 - 제과점"},{"name":"비디정보통신","tel":"031-8001-0705","addr":"경기도 수원시 팔달구 우만동 553-16번지 103호","category":"사무통신 - 통신기기"},{"name":"좋은느낌헤어살롱","tel":"031-211-8662","addr":"경기도 수원시 팔달구 우만동 553-16번지 1층","category":"보건위생 - 미용원"},{"name":"황제노래연습장","tel":"","addr":"경기도 수원시 팔달구 우만동 553-16번지 지층","category":"레저업소 - 노 래 방"}]},{"lat":"37.288793529","long":"127.02696989","items":[{"name":"금산홍삼엑스포","tel":"031-252-0401","addr":"경기도 수원시 팔달구 우만동 471-25번지","category":"건강식품 - 기타건강식품"}]},{"lat":"37.28509787","long":"127.03328359","items":[{"name":"금성상회","tel":"031-252-9170","addr":"경기도 수원시 팔달구 우만동 521-1번지","category":"신변잡화 - 기타잡화"}]},{"lat":"37.285233777","long":"127.03019386","items":[{"name":"금영냉난방","tel":"031-222-7872","addr":"경기도 수원시 팔달구 우만동 505-3번지","category":"전기제품 - 냉열기기"},{"name":"보부상사","tel":"031-222-5905","addr":"경기도 수원시 팔달구 우만동 505-3번지 좌측동우측","category":"직물 - 카페트,커튼,천막,지물"}]},{"lat":"37.285315186","long":"127.02878432","items":[{"name":"기수련원","tel":"031-898-5100","addr":"경기도 수원시 팔달구 우만동 491-11번지 3층","category":"보건위생 - 기타대인서비스"},{"name":"우만푸른학원","tel":"070-8274-9575","addr":"경기도 수원시 팔달구 우만동 491-11번지 2층","category":"학원 - 예·체능계학원"}]},{"lat":"37.290262126","long":"127.02733123","items":[{"name":"길광고공사","tel":"031-242-5068","addr":"경기도 수원시 팔달구 우만동 583-9번지 102호","category":"용역 서비스 - 종합용역"},{"name":"필즈(feelz)","tel":"070-8222-1501","addr":"경기도 수원시 팔달구 우만동 583-9번지 402호","category":"서적문구 - 과학기자재"}]},{"lat":"37.280016579","long":"127.03127445","items":[{"name":"길당구클럽","tel":"02-2632-7089","addr":"경기도 수원시 팔달구 우만동 558-12번지 2층","category":"레저업소 - 당 구 장"},{"name":"서울회관","tel":"031-243-7332","addr":"경기도 수원시 팔달구 우만동 558-12번지","category":"일반휴게음식 - 일반한식"},{"name":"씽씽노래연습장","tel":"031-211-3331","addr":"경기도 수원시 팔달구 우만동 558-12번지 지하1층","category":"레저업소 - 노 래 방"}]},{"lat":"37.285072043","long":"127.02816402","items":[{"name":"길약국","tel":"031-245-5599","addr":"경기도 수원시 팔달구 우만동 490-7번지","category":"약국 - 약국"},{"name":"김영훈치과의원","tel":"031-254-7528","addr":"경기도 수원시 팔달구 우만동 490-7번지","category":"의원 - 치과의원"},{"name":"약손한의원","tel":"031-247-7522","addr":"경기도 수원시 팔달구 우만동 490-7번지 2층","category":"의원 - 한의원"},{"name":"우만정철어학원","tel":"031-253-0579","addr":"경기도 수원시 팔달구 우만동 490-7번지","category":"학원 - 보습학원"},{"name":"월드컵노래연습장","tel":"031-246-8070","addr":"경기도 수원시 팔달구 우만동 490-7번지 지층","category":"레저업소 - 노 래 방"},{"name":"은가정의학과","tel":"031-247-1561","addr":"경기도 수원시 팔달구 우만동 490-7번지 2층","category":"의원 - 의원"},{"name":"킹짐 2호점","tel":"031-247-7774","addr":"경기도 수원시 팔달구 우만동 490-7번지 4층","category":"레저업소 - 헬스클럽"}]},{"lat":"37.288928439","long":"127.02814276","items":[{"name":"김밥나라","tel":"031-256-3303","addr":"경기도 수원시 팔달구 우만동 470-21번지","category":"일반휴게음식 - 일반한식"}]},{"lat":"37.279121956","long":"127.04061037","items":[{"name":"김선희심리상담센터","tel":"031-213-5266","addr":"경기도 수원시 팔달구 우만동 48-2번지 2층","category":"보건위생 - 기타대인서비스"},{"name":"화장품코너","tel":"031-212-2298","addr":"경기도 수원시 팔달구 우만동 48-2번지","category":"보건위생 - 화장품"}]},{"lat":"37.288351004","long":"127.03155951","items":[{"name":"김정숙헤어샵","tel":"031-252-5517","addr":"경기도 수원시 팔달구 우만동 481-22번지 1층 101호","category":"보건위생 - 미용원"}]},{"lat":"37.284566274","long":"127.03324955","items":[{"name":"김혜화 골프아카데미","tel":"02-259-2160","addr":"경기도 수원시 팔달구 우만동 522-3번지","category":"레저업소 - 골프연습장"}]},{"lat":"37.288378614","long":"127.02905601","items":[{"name":"까치노래연습장","tel":"031-246-0932","addr":"경기도 수원시 팔달구 우만동 477-19번지 지하","category":"레저업소 - 노 래 방"},{"name":"동대문곱창생각","tel":"031-309-1608","addr":"경기도 수원시 팔달구 우만동 477-19번지 1층","category":"일반휴게음식 - 일반한식"},{"name":"송원갈비","tel":"031-256-3657","addr":"경기도 수원시 팔달구 우만동 477-19번지 1층","category":"일반휴게음식 - 일반한식"},{"name":"이찌방(우만점)","tel":"031-257-9686","addr":"경기도 수원시 팔달구 우만동 477-19번지","category":"일반휴게음식 - 주점"}]},{"lat":"37.290261544","long":"127.03000396","items":[{"name":"깻잎두마리치킨","tel":"031-241-8892","addr":"경기도 수원시 팔달구 우만동 466-4번지 1층","category":"일반휴게음식 - 일반한식"},{"name":"끌림헤어","tel":"031-241-9765","addr":"경기도 수원시 팔달구 우만동 466-4번지 1층","category":"보건위생 - 미용원"},{"name":"이선구대중연설학원","tel":"031-236-9607","addr":"경기도 수원시 팔달구 우만동 466-4번지 2층","category":"학원 - 기타 교육기관"}]},{"lat":"37.285846488","long":"127.0301377","items":[{"name":"꼬까방우만점","tel":"031-253-1773","addr":"경기도 수원시 팔달구 우만동 504-9번지","category":"의류 - 아동의류"},{"name":"더썬","tel":"","addr":"경기도 수원시 팔달구 우만동 504-9번지","category":"음료식품 - 기타음료식품"},{"name":"더썬","tel":"03-111-1111","addr":"경기도 수원시 팔달구 우만동 504-9번지","category":"음료식품 - 기타음료식품"},{"name":"디디디모바일(DDD모바일)","tel":"031-241-6588","addr":"경기도 수원시 팔달구 우만동 504-9번지 1층","category":"사무통신 - 통신기기"},{"name":"먹고또먹고","tel":"031-257-8645","addr":"경기도 수원시 팔달구 우만동 504-9번지 1층","category":"일반휴게음식 - 스넥"},{"name":"우성상사","tel":"031-248-1147","addr":"경기도 수원시 팔달구 우만동 504-9번지","category":"건축자재 - 페인트"},{"name":"유토피아피시방","tel":"","addr":"경기도 수원시 팔달구 우만동 504-9번지","category":"레저업소 - 기타레져업소"}]},{"lat":"37.278905174","long":"127.04225651","items":[{"name":"꼬꼬마을","tel":"031-213-8826","addr":"경기도 수원시 팔달구 우만동 55번지","category":"일반휴게음식 - 일반한식"},{"name":"줌데렐라","tel":"031-214-1532","addr":"경기도 수원시 팔달구 우만동 55번지","category":"일반휴게음식 - 일반한식"},{"name":"행컵","tel":"031-123-4567","addr":"경기도 수원시 팔달구 우만동 55번지 1층","category":"일반휴게음식 - 일반한식"}]},{"lat":"37.289045191","long":"127.0298682","items":[{"name":"꽁꽁 아이스크림 할인점","tel":"","addr":"경기도 수원시 팔달구 우만동 480-18번지","category":"음료식품 - 기타음료식품"}]},{"lat":"37.285044321","long":"127.03121996","items":[{"name":"꽃가람","tel":"","addr":"경기도 수원시 팔달구 우만동 513-1번지 302호","category":"신변잡화 - 기타잡화"}]},{"lat":"37.289487198","long":"127.02755653","items":[{"name":"꽃보다치킨","tel":"031-246-8575","addr":"경기도 수원시 팔달구 우만동 471번지 1층","category":"일반휴게음식 - 서양음식"},{"name":"나사시스템","tel":"031-245-4204","addr":"경기도 수원시 팔달구 우만동 471번지","category":"용역 서비스 - 기타용역서비스"}]},{"lat":"37.289793598","long":"127.02730853","items":[{"name":"꽃이불어와","tel":"031-252-3474","addr":"경기도 수원시 팔달구 우만동 587-18번지","category":"문화.취미 - 화원"}]},{"lat":"37.279151465","long":"127.03180409","items":[{"name":"꽃향기","tel":"031-211-3343","addr":"경기도 수원시 팔달구 우만동 561-7번지 1층","category":"문화.취미 - 화원"},{"name":"부산아지매국밥","tel":"031-256-9882","addr":"경기도 수원시 팔달구 우만동 561-7번지 1층","category":"일반휴게음식 - 일반한식"},{"name":"빨강머리앤","tel":"031-217-7856","addr":"경기도 수원시 팔달구 우만동 561-7번지","category":"보건위생 - 미용원"},{"name":"산타페 노래연습장","tel":"031-215-5335","addr":"경기도 수원시 팔달구 우만동 561-7번지","category":"레저업소 - 노 래 방"},{"name":"옛촌손두부","tel":"031-216-6362","addr":"경기도 수원시 팔달구 우만동 561-7번지","category":"일반휴게음식 - 일반한식"},{"name":"월드당구장","tel":"031-214-8075","addr":"경기도 수원시 팔달구 우만동 561-7번지 지하1층","category":"레저업소 - 당 구 장"}]},{"lat":"37.278157269","long":"127.04241398","items":[{"name":"꿈나무미술학원","tel":"031-212-5934","addr":"경기도 수원시 팔달구 우만동 67-4번지 외3필지 204호","category":"학원 - 예·체능계학원"},{"name":"동남문화사","tel":"031-211-1992","addr":"경기도 수원시 팔달구 우만동 67-4번지","category":"서적문구 - 출판 및 인쇄물"},{"name":"맛이짱","tel":"031-211-0993","addr":"경기도 수원시 팔달구 우만동 67-4번지 101,102호","category":"일반휴게음식 - 일반한식"},{"name":"바비헤어","tel":"031-213-2331","addr":"경기도 수원시 팔달구 우만동 67-4번지 1층 103호","category":"보건위생 - 미용원"},{"name":"제니스학원","tel":"031-212-0308","addr":"경기도 수원시 팔달구 우만동 67-4번지 외3필지 203호","category":"학원 - 보습학원"},{"name":"종이랑 컴","tel":"031-212-3284","addr":"경기도 수원시 팔달구 우만동 67-4번지 107호","category":"용역 서비스 - 사무서비스"},{"name":"카파커피","tel":"070-7724-3653","addr":"경기도 수원시 팔달구 우만동 67-4번지 108,109호","category":"일반휴게음식 - 서양음식"},{"name":"푸드테라피","tel":"031-214-9137","addr":"경기도 수원시 팔달구 우만동 67-4번지 104호","category":"일반휴게음식 - 일반한식"}]},{"lat":"37.283683239","long":"127.03336196","items":[{"name":"꿈속에본돼지","tel":"031-257-9273","addr":"경기도 수원시 팔달구 우만동 523-26번지","category":"일반휴게음식 - 일반한식"}]},{"lat":"37.282593209","long":"127.03252708","items":[{"name":"나본미술교습소","tel":"031-547-9640","addr":"경기도 수원시 팔달구 우만동 552-3번지 1층 104호","category":"학원 - 예·체능계학원"},{"name":"달샵","tel":"070-7198-4577","addr":"경기도 수원시 팔달구 우만동 552-3번지 1층 101호","category":"신변잡화 - 기념품점"},{"name":"미쁘다봄씨","tel":"031-252-3474","addr":"경기도 수원시 팔달구 우만동 552-3번지 1층","category":"음료식품 - 기타음료식품"}]},{"lat":"37.286017727","long":"127.02994606","items":[{"name":"나성켄터키","tel":"070-8113-9291","addr":"경기도 수원시 팔달구 우만동 493-12번지 1층","category":"일반휴게음식 - 일반한식"},{"name":"유니스헤어","tel":"070-4028-0049","addr":"경기도 수원시 팔달구 우만동 493-12번지 1층","category":"보건위생 - 미용원"},{"name":"태영철물건재설비","tel":"031-252-0841","addr":"경기도 수원시 팔달구 우만동 493-12번지","category":"건축자재 - 목재·석재·철물"},{"name":"헤어에드","tel":"031-257-2636","addr":"경기도 수원시 팔달구 우만동 493-12번지","category":"보건위생 - 미용원"}]},{"lat":"37.288072308","long":"127.0288642","items":[{"name":"나영헤어","tel":"031-254-8263","addr":"경기도 수원시 팔달구 우만동 476-21번지 1층","category":"보건위생 - 미용원"}]},{"lat":"37.285296012","long":"127.03361069","items":[{"name":"낙원식당","tel":"","addr":"경기도 수원시 팔달구 우만동 520-14번지 1층","category":"일반휴게음식 - 일반한식"},{"name":"스윗차일드오마인","tel":"070-8837-5022","addr":"경기도 수원시 팔달구 우만동 520-14번지","category":"문화.취미 - 애완동물"},{"name":"영빈반점","tel":"031-244-9824","addr":"경기도 수원시 팔달구 우만동 520-14번지","category":"일반휴게음식 - 중국식"}]},{"lat":"37.279319247","long":"127.04344067","items":[{"name":"난(NAAN)","tel":"031-254-1090","addr":"경기도 수원시 팔달구 우만동 571-2번지 201호","category":"일반휴게음식 - 일반한식"},{"name":"찰칵스튜디오_수원본점","tel":"031-936-5299","addr":"경기도 수원시 팔달구 우만동 571-2번지 지하1층","category":"광학제품 - 사진관"},{"name":"판타스틱코인노래연습장","tel":"","addr":"경기도 수원시 팔달구 우만동 571-2번지 3층","category":"레저업소 - 노 래 방"}]},{"lat":"37.2786559","long":"127.0318039","items":[{"name":"남대문안경마트","tel":"031-233-1331","addr":"경기도 수원시 팔달구 우만동 561-15번지 상안빌딩 1층","category":"보건위생 - 안경"},{"name":"어썸커뮤니티","tel":"031-211-2462","addr":"경기도 수원시 팔달구 우만동 561-15번지 상안빌딩 8층","category":"레저업소 - 기타레져업소"},{"name":"어썸팩토리수원우만플레이스독서실","tel":"031-211-2462","addr":"경기도 수원시 팔달구 우만동 561-15번지 상안빌딩 8층","category":"학원 - 독서실"},{"name":"올리브영 동수원사거리점","tel":"031-211-5290","addr":"경기도 수원시 팔달구 우만동 561-15번지 상안빌딩 1층","category":"유통업 영리 - 편 의 점"}]},{"lat":"37.286179713","long":"127.03080315","items":[{"name":"남원추어탕","tel":"031-253-0020","addr":"경기도 수원시 팔달구 우만동 503번지","category":"일반휴게음식 - 일반한식"},{"name":"아침약국","tel":"031-241-1946","addr":"경기도 수원시 팔달구 우만동 503번지 1층","category":"약국 - 약국"},{"name":"조&윤 가정의학과의원","tel":"031-252-8251","addr":"경기도 수원시 팔달구 우만동 503번지","category":"의원 - 의원"}]},{"lat":"37.278796724","long":"127.04322616","items":[{"name":"내가찜한닭","tel":"031-211-4999","addr":"경기도 수원시 팔달구 우만동 60번지 1층","category":"일반휴게음식 - 일반한식"},{"name":"맛  단","tel":"031-302-2791","addr":"경기도 수원시 팔달구 우만동 60번지","category":"일반휴게음식 - 일반한식"}]},{"lat":"37.27842723","long":"127.0434402","items":[{"name":"넝쿨경양식","tel":"031-211-6991","addr":"경기도 수원시 팔달구 우만동 573-9번지","category":"일반휴게음식 - 서양음식"},{"name":"맥주바켓(아주대점)","tel":"031-781-0863","addr":"경기도 수원시 팔달구 우만동 573-9번지 지하1층","category":"일반휴게음식 - 주점"},{"name":"소세립","tel":"031-111-1111","addr":"경기도 수원시 팔달구 우만동 573-9번지","category":"일반휴게음식 - 일반한식"},{"name":"아오센","tel":"031-216-6776","addr":"경기도 수원시 팔달구 우만동 573-9번지 1층","category":"일반휴게음식 - 일반한식"},{"name":"파스타앤그릴","tel":"031-213-2713","addr":"경기도 수원시 팔달구 우만동 573-9번지","category":"일반휴게음식 - 서양음식"},{"name":"파스타앤그릴","tel":"031-213-2714","addr":"경기도 수원시 팔달구 우만동 573-9번지 3층","category":"일반휴게음식 - 서양음식"},{"name":"헤어브로(Hair Bro)","tel":"031-213-1052","addr":"경기도 수원시 팔달구 우만동 573-9번지 2층","category":"보건위생 - 미용원"}]},{"lat":"37.276851136","long":"127.04133086","items":[{"name":"네네후라이드치킨","tel":"031-211-8208","addr":"경기도 수원시 팔달구 우만동 95-1번지","category":"일반휴게음식 - 서양음식"},{"name":"묵가필방","tel":"031-215-3032","addr":"경기도 수원시 팔달구 우만동 95-1번지","category":"문화.취미 - 화방·표구점"},{"name":"바디포스짐","tel":"031-212-5786","addr":"경기도 수원시 팔달구 우만동 95-1번지 3층","category":"레저업소 - 헬스클럽"},{"name":"아이오로봇(Iolobot)","tel":"","addr":"경기도 수원시 팔달구 우만동 95-1번지 2층 203호","category":"학원 - 컴퓨터학원"},{"name":"온기","tel":"031-212-4740","addr":"경기도 수원시 팔달구 우만동 95-1번지 1층 중간부분","category":"일반휴게음식 - 서양음식"},{"name":"유신고등학교총동문회","tel":"031-217-1973","addr":"경기도 수원시 팔달구 우만동 95-1번지 2층","category":"기타 - 비영리/비대상"},{"name":"이모네칼국수","tel":"031-211-6886","addr":"경기도 수원시 팔달구 우만동 95-1번지","category":"일반휴게음식 - 스넥"}]},{"lat":"37.284179295","long":"127.03138878","items":[{"name":"네오샵","tel":"","addr":"경기도 수원시 팔달구 우만동 512-8번지 401호","category":"서적문구 - 완구점"}]},{"lat":"37.275318901","long":"127.04280712","items":[{"name":"네이처컬렉션 아주대점","tel":"031-212-2181","addr":"경기도 수원시 팔달구 우만동 88-3번지 용신빌딩 102호","category":"보건위생 - 화장품"},{"name":"마이핏","tel":"031-215-2116","addr":"경기도 수원시 팔달구 우만동 88-3번지 용신빌딩 7층","category":"레저업소 - 헬스클럽"},{"name":"서울수치과","tel":"031-217-2882","addr":"경기도 수원시 팔달구 우만동 88-3번지 용신빌딩 201호","category":"의원 - 치과의원"},{"name":"야미참치","tel":"031-211-3789","addr":"경기도 수원시 팔달구 우만동 88-3번지 용신빌딩","category":"일반휴게음식 - 일반한식"},{"name":"이지어학원","tel":"031-211-7724","addr":"경기도 수원시 팔달구 우만동 88-3번지 용신빌딩","category":"학원 - 보습학원"},{"name":"토즈멤버십라운지 우만센터","tel":"031-216-7155","addr":"경기도 수원시 팔달구 우만동 88-3번지 용신빌딩 5층","category":"용역 서비스 - 사무서비스"},{"name":"토즈스터디센터 우만독서실","tel":"031-216-7155","addr":"경기도 수원시 팔달구 우만동 88-3번지 용신빌딩 5층","category":"학원 - 독서실"}]},{"lat":"37.288712139","long":"127.02839078","items":[{"name":"네일더반짝","tel":"031-225-2300","addr":"경기도 수원시 팔달구 우만동 476-6번지 1층","category":"보건위생 - 피부미용실"}]},{"lat":"37.288486498","long":"127.0301161","items":[{"name":"노가네동태탕","tel":"031-247-5081","addr":"경기도 수원시 팔달구 우만동 483번지 1층","category":"일반휴게음식 - 일반한식"},{"name":"동의메디칼","tel":"031-247-2029","addr":"경기도 수원시 팔달구 우만동 483번지 1층","category":"기타의료기관 - 기타의료기관 및 기타"},{"name":"써니호프","tel":"031-7281-8881","addr":"경기도 수원시 팔달구 우만동 483번지","category":"일반휴게음식 - 일반한식"}]},{"lat":"37.276102859","long":"127.04261586","items":[{"name":"노군맥주","tel":"070-7760-3070","addr":"경기도 수원시 팔달구 우만동 89-11번지 1층","category":"일반휴게음식 - 주점"},{"name":"삼우고시원","tel":"031-215-1588","addr":"경기도 수원시 팔달구 우만동 89-11번지","category":"학원 - 독서실"},{"name":"키와마루아지","tel":"031-214-9015","addr":"경기도 수원시 팔달구 우만동 89-11번지","category":"일반휴게음식 - 일반한식"},{"name":"태화장국밥","tel":"031-213-6998","addr":"경기도 수원시 팔달구 우만동 89-11번지 1층","category":"일반휴게음식 - 일반한식"}]},{"lat":"37.288594981","long":"127.02850351","items":[{"name":"노라조포차","tel":"031-244-6524","addr":"경기도 수원시 팔달구 우만동 476-8번지","category":"일반휴게음식 - 일반한식"},{"name":"쉼터당구장","tel":"031-253-1406","addr":"경기도 수원시 팔달구 우만동 476-8번지 2층","category":"레저업소 - 당 구 장"},{"name":"옷 카페","tel":"031-257-0821","addr":"경기도 수원시 팔달구 우만동 476-8번지","category":"의류 - 정장"},{"name":"힐링","tel":"031-000-0000","addr":"경기도 수원시 팔달구 우만동 476-8번지 1층","category":"보건위생 - 피부미용실"}]},{"lat":"37.278177302","long":"127.03584035","items":[{"name":"녹산어린이집[아이행복]","tel":"031-215-1056","addr":"경기도 수원시 팔달구 우만동 147-12번지 롯데송림빌라2차 1층 103호","category":"학원 - 유아원"},{"name":"안일상사","tel":"031-211-1373","addr":"경기도 수원시 팔달구 우만동 147-12 롯데송림빌라 309 6/1","category":"농업 - 농기계"},{"name":"안일상사/원격지","tel":"031-211-1373","addr":"경기도 수원시 팔달구 우만동 147-12 롯데송림빌라 309 6/1","category":"기타 - 기타 전문점"}]},{"lat":"37.288433196","long":"127.02658636","items":[{"name":"녹산유치원","tel":"031-254-6700","addr":"경기도 수원시 팔달구 우만동 472-15번지","category":"학원 - 유치원"}]},{"lat":"37.279872265","long":"127.03189457","items":[{"name":"놀부부대찌개화덕족발 수원우만점","tel":"031-215-9582","addr":"경기도 수원시 팔달구 우만동 559-17번지 2층","category":"일반휴게음식 - 일반한식"},{"name":"이디야 수원메르디앙점","tel":"031-213-2809","addr":"경기도 수원시 팔달구 우만동 559-17번지 1층","category":"일반휴게음식 - 서양음식"}]},{"lat":"37.276653178","long":"127.04049639","items":[{"name":"뉴매쓰학원","tel":"031-211-4229","addr":"경기도 수원시 팔달구 우만동 96-4번지 삼희빌딩 5층","category":"학원 - 보습학원"},{"name":"수제본만두","tel":"070-4068-2232","addr":"경기도 수원시 팔달구 우만동 96-4번지 삼희빌딩 1층","category":"일반휴게음식 - 일반한식"},{"name":"예닮음악학원","tel":"031-211-7162","addr":"경기도 수원시 팔달구 우만동 96-4번지 삼희빌딩 3동","category":"학원 - 예·체능계학원"},{"name":"위프랑스어학원","tel":"031-213-9949","addr":"경기도 수원시 팔달구 우만동 96-4번지 삼희빌딩 2층","category":"학원 - 외국어학원"}]},{"lat":"37.279565896","long":"127.03197338","items":[{"name":"늘푸른소아과의원","tel":"031-214-2142","addr":"경기도 수원시 팔달구 우만동 561-2번지 우암빌딩 301호","category":"의원 - 의원"},{"name":"맑은샘한의원","tel":"031-212-7509","addr":"경기도 수원시 팔달구 우만동 561-2번지 우암빌딩 501호","category":"의원 - 한의원"},{"name":"보라 필라테스","tel":"031-211-3087","addr":"경기도 수원시 팔달구 우만동 561-2번지 우암빌딩 602호","category":"레저업소 - 헬스클럽"},{"name":"비타민약국","tel":"031-214-7233","addr":"경기도 수원시 팔달구 우만동 561-2번지 우암빌딩 1층","category":"약국 - 약국"},{"name":"상상이크는미술학원","tel":"031-214-4060","addr":"경기도 수원시 팔달구 우만동 561-2번지 우암빌딩 5층 502호","category":"학원 - 예·체능계학원"},{"name":"온누리치과의원","tel":"031-213-3080","addr":"경기도 수원시 팔달구 우만동 561-2번지 우암빌딩 4층 401호","category":"의원 - 치과의원"},{"name":"우리생협 우만점","tel":"031-214-6233","addr":"경기도 수원시 팔달구 우만동 561-2번지 우암빌딩","category":"유통업 영리 - 슈퍼마켓"},{"name":"우암빌딩,블럭하우스","tel":"031-211-8182","addr":"경기도 수원시 팔달구 우만동 561-2번지","category":"서적문구 - 완구점"},{"name":"자연담은반찬","tel":"031-212-2008","addr":"경기도 수원시 팔달구 우만동 561-2번지 우암빌딩 1층 105호","category":"음료식품 - 기타음료식품"},{"name":"코딩앤플레이","tel":"031-211-4131","addr":"경기도 수원시 팔달구 우만동 561-2번지 우암빌딩 302호 3층 302호,4층 402호","category":"서적문구 - 일반서적"},{"name":"퀸즈네일","tel":"031-215-5080","addr":"경기도 수원시 팔달구 우만동 561-2번지 우암빌딩 201호","category":"보건위생 - 피부미용실"},{"name":"프린세스","tel":"031-212-5790","addr":"경기도 수원시 팔달구 우만동 561-2번지 우암빌딩 202호","category":"보건위생 - 미용원"},{"name":"한우마을","tel":"031-216-4994","addr":"경기도 수원시 팔달구 우만동 561-2번지 우암빌딩","category":"음료식품 - 정육점"}]},{"lat":"37.287712018","long":"127.0283115","items":[{"name":"능인선원","tel":"031-892-7172","addr":"경기도 수원시 팔달구 우만동 475-16번지","category":"회원제형태 - 기타4"},{"name":"해나어린이집[아이행복]","tel":"031-257-9445","addr":"경기도 수원시 팔달구 우만동 475-16번지","category":"학원 - 유아원"}]},{"lat":"37.283539944","long":"127.02977602","items":[{"name":"다니엘산업","tel":"031-241-5351","addr":"경기도 수원시 팔달구 우만동 511-8번지","category":"서적문구 - 문구용품"}]},{"lat":"37.291954319","long":"127.03463966","items":[{"name":"다님길복지용구","tel":"031-241-2408","addr":"경기도 수원시 팔달구 우만동 301번지 주공3단지아파트 1층 103호","category":"보건위생 - 의료용품"},{"name":"수원시우만종합사회복지관","tel":"070-4904-7870","addr":"경기도 수원시 팔달구 우만동 301번지 주공3단지아파트","category":"학원 - 기타 교육기관"},{"name":"신세계미용실","tel":"031-256-0496","addr":"경기도 수원시 팔달구 우만동 301번지 주공3단지아파트 복합상가 201호","category":"보건위생 - 미용원"},{"name":"짜로사랑협동조합","tel":"031-253-1494","addr":"경기도 수원시 팔달구 우만동 301번지 주공(아)복합상가동지하1층","category":"음료식품 - 기타음료식품"}]},{"lat":"37.279121311","long":"127.04258362","items":[{"name":"다담국수집","tel":"031-212-9494","addr":"경기도 수원시 팔달구 우만동 58-2번지 1층","category":"일반휴게음식 - 일반한식"},{"name":"커피오브커피스","tel":"031-000-0000","addr":"경기도 수원시 팔달구 우만동 58-2번지 1층","category":"일반휴게음식 - 서양음식"}]},{"lat":"37.278510297","long":"127.03719357","items":[{"name":"다림방(송림점)","tel":"031-213-8354","addr":"경기도 수원시 팔달구 우만동 135-23번지 1층 전체","category":"일반휴게음식 - 스넥"}]},{"lat":"37.290568581","long":"127.02681257","items":[{"name":"다우방","tel":"031-243-6785","addr":"경기도 수원시 팔달구 우만동 587번지 1층","category":"일반휴게음식 - 일반한식"}]},{"lat":"37.284845569","long":"127.03333987","items":[{"name":"다원코리아","tel":"031-242-7279","addr":"경기도 수원시 팔달구 우만동 521-7번지 반지층","category":"음료식품 - 기타음료식품"}]},{"lat":"37.286955321","long":"127.02753315","items":[{"name":"다인광고","tel":"031-243-0204","addr":"경기도 수원시 팔달구 우만동 489번지","category":"용역 서비스 - 종합용역"},{"name":"아리랑식당","tel":"031-247-4478","addr":"경기도 수원시 팔달구 우만동 489번지","category":"일반휴게음식 - 일반한식"},{"name":"크린토피아","tel":"031-255-1960","addr":"경기도 수원시 팔달구 우만동 489번지 1층","category":"수리서비스 - 세탁소"}]},{"lat":"37.290703205","long":"127.02930492","items":[{"name":"다인밥상","tel":"031-242-2207","addr":"경기도 수원시 팔달구 우만동 466-14번지 세진빌딩 1층","category":"일반휴게음식 - 일반한식"},{"name":"바디아트","tel":"031-256-0327","addr":"경기도 수원시 팔달구 우만동 466-14번지 세진빌딩","category":"회원제형태 - 기타4"},{"name":"주식회사제이엠키친","tel":"031-256-4102","addr":"경기도 수원시 팔달구 우만동 466-14번지","category":"주방용구 - 주방용구"},{"name":"태진","tel":"031-484-9242","addr":"경기도 수원시 팔달구 우만동 466-14번지 세진빌딩 1층","category":"전기제품 - 가전제품"}]},{"lat":"37.288261456","long":"127.02916874","items":[{"name":"다인텔레콤","tel":"031-8627-0126","addr":"경기도 수원시 팔달구 우만동 477-14번지 1층","category":"사무통신 - 통신기기"},{"name":"우리는","tel":"031-256-7383","addr":"경기도 수원시 팔달구 우만동 477-14번지","category":"일반휴게음식 - 주점"}]},{"lat":"37.286432045","long":"127.03061153","items":[{"name":"다인텔레콤2호점","tel":"031-000-0000","addr":"경기도 수원시 팔달구 우만동 494-2번지 1층","category":"사무통신 - 통신기기"},{"name":"데코마트","tel":"031-255-9962","addr":"경기도 수원시 팔달구 우만동 494-2번지 1층 103호","category":"건축자재 - 기타건축자재"},{"name":"브렌드구제","tel":"070-785-8785","addr":"경기도 수원시 팔달구 우만동 494-2번지 1층","category":"의류 - 정장"},{"name":"썬 노래연습장","tel":"031-235-2962","addr":"경기도 수원시 팔달구 우만동 494-2번지 지층","category":"레저업소 - 노 래 방"},{"name":"에스비","tel":"031-255-6203","addr":"경기도 수원시 팔달구 우만동 494-2번지 1층","category":"사무통신 - 통신기기"},{"name":"주식회사엠티에프","tel":"031-242-6664","addr":"경기도 수원시 팔달구 우만동 494-2번지 1층","category":"사무통신 - 통신기기"}]},{"lat":"37.277122842","long":"127.0367532","items":[{"name":"다판다","tel":"031-221-0961","addr":"경기도 수원시 팔달구 우만동 141-4번지 2층","category":"보건위생 - 화장품"},{"name":"더샵(THE SHOP)","tel":"031-212-6817","addr":"경기도 수원시 팔달구 우만동 141-4번지 1층 101호","category":"의류 - 정장"},{"name":"동수원닭발","tel":"031-212-1230","addr":"경기도 수원시 팔달구 우만동 141-4번지","category":"일반휴게음식 - 일반한식"},{"name":"세상사는이야기","tel":"031-212-3933","addr":"경기도 수원시 팔달구 우만동 141-4,5,139-2","category":"일반휴게음식 - 칵테일바"},{"name":"옥시주단","tel":"031-215-0120","addr":"경기도 수원시 팔달구 우만동 141-4번지 1층","category":"의류 - 맞춤복점"},{"name":"이복구스튜디오","tel":"031-214-2054","addr":"경기도 수원시 팔달구 우만동 141-4번지","category":"광학제품 - 사진관"}]},{"lat":"37.276490849","long":"127.04094732","items":[{"name":"달봉이치킨(우만점)","tel":"031-211-5981","addr":"경기도 수원시 팔달구 우만동 96-6번지 남경빌딩","category":"일반휴게음식 - 스넥"},{"name":"소피아미용실","tel":"031-216-6374","addr":"경기도 수원시 팔달구 우만동 96-6번지 남경빌딩 104호","category":"보건위생 - 미용원"},{"name":"캡틴노래연습장","tel":"031-214-4224","addr":"경기도 수원시 팔달구 우만동 96-6번지 남경빌딩 지층","category":"레저업소 - 노 래 방"},{"name":"커피에프","tel":"070-7640-3700","addr":"경기도 수원시 팔달구 우만동 96-6번지","category":"일반휴게음식 - 서양음식"},{"name":"토탈푸드오늘","tel":"031-214-2345","addr":"경기도 수원시 팔달구 우만동 96-6번지 남경빌딩 1층","category":"일반휴게음식 - 일반한식"}]},{"lat":"37.281151634","long":"127.03225589","items":[{"name":"닭갈비와지짐이","tel":"031-8025-0220","addr":"경기도 수원시 팔달구 우만동 554-10번지 1층","category":"일반휴게음식 - 일반한식"},{"name":"동수원대한요양보호사교육원","tel":"031-211-5979","addr":"경기도 수원시 팔달구 우만동 554-10,2,3층","category":"회원제형태 - 학원"},{"name":"미원식당","tel":"031-217-2139","addr":"경기도 수원시 팔달구 우만동 554-10번지","category":"일반휴게음식 - 일반한식"}]},{"lat":"37.286819219","long":"127.03172808","items":[{"name":"닭한마리칼국수","tel":"031-241-7262","addr":"경기도 수원시 팔달구 우만동 501번지","category":"일반휴게음식 - 일반한식"},{"name":"수원열쇠방","tel":"031-241-1398","addr":"경기도 수원시 팔달구 우만동 501번지","category":"건축자재 - 목재·석재·철물"},{"name":"편의점 사랑","tel":"031-243-9671","addr":"경기도 수원시 팔달구 우만동 501번지 1층 1호","category":"유통업 영리 - 편 의 점"},{"name":"하나로크리닝","tel":"031-248-5801","addr":"경기도 수원시 팔달구 우만동 501번지 101호","category":"수리서비스 - 세탁소"},{"name":"하나미용실","tel":"031-247-2516","addr":"경기도 수원시 팔달구 우만동 501번지","category":"보건위생 - 미용원"}]},{"lat":"37.283511921","long":"127.03383549","items":[{"name":"대도수산","tel":"031-255-2323","addr":"경기도 수원시 팔달구 우만동 531번지","category":"일반휴게음식 - 일식·회집"}]},{"lat":"37.276374198","long":"127.03941383","items":[{"name":"대박고기집","tel":"031-212-0897","addr":"경기도 수원시 팔달구 우만동 145-5번지 신원빌딩 1층","category":"일반휴게음식 - 일반한식"},{"name":"샤빌롯 당구클럽","tel":"070-4036-8796","addr":"경기도 수원시 팔달구 우만동 145-5번지 신원빌딩","category":"레저업소 - 당 구 장"},{"name":"아모레","tel":"031-252-2248","addr":"경기도 수원시 팔달구 우만동 145-5번지 신원빌딩 2층","category":"보건위생 - 화장품"},{"name":"아모레","tel":"031-216-6300","addr":"경기도 수원시 팔달구 우만동 145-5 신원빌딩2층","category":"보건위생 - 화장품"},{"name":"아모레외판","tel":"031-216-6300","addr":"경기도 수원시 팔달구 우만동 145-5번지 신원빌딩 2층","category":"보건위생 - 화장품"},{"name":"아모레카운셀러","tel":"031-216-6300","addr":"경기도 수원시 팔달구 우만동 145-5번지 신원빌딩 2층","category":"보건위생 - 화장품"},{"name":"아모레카운셀러","tel":"031-216-6300","addr":"경기도 수원시 팔달구 우만동 145-5번지","category":"보건위생 - 화장품"},{"name":"아모레카운셀러","tel":"031-216-6300","addr":"경기도 수원시 팔달구 우만동 145-5번지 신원빌딩 2층","category":"보건위생 - 화장품"},{"name":"아모레카운셀러","tel":"031-216-6300","addr":"경기도 수원시 팔달구 우만동 145-5번지 신원빌딩 2층","category":"보건위생 - 화장품"},{"name":"아모레카운셀러","tel":"031-216-6300","addr":"경기도 수원시 팔달구 우만동 145-5번지 신원빌딩 2층","category":"보건위생 - 화장품"},{"name":"아모레카운셀러","tel":"031-216-6300","addr":"경기도 수원시 팔달구 우만동 145-5번지 신원빌딩 2층","category":"보건위생 - 화장품"},{"name":"아모레카운셀러","tel":"031-216-6300","addr":"경기도 수원시 팔달구 우만동 145-5번지 신원빌딩 2층","category":"보건위생 - 화장품"},{"name":"아모레카운셀러","tel":"031-216-6300","addr":"경기도 수원시 팔달구 우만동 145-5번지 신원빌딩 2층","category":"보건위생 - 화장품"},{"name":"아모레카운셀러","tel":"031-216-6300","addr":"경기도 수원시 팔달구 우만동 145-5번지 신원빌딩 2층","category":"보건위생 - 화장품"},{"name":"아모레카운셀러","tel":"031-216-6300","addr":"경기도 수원시 팔달구 우만동 145-5번지 신원빌딩 2층","category":"보건위생 - 화장품"},{"name":"아모레카운셀러","tel":"031-216-6300","addr":"경기도 수원시 팔달구 우만동 145-5번지 신원빌딩 2층","category":"보건위생 - 화장품"},{"name":"아모레카운셀러","tel":"031-216-6300","addr":"경기도 수원시 팔달구 우만동 145-5번지 신원빌딩 2층","category":"보건위생 - 화장품"},{"name":"아모레카운셀러","tel":"031-216-6300","addr":"경기도 수원시 팔달구 우만동 145-5번지 신원빌딩 2층","category":"보건위생 - 화장품"},{"name":"아모레카운셀러","tel":"031-216-6300","addr":"경기도 수원시 팔달구 우만동 145-5번지 신원빌딩 2층","category":"보건위생 - 화장품"},{"name":"아모레카운셀러","tel":"031-216-6300","addr":"경기도 수원시 팔달구 우만동 145-5번지 신원빌딩 2층","category":"보건위생 - 화장품"},{"name":"아모레카운셀러","tel":"031-216-6300","addr":"경기도 수원시 팔달구 우만동 145-5번지 신원빌딩 2층","category":"보건위생 - 화장품"},{"name":"아모레카운셀러","tel":"031-216-6300","addr":"경기도 수원시 팔달구 우만동 145-5번지 신원빌딩 2층","category":"보건위생 - 화장품"},{"name":"아모레카운셀러","tel":"031-216-6300","addr":"경기도 수원시 팔달구 우만동 145-5번지 신원빌딩 2층","category":"보건위생 - 화장품"},{"name":"아모레카운셀러","tel":"031-216-6300","addr":"경기도 수원시 팔달구 우만동 145-5번지 신원빌딩 2층","category":"보건위생 - 화장품"},{"name":"아모레카운셀러","tel":"031-216-6300","addr":"경기도 수원시 팔달구 우만동 145-5번지 신원빌딩 2층","category":"보건위생 - 화장품"},{"name":"아모레카운셀러","tel":"031-216-6300","addr":"경기도 수원시 팔달구 우만동 145-5번지 신원빌딩 2층","category":"보건위생 - 화장품"},{"name":"아모레카운셀러","tel":"031-216-6300","addr":"경기도 수원시 팔달구 우만동 145-5번지 신원빌딩 2층","category":"보건위생 - 화장품"},{"name":"아모레카운셀러","tel":"031-216-6301","addr":"경기도 수원시 팔달구 우만동 신원빌딩2층","category":"보건위생 - 화장품"},{"name":"아모레카운셀러","tel":"031-216-6300","addr":"경기도 수원시 팔달구 우만동 145-5번지 신원빌딩 2층","category":"보건위생 - 화장품"},{"name":"아모레카운셀러","tel":"031-216-6301","addr":"경기도 수원시 팔달구 우만동 145-5 신원빌딩2층","category":"보건위생 - 화장품"},{"name":"아모레카운셀러","tel":"031-216-6300","addr":"경기도 수원시 팔달구 우만동 145-5번지","category":"보건위생 - 화장품"},{"name":"아모레카운셀러","tel":"031-216-6300","addr":"경기도 수원시 팔달구 우만동 145-5번지 신원빌딩 2층","category":"보건위생 - 화장품"},{"name":"아모레카운셀러","tel":"031-216-6300","addr":"경기도 수원시 팔달구 우만동 145-5번지 신원빌딩 2층","category":"보건위생 - 화장품"},{"name":"아모레카운셀러","tel":"031-216-6301","addr":"경기도 수원시 팔달구 우만동 145-5번지 신원빌딩 2층","category":"보건위생 - 화장품"},{"name":"아모레카운셀러","tel":"031-216-6300","addr":"경기도 수원시 팔달구 우만동 145-5번지 신원빌딩 2층","category":"보건위생 - 화장품"}]},{"lat":"37.290261903","long":"127.0283913","items":[{"name":"대산","tel":"031-243-0481","addr":"경기도 수원시 팔달구 우만동 585-1번지 다온하우스 1층","category":"유통업 영리 - 기타유통업"}]},{"lat":"37.276958985","long":"127.04216529","items":[{"name":"대성농장생오리","tel":"031-212-5275","addr":"경기도 수원시 팔달구 우만동 68-7번지","category":"일반휴게음식 - 일반한식"},{"name":"럭셔리시가","tel":"070-8886-5544","addr":"경기도 수원시 팔달구 우만동 68-7번지","category":"음료식품 - 기타음료식품"},{"name":"반값소","tel":"031-302-1027","addr":"경기도 수원시 팔달구 우만동 68-7번지 1층","category":"일반휴게음식 - 일반한식"}]},{"lat":"37.284485265","long":"127.0329225","items":[{"name":"대성떡방앗간","tel":"031-246-9954","addr":"경기도 수원시 팔달구 우만동 522-16번지 1층","category":"음료식품 - 제과점"},{"name":"크린팡팡","tel":"031-268-9102","addr":"경기도 수원시 팔달구 우만동 522-16번지","category":"수리서비스 - 세탁소"}]},{"lat":"37.285404055","long":"127.0339152","items":[{"name":"대성자동차정비센터","tel":"031-246-8686","addr":"경기도 수원시 팔달구 우만동 520번지","category":"자동차정비 유지 - 자동차정비"}]},{"lat":"37.28843276","long":"127.02867261","items":[{"name":"대아인테리어","tel":"031-255-0399","addr":"경기도 수원시 팔달구 우만동 476-13번지","category":"직물 - 카페트,커튼,천막,지물"}]},{"lat":"37.286567922","long":"127.02733004","items":[{"name":"대원종합주방","tel":"031-258-0070","addr":"경기도 수원시 팔달구 우만동 489-16번지 1,2층","category":"주방용구 - 주방용식기"},{"name":"베틀한복 수원점","tel":"031-225-9880","addr":"경기도 수원시 팔달구 우만동 489-16번지","category":"의류 - 맞춤복점"}]},{"lat":"37.286648259","long":"127.03074693","items":[{"name":"대장떡볶이","tel":"031-252-3007","addr":"경기도 수원시 팔달구 우만동 495-22번지","category":"일반휴게음식 - 일반한식"},{"name":"사계절둥지냉면","tel":"031-248-4563","addr":"경기도 수원시 팔달구 우만동 495-22번지 제에이동호","category":"일반휴게음식 - 일반한식"}]},{"lat":"37.278544363","long":"127.04344026","items":[{"name":"대학촌찜닭","tel":"031-216-1057","addr":"경기도 수원시 팔달구 우만동 573-8번지","category":"일반휴게음식 - 일반한식"},{"name":"쥬크라","tel":"031-217-1933","addr":"경기도 수원시 팔달구 우만동 573-8번지","category":"신변잡화 - 기타잡화"},{"name":"한솥아주대점","tel":"031-215-4600","addr":"경기도 수원시 팔달구 우만동 573-8번지","category":"일반휴게음식 - 일반한식"},{"name":"홍콩반점 0410 아주대점","tel":"031-213-2658","addr":"경기도 수원시 팔달구 우만동 573-8번지","category":"일반휴게음식 - 중국식"}]},{"lat":"37.282954194","long":"127.03013666","items":[{"name":"대한 시스템","tel":"","addr":"경기도 수원시 팔달구 우만동 527-5번지 영창탑스빌 202호","category":"용역 서비스 - 기타용역서비스"}]},{"lat":"37.290845109","long":"127.03799986","items":[{"name":"대한불교조계종봉녕사","tel":"031-256-4127","addr":"경기도 수원시 팔달구 우만동 248번지 봉녕사","category":"기타 - 비영리/대상"},{"name":"봉녕사문화원 금라","tel":"","addr":"경기도 수원시 팔달구 우만동 248번지","category":"기타 - 비영리/대상"}]},{"lat":"37.284710573","long":"127.03271961","items":[{"name":"대한축산물도소매센타","tel":"031-254-0245","addr":"경기도 수원시 팔달구 우만동 522-21번지 삼일빌딩","category":"음료식품 - 정육점"},{"name":"에이스노래방","tel":"031-255-1640","addr":"경기도 수원시 팔달구 우만동 522-21번지","category":"레저업소 - 노 래 방"},{"name":"우만야채","tel":"","addr":"경기도 수원시 팔달구 우만동 522-21번지 삼일빌딩 1층 대문쪽상가","category":"음료식품 - 농·축·수산품"},{"name":"코리안숯불닭바베큐(우만점)","tel":"031-243-2556","addr":"경기도 수원시 팔달구 우만동 522-21번지 코리안숯불닭바베큐 우만점","category":"일반휴게음식 - 주점"}]},{"lat":"37.278905681","long":"127.04070047","items":[{"name":"대흥떡방앗간","tel":"031-211-0892","addr":"경기도 수원시 팔달구 우만동 49-1번지","category":"음료식품 - 제과점"},{"name":"삼육구(369)","tel":"031-213-1738","addr":"경기도 수원시 팔달구 우만동 49-1번지 지층","category":"레저업소 - 노 래 방"}]},{"lat":"37.275102408","long":"127.04352861","items":[{"name":"더마들렌헤어","tel":"031-211-3887","addr":"경기도 수원시 팔달구 우만동 81-7번지 1층","category":"보건위생 - 미용원"},{"name":"르하임스터디카페 수원아주대점","tel":"031-8067-5677","addr":"경기도 수원시 팔달구 우만동 81-7번지 3층","category":"용역 서비스 - 사무서비스"},{"name":"우리고시텔","tel":"031-213-6138","addr":"경기도 수원시 팔달구 우만동 81-7번지 4층","category":"학원 - 독서실"},{"name":"정스","tel":"031-217-9281","addr":"경기도 수원시 팔달구 우만동 81-7번지","category":"일반휴게음식 - 스넥"},{"name":"하늘꿈산후조리원","tel":"031-307-0029","addr":"경기도 수원시 팔달구 우만동 81-7번지 우만빌딩 2층,6층","category":"기타의료기관 - 산후조리원"}]},{"lat":"37.284044012","long":"127.03191872","items":[{"name":"더존텍","tel":"031-236-0146","addr":"경기도 수원시 팔달구 우만동 524-22번지 305호","category":"수리서비스 - 사무·통신기기수리"}]},{"lat":"37.285485256","long":"127.033498","items":[{"name":"더치페이","tel":"031-8031-9079","addr":"경기도 수원시 팔달구 우만동 517-7번지 1층 101호","category":"일반휴게음식 - 일반한식"},{"name":"아띠랑스","tel":"","addr":"경기도 수원시 팔달구 우만동 517-7번지 1층","category":"의류 - 정장"}]},{"lat":"37.284629078","long":"127.03427573","items":[{"name":"더컷(TheCut)","tel":"031-244-0922","addr":"경기도 수원시 팔달구 우만동 520-7번지 1층","category":"보건위생 - 미용원"},{"name":"맛있는파닭","tel":"031-248-9982","addr":"경기도 수원시 팔달구 우만동 520-7번지 1층","category":"일반휴게음식 - 일반한식"},{"name":"한입","tel":"","addr":"경기도 수원시 팔달구 우만동 520-7번지 1층 102호","category":"일반휴게음식 - 일반한식"}]},{"lat":"37.283349612","long":"127.03430903","items":[{"name":"더헤어갤러리","tel":"031-241-9322","addr":"경기도 수원시 팔달구 우만동 531-12번지","category":"보건위생 - 미용원"},{"name":"순살파닭&피자헤븐","tel":"031-252-1447","addr":"경기도 수원시 팔달구 우만동 531-12번지","category":"일반휴게음식 - 일반한식"}]},{"lat":"37.285927974","long":"127.02836729","items":[{"name":"덕수개발","tel":"","addr":"경기도 수원시 팔달구 우만동 491-26번지 1층 103호","category":"건축자재 - 페인트"},{"name":"청완건축","tel":"031-254-7704","addr":"경기도 수원시 팔달구 우만동 491-26번지 1층 102호","category":"건축자재 - 페인트"}]},{"lat":"37.286152829","long":"127.03017164","items":[{"name":"데이트라인","tel":"031-257-6851","addr":"경기도 수원시 팔달구 우만동 493-10번지","category":"일반휴게음식 - 일반한식"},{"name":"소문난분식","tel":"070-7539-0017","addr":"경기도 수원시 팔달구 우만동 493-10번지","category":"일반휴게음식 - 일반한식"},{"name":"신나는노래방","tel":"031-252-9992","addr":"경기도 수원시 팔달구 우만동 493-10번지 지하","category":"레저업소 - 노 래 방"}]},{"lat":"37.279121432","long":"127.0422228","items":[{"name":"도담도담치킨","tel":"031-211-0330","addr":"경기도 수원시 팔달구 우만동 43-7번지 1층","category":"일반휴게음식 - 일반한식"},{"name":"미각양꼬치","tel":"070-8975-9459","addr":"경기도 수원시 팔달구 우만동 43-7번지 지하1층","category":"일반휴게음식 - 중국식"},{"name":"뽕스토리","tel":"070-8975-9459","addr":"경기도 수원시 팔달구 우만동 43-7번지 지하1층","category":"일반휴게음식 - 중국식"}]},{"lat":"37.282377215","long":"127.03150086","items":[{"name":"도도헤어","tel":"031-214-7737","addr":"경기도 수원시 팔달구 우만동 551-5번지 우만빌딩 102동","category":"보건위생 - 미용원"}]},{"lat":"37.290874975","long":"127.02658712","items":[{"name":"돈가스 전문점","tel":"031-255-6201","addr":"경기도 수원시 팔달구 우만동 596-1번지 1층","category":"일반휴게음식 - 일반한식"}]},{"lat":"37.285404622","long":"127.03167116","items":[{"name":"돌쇠축산","tel":"031-241-8728","addr":"경기도 수원시 팔달구 우만동 514번지 101호","category":"음료식품 - 정육점"}]},{"lat":"37.282287421","long":"127.0301928","items":[{"name":"동광슈퍼","tel":"031-252-3833","addr":"경기도 수원시 팔달구 우만동 528-17번지","category":"유통업 영리 - 슈퍼마켓"},{"name":"화홍플라워","tel":"031-224-7080","addr":"경기도 수원시 팔달구 우만동 528-17번지 1층","category":"문화.취미 - 화원"}]},{"lat":"37.287648622","long":"127.02977749","items":[{"name":"동네술집","tel":"031-892-0048","addr":"경기도 수원시 팔달구 우만동 484-21번지 1층","category":"일반휴게음식 - 주점"},{"name":"착한가격헤어","tel":"","addr":"경기도 수원시 팔달구 우만동 484-21번지","category":"보건위생 - 미용원"}]},{"lat":"37.289648886","long":"127.02983458","items":[{"name":"동서C&T","tel":"031-244-5605","addr":"경기도 수원시 팔달구 우만동 479-1번지 보은맨션 907호","category":"음료식품 - 기타음료식품"},{"name":"동일정육점","tel":"031-245-9796","addr":"경기도 수원시 팔달구 우만동 479-1 보은맨션상가6호","category":"음료식품 - 정육점"},{"name":"수원오복떡집/낙원떡집","tel":"031-254-0909","addr":"경기도 수원시 팔달구 우만동 479-1번지 1층","category":"음료식품 - 제과점"},{"name":"에끌라 (eclat)","tel":"","addr":"경기도 수원시 팔달구 우만동 479-1번지 보은맨션 909호","category":"용역 서비스 - 혼례서비스"},{"name":"옹심이메밀칼국수","tel":"031-256-1776","addr":"경기도 수원시 팔달구 우만동 479-1번지 보은맨션 제상가동1호","category":"일반휴게음식 - 일반한식"},{"name":"조은축산","tel":"031-246-5565","addr":"경기도 수원시 팔달구 우만동 479-1번지 보은맨션 상가동 1층 4호","category":"음료식품 - 정육점"}]},{"lat":"37.285287683","long":"127.0308592","items":[{"name":"동서건축","tel":"031-255-7204","addr":"경기도 수원시 팔달구 우만동 504-4번지","category":"용역 서비스 - 기타용역서비스"},{"name":"주식회사한울기획","tel":"031-253-6361","addr":"경기도 수원시 팔달구 우만동 504-4","category":"용역 서비스 - 사무서비스"},{"name":"카마그래프","tel":"031-213-4253","addr":"경기도 수원시 팔달구 우만동 504-4번지","category":"서적문구 - 출판 및 인쇄물"},{"name":"코지윈","tel":"070-7526-5088","addr":"경기도 수원시 팔달구 우만동 504-4번지","category":"용역 서비스 - 기타용역서비스"}]},{"lat":"37.284403582","long":"127.03516648","items":[{"name":"동성중학교","tel":"031-245-1436","addr":"경기도 수원시 팔달구 우만동 533번지 동성중학교","category":"학원 - 초중고교육기관"}]},{"lat":"37.285982201","long":"127.02758921","items":[{"name":"동수원냉동","tel":"031-268-3974","addr":"경기도 수원시 팔달구 우만동 489-13번지","category":"전기제품 - 냉열기기"}]},{"lat":"37.282593744","long":"127.03030567","items":[{"name":"동수원베지밀","tel":"031-256-7780","addr":"경기도 수원시 팔달구 우만동 527-15번지","category":"음료식품 - 기타음료식품"}]},{"lat":"37.278574295","long":"127.03383347","items":[{"name":"동수원병원매점","tel":"031-210-0179","addr":"경기도 수원시 팔달구 우만동 157-7번지","category":"유통업 영리 - 슈퍼마켓"},{"name":"우리의료기","tel":"031-217-8382","addr":"경기도 수원시 팔달구 우만동 157-7번지 동수원병원내A동1층","category":"보건위생 - 의료용품"},{"name":"투썸플레이스 동수원병원점","tel":"031-215-2389","addr":"경기도 수원시 팔달구 우만동 157-7번지","category":"일반휴게음식 - 서양음식"}]},{"lat":"37.284350966","long":"127.02933653","items":[{"name":"동수원유리","tel":"031-241-6282","addr":"경기도 수원시 팔달구 우만동 507-23번지","category":"건축자재 - 유리"}]},{"lat":"37.278574467","long":"127.03316821","items":[{"name":"동수원장례식장","tel":"031-213-1640","addr":"경기도 수원시 팔달구 우만동 157-6번지 지하1층","category":"용역 서비스 - 가례서비스업"}]},{"lat":"37.27506629","long":"127.04375409","items":[{"name":"동싼집","tel":"070-7747-6339","addr":"경기도 수원시 팔달구 우만동 81-2번지","category":"의류 - 정장"},{"name":"리스포토라","tel":"031-212-8298","addr":"경기도 수원시 팔달구 우만동 81-2번지 대학빌딩","category":"광학제품 - 사진관"},{"name":"마마라 예술치료 연구소","tel":"031-305-8275","addr":"경기도 수원시 팔달구 우만동 81-2번지 대학빌딩 3층 1호","category":"보건위생 - 기타대인서비스"},{"name":"마마라 정신건강의학과의원","tel":"031-305-8275","addr":"경기도 수원시 팔달구 우만동 81-2번지 대학빌딩 3층 1호","category":"의원 - 의원"},{"name":"바빈스커피아주대점","tel":"031-0000-0000","addr":"경기도 수원시 팔달구 우만동 81-2번지 대학빌딩 1층 5,6호","category":"일반휴게음식 - 서양음식"},{"name":"베스킨라빈스아주대점","tel":"031-212-8168","addr":"경기도 수원시 팔달구 우만동 81-2번지 대학빌딩 1층 3호","category":"음료식품 - 제과점"},{"name":"아주탑치과의원","tel":"031-217-2297","addr":"경기도 수원시 팔달구 우만동 81-2번지 대학빌딩 3층","category":"의원 - 치과의원"},{"name":"온에어 스터디라운지","tel":"031-217-9970","addr":"경기도 수원시 팔달구 우만동 81-2번지 대학빌딩 6층 2호","category":"용역 서비스 - 사무서비스"},{"name":"촉실용음악학원","tel":"031-217-5532","addr":"경기도 수원시 팔달구 우만동 81-2번지 대학빌딩 502호","category":"회원제형태 - 학원"}]},{"lat":"37.288712073","long":"127.02869526","items":[{"name":"동아설비","tel":"031-253-2665","addr":"경기도 수원시 팔달구 우만동 477-1번지","category":"기타 - 기계공구"},{"name":"할매순대국","tel":"070-8690-4711","addr":"경기도 수원시 팔달구 우만동 477-1번지","category":"일반휴게음식 - 일반한식"}]},{"lat":"37.287982235","long":"127.02872884","items":[{"name":"동양공업","tel":"031-244-6554","addr":"경기도 수원시 팔달구 우만동 476-22번지","category":"기타 - 기계공구"}]},{"lat":"37.290009879","long":"127.02713944","items":[{"name":"동양매직(팔달점)","tel":"031-217-7783","addr":"경기도 수원시 팔달구 우만동 587-15번지","category":"주방용구 - 정수기"}]},{"lat":"37.28604524","long":"127.02774711","items":[{"name":"동양철강","tel":"031-231-1249","addr":"경기도 수원시 팔달구 우만동 489-12번지","category":"건축자재 - 보일러·펌프·샷시"}]},{"lat":"37.285764457","long":"127.03394918","items":[{"name":"동원이네슈퍼","tel":"031-241-8527","addr":"경기도 수원시 팔달구 우만동 518-17번지","category":"유통업 영리 - 슈퍼마켓"},{"name":"순이네부대찌개","tel":"031-241-9794","addr":"경기도 수원시 팔달구 우만동 518-17번지 1층","category":"일반휴게음식 - 일반한식"}]},{"lat":"37.279656046","long":"127.03178173","items":[{"name":"동태가사는마을 동수원점","tel":"02-2408-9723","addr":"경기도 수원시 팔달구 우만동 561-1번지","category":"일반휴게음식 - 일반한식"},{"name":"시즌PC방","tel":"","addr":"경기도 수원시 팔달구 우만동 561-1번지 메르디앙빌딩 4층","category":"레저업소 - 기타레져업소"},{"name":"월드약국","tel":"031-211-0815","addr":"경기도 수원시 팔달구 우만동 561-1번지","category":"약국 - 약국"},{"name":"윤노래연습장","tel":"031-217-6305","addr":"경기도 수원시 팔달구 우만동 561-1번지 메르디앙빌딩 3층 1호","category":"레저업소 - 노 래 방"},{"name":"프라임내과의원","tel":"031-217-8484","addr":"경기도 수원시 팔달구 우만동 561-1번지 2층","category":"의원 - 의원"}]},{"lat":"37.286819379","long":"127.03106275","items":[{"name":"동해장","tel":"031-246-7801","addr":"경기도 수원시 팔달구 우만동 495-6번지","category":"일반휴게음식 - 중국식"}]},{"lat":"37.278427315","long":"127.04319213","items":[{"name":"동회루마라탕","tel":"070-7614-3579","addr":"경기도 수원시 팔달구 우만동 63-4번지 초원빌딩","category":"일반휴게음식 - 중국식"},{"name":"애플노래연습장","tel":"031-212-3616","addr":"경기도 수원시 팔달구 우만동 63-4번지 2층","category":"레저업소 - 노 래 방"},{"name":"의정부부대찌게집","tel":"031-214-8759","addr":"경기도 수원시 팔달구 우만동 63-4번지 초원빌딩 101호","category":"일반휴게음식 - 일반한식"},{"name":"주당포차","tel":"031-217-3673","addr":"경기도 수원시 팔달구 우만동 63-4번지 지층","category":"일반휴게음식 - 일반한식"}]},{"lat":"37.288873952","long":"127.03005985","items":[{"name":"동희헤어","tel":"031-000-0000","addr":"경기도 수원시 팔달구 우만동 480-20번지 1층 104호","category":"보건위생 - 미용원"},{"name":"주식회사 제이디코스메틱","tel":"031-293-9635","addr":"경기도 수원시 팔달구 우만동 480-20번지 2층","category":"보건위생 - 화장품"}]},{"lat":"37.283430602","long":"127.03469246","items":[{"name":"두그루식당","tel":"070-8262-2175","addr":"경기도 수원시 팔달구 우만동 531-18번지 1층","category":"일반휴게음식 - 일반한식"},{"name":"슈에뜨플라워","tel":"031-253-8984","addr":"경기도 수원시 팔달구 우만동 531-18번지 1층","category":"문화.취미 - 화원"},{"name":"하루(HARU)","tel":"031-000-0000","addr":"경기도 수원시 팔달구 우만동 531-18번지 1층","category":"일반휴게음식 - 서양음식"}]},{"lat":"37.279151591","long":"127.0312854","items":[{"name":"두리맛감자탕동수원점","tel":"031-213-5100","addr":"경기도 수원시 팔달구 우만동 562-2번지 동수원빌딩 101호","category":"일반휴게음식 - 일반한식"},{"name":"샵노래연습장","tel":"031-242-0339","addr":"경기도 수원시 팔달구 우만동 562-2번지 동수원빌딩","category":"레저업소 - 노 래 방"},{"name":"스카이당구장","tel":"031-214-3487","addr":"경기도 수원시 팔달구 우만동 562-2번지 동수원빌딩 301호","category":"레저업소 - 당 구 장"}]},{"lat":"37.289370453","long":"127.02561681","items":[{"name":"두림가발","tel":"031-258-0119","addr":"경기도 수원시 팔달구 우만동 598-20번지","category":"보건위생 - 미용재료"},{"name":"에스에이치웹커뮤니케이션","tel":"031-572-7625","addr":"경기도 수원시 팔달구 우만동 598-20번지","category":"회원제형태 - 사무서비스"},{"name":"침대수원점","tel":"031-255-0063","addr":"경기도 수원시 팔달구 우만동 598-20번지","category":"가구 - 일반가구"},{"name":"흙침대","tel":"031-255-0063","addr":"경기도 수원시 팔달구 우만동 598-20번지","category":"가구 - 일반가구"}]},{"lat":"37.27679677","long":"127.04225541","items":[{"name":"두메산골 주식회사","tel":"031-216-6151","addr":"경기도 수원시 팔달구 우만동 75-1번지","category":"일반휴게음식 - 일반한식"}]},{"lat":"37.285016807","long":"127.03317079","items":[{"name":"둘둘김밥보글보글찌개","tel":"","addr":"경기도 수원시 팔달구 우만동 521-3번지 1층","category":"일반휴게음식 - 일반한식"}]},{"lat":"37.280710528","long":"127.03060944","items":[{"name":"둥지","tel":"031-214-0365","addr":"경기도 수원시 팔달구 우만동 549-7번지 지하1층","category":"일반휴게음식 - 일반한식"},{"name":"둥지당구장","tel":"","addr":"경기도 수원시 팔달구 우만동 549-7번지 지하1층","category":"레저업소 - 당 구 장"},{"name":"우만골","tel":"031-215-2115","addr":"경기도 수원시 팔달구 우만동 549-7번지 1층","category":"일반휴게음식 - 일반한식"},{"name":"테마노래연습장","tel":"031-211-6708","addr":"경기도 수원시 팔달구 우만동 549-7번지","category":"레저업소 - 노 래 방"}]},{"lat":"37.279016298","long":"127.03186041","items":[{"name":"등촌샤브칼국수","tel":"031-216-5554","addr":"경기도 수원시 팔달구 우만동 561-9번지","category":"일반휴게음식 - 일반한식"},{"name":"이자카야센쿠","tel":"070-1111-1111","addr":"경기도 수원시 팔달구 우만동 561-9번지 1층","category":"일반휴게음식 - 주점"},{"name":"투다리월드점","tel":"031-214-2446","addr":"경기도 수원시 팔달구 우만동 561-9번지","category":"일반휴게음식 - 일반한식"}]},{"lat":"37.284593411","long":"127.03283233","items":[{"name":"디디디모바일2","tel":"031-247-6588","addr":"경기도 수원시 팔달구 우만동 522-18번지 1층","category":"사무통신 - 통신기기"}]},{"lat":"37.28804516","long":"127.02939421","items":[{"name":"디디디모바일3(DDD모바일3)","tel":"031-241-6588","addr":"경기도 수원시 팔달구 우만동 484-17번지","category":"사무통신 - 통신기기"},{"name":"명가닭숯불바베큐","tel":"031-241-1764","addr":"경기도 수원시 팔달구 우만동 484-17번지","category":"일반휴게음식 - 주점"},{"name":"영웅태권도전문체육관","tel":"031-255-7511","addr":"경기도 수원시 팔달구 우만동 484-17번지 3층","category":"학원 - 예·체능계학원"},{"name":"올리브헤어","tel":"031-251-0344","addr":"경기도 수원시 팔달구 우만동 484-17번지","category":"보건위생 - 미용원"}]},{"lat":"37.28120562","long":"127.03256036","items":[{"name":"디디치킨","tel":"031-214-0092","addr":"경기도 수원시 팔달구 우만동 553-15번지 1층","category":"일반휴게음식 - 스넥"},{"name":"머슬캠프","tel":"031-216-3341","addr":"경기도 수원시 팔달구 우만동 553-15번지 4층","category":"회원제형태 - 레져업소"},{"name":"미래엔터프라이즈","tel":"070-7576-0031","addr":"경기도 수원시 팔달구 우만동 553-15번지 2층 202호","category":"학원 - 예·체능계학원"},{"name":"비씨800","tel":"070-8616-2223","addr":"경기도 수원시 팔달구 우만동 553-15번지 104호","category":"일반휴게음식 - 서양음식"},{"name":"서일영어학원","tel":"031-213-0301","addr":"경기도 수원시 팔달구 우만동 553-15번지 4층 401호","category":"회원제형태 - 학원"},{"name":"소문난찬방","tel":"031-217-5584","addr":"경기도 수원시 팔달구 우만동 553-15번지","category":"음료식품 - 기타음료식품"},{"name":"아딸","tel":"031-217-7889","addr":"경기도 수원시 팔달구 우만동 553-15번지 1층","category":"일반휴게음식 - 스넥"},{"name":"월드","tel":"031-212-0266","addr":"경기도 수원시 팔달구 우만동 553-15번지 3층 302호","category":"건강식품 - 기타건강식품"},{"name":"잉카바베큐","tel":"031-214-8979","addr":"경기도 수원시 팔달구 우만동 553-15번지 1층","category":"일반휴게음식 - 일반한식"},{"name":"한국창의력미술학원","tel":"031-212-6702","addr":"경기도 수원시 팔달구 우만동 553-15번지 3층","category":"학원 - 예·체능계학원"},{"name":"해오름학원","tel":"031-217-8209","addr":"경기도 수원시 팔달구 우만동 553-15번지 5층","category":"학원 - 보습학원"},{"name":"헤어펠릭스","tel":"031-211-1420","addr":"경기도 수원시 팔달구 우만동 553-15 삼덕빌딩1층 2","category":"보건위생 - 미용원"}]},{"lat":"37.284322845","long":"127.03383582","items":[{"name":"디스댓","tel":"","addr":"경기도 수원시 팔달구 우만동 521-21번지 1층 3호 103호","category":"일반휴게음식 - 서양음식"},{"name":"장안세탁소","tel":"031-256-0826","addr":"경기도 수원시 팔달구 우만동 521-21번지","category":"수리서비스 - 세탁소"}]},{"lat":"37.282819204","long":"127.02941493","items":[{"name":"디아이디(DID)","tel":"031-245-7517","addr":"경기도 수원시 팔달구 우만동 528-10번지","category":"신변잡화 - 기타잡화"}]},{"lat":"37.28587327","long":"127.03119772","items":[{"name":"디어플로리(Dear.flori)","tel":"031-505-7007","addr":"경기도 수원시 팔달구 우만동 503-22번지 1층 좌측","category":"문화.취미 - 화원"},{"name":"정헤어샵","tel":"031-252-1642","addr":"경기도 수원시 팔달구 우만동 503-22번지","category":"보건위생 - 미용원"}]},{"lat":"37.287351157","long":"127.03032995","items":[{"name":"디에스플라워","tel":"","addr":"경기도 수원시 팔달구 우만동 495-13번지 1층 101호","category":"문화.취미 - 화원"},{"name":"배터지는생돈까스","tel":"031-242-3356","addr":"경기도 수원시 팔달구 우만동 495-13번지 1층","category":"일반휴게음식 - 서양음식"}]},{"lat":"37.289541184","long":"127.02791742","items":[{"name":"디자인광기기획","tel":"031-256-1444","addr":"경기도 수원시 팔달구 우만동 468-1","category":"용역 서비스 - 종합용역"},{"name":"디자인길드","tel":"070-8737-8949","addr":"경기도 수원시 팔달구 우만동 468-1번지 삼성캐슬 101동 101호","category":"건축자재 - 인테리어전문"},{"name":"연희유통","tel":"031-244-2626","addr":"경기도 수원시 팔달구 우만동 468-1","category":"음료식품 - 기타음료식품"}]},{"lat":"37.283458735","long":"127.03028343","items":[{"name":"디자인헤어","tel":"031-244-6772","addr":"경기도 수원시 팔달구 우만동 511-37번지 101호","category":"보건위생 - 미용원"},{"name":"미르정비기기","tel":"031-221-0370","addr":"경기도 수원시 팔달구 우만동 511-37번지 105호","category":"기타 - 기계공구"}]},{"lat":"37.28940539","long":"127.03078178","items":[{"name":"디지털도어락24시출장열쇠","tel":"070-4111-1119","addr":"경기도 수원시 팔달구 우만동 480-34번지 102호","category":"건축자재 - 목재·석재·철물"}]},{"lat":"37.282764256","long":"127.03311351","items":[{"name":"땡큐(Thank you)","tel":"","addr":"경기도 수원시 팔달구 우만동 552번지 103호","category":"일반휴게음식 - 서양음식"},{"name":"수학위니드학원","tel":"","addr":"경기도 수원시 팔달구 우만동 552번지 남양빌딩 401호","category":"학원 - 보습학원"},{"name":"필외과의원","tel":"031-217-7582","addr":"경기도 수원시 팔달구 우만동 552번지","category":"의원 - 의원"},{"name":"한마음약국","tel":"031-217-7591","addr":"경기도 수원시 팔달구 우만동 552번지 상가 1층 1호","category":"약국 - 약국"}]},{"lat":"37.286152296","long":"127.03239315","items":[{"name":"떡볶이1번가","tel":"031-244-2306","addr":"경기도 수원시 팔달구 우만동 501-5번지 1층","category":"일반휴게음식 - 서양음식"},{"name":"진흥하이퍼마켓","tel":"031-254-1614","addr":"경기도 수원시 팔달구 우만동 501-5번지","category":"유통업 영리 - 슈퍼마켓"},{"name":"카라헤어","tel":"031-245-9020","addr":"경기도 수원시 팔달구 우만동 501-5번지 1층","category":"보건위생 - 미용원"}]},{"lat":"37.284791628","long":"127.03286624","items":[{"name":"떡순튀","tel":"031-252-9090","addr":"경기도 수원시 팔달구 우만동 522-20번지 1층 상가 우측","category":"일반휴게음식 - 일반한식"}]},{"lat":"37.278850728","long":"127.04339532","items":[{"name":"떡슐랭","tel":"031-217-0468","addr":"경기도 수원시 팔달구 우만동 573-5번지 2층","category":"일반휴게음식 - 일반한식"},{"name":"멕시모부리또 아주대점","tel":"031-214-2582","addr":"경기도 수원시 팔달구 우만동 573-5번지","category":"일반휴게음식 - 서양음식"},{"name":"스파게티스토리","tel":"031-217-1008","addr":"경기도 수원시 팔달구 우만동 573-5번지 지하","category":"일반휴게음식 - 서양음식"},{"name":"싸리골잔치집","tel":"031-215-4782","addr":"경기도 수원시 팔달구 우만동 573-5번지","category":"일반휴게음식 - 일반한식"},{"name":"오닭꼬치","tel":"031-304-5561","addr":"경기도 수원시 팔달구 우만동 573-5번지 1층","category":"일반휴게음식 - 일반한식"}]},{"lat":"37.287594452","long":"127.0302511","items":[{"name":"또박코문구점","tel":"031-241-3315","addr":"경기도 수원시 팔달구 우만동 484-6번지","category":"서적문구 - 문구용품"},{"name":"성원건설","tel":"031-246-0771","addr":"경기도 수원시 팔달구 우만동 484-6번지 1층","category":"용역 서비스 - 기타용역서비스"}]},{"lat":"37.285099014","long":"127.02844594","items":[{"name":"뜰18","tel":"00-0000-0000","addr":"경기도 수원시 팔달구 우만동 490-11번지 1층","category":"일반휴게음식 - 서양음식"},{"name":"라인","tel":"070-9144-6864","addr":"경기도 수원시 팔달구 우만동 490-11번지 2층","category":"레저업소 - 헬스클럽"}]},{"lat":"37.291009826","long":"127.02805323","items":[{"name":"뜰아래","tel":"","addr":"경기도 수원시 팔달구 우만동 582번지","category":"일반휴게음식 - 일반한식"},{"name":"수원시 평생학습관","tel":"070-4477-6515","addr":"경기도 수원시 팔달구 우만동 582번지","category":"학원 - 기타 교육기관"}]},{"lat":"37.2880718","long":"127.03108577","items":[{"name":"라라패밀리","tel":"031-242-8853","addr":"경기도 수원시 팔달구 우만동 482-9번지 2층","category":"문화.취미 - 티켓"},{"name":"컴퓨터서비스뱅크","tel":"031-241-0542","addr":"경기도 수원시 팔달구 우만동 482-9번지","category":"사무통신 - 컴퓨터"}]},{"lat":"37.286982472","long":"127.02694676","items":[{"name":"라온경제교육사회적협동조합","tel":"031-890-5375","addr":"경기도 수원시 팔달구 우만동 473-10번지 4층","category":"학원 - 기타 교육기관"},{"name":"시저스 플랜 (Scissors Plan)","tel":"031-111-1111","addr":"경기도 수원시 팔달구 우만동 473-10번지 2층","category":"보건위생 - 미용재료"},{"name":"일광전기조명","tel":"031-255-7971","addr":"경기도 수원시 팔달구 우만동 473-10번지","category":"건축자재 - 조명기구"}]},{"lat":"37.283818797","long":"127.03174949","items":[{"name":"라이스케어","tel":"031-245-6619","addr":"경기도 수원시 팔달구 우만동 525-1번지 302호","category":"농업 - 농기계"}]},{"lat":"37.288676159","long":"127.02810884","items":[{"name":"라이프영상","tel":"031-241-2215","addr":"경기도 수원시 팔달구 우만동 476-2번지 1층 라이프스튜디오","category":"광학제품 - 사진관"}]},{"lat":"37.27682424","long":"127.04091366","items":[{"name":"라이프장식","tel":"031-892-5118","addr":"경기도 수원시 팔달구 우만동 101-2번지 1층","category":"건축자재 - 인테리어전문"}]},{"lat":"37.279265596","long":"127.04222287","items":[{"name":"러버블","tel":"031-291-1914","addr":"경기도 수원시 팔달구 우만동 43-5번지","category":"일반휴게음식 - 서양음식"}]},{"lat":"37.286901004","long":"127.02872847","items":[{"name":"러브인비쥬","tel":"","addr":"경기도 수원시 팔달구 우만동 488-24번지 미성빌라 가동 301호","category":"신변잡화 - 액세서리"}]},{"lat":"37.289676141","long":"127.02883092","items":[{"name":"러셀르노코리아(주)","tel":"031-211-6671","addr":"경기도 수원시 팔달구 우만동 469번지 다담하우스 101호","category":"레져용품 - 골프용품 전문점"},{"name":"툰디자인","tel":"031-247-9943","addr":"경기도 수원시 팔달구 우만동 469번지 다담하우스 304호","category":"용역 서비스 - 사무서비스"}]},{"lat":"37.288703254","long":"127.02780437","items":[{"name":"럭셔리헤어","tel":"031-245-9133","addr":"경기도 수원시 팔달구 우만동 470-38번지","category":"보건위생 - 미용원"}]},{"lat":"37.284594009","long":"127.03036278","items":[{"name":"럭키공판마트","tel":"031-257-4197","addr":"경기도 수원시 팔달구 우만동 510번지","category":"유통업 영리 - 슈퍼마켓"}]},{"lat":"37.279517461","long":"127.04347461","items":[{"name":"렌즈타운 아주대점","tel":"031-212-2852","addr":"경기도 수원시 팔달구 우만동 571-1번지 1층","category":"보건위생 - 안경"},{"name":"렛츠(LET''S)","tel":"031-1111-1111","addr":"경기도 수원시 팔달구 우만동 571-1번지 3층","category":"용역 서비스 - 사무서비스"},{"name":"모모스테이크(아주대점)","tel":"031-216-9966","addr":"경기도 수원시 팔달구 우만동 571-1번지 2층","category":"일반휴게음식 - 일반한식"},{"name":"영림문화사","tel":"031-215-3336","addr":"경기도 수원시 팔달구 우만동 571-1번지 지하층","category":"서적문구 - 출판 및 인쇄물"},{"name":"커피니아주대점","tel":"","addr":"경기도 수원시 팔달구 우만동 571-1번지 1층","category":"일반휴게음식 - 서양음식"},{"name":"팔공티(아주대점)","tel":"","addr":"경기도 수원시 팔달구 우만동 571-1번지 1층","category":"일반휴게음식 - 서양음식"}]},{"lat":"37.289071898","long":"127.0312553","items":[{"name":"렙타일 퀸","tel":"031-399-1021","addr":"경기도 수원시 팔달구 우만동 481-1번지 1층","category":"문화.취미 - 애완동물"},{"name":"엔조이 스쿠버다이빙","tel":"031-305-7687","addr":"경기도 수원시 팔달구 우만동 481-1번지 2층","category":"레저업소 - 기타레져업소"},{"name":"피자브라더스","tel":"031-244-1989","addr":"경기도 수원시 팔달구 우만동 481-1번지 1층","category":"일반휴게음식 - 서양음식"}]},{"lat":"37.290036622","long":"127.028504","items":[{"name":"롱라이프그린케어참사랑노인복지센터","tel":"031-241-6512","addr":"경기도 수원시 팔달구 우만동 468번지 1층","category":"기타의료기관 - 기타의료기관 및 기타"},{"name":"참사랑의료기기","tel":"031-322-7772","addr":"경기도 수원시 팔달구 우만동 468번지","category":"보건위생 - 의료용품"}]},{"lat":"37.279043281","long":"127.03205211","items":[{"name":"루나힐링스파","tel":"031-271-9300","addr":"경기도 수원시 팔달구 우만동 164-16번지 2층","category":"보건위생 - 피부미용실"},{"name":"베스킨라빈스","tel":"031-212-1631","addr":"경기도 수원시 팔달구 우만동 164-16번지","category":"음료식품 - 제과점"},{"name":"에프에스씨(FSC)","tel":"031-212-0181","addr":"경기도 수원시 팔달구 우만동 164-16번지 3층","category":"학원 - 기타 교육기관"}]},{"lat":"37.288099794","long":"127.02669902","items":[{"name":"류도","tel":"031-000-0000","addr":"경기도 수원시 팔달구 우만동 472-18번지 1층","category":"음료식품 - 기타음료식품"},{"name":"암스퀘어커피집","tel":"031-000-0000","addr":"경기도 수원시 팔달구 우만동 472-18번지 1층","category":"음료식품 - 기타음료식품"}]},{"lat":"37.280845687","long":"127.03058693","items":[{"name":"르노삼성자동차지정정비코너우만점","tel":"031-213-0021","addr":"경기도 수원시 팔달구 우만동 549-6번지","category":"자동차정비 유지 - 자동차정비"}]},{"lat":"37.275462742","long":"127.04375431","items":[{"name":"리소헤어 아주대점","tel":"031-215-2164","addr":"경기도 수원시 팔달구 우만동 578-3번지 2층","category":"보건위생 - 미용원"},{"name":"바라보다","tel":"031-215-0998","addr":"경기도 수원시 팔달구 우만동 578-3번지","category":"보건위생 - 안경"},{"name":"킹노래연습장","tel":"031-212-0497","addr":"경기도 수원시 팔달구 우만동 578-3번지","category":"레저업소 - 노 래 방"},{"name":"하우어바웃","tel":"070-4117-2425","addr":"경기도 수원시 팔달구 우만동 578-3번지 4층","category":"일반휴게음식 - 서양음식"}]},{"lat":"37.289180648","long":"127.02850371","items":[{"name":"리치헤어","tel":"031-243-5688","addr":"경기도 수원시 팔달구 우만동 469-14번지 1층","category":"보건위생 - 미용원"},{"name":"명품건강두부","tel":"","addr":"경기도 수원시 팔달구 우만동 469-14번지 (1층 좌측 상가)","category":"음료식품 - 기타음료식품"},{"name":"한신포차","tel":"031-241-8483","addr":"경기도 수원시 팔달구 우만동 469-14번지","category":"일반휴게음식 - 주점"}]},{"lat":"37.279402093","long":"127.03794945","items":[{"name":"리폼하우스","tel":"070-8289-8851","addr":"경기도 수원시 팔달구 우만동 126-2번지 1층 3호,4호","category":"수리서비스 - 세탁소"},{"name":"마이크로 엘","tel":"031-214-1542","addr":"경기도 수원시 팔달구 우만동 126-2번지 1층","category":"신변잡화 - 기타잡화"}]},{"lat":"37.290045247","long":"127.03022943","items":[{"name":"마님순대국삼겹살","tel":"031-245-1999","addr":"경기도 수원시 팔달구 우만동 479번지 1층","category":"일반휴게음식 - 일반한식"},{"name":"블루홀(BLUEHOLE)","tel":"031-444-0752","addr":"경기도 수원시 팔달구 우만동 479번지","category":"회원제형태 - 레져업소"},{"name":"숟가락젓가락들고","tel":"031-243-3665","addr":"경기도 수원시 팔달구 우만동 479번지","category":"음료식품 - 기타음료식품"},{"name":"열린학원","tel":"031-242-3665","addr":"경기도 수원시 팔달구 우만동 479번지 2층","category":"학원 - 보습학원"}]},{"lat":"37.28515144","long":"127.03514425","items":[{"name":"마스야","tel":"031-252-3197","addr":"경기도 수원시 팔달구 우만동 519-4번지 1층","category":"일반휴게음식 - 일식·회집"},{"name":"피자알볼로 우만점","tel":"031-252-8495","addr":"경기도 수원시 팔달구 우만동 519-4번지 1층 좌측","category":"일반휴게음식 - 서양음식"}]},{"lat":"37.286315423","long":"127.02833359","items":[{"name":"마이럽피치수원우만점","tel":"070-7716-9873","addr":"경기도 수원시 팔달구 우만동 488-13번지 1층","category":"일반휴게음식 - 일반한식"},{"name":"사계절청과","tel":"","addr":"경기도 수원시 팔달구 우만동 488-13번지 1층 우측호","category":"음료식품 - 농·축·수산품"}]},{"lat":"37.283899558","long":"127.03308013","items":[{"name":"마인카롱","tel":"031-000-0000","addr":"경기도 수원시 팔달구 우만동 523-3번지","category":"음료식품 - 기타음료식품"}]},{"lat":"37.288622265","long":"127.02730815","items":[{"name":"마일드브라운","tel":"032-000-0000","addr":"경기도 수원시 팔달구 우만동 470-32번지","category":"신변잡화 - 기타잡화"}]},{"lat":"37.289793523","long":"127.0276694","items":[{"name":"만남","tel":"031-256-2528","addr":"경기도 수원시 팔달구 우만동 585-22번지 지하1층","category":"일반휴게음식 - 주점"},{"name":"창의과학블럭나라","tel":"031-241-4216","addr":"경기도 수원시 팔달구 우만동 585-22번지","category":"학원 - 기타 교육기관"}]},{"lat":"37.285151897","long":"127.03341893","items":[{"name":"만물전기","tel":"031-241-1521","addr":"경기도 수원시 팔달구 우만동 521번지","category":"건축자재 - 조명기구"},{"name":"클라우드","tel":"031-000-0000","addr":"경기도 수원시 팔달구 우만동 521번지 1층","category":"음료식품 - 농·축·수산품"},{"name":"푸드소 (FOOD SO) 월드컵경기장점","tel":"031-111-1111","addr":"경기도 수원시 팔달구 우만동 521번지","category":"음료식품 - 기타음료식품"}]},{"lat":"37.284404238","long":"127.03266311","items":[{"name":"맛두부","tel":"031-255-2883","addr":"경기도 수원시 팔달구 우만동 523-15번지 1층","category":"음료식품 - 기타음료식품"},{"name":"먹자골","tel":"031-245-2588","addr":"경기도 수원시 팔달구 우만동 523-15번지 1층","category":"일반휴게음식 - 일반한식"}]},{"lat":"37.279184093","long":"127.0434406","items":[{"name":"맥주클럽","tel":"031-394-1813","addr":"경기도 수원시 팔달구 우만동 571-3번지 3층","category":"일반휴게음식 - 주점"},{"name":"유객주","tel":"031-215-3394","addr":"경기도 수원시 팔달구 우만동 571-3번지 2층","category":"일반휴게음식 - 주점"},{"name":"질러넷노래연습장","tel":"031-211-0037","addr":"경기도 수원시 팔달구 우만동 571-3번지 지층","category":"레저업소 - 노 래 방"},{"name":"커피온리 수원아주대점","tel":"031-000-0000","addr":"경기도 수원시 팔달구 우만동 571-3번지 1층","category":"일반휴게음식 - 서양음식"},{"name":"하오츠양꼬치","tel":"031-213-8884","addr":"경기도 수원시 팔달구 우만동 571-3번지 2층","category":"일반휴게음식 - 중국식"}]},{"lat":"37.280293476","long":"127.04002462","items":[{"name":"맵짱떡볶이","tel":"031-215-2253","addr":"경기도 수원시 팔달구 우만동 39-1번지 1층","category":"일반휴게음식 - 스넥"},{"name":"별난미술교습소","tel":"031-111-1111","addr":"경기도 수원시 팔달구 우만동 39-1번지 1층 좌측 일부","category":"학원 - 예·체능계학원"},{"name":"살롱드로즈","tel":"031-000-0000","addr":"경기도 수원시 팔달구 우만동 39-1번지","category":"음료식품 - 기타음료식품"}]},{"lat":"37.290072888","long":"127.02744395","items":[{"name":"머리만지기","tel":"031-245-5008","addr":"경기도 수원시 팔달구 우만동 585-19번지","category":"보건위생 - 미용원"},{"name":"서라벌아이씨씨 주식회사","tel":"031-217-0105","addr":"경기도 수원시 팔달구 우만동 585-19번지 2층","category":"사무통신 - 통신기기"},{"name":"스마트헤어","tel":"031-244-6625","addr":"경기도 수원시 팔달구 우만동 585-19번지 1층 103호","category":"보건위생 - 미용원"}]},{"lat":"37.276625977","long":"127.04102632","items":[{"name":"머리못하는집(우만점)","tel":"031-213-9179","addr":"경기도 수원시 팔달구 우만동 95-3번지 1층","category":"보건위생 - 미용원"},{"name":"지만약국","tel":"031-217-5447","addr":"경기도 수원시 팔달구 우만동 95-3번지","category":"약국 - 약국"}]},{"lat":"37.28776605","long":"127.02844685","items":[{"name":"머리하는풍경","tel":"031-246-6007","addr":"경기도 수원시 팔달구 우만동 475-21번지 1층","category":"보건위생 - 미용원"}]},{"lat":"37.280683542","long":"127.03041774","items":[{"name":"메디플러스상사","tel":"031-217-4240","addr":"경기도 수원시 팔달구 우만동 549-8번지 옥진빌딩 4층","category":"보건위생 - 의료용품"},{"name":"소리텔레콤","tel":"031-246-6744","addr":"경기도 수원시 팔달구 우만동 549-8번지 옥진빌딩 4층","category":"사무통신 - 통신기기"}]},{"lat":"37.27918425","long":"127.0429783","items":[{"name":"멘야고이치","tel":"031-213-7523","addr":"경기도 수원시 팔달구 우만동 59번지 1층","category":"일반휴게음식 - 스넥"},{"name":"밀플랜비","tel":"031-213-6680","addr":"경기도 수원시 팔달구 우만동 59번지 1층","category":"일반휴게음식 - 일반한식"},{"name":"부대통령뚝배기 아주대점","tel":"031-213-5002","addr":"경기도 수원시 팔달구 우만동 59번지 2층","category":"일반휴게음식 - 일반한식"},{"name":"일미닭갈비파전","tel":"031-217-1242","addr":"경기도 수원시 팔달구 우만동 59번지 3층","category":"일반휴게음식 - 일반한식"}]},{"lat":"37.28579257","long":"127.02950619","items":[{"name":"명동빈대떡","tel":"031-246-2224","addr":"경기도 수원시 팔달구 우만동 492-19번지 명동빈대떡","category":"일반휴게음식 - 일반한식"},{"name":"해피타임마트","tel":"","addr":"경기도 수원시 팔달구 우만동 492-19번지 1층","category":"유통업 영리 - 슈퍼마켓"}]},{"lat":"37.290766836","long":"127.02666603","items":[{"name":"명성건강원","tel":"031-247-3354","addr":"경기도 수원시 팔달구 우만동 596-2번지","category":"건강식품 - 기타건강식품"}]},{"lat":"37.284044739","long":"127.02878388","items":[{"name":"명정유통","tel":"031-244-9052","addr":"경기도 수원시 팔달구 우만동 508-7번지 오성플러스상가 A동 B03호","category":"서적문구 - 완구점"}]},{"lat":"37.280764309","long":"127.03178215","items":[{"name":"명태식당","tel":"031-241-2617","addr":"경기도 수원시 팔달구 우만동 559번지 1층","category":"일반휴게음식 - 일반한식"},{"name":"미니스톱팔달우만점","tel":"031-1577-9621","addr":"경기도 수원시 팔달구 우만동 559번지 1층","category":"유통업 영리 - 편 의 점"}]},{"lat":"37.278760779","long":"127.04294425","items":[{"name":"모서리 다방","tel":"031-211-4334","addr":"경기도 수원시 팔달구 우만동 61-5번지 1,2층","category":"일반휴게음식 - 서양음식"}]},{"lat":"37.279149748","long":"127.03814102","items":[{"name":"모소","tel":"031-000-0000","addr":"경기도 수원시 팔달구 우만동 125-2번지 101호","category":"일반휴게음식 - 서양음식"}]},{"lat":"37.27817714","long":"127.03641541","items":[{"name":"모유사랑","tel":"031-216-9441","addr":"경기도 수원시 팔달구 우만동 606번지 동수원신도브래뉴 102동 1403호","category":"보건위생 - 기타대인서비스"}]},{"lat":"37.28645842","long":"127.03328414","items":[{"name":"모이(Moi)","tel":"031-889-3889","addr":"경기도 수원시 팔달구 우만동 518-8번지","category":"음료식품 - 기타음료식품"}]},{"lat":"37.286818789","long":"127.03344216","items":[{"name":"모이커피클래식","tel":"031-258-3880","addr":"경기도 수원시 팔달구 우만동 499-4번지","category":"일반휴게음식 - 서양음식"}]},{"lat":"37.28948665","long":"127.03006007","items":[{"name":"몽쥬피부앤왁싱","tel":"","addr":"경기도 수원시 팔달구 우만동 479-7번지 다인하우스 1층 101호","category":"보건위생 - 피부미용실"}]},{"lat":"37.288738837","long":"127.02989065","items":[{"name":"무지개슈퍼","tel":"031-256-9552","addr":"경기도 수원시 팔달구 우만동 478-7번지","category":"유통업 영리 - 슈퍼마켓"}]},{"lat":"37.28432304","long":"127.0330803","items":[{"name":"뮤엠영어월드컵교습소","tel":"031-252-0579","addr":"경기도 수원시 팔달구 우만동 522-11번지 1층","category":"회원제형태 - 학원"},{"name":"우만건강원","tel":"031-255-6347","addr":"경기도 수원시 팔달구 우만동 522-11번지","category":"건강식품 - 기타건강식품"}]},{"lat":"37.288594915","long":"127.02880799","items":[{"name":"미가백반","tel":"031-241-8330","addr":"경기도 수원시 팔달구 우만동 477-9번지","category":"일반휴게음식 - 일반한식"}]},{"lat":"37.279238677","long":"127.04188459","items":[{"name":"미니스톱 아주대점","tel":"031-1577-9621","addr":"경기도 수원시 팔달구 우만동 45-1번지 플러스빌오피스텔 101호","category":"유통업 영리 - 편 의 점"},{"name":"미앤끼미용실","tel":"031-212-2328","addr":"경기도 수원시 팔달구 우만동 45-1번지 외1필지 플러스빌오피스텔 1층 103호","category":"보건위생 - 미용원"},{"name":"삼성리빙텔","tel":"031-211-5775","addr":"경기도 수원시 팔달구 우만동 45-1번지 플러스빌오피스텔 201호","category":"학원 - 독서실"}]},{"lat":"37.278906544","long":"127.03789284","items":[{"name":"미니스톱 우만현대점","tel":"031-1577-9621","addr":"경기도 수원시 팔달구 우만동 134-12번지 E.L.타워 1층 102호","category":"유통업 영리 - 편 의 점"},{"name":"스팟비(SPOT;B)","tel":"031-214-8755","addr":"경기도 수원시 팔달구 우만동 134-12번지 E.L.타워 103호","category":"일반휴게음식 - 서양음식"},{"name":"엘림헤어살롱","tel":"031-252-7585","addr":"경기도 수원시 팔달구 우만동 134-12번지 E.L.타워 101호","category":"보건위생 - 미용원"},{"name":"주식회사정가네에프앤디","tel":"031-216-9111","addr":"경기도 수원시 팔달구 우만동 134-12번지 (4층) 402","category":"음료식품 - 기타음료식품"}]},{"lat":"37.287846623","long":"127.03074738","items":[{"name":"미래모터스","tel":"031-242-3082","addr":"경기도 수원시 팔달구 우만동 483-23번지","category":"자동차판매 - 이륜차판매"},{"name":"토이랜드","tel":"031-898-0333","addr":"경기도 수원시 팔달구 우만동 483-23번지 1층","category":"사무통신 - 기타 사무용품"}]},{"lat":"37.282899578","long":"127.03244826","items":[{"name":"미래세탁","tel":"031-245-5446","addr":"경기도 수원시 팔달구 우만동 529-2번지 반도빌라 102호","category":"수리서비스 - 세탁소"},{"name":"밥이랑분식이랑","tel":"031-253-6726","addr":"경기도 수원시 팔달구 우만동 529-2번지 반도빌라 105호","category":"일반휴게음식 - 일반한식"},{"name":"빨강여우","tel":"031-211-0407","addr":"경기도 수원시 팔달구 우만동 529-2번지 반도빌라 104호","category":"보건위생 - 피부미용실"},{"name":"정관동헤어스케치","tel":"031-242-4087","addr":"경기도 수원시 팔달구 우만동 529-2번지 반도빌라 103호","category":"보건위생 - 미용원"},{"name":"희경유통","tel":"031-252-8226","addr":"경기도 수원시 팔달구 우만동 529-2번지 반도빌라 101호","category":"음료식품 - 주류 판매점"}]},{"lat":"37.285512083","long":"127.0342761","items":[{"name":"미소공방","tel":"","addr":"경기도 수원시 팔달구 우만동 519-10번지 락토그빌라","category":"문화.취미 - 문화취미기타"}]},{"lat":"37.279121356","long":"127.04244831","items":[{"name":"미스사이공(아주대점)","tel":"031-212-1616","addr":"경기도 수원시 팔달구 우만동 43-13번지","category":"일반휴게음식 - 일반한식"},{"name":"샌드라이스","tel":"","addr":"경기도 수원시 팔달구 우만동 43-13번지 1층","category":"일반휴게음식 - 서양음식"}]},{"lat":"37.278958947","long":"127.04311349","items":[{"name":"미스터쉐프포차(Mr.chef Pocha)","tel":"031-217-9889","addr":"경기도 수원시 팔달구 우만동 59-1번지 2층","category":"일반휴게음식 - 일반한식"},{"name":"월풀빨래방","tel":"031-212-8173","addr":"경기도 수원시 팔달구 우만동 59-1번지","category":"수리서비스 - 세탁소"},{"name":"유가네닭갈비","tel":"031-214-2692","addr":"경기도 수원시 팔달구 우만동 59-1번지","category":"일반휴게음식 - 일반한식"}]},{"lat":"37.278932076","long":"127.0426399","items":[{"name":"미쓰리헤어","tel":"031-214-5525","addr":"경기도 수원시 팔달구 우만동 58-18번지 2층","category":"보건위생 - 미용원"},{"name":"봄봄","tel":"031-211-5448","addr":"경기도 수원시 팔달구 우만동 58-18번지","category":"일반휴게음식 - 일반한식"},{"name":"봉구스밥버거아대점","tel":"031-292-2900","addr":"경기도 수원시 팔달구 우만동 58-18번지 1층","category":"일반휴게음식 - 스넥"},{"name":"블랙러시안","tel":"070-4110-7770","addr":"경기도 수원시 팔달구 우만동 58-18번지 2층","category":"일반휴게음식 - 일반한식"},{"name":"사이버블루PC방","tel":"","addr":"경기도 수원시 팔달구 우만동 58-18번지 3층","category":"레저업소 - 기타레져업소"},{"name":"씨유아주대플러스점","tel":"031-217-4727","addr":"경기도 수원시 팔달구 우만동 58-18번지 1층","category":"유통업 영리 - 편 의 점"},{"name":"폼프리츠","tel":"","addr":"경기도 수원시 팔달구 우만동 58-18번지","category":"일반휴게음식 - 스넥"}]},{"lat":"37.283737852","long":"127.03114053","items":[{"name":"미즈헤어","tel":"070-4922-1261","addr":"경기도 수원시 팔달구 우만동 526번지","category":"보건위생 - 미용원"},{"name":"우만에너지","tel":"031-244-6360","addr":"경기도 수원시 팔달구 우만동 526번지","category":"연료판매점 - 유류판매"}]},{"lat":"37.287819855","long":"127.02960839","items":[{"name":"미호프","tel":"031-237-7244","addr":"경기도 수원시 팔달구 우만동 484-19번지","category":"일반휴게음식 - 일반한식"}]},{"lat":"37.288261906","long":"127.02705994","items":[{"name":"민우조경","tel":"031-252-5971","addr":"경기도 수원시 팔달구 우만동 470-39번지","category":"건축자재 - 인테리어전문"},{"name":"준바이오텍","tel":"031-111-1111","addr":"경기도 수원시 팔달구 우만동 470-39번지 1층 102호","category":"서적문구 - 과학기자재"}]},{"lat":"37.284791795","long":"127.03220092","items":[{"name":"민준약국","tel":"031-246-1288","addr":"경기도 수원시 팔달구 우만동 514-5번지 홍산빌딩 1층","category":"약국 - 약국"},{"name":"세븐당구클럽","tel":"000-000-0000","addr":"경기도 수원시 팔달구 우만동 514-5번지 홍산빌딩 3층","category":"레저업소 - 당 구 장"},{"name":"수일의원","tel":"031-306-2163","addr":"경기도 수원시 팔달구 우만동 514-5번지 홍산빌딩 3층","category":"의원 - 의원"},{"name":"홍산빌딩","tel":"031-245-9318","addr":"경기도 수원시 팔달구 우만동 514-5번지","category":"보건위생 - 사우나"}]},{"lat":"37.288567699","long":"127.02964249","items":[{"name":"바로콜","tel":"070-7633-7015","addr":"경기도 수원시 팔달구 우만동 478-5번지 1층","category":"보건위생 - 기타대인서비스"},{"name":"핑클노래연습장","tel":"031-255-5766","addr":"경기도 수원시 팔달구 우만동 478-5번지 2층","category":"레저업소 - 노 래 방"}]},{"lat":"37.289983128","long":"127.02572977","items":[{"name":"바른","tel":"031-241-7367","addr":"경기도 수원시 팔달구 우만동 598-12번지","category":"주방용구 - 정수기"}]},{"lat":"37.284232617","long":"127.0343094","items":[{"name":"바른손","tel":"031-248-0239","addr":"경기도 수원시 팔달구 우만동 532번지","category":"서적문구 - 문구용품"}]},{"lat":"37.291037121","long":"127.02677889","items":[{"name":"바른손카샵","tel":"031-248-3515","addr":"경기도 수원시 팔달구 우만동 583-1번지 한성빌딜 1층","category":"자동차정비 유지 - 자동차시트·타이어"},{"name":"아라평생교육원","tel":"031-245-5100","addr":"경기도 수원시 팔달구 우만동 583-1번지 4층 우만동,한성빌딩 일부","category":"학원 - 기타 교육기관"}]},{"lat":"37.278761448","long":"127.04091464","items":[{"name":"박광수공인중개사사무소","tel":"031-213-9400","addr":"경기도 수원시 팔달구 우만동 30-1번지","category":"용역 서비스 - 부동산 중개·임대"},{"name":"큰사랑의원","tel":"031-211-7800","addr":"경기도 수원시 팔달구 우만동 30-1번지","category":"의원 - 의원"},{"name":"형제통신","tel":"031-241-8950","addr":"경기도 수원시 팔달구 우만동 30-1번지 1층","category":"사무통신 - 통신기기"}]},{"lat":"37.286648198","long":"127.0310063","items":[{"name":"박대장 부대찌개 감자탕","tel":"031-253-8233","addr":"경기도 수원시 팔달구 우만동 495-27번지","category":"일반휴게음식 - 일반한식"}]},{"lat":"37.283430823","long":"127.03385801","items":[{"name":"반갑다친구비어우만점","tel":"031-254-2007","addr":"경기도 수원시 팔달구 우만동 531-1번지 1층","category":"일반휴게음식 - 일반한식"}]},{"lat":"37.284484964","long":"127.03408397","items":[{"name":"반디이솝어린이집","tel":"031-243-1866","addr":"경기도 수원시 팔달구 우만동 521-13번지","category":"학원 - 기타 교육기관"},{"name":"반디이솝어린이집[아이행복]","tel":"031-243-1866","addr":"경기도 수원시 팔달구 우만동 521-13번지","category":"학원 - 유아원"}]},{"lat":"37.279430985","long":"127.03096979","items":[{"name":"반스(BANS)","tel":"","addr":"경기도 수원시 팔달구 우만동 562-12번지 201호","category":"광학제품 - 사진관"},{"name":"제주돼지소한마리","tel":"031-217-8633","addr":"경기도 수원시 팔달구 우만동 562-12번지 101호","category":"일반휴게음식 - 일반한식"}]},{"lat":"37.278069755","long":"127.03369796","items":[{"name":"반촌설렁탕","tel":"031-215-7325","addr":"경기도 수원시 팔달구 우만동 153-20번지 탑빌딩 1층","category":"일반휴게음식 - 일반한식"},{"name":"수원삼일세무회계그룹","tel":"031-548-2266","addr":"경기도 수원시 팔달구 우만동 153-20번지 2층,3층","category":"용역 서비스 - 법률회계서비스(개인)"},{"name":"타마시헤어 스타점","tel":"031-216-3684","addr":"경기도 수원시 팔달구 우만동 153-20번지 2층","category":"보건위생 - 미용원"}]},{"lat":"37.282016552","long":"127.03252685","items":[{"name":"밥순삭꽃게야","tel":"031-211-8080","addr":"경기도 수원시 팔달구 우만동 553-5번지 1층","category":"일반휴게음식 - 일반한식"}]},{"lat":"37.290983116","long":"127.02649694","items":[{"name":"밧데리할인매장","tel":"031-252-1688","addr":"경기도 수원시 팔달구 우만동 596번지 1층","category":"자동차정비 유지 - 자동차부품"}]},{"lat":"37.284124762","long":"127.0332832","items":[{"name":"배달삼겹돼지되지","tel":"02-255-8592","addr":"경기도 수원시 팔달구 우만동 522-27번지","category":"일반휴게음식 - 일반한식"},{"name":"엘리스","tel":"","addr":"경기도 수원시 팔달구 우만동 522-27번지 1층","category":"의류 - 정장"},{"name":"토브헤어","tel":"062-961-1188","addr":"경기도 수원시 팔달구 우만동 522-27번지","category":"보건위생 - 미용원"}]},{"lat":"37.287486399","long":"127.02994658","items":[{"name":"백화원","tel":"031-247-8947","addr":"경기도 수원시 팔달구 우만동 484-23번지 1층","category":"일반휴게음식 - 중국식"}]},{"lat":"37.285621306","long":"127.02981059","items":[{"name":"버디통닭 못골점","tel":"031-242-5093","addr":"경기도 수원시 팔달구 우만동 505-11번지 1층","category":"일반휴게음식 - 일반한식"},{"name":"산마수라","tel":"031-3214-2769","addr":"경기도 수원시 팔달구 우만동 505-11번지 2층","category":"보건위생 - 기타대인서비스"},{"name":"소풍","tel":"031-252-2388","addr":"경기도 수원시 팔달구 우만동 505-11번지","category":"일반휴게음식 - 일반한식"}]},{"lat":"37.27570607","long":"127.04360786","items":[{"name":"법무사 신인수 사무소","tel":"031-216-9370","addr":"경기도 수원시 팔달구 우만동 578-1번지 제1용성빌딩 5층 2호","category":"용역 서비스 - 법률회계서비스(개인)"},{"name":"소풍김밥","tel":"031-216-7677","addr":"경기도 수원시 팔달구 우만동 578-1번지 1층","category":"일반휴게음식 - 일반한식"},{"name":"솔져치킨","tel":"031-215-9922","addr":"경기도 수원시 팔달구 우만동 578-1번지 용성빌딩 2층","category":"일반휴게음식 - 주점"},{"name":"아모레퍼시픽수원지사뷰레이터","tel":"","addr":"경기도 수원시 팔달구 우만동 578-1번지 용성빌딩 4층","category":"보건위생 - 화장품"},{"name":"아모레퍼시픽수원지사뷰레이터","tel":"031-216-4038","addr":"경기도 수원시 팔달구 우만동 578-1번지 4층","category":"보건위생 - 화장품"},{"name":"아이센스PC방","tel":"070-7737-0452","addr":"경기도 수원시 팔달구 우만동 578-1번지 용성빌딩 지하","category":"레저업소 - 기타레져업소"},{"name":"아주기획","tel":"031-217-0745","addr":"경기도 수원시 팔달구 우만동 578-1번지 용성빌딩 1층","category":"서적문구 - 출판 및 인쇄물"},{"name":"에이스당구장","tel":"02-0000-0000","addr":"경기도 수원시 팔달구 우만동 578-1번지 용성빌딩 3층","category":"레저업소 - 당 구 장"},{"name":"유니온플라워서비스","tel":"031-214-0754","addr":"경기도 수원시 팔달구 우만동 578-1번지","category":"문화.취미 - 화원"},{"name":"유스브릿지","tel":"02-1111-1111","addr":"경기도 수원시 팔달구 우만동 578-1번지 용성빌딩 4층 2호","category":"용역 서비스 - 사무서비스"},{"name":"인사맨","tel":"031-211-0101","addr":"경기도 수원시 팔달구 우만동 578-1번지 용성빌딩 1층","category":"일반휴게음식 - 중국식"},{"name":"청년다방","tel":"031-214-4759","addr":"경기도 수원시 팔달구 우만동 578-1번지 용성빌딩","category":"일반휴게음식 - 스넥"},{"name":"케어핏","tel":"031-214-7350","addr":"경기도 수원시 팔달구 우만동 578-1번지 용성빌딩 지하","category":"레저업소 - 헬스클럽"},{"name":"탑스","tel":"031-216-3180","addr":"경기도 수원시 팔달구 우만동 578-1번지","category":"유통업 영리 - 편 의 점"},{"name":"태평양뷰레이터","tel":"031-267-2037","addr":"경기도 수원시 팔달구 우만동 578-1번지 용성빌딩 4층","category":"보건위생 - 화장품"},{"name":"편의점사랑","tel":"031-212-8988","addr":"경기도 수원시 팔달구 우만동 578-1번지","category":"유통업 영리 - 슈퍼마켓"}]},{"lat":"37.275183578","long":"127.04330315","items":[{"name":"법무사박치우사무소","tel":"031-211-1668","addr":"경기도 수원시 팔달구 우만동 81-6번지 법전빌딩 107호","category":"용역 서비스 - 법률회계서비스(개인)"},{"name":"사암바른한의원","tel":"031-216-3875","addr":"경기도 수원시 팔달구 우만동 81-6번지 2층","category":"의원 - 한의원"},{"name":"올리브영 아주대삼거리점","tel":"031-215-0121","addr":"경기도 수원시 팔달구 우만동 81-6번지 1층","category":"유통업 영리 - 편 의 점"},{"name":"월드호텔요리제과제빵학원","tel":"031-216-7247","addr":"경기도 수원시 팔달구 우만동 81-6번지","category":"회원제형태 - 학원"},{"name":"척바른마취통증의학과의원","tel":"031-212-5526","addr":"경기도 수원시 팔달구 우만동 81-6번지 3층","category":"의원 - 의원"},{"name":"크로스핏SIDAE","tel":"031-214-0117","addr":"경기도 수원시 팔달구 우만동 81-6번지","category":"레저업소 - 헬스클럽"}]},{"lat":"37.283152288","long":"127.03070054","items":[{"name":"베이비키즈맘","tel":"","addr":"경기도 수원시 팔달구 우만동 526-12번지 한효우만타운아파트 230호","category":"신변잡화 - 기타잡화"},{"name":"우만헬스클럽","tel":"031-242-3309","addr":"경기도 수원시 팔달구 우만동 526-12번지 한효우만타운아파트 1층 113호 외","category":"레저업소 - 헬스클럽"},{"name":"원사우나","tel":"031-246-1367","addr":"경기도 수원시 팔달구 우만동 526-12번지 한효우만타운아파트","category":"보건위생 - 사우나"}]},{"lat":"37.279905928","long":"127.0403627","items":[{"name":"벨리스플라워","tel":"","addr":"경기도 수원시 팔달구 우만동 39-4번지 1층 102호","category":"문화.취미 - 화원"}]},{"lat":"37.280376969","long":"127.0313648","items":[{"name":"별그린나라어린이집[아이행복]","tel":"031-214-2225","addr":"경기도 수원시 팔달구 우만동 558-1번지","category":"학원 - 유아원"}]},{"lat":"37.281016618","long":"127.03169204","items":[{"name":"병천순대감자탕","tel":"031-215-9234","addr":"경기도 수원시 팔달구 우만동 555-14번지","category":"일반휴게음식 - 일반한식"},{"name":"스탤론의울트라복싱체육관","tel":"031-213-7009","addr":"경기도 수원시 팔달구 우만동 555-14번지","category":"회원제형태 - 레져업소"},{"name":"위니아대우24시크린샵 수원우만점","tel":"031-1522-0092","addr":"경기도 수원시 팔달구 우만동 555-14번지 1층","category":"수리서비스 - 세탁소"}]},{"lat":"37.287377629","long":"127.03264172","items":[{"name":"보니타헤어","tel":"031-256-9223","addr":"경기도 수원시 팔달구 우만동 499-20번지 1층","category":"보건위생 - 미용원"},{"name":"씨스페이스우만점","tel":"070-8823-7983","addr":"경기도 수원시 팔달구 우만동 499-20번지","category":"유통업 영리 - 편 의 점"},{"name":"어울림종합인테리어","tel":"031-254-6075","addr":"경기도 수원시 팔달구 우만동 499-20번지","category":"건축자재 - 인테리어전문"},{"name":"포토픽스 수원점","tel":"031-243-3966","addr":"경기도 수원시 팔달구 우만동 499-20번지","category":"광학제품 - 사진관"}]},{"lat":"37.287981729","long":"127.03095041","items":[{"name":"보일러써비스","tel":"031-254-5807","addr":"경기도 수원시 팔달구 우만동 482-26번지 1층 3호","category":"수리서비스 - 기타수리서비스"},{"name":"하나유통","tel":"031-243-8898","addr":"경기도 수원시 팔달구 우만동 482-26번지 점포 1층 2호","category":"신변잡화 - 기타잡화"}]},{"lat":"37.289126125","long":"127.03055614","items":[{"name":"보훈환경","tel":"031-245-7566","addr":"경기도 수원시 팔달구 우만동 480-36번지","category":"용역 서비스 - 종합용역"}]},{"lat":"37.286232975","long":"127.03400576","items":[{"name":"봄날플라워","tel":"031-254-0264","addr":"경기도 수원시 팔달구 우만동 518-2번지","category":"문화.취미 - 화원"},{"name":"아리랑갈비","tel":"","addr":"경기도 수원시 팔달구 우만동 518-2번지 1층","category":"일반휴게음식 - 일반한식"},{"name":"월드컵호프&커피","tel":"031-258-2979","addr":"경기도 수원시 팔달구 우만동 518-2번지","category":"일반휴게음식 - 서양음식"}]},{"lat":"37.285765005","long":"127.03178406","items":[{"name":"봉이야기","tel":"031-235-3561","addr":"경기도 수원시 팔달구 우만동 502-15번지","category":"음료식품 - 기타음료식품"},{"name":"스토리 매직","tel":"031-258-5200","addr":"경기도 수원시 팔달구 우만동 502-15번지 지하1층","category":"학원 - 예·체능계학원"},{"name":"이즈커뮤니케이션","tel":"070-4256-6737","addr":"경기도 수원시 팔달구 우만동 502-15번지 1층","category":"사무통신 - 컴퓨터"},{"name":"화정축산","tel":"031-378-4007","addr":"경기도 수원시 팔달구 우만동 502-15번지","category":"음료식품 - 정육점"}]},{"lat":"37.283376597","long":"127.03447819","items":[{"name":"봉평칼국수","tel":"031-245-6508","addr":"경기도 수원시 팔달구 우만동 531-13번지 1층","category":"일반휴게음식 - 일반한식"},{"name":"썬네일","tel":"031-308-2280","addr":"경기도 수원시 팔달구 우만동 531-13번지 1층","category":"보건위생 - 피부미용실"}]},{"lat":"37.28501751","long":"127.03028399","items":[{"name":"부업하는오빠들 (Studio buO)","tel":"","addr":"경기도 수원시 팔달구 우만동 505-4번지 202호","category":"광학제품 - 사진관"}]},{"lat":"37.282512515","long":"127.030892","items":[{"name":"뷰티&스넥","tel":"031-248-4181","addr":"경기도 수원시 팔달구 우만동 527-23번지","category":"보건위생 - 화장품"}]},{"lat":"37.279683296","long":"127.0308684","items":[{"name":"브레드인헤븐","tel":"031-215-3324","addr":"경기도 수원시 팔달구 우만동 557-11번지","category":"일반휴게음식 - 서양음식"},{"name":"사비트리 요가 앤 플라잉","tel":"","addr":"경기도 수원시 팔달구 우만동 557-11번지 402호","category":"레저업소 - 헬스클럽"},{"name":"제이스토리케이크","tel":"","addr":"경기도 수원시 팔달구 우만동 557-11번지 5층 503호","category":"음료식품 - 제과점"}]},{"lat":"37.283295733","long":"127.03360988","items":[{"name":"블랙보틀","tel":"031-286-6655","addr":"경기도 수원시 팔달구 우만동 530-16번지 1층 102호","category":"일반휴게음식 - 서양음식"},{"name":"일품왕만두","tel":"031-254-7799","addr":"경기도 수원시 팔달구 우만동 530-16번지 1층","category":"일반휴게음식 - 스넥"}]},{"lat":"37.282683105","long":"127.033339","items":[{"name":"블럭제빵소","tel":"031-213-1643","addr":"경기도 수원시 팔달구 우만동 379-3번지 1층 102호","category":"음료식품 - 제과점"},{"name":"엠제이(M.J)디지털","tel":"070-7563-7337","addr":"경기도 수원시 팔달구 우만동 379-3번지","category":"전기제품 - 가전제품"},{"name":"청림(푸른숲)인테리어","tel":"031-254-7428","addr":"경기도 수원시 팔달구 우만동 379-3번지 1층 4호","category":"건축자재 - 인테리어전문"},{"name":"크린토피아수원우만월드메르디앙점","tel":"031-213-4561","addr":"경기도 수원시 팔달구 우만동 379-3번지 1층 103호","category":"수리서비스 - 세탁소"},{"name":"프로헤어갤러리3","tel":"031-225-2300","addr":"경기도 수원시 팔달구 우만동 379-3번지 2층 201호","category":"보건위생 - 미용원"}]},{"lat":"37.282566254","long":"127.03222261","items":[{"name":"블루헤어샵","tel":"031-215-3357","addr":"경기도 수원시 팔달구 우만동 551-22번지 101호","category":"보건위생 - 미용원"}]},{"lat":"37.281097628","long":"127.03203035","items":[{"name":"블룸","tel":"031-213-8448","addr":"경기도 수원시 팔달구 우만동 554-11번지 1층","category":"일반휴게음식 - 일반한식"}]},{"lat":"37.284872692","long":"127.03297903","items":[{"name":"비달삼순","tel":"031-241-9747","addr":"경기도 수원시 팔달구 우만동 522번지","category":"보건위생 - 미용원"},{"name":"비비큐(우만1점)","tel":"031-255-0999","addr":"경기도 수원시 팔달구 우만동 522번지","category":"일반휴게음식 - 일반한식"},{"name":"일품축산","tel":"031-243-3370","addr":"경기도 수원시 팔달구 우만동 522번지","category":"음료식품 - 정육점"}]},{"lat":"37.287567517","long":"127.02983384","items":[{"name":"비어데이","tel":"031-252-3474","addr":"경기도 수원시 팔달구 우만동 484-22번지 1층","category":"일반휴게음식 - 주점"},{"name":"필","tel":"031-243-6968","addr":"경기도 수원시 팔달구 우만동 484-22번지 지층","category":"레저업소 - 노 래 방"}]},{"lat":"37.289315268","long":"127.03086069","items":[{"name":"사과나무스파","tel":"02-3280-3347","addr":"경기도 수원시 팔달구 우만동 480-32번지 3층","category":"신변잡화 - 액세서리"},{"name":"주식회사사과나무","tel":"031-253-3347","addr":"경기도 수원시 팔달구 우만동 480-32번지 1층","category":"회원제형태 - 기타4"}]},{"lat":"37.288099478","long":"127.02822142","items":[{"name":"사랑해어린이집[아이행복]","tel":"031-246-1263","addr":"경기도 수원시 팔달구 우만동 475-14번지 민트하우스","category":"학원 - 유아원"}]},{"lat":"37.282737505","long":"127.03199715","items":[{"name":"산골마을","tel":"031-257-3982","addr":"경기도 수원시 팔달구 우만동 529-16번지 1층","category":"일반휴게음식 - 일반한식"},{"name":"설치대마왕시스템에어컨","tel":"070-1833-5058","addr":"경기도 수원시 팔달구 우만동 529-16번지 1층","category":"용역 서비스 - 기타용역서비스"}]},{"lat":"37.290649623","long":"127.0270607","items":[{"name":"산내들","tel":"031-224-5007","addr":"경기도 수원시 팔달구 우만동 583-5번지","category":"용역 서비스 - 사무서비스"}]},{"lat":"37.27729349","long":"127.03861372","items":[{"name":"산돌어린이집[아이행복]","tel":"031-216-2775","addr":"경기도 수원시 팔달구 우만동 144-5번지","category":"학원 - 유아원"}]},{"lat":"37.280656314","long":"127.03125214","items":[{"name":"산수촌수원점","tel":"031-215-5433","addr":"경기도 수원시 팔달구 우만동 558번지","category":"일반휴게음식 - 일반한식"},{"name":"옛날 아우네순대","tel":"031-216-7686","addr":"경기도 수원시 팔달구 우만동 558번지","category":"일반휴게음식 - 일반한식"},{"name":"우리네시골집","tel":"031-214-9676","addr":"경기도 수원시 팔달구 우만동 558번지 1층","category":"일반휴게음식 - 일반한식"}]},{"lat":"37.287901051","long":"127.02914606","items":[{"name":"삼삼오오","tel":"031-253-3571","addr":"경기도 수원시 팔달구 우만동 485번지 1층","category":"일반휴게음식 - 일반한식"},{"name":"스타애견","tel":"031-268-0997","addr":"경기도 수원시 팔달구 우만동 485번지","category":"문화.취미 - 애완동물"}]},{"lat":"37.2865947","long":"127.02852539","items":[{"name":"삼오스포츠","tel":"031-1111-1111","addr":"경기도 수원시 팔달구 우만동 488-8번지 1층","category":"레져용품 - 골프용품 전문점"}]},{"lat":"37.289514634","long":"127.02552664","items":[{"name":"삼일애드컴","tel":"031-251-6032","addr":"경기도 수원시 팔달구 우만동 598-19 2층,지하1층","category":"용역 서비스 - 종합용역"}]},{"lat":"37.285927231","long":"127.03161497","items":[{"name":"삼정물산","tel":"031-8013-0780","addr":"경기도 수원시 팔달구 우만동 502-13번지","category":"음료식품 - 농·축·수산품"}]},{"lat":"37.275958338","long":"127.04366438","items":[{"name":"상구비어 아주대점","tel":"070-8796-4528","addr":"경기도 수원시 팔달구 우만동 76-12번지 1층","category":"일반휴게음식 - 주점"},{"name":"예술","tel":"070-7818-0061","addr":"경기도 수원시 팔달구 우만동 76-12번지","category":"일반휴게음식 - 주점"},{"name":"왁싱스타","tel":"070-7518-8515","addr":"경기도 수원시 팔달구 우만동 76-12번지 3층","category":"보건위생 - 피부미용실"},{"name":"이삭토스트","tel":"031-217-8251","addr":"경기도 수원시 팔달구 우만동 76-12번지 1층동향일부,지층","category":"일반휴게음식 - 스넥"},{"name":"헤어씨(Hair C)","tel":"","addr":"경기도 수원시 팔달구 우만동 76-12번지 2층","category":"보건위생 - 미용원"}]},{"lat":"37.286648687","long":"127.02886371","items":[{"name":"상은컴퓨터","tel":"031-205-8072","addr":"경기도 수원시 팔달구 우만동 488-3번지","category":"사무통신 - 컴퓨터"}]},{"lat":"37.288405557","long":"127.02945072","items":[{"name":"새천년건강원","tel":"031-257-3974","addr":"경기도 수원시 팔달구 우만동 477-16번지","category":"건강식품 - 기타건강식품"},{"name":"케라틴헤어샵","tel":"031-235-3924","addr":"경기도 수원시 팔달구 우만동 477-16번지","category":"보건위생 - 미용원"}]},{"lat":"37.277039767","long":"127.04308992","items":[{"name":"서울곱창","tel":"031-213-6953","addr":"경기도 수원시 팔달구 우만동 73-12번지","category":"일반휴게음식 - 일반한식"}]},{"lat":"37.284232914","long":"127.03317048","items":[{"name":"서원철물(전기)","tel":"031-242-8722","addr":"경기도 수원시 팔달구 우만동 522-9번지","category":"건축자재 - 목재·석재·철물"}]},{"lat":"37.284566078","long":"127.03400507","items":[{"name":"석빈상사","tel":"031-258-2420","addr":"경기도 수원시 팔달구 우만동 521-12번지","category":"음료식품 - 제과점"}]},{"lat":"37.277824153","long":"127.04161324","items":[{"name":"선경종합인테리어","tel":"031-211-3777","addr":"경기도 수원시 팔달구 우만동 32번지 일반상가 2호","category":"건축자재 - 인테리어전문"}]},{"lat":"37.287738742","long":"127.02969858","items":[{"name":"선장농산","tel":"031-242-1544","addr":"경기도 수원시 팔달구 우만동 484-20번지 1층","category":"음료식품 - 미곡상"},{"name":"제이앤비","tel":"031-248-6966","addr":"경기도 수원시 팔달구 우만동 484-20번지","category":"의류 - 기타의류"}]},{"lat":"37.286260902","long":"127.03038594","items":[{"name":"선진국낙지마당","tel":"031-243-6301","addr":"경기도 수원시 팔달구 우만동 494-4번지","category":"일반휴게음식 - 일반한식"},{"name":"스포리더","tel":"031-222-7955","addr":"경기도 수원시 팔달구 우만동 494-4번지 2층","category":"용역 서비스 - 종합용역"}]},{"lat":"37.283205787","long":"127.03300092","items":[{"name":"선진기획","tel":"031-239-4890","addr":"경기도 수원시 팔달구 우만동 530-8번지","category":"기타 - 기타 전문점"}]},{"lat":"37.28079167","long":"127.03039522","items":[{"name":"선진토탈디자인","tel":"031-257-4813","addr":"경기도 수원시 팔달구 우만동 549-9번지 로즈빌","category":"유통업 영리 - 기타유통업"}]},{"lat":"37.287323491","long":"127.03294618","items":[{"name":"세란약국","tel":"031-257-5674","addr":"경기도 수원시 팔달구 우만동 499-2번지 동명프라자 1층","category":"약국 - 약국"},{"name":"연무관합기도체육관","tel":"031-254-8919","addr":"경기도 수원시 팔달구 우만동 499-2번지","category":"학원 - 예·체능계학원"},{"name":"월드골프","tel":"031-000-0000","addr":"경기도 수원시 팔달구 우만동 499-2번지 동명프라자 101호","category":"레져용품 - 골프용품 전문점"},{"name":"플랜에이 수원월드컵센터","tel":"031-252-0979","addr":"경기도 수원시 팔달구 우만동 499-2번지 동명프라자 301호","category":"용역 서비스 - 사무서비스"},{"name":"플랜에이수원월드컵센터독서실","tel":"031-252-0979","addr":"경기도 수원시 팔달구 우만동 499-2번지 동명프라자 3층 301호 일부","category":"학원 - 독서실"}]},{"lat":"37.287567902","long":"127.02808592","items":[{"name":"세이프존2호점","tel":"031-245-5056","addr":"경기도 수원시 팔달구 우만동 474-16번지 1층","category":"용역 서비스 - 종합용역"},{"name":"주식회사현대환경개발","tel":"031-214-6667","addr":"경기도 수원시 팔달구 우만동 474-16번지 1층 가운데","category":"용역 서비스 - 종합용역"}]},{"lat":"37.285566378","long":"127.03338527","items":[{"name":"세종씽크","tel":"031-246-0480","addr":"경기도 수원시 팔달구 우만동 517-3번지 201호","category":"수리서비스 - 기타수리서비스"}]},{"lat":"37.283152139","long":"127.03133201","items":[{"name":"소규모 워크룸","tel":"","addr":"경기도 수원시 팔달구 우만동 526-8번지 지층 B04호","category":"문화.취미 - 민예·공예품"}]},{"lat":"37.278463428","long":"127.04297792","items":[{"name":"소세립","tel":"031-305-5301","addr":"경기도 수원시 팔달구 우만동 63-2번지 1층","category":"일반휴게음식 - 일반한식"},{"name":"완벽한순간","tel":"","addr":"경기도 수원시 팔달구 우만동 63-2번지 1층 102호","category":"일반휴게음식 - 서양음식"}]},{"lat":"37.289432869","long":"127.02880828","items":[{"name":"소정미용실","tel":"031-235-6894","addr":"경기도 수원시 팔달구 우만동 469-1번지 101호","category":"보건위생 - 미용원"}]},{"lat":"37.289901432","long":"127.02867311","items":[{"name":"솔빛유통","tel":"031-373-4925","addr":"경기도 수원시 팔달구 우만동 468-6번지 삼성캐슬 1층","category":"음료식품 - 기타음료식품"}]},{"lat":"37.288954877","long":"127.03078162","items":[{"name":"송주불냉면","tel":"031-256-4008","addr":"경기도 수원시 팔달구 우만동 481-29번지 1층 101호","category":"일반휴게음식 - 일반한식"},{"name":"수다펍","tel":"031-256-4936","addr":"경기도 수원시 팔달구 우만동 481-29번지","category":"음료식품 - 기타음료식품"},{"name":"주식회사 이에이치아이","tel":"031-241-8580","addr":"경기도 수원시 팔달구 우만동 481-29번지 2층","category":"용역 서비스 - 소프트웨어"},{"name":"처갓집","tel":"031-256-0903","addr":"경기도 수원시 팔달구 우만동 481-29번지","category":"일반휴게음식 - 일반한식"}]},{"lat":"37.28807193","long":"127.0305332","items":[{"name":"송희아트어린이집[아이행복]","tel":"031-242-9378","addr":"경기도 수원시 팔달구 우만동 483-5번지 1층","category":"학원 - 유아원"},{"name":"수원클라이밍센터","tel":"031-8025-2016","addr":"경기도 수원시 팔달구 우만동 483-5번지","category":"레저업소 - 기타레져업소"}]},{"lat":"37.286485922","long":"127.03138965","items":[{"name":"쇼킹노래연습장","tel":"031-243-5590","addr":"경기도 수원시 팔달구 우만동 502번지","category":"레저업소 - 노 래 방"},{"name":"어썸 PC cafe","tel":"070-2723-3726","addr":"경기도 수원시 팔달구 우만동 502번지 1층","category":"레저업소 - 기타레져업소"},{"name":"어썸PC Cafe","tel":"070-4141-0423","addr":"경기도 수원시 팔달구 우만동 502번지","category":"레저업소 - 기타레져업소"},{"name":"우만화랑태권도체육관","tel":"031-252-2204","addr":"경기도 수원시 팔달구 우만동 502번지","category":"학원 - 예·체능계학원"}]},{"lat":"37.280268689","long":"127.03200748","items":[{"name":"수남성헤어컷전문점","tel":"070-7186-2596","addr":"경기도 수원시 팔달구 우만동 559-5번지 1층","category":"보건위생 - 미용원"},{"name":"예스염색전문점","tel":"070-7456-3690","addr":"경기도 수원시 팔달구 우만동 559-5번지 1층","category":"보건위생 - 미용원"}]},{"lat":"37.285593218","long":"127.03411826","items":[{"name":"수미네곱창","tel":"031-257-9548","addr":"경기도 수원시 팔달구 우만동 519-9번지 1층","category":"일반휴게음식 - 일반한식"},{"name":"요리조리","tel":"031-225-6212","addr":"경기도 수원시 팔달구 우만동 519-9번지","category":"일반휴게음식 - 일반한식"}]},{"lat":"37.282457055","long":"127.03628199","items":[{"name":"수원구치소","tel":"031-218-7774","addr":"경기도 수원시 팔달구 우만동 182번지","category":"유통업 비영리 - 구내매점(국가기관"}]},{"lat":"37.284989973","long":"127.0323927","items":[{"name":"수원로얄","tel":"031-252-2511","addr":"경기도 수원시 팔달구 우만동 515-21번지 1층","category":"의류 - 내의판매"}]},{"lat":"37.275237713","long":"127.04308896","items":[{"name":"수원메디칼약국","tel":"070-7756-2020","addr":"경기도 수원시 팔달구 우만동 81-5번지 104호, 106호","category":"약국 - 약국"},{"name":"와사비앤고 (주)더아리엘 우만지점","tel":"031-214-9300","addr":"경기도 수원시 팔달구 우만동 81-5번지 1층 105호","category":"일반휴게음식 - 일식·회집"},{"name":"울림 정신건강의학과의원","tel":"031-8007-3575","addr":"경기도 수원시 팔달구 우만동 81-5번지 마이올프라자 302호","category":"의원 - 의원"},{"name":"좋은약속치과의원","tel":"031-211-2876","addr":"경기도 수원시 팔달구 우만동 81-5번지 402호,403호","category":"의원 - 치과의원"},{"name":"주식회사 아주대뮤즈","tel":"070-8612-9729","addr":"경기도 수원시 팔달구 우만동 81-5번지 마이온프라자 103호","category":"의류 - 정장"},{"name":"코뿔소이비인후과의원","tel":"031-217-8577","addr":"경기도 수원시 팔달구 우만동 81-5번지 303호","category":"의원 - 의원"}]},{"lat":"37.278348597","long":"127.03547961","items":[{"name":"수원시의사회","tel":"031-213-5634","addr":"경기도 수원시 팔달구 우만동 147번지 롯데송림빌라 202호","category":"기타 - 비영리/대상"}]},{"lat":"37.283097586","long":"127.03330534","items":[{"name":"수원신떡볶이","tel":"031-242-2020","addr":"경기도 수원시 팔달구 우만동 530-19번지 1층","category":"일반휴게음식 - 스넥"}]},{"lat":"37.285071087","long":"127.03230252","items":[{"name":"수원통큰통신","tel":"070-8888-1715","addr":"경기도 수원시 팔달구 우만동 515-20번지 정우주택 101호","category":"사무통신 - 통신기기"},{"name":"악동클럽","tel":"031-248-6987","addr":"경기도 수원시 팔달구 우만동 515-20번지","category":"의류 - 아동의류"}]},{"lat":"37.288648644","long":"127.03028531","items":[{"name":"수정상사","tel":"031-256-0309","addr":"경기도 수원시 팔달구 우만동 482-25번지 중간상가","category":"신변잡화 - 기타잡화"},{"name":"시골밥상","tel":"031-244-2468","addr":"경기도 수원시 팔달구 우만동 482-25번지","category":"일반휴게음식 - 일반한식"}]},{"lat":"37.285378216","long":"127.02897604","items":[{"name":"수향닭발","tel":"031-207-0277","addr":"경기도 수원시 팔달구 우만동 491-10번지","category":"일반휴게음식 - 일반한식"},{"name":"영노래방","tel":"031-257-0310","addr":"경기도 수원시 팔달구 우만동 491-10번지","category":"레저업소 - 노 래 방"},{"name":"올빼미 포차","tel":"031-243-9854","addr":"경기도 수원시 팔달구 우만동 491-10번지 1층","category":"일반휴게음식 - 주점"}]},{"lat":"37.288152964","long":"127.03078132","items":[{"name":"순실사자재","tel":"","addr":"경기도 수원시 팔달구 우만동 482-23번지 1층","category":"기타 - 기계공구"}]},{"lat":"37.286485401","long":"127.03347585","items":[{"name":"슈가프리","tel":"","addr":"경기도 수원시 팔달구 우만동 518-11번지","category":"신변잡화 - 기타잡화"}]},{"lat":"37.280600614","long":"127.03742003","items":[{"name":"스타전기조명","tel":"031-215-5966","addr":"경기도 수원시 팔달구 우만동 129번지 1층","category":"건축자재 - 조명기구"}]},{"lat":"37.288540387","long":"127.0308604","items":[{"name":"스팀&부스","tel":"031-252-9860","addr":"경기도 수원시 팔달구 우만동 482-3번지","category":"건축자재 - 기타건축자재"}]},{"lat":"37.286432756","long":"127.02738638","items":[{"name":"스피드메이트 동수원점","tel":"031-248-9296","addr":"경기도 수원시 팔달구 우만동 489-15번지 쌍용자동차서비스프라자","category":"자동차정비 유지 - 자동차정비"}]},{"lat":"37.2793228","long":"127.03122909","items":[{"name":"스피드메이트 우만점","tel":"031-212-7550","addr":"경기도 수원시 팔달구 우만동 562번지","category":"자동차정비 유지 - 자동차정비"},{"name":"월드칼라매치","tel":"031-213-3964","addr":"경기도 수원시 팔달구 우만동 562번지 1층","category":"자동차정비 유지 - 가타자동차서비스"}]},{"lat":"37.284737141","long":"127.03450131","items":[{"name":"슬로우더테이블 (Slow The Table)","tel":"","addr":"경기도 수원시 팔달구 우만동 520-6번지 1층","category":"의류 - 기타의류"},{"name":"얄리식당","tel":"031-207-5460","addr":"경기도 수원시 팔달구 우만동 520-6번지","category":"일반휴게음식 - 일반한식"}]},{"lat":"37.286566946","long":"127.0316716","items":[{"name":"승리테크","tel":"031-242-5240","addr":"경기도 수원시 팔달구 우만동 501-13번지","category":"회원제형태 - 기타4"},{"name":"큰나무 작은도서관","tel":"031-892-9193","addr":"경기도 수원시 팔달구 우만동 501-13번지","category":"문화.취미 - 문화취미기타"}]},{"lat":"37.276823921","long":"127.04189462","items":[{"name":"시립우만2동어린이집[아이행복]","tel":"031-217-0651","addr":"경기도 수원시 팔달구 우만동 94-17번지","category":"학원 - 유아원"}]},{"lat":"37.279295621","long":"127.03183797","items":[{"name":"시스템학원","tel":"031-8013-5357","addr":"경기도 수원시 팔달구 우만동 561-6번지 4층","category":"학원 - 보습학원"},{"name":"우만월드검도관","tel":"031-211-3337","addr":"경기도 수원시 팔달구 우만동 561-6번지 지하","category":"학원 - 예·체능계학원"},{"name":"청담한의원","tel":"031-212-1075","addr":"경기도 수원시 팔달구 우만동 561-6번지 3층","category":"의원 - 한의원"}]},{"lat":"37.290180426","long":"127.03011671","items":[{"name":"시온디자인","tel":"031-242-3777","addr":"경기도 수원시 팔달구 우만동 466-5번지 1층","category":"용역 서비스 - 사무서비스"}]},{"lat":"37.285486309","long":"127.0291114","items":[{"name":"시크헤어","tel":"070-5104-9587","addr":"경기도 수원시 팔달구 우만동 491-42번지 1층","category":"보건위생 - 미용원"},{"name":"월드폰","tel":"031-305-7680","addr":"경기도 수원시 팔달구 우만동 491-42번지 1층","category":"사무통신 - 통신기기"}]},{"lat":"37.282656566","long":"127.03136565","items":[{"name":"신바람할인마트","tel":"031-241-3313","addr":"경기도 수원시 팔달구 우만동 529-9번지","category":"유통업 영리 - 슈퍼마켓"}]},{"lat":"37.283349722","long":"127.03389181","items":[{"name":"신세계 양꼬치","tel":"031-258-5985","addr":"경기도 수원시 팔달구 우만동 531-2번지 1층","category":"일반휴게음식 - 일반한식"}]},{"lat":"37.287738572","long":"127.03044286","items":[{"name":"신세계유통","tel":"031-242-7512","addr":"경기도 수원시 팔달구 우만동 483-21번지","category":"유통업 영리 - 슈퍼마켓"}]},{"lat":"37.278402381","long":"127.03647188","items":[{"name":"신일세탁소","tel":"031-898-5454","addr":"경기도 수원시 팔달구 우만동 606번지 신도브래뉴 상가 104호","category":"수리서비스 - 세탁소"},{"name":"알앤씨뷰티라이프","tel":"031-213-2360","addr":"경기도 수원시 팔달구 우만동 606번지 동수원신도브랜뉴 상가 101,102호","category":"의류 - 내의판매"},{"name":"이화음악교습소","tel":"031-212-0156","addr":"경기도 수원시 팔달구 우만동 606번지 동수원신도브래뉴 상가동 201호","category":"학원 - 예·체능계학원"}]},{"lat":"37.285899941","long":"127.0326637","items":[{"name":"심중농원","tel":"","addr":"경기도 수원시 팔달구 우만동 516-24번지","category":"음료식품 - 농·축·수산품"}]},{"lat":"37.286792583","long":"127.0300591","items":[{"name":"싱싱푸드","tel":"031-385-0627","addr":"경기도 수원시 팔달구 우만동 494번지 삼익세라믹아파트 401호","category":"음료식품 - 기타음료식품"}]},{"lat":"37.283403174","long":"127.03613582","items":[{"name":"싸우전드 (Thousand)","tel":"031-212-9299","addr":"경기도 수원시 팔달구 우만동 185번지 1층","category":"일반휴게음식 - 서양음식"}]},{"lat":"37.285566311","long":"127.03364463","items":[{"name":"쌀집아저씨네영일방앗간","tel":"031-247-2077","addr":"경기도 수원시 팔달구 우만동 517-5번지","category":"음료식품 - 미곡상"}]},{"lat":"37.287433001","long":"127.02686797","items":[{"name":"쌍용자동차팔달서비스프라자","tel":"031-248-5582","addr":"경기도 수원시 팔달구 우만동 473-5번지","category":"자동차정비 유지 - 자동차정비"}]},{"lat":"37.282016942","long":"127.03092565","items":[{"name":"씨엔알(C&R)공조","tel":"","addr":"경기도 수원시 팔달구 우만동 550-10번지 신형빌라 가동 202호","category":"용역 서비스 - 기타용역서비스"}]},{"lat":"37.281764179","long":"127.03286504","items":[{"name":"씨유수원메르디앙점","tel":"080-080-3663","addr":"경기도 수원시 팔달구 우만동 552-21번지 1층","category":"유통업 영리 - 편 의 점"}]},{"lat":"37.279177161","long":"127.03683305","items":[{"name":"씨유수원우만은혜점","tel":"080-080-3663","addr":"경기도 수원시 팔달구 우만동 607번지 양우내안애애플아파트 상가동 1층 101호","category":"유통업 영리 - 편 의 점"}]},{"lat":"37.28715357","long":"127.02742044","items":[{"name":"씨유우만미래점","tel":"031-898-6568","addr":"경기도 수원시 팔달구 우만동 473-22번지 1층","category":"유통업 영리 - 편 의 점"},{"name":"유성치킨&돼지","tel":"070-7776-3982","addr":"경기도 수원시 팔달구 우만동 473-22번지 1층","category":"일반휴게음식 - 일반한식"}]},{"lat":"37.284043649","long":"127.0333621","items":[{"name":"씨유우만본점","tel":"080-080-3663","addr":"경기도 수원시 팔달구 우만동 522-26번지 1층","category":"유통업 영리 - 편 의 점"},{"name":"청람학원","tel":"","addr":"경기도 수원시 팔달구 우만동 522-26번지 2층","category":"학원 - 보습학원"}]},{"lat":"37.28723415","long":"127.02977734","items":[{"name":"씨유우만삼익점","tel":"031-248-0403","addr":"경기도 수원시 팔달구 우만동 485-25번지","category":"유통업 영리 - 편 의 점"}]},{"lat":"37.277292086","long":"127.04299985","items":[{"name":"씨유우만원룸점","tel":"031-211-6425","addr":"경기도 수원시 팔달구 우만동 73-1번지","category":"유통업 영리 - 편 의 점"},{"name":"아저씨","tel":"031-214-9933","addr":"경기도 수원시 팔달구 우만동 73-1번지 2층","category":"일반휴게음식 - 일식·회집"},{"name":"전설의치킨(아주대점)","tel":"031-212-8292","addr":"경기도 수원시 팔달구 우만동 73-1번지","category":"일반휴게음식 - 일반한식"}]},{"lat":"37.281843727","long":"127.03844673","items":[{"name":"씨유우만주공스카이점","tel":"031-898-6656","addr":"경기도 수원시 팔달구 우만동 28번지 주공1단지아파트 상가동 101호","category":"유통업 영리 - 편 의 점"}]},{"lat":"37.287567106","long":"127.03158177","items":[{"name":"씨유우만풍림점","tel":"080-080-3663","addr":"경기도 수원시 팔달구 우만동 497번지 가동 1층 102,103,104,105호","category":"유통업 영리 - 편 의 점"}]},{"lat":"37.28554024","long":"127.0296978","items":[{"name":"아구가좋아9900","tel":"031-258-3393","addr":"경기도 수원시 팔달구 우만동 505-12번지","category":"일반휴게음식 - 일반한식"},{"name":"오향족발","tel":"031-257-0533","addr":"경기도 수원시 팔달구 우만동 505-12번지","category":"일반휴게음식 - 일반한식"},{"name":"커피포유","tel":"03-100-0000","addr":"경기도 수원시 팔달구 우만동 505-12번지","category":"일반휴게음식 - 서양음식"}]},{"lat":"37.278544729","long":"127.0423578","items":[{"name":"아대돈부리식당","tel":"031-215-3113","addr":"경기도 수원시 팔달구 우만동 57-3번지 아주빌 B동 1층","category":"일반휴게음식 - 일반한식"}]},{"lat":"37.285017813","long":"127.02894209","items":[{"name":"아레나 피씨","tel":"070-9447-0240","addr":"경기도 수원시 팔달구 우만동 506-3번지 2층","category":"수리서비스 - 사무·통신기기수리"}]},{"lat":"37.277039958","long":"127.04252615","items":[{"name":"아르떼제이(ArteJ)","tel":"02-1111-1111","addr":"경기도 수원시 팔달구 우만동 75번지 1층 일부","category":"신변잡화 - 액세서리"},{"name":"키브한(아주대점)","tel":"031-223-4186","addr":"경기도 수원시 팔달구 우만동 75번지 102호","category":"일반휴게음식 - 일반한식"}]},{"lat":"37.277716915","long":"127.0388056","items":[{"name":"아름다운세상","tel":"031-223-9210","addr":"경기도 수원시 팔달구 우만동 136-16번지 신세계하이츠빌라 B동 201호","category":"회원제형태 - 기타1"}]},{"lat":"37.275976681","long":"127.04271727","items":[{"name":"아맛집","tel":"031-217-5445","addr":"경기도 수원시 팔달구 우만동 89-13번지 골든파크 A동 101호","category":"일반휴게음식 - 일반한식"}]},{"lat":"37.281872303","long":"127.03286508","items":[{"name":"아이스크림 백화점","tel":"","addr":"경기도 수원시 팔달구 우만동 552-20번지","category":"음료식품 - 기타음료식품"},{"name":"영덕아재","tel":"031-215-0087","addr":"경기도 수원시 팔달구 우만동 552-20번지","category":"일반휴게음식 - 일반한식"}]},{"lat":"37.283458118","long":"127.03283188","items":[{"name":"아이캔몬테소리어린이집[아이행복]","tel":"031-252-3306","addr":"경기도 수원시 팔달구 우만동 524-13번지","category":"학원 - 유아원"},{"name":"아이캔어린이집[아이행복]","tel":"031-245-3308","addr":"경기도 수원시 팔달구 우만동 524-13번지","category":"학원 - 유아원"}]},{"lat":"37.289126214","long":"127.03017271","items":[{"name":"아이타이거","tel":"031-245-2600","addr":"경기도 수원시 팔달구 우만동 480-15번지","category":"주방용구 - 정수기"}]},{"lat":"37.279373655","long":"127.04241461","items":[{"name":"아이폰서비스코리아","tel":"050-4886-3966","addr":"경기도 수원시 팔달구 우만동 43-10번지","category":"신변잡화 - 기타잡화"}]},{"lat":"37.282764212","long":"127.03328265","items":[{"name":"아주네맛집","tel":"031-216-2357","addr":"경기도 수원시 팔달구 우만동 380-1번지","category":"일반휴게음식 - 일반한식"}]},{"lat":"37.283376266","long":"127.03569603","items":[{"name":"아프니카","tel":"031-217-9785","addr":"경기도 수원시 팔달구 우만동 186-1번지","category":"자동차정비 유지 - 자동차정비"}]},{"lat":"37.288126345","long":"127.02897699","items":[{"name":"안면정육점","tel":"031-244-8089","addr":"경기도 수원시 팔달구 우만동 476-20번지","category":"음료식품 - 정육점"},{"name":"중앙공인중개사사무소","tel":"031-247-4000","addr":"경기도 수원시 팔달구 우만동 476-20번지","category":"용역 서비스 - 부동산 중개·임대"},{"name":"컷트클럽","tel":"031-245-6758","addr":"경기도 수원시 팔달구 우만동 476-20번지 1층","category":"보건위생 - 미용원"}]},{"lat":"37.288648761","long":"127.02977784","items":[{"name":"알곡마을","tel":"031-243-4845","addr":"경기도 수원시 팔달구 우만동 478-6번지","category":"음료식품 - 미곡상"}]},{"lat":"37.288432484","long":"127.02991309","items":[{"name":"알콩달콩","tel":"031-253-4996","addr":"경기도 수원시 팔달구 우만동 483-15번지 1층","category":"일반휴게음식 - 서양음식"},{"name":"오성인테리어","tel":"031-256-1259","addr":"경기도 수원시 팔달구 우만동 483-15번지","category":"직물 - 카페트,커튼,천막,지물"}]},{"lat":"37.286711649","long":"127.02935991","items":[{"name":"앙쥬493-1","tel":"","addr":"경기도 수원시 팔달구 우만동 493-1번지 센트럴하우스 102호","category":"음료식품 - 기타음료식품"},{"name":"제이블라썸","tel":"","addr":"경기도 수원시 팔달구 우만동 493-1번지 센트럴하우스 1층 101호","category":"보건위생 - 피부미용실"}]},{"lat":"37.284070388","long":"127.03447848","items":[{"name":"엄마손분식","tel":"070-4245-2981","addr":"경기도 수원시 팔달구 우만동 532-9번지","category":"일반휴게음식 - 스넥"},{"name":"영월드문구점","tel":"031-244-1035","addr":"경기도 수원시 팔달구 우만동 532-9번지","category":"서적문구 - 문구용품"}]},{"lat":"37.27649044","long":"127.04219888","items":[{"name":"에고테라 아주대점","tel":"031-251-9103","addr":"경기도 수원시 팔달구 우만동 89-37번지","category":"일반휴게음식 - 서양음식"}]},{"lat":"37.283206442","long":"127.03030589","items":[{"name":"에녹피아노 교습소","tel":"031-248-5938","addr":"경기도 수원시 팔달구 우만동 527번지 1층","category":"학원 - 예·체능계학원"}]},{"lat":"37.284178526","long":"127.03442214","items":[{"name":"에스엠 메디케어","tel":"031-252-3161","addr":"경기도 수원시 팔달구 우만동 532-7번지 1층","category":"보건위생 - 의료용품"},{"name":"오참치","tel":"031-305-5873","addr":"경기도 수원시 팔달구 우만동 532-7번지","category":"일반휴게음식 - 일식·회집"},{"name":"제이에스 어큐러티스(JS Accuratis)","tel":"031-252-3161","addr":"경기도 수원시 팔달구 우만동 532-7번지 2층","category":"신변잡화 - 기타잡화"}]},{"lat":"37.285296472","long":"127.03178388","items":[{"name":"에어팡","tel":"031-3444-7884","addr":"경기도 수원시 팔달구 우만동 514-8번지 현대빌라 6동 201호","category":"수리서비스 - 기타수리서비스"}]},{"lat":"37.288315488","long":"127.02930409","items":[{"name":"에이스주방가구","tel":"031-242-5233","addr":"경기도 수원시 팔달구 우만동 477-17번지","category":"주방용구 - 주방용구"}]},{"lat":"37.28609831","long":"127.03208866","items":[{"name":"에이치에스컴퍼니(HS COMPANY)","tel":"031-890-5502","addr":"경기도 수원시 팔달구 우만동 501-10번지 세운빌 301호","category":"자동차정비 유지 - 세차장"}]},{"lat":"37.286459128","long":"127.03038601","items":[{"name":"엘엔에스이엔지","tel":"","addr":"경기도 수원시 팔달구 우만동 494-6번지","category":"용역 서비스 - 기타용역서비스"}]},{"lat":"37.284873333","long":"127.03034033","items":[{"name":"엠더블유","tel":"031-000-0000","addr":"경기도 수원시 팔달구 우만동 505-9번지","category":"의류 - 정장"}]},{"lat":"37.285179035","long":"127.03300171","items":[{"name":"엣지있게","tel":"031-252-1213","addr":"경기도 수원시 팔달구 우만동 516-14번지 1층","category":"보건위생 - 미용원"}]},{"lat":"37.282818778","long":"127.03125295","items":[{"name":"여송의 전통한국음식","tel":"","addr":"경기도 수원시 팔달구 우만동 529-10번지 3층","category":"문화.취미 - 문화취미기타"}]},{"lat":"37.285594382","long":"127.02933697","items":[{"name":"여시막창","tel":"070-7172-3266","addr":"경기도 수원시 팔달구 우만동 491-39번지","category":"일반휴게음식 - 일반한식"}]},{"lat":"37.287405184","long":"127.03047657","items":[{"name":"열정분식소 아주대점","tel":"031-302-5678","addr":"경기도 수원시 팔달구 우만동 495번지 1층","category":"일반휴게음식 - 일반한식"}]},{"lat":"37.280151536","long":"127.03208636","items":[{"name":"염정본가옛장터","tel":"031-211-5565","addr":"경기도 수원시 팔달구 우만동 559-15번지 1층","category":"일반휴게음식 - 일반한식"},{"name":"피자마루","tel":"031-258-1082","addr":"경기도 수원시 팔달구 우만동 559-15번지 101호","category":"일반휴게음식 - 서양음식"}]},{"lat":"37.282458233","long":"127.03180535","items":[{"name":"영동통닭 우만점","tel":"031-217-8294","addr":"경기도 수원시 팔달구 우만동 551-20번지 1층","category":"일반휴게음식 - 스넥"}]},{"lat":"37.288847486","long":"127.02747738","items":[{"name":"영진환경","tel":"031-243-4741","addr":"경기도 수원시 팔달구 우만동 470-29번지","category":"용역 서비스 - 기타용역서비스"}]},{"lat":"37.287009475","long":"127.02708209","items":[{"name":"영창약국","tel":"031-245-6154","addr":"경기도 수원시 팔달구 우만동 473-9번지","category":"약국 - 약국"},{"name":"포이보스","tel":"031-247-0076","addr":"경기도 수원시 팔달구 우만동 473-9번지","category":"자동차정비 유지 - 자동차부품"}]},{"lat":"37.276932334","long":"127.04100392","items":[{"name":"예님피부업!","tel":"031-214-3855","addr":"경기도 수원시 팔달구 우만동 101-1번지 201,202호","category":"보건위생 - 피부미용실"},{"name":"이충매직헤어","tel":"031-211-2470","addr":"경기도 수원시 팔달구 우만동 101-1번지","category":"보건위생 - 미용원"},{"name":"일렉투스독서실","tel":"031-212-2066","addr":"경기도 수원시 팔달구 우만동 101-1번지 301,304호","category":"학원 - 독서실"},{"name":"청룡한약방","tel":"031-211-9981","addr":"경기도 수원시 팔달구 우만동 101-1번지 아주교회 2층 203호","category":"의원 - 한의원"},{"name":"행복한밥상","tel":"031-216-1993","addr":"경기도 수원시 팔달구 우만동 101-1번지 아주교회 105호","category":"일반휴게음식 - 일반한식"}]},{"lat":"37.287486691","long":"127.02863846","items":[{"name":"예닮어린이집[아이행복]","tel":"031-247-5716","addr":"경기도 수원시 팔달구 우만동 486번지","category":"학원 - 유아원"}]},{"lat":"37.287288684","long":"127.0276122","items":[{"name":"예솔어린이집[아이행복]","tel":"031-255-0855","addr":"경기도 수원시 팔달구 우만동 474-13번지","category":"학원 - 유아원"}]},{"lat":"37.284232786","long":"127.03366664","items":[{"name":"예영건축사사무소","tel":"031-241-1906","addr":"경기도 수원시 팔달구 우만동 522-8번지","category":"용역 서비스 - 사무서비스"}]},{"lat":"37.287126562","long":"127.02730767","items":[{"name":"옛골집","tel":"031-252-7934","addr":"경기도 수원시 팔달구 우만동 473-23번지","category":"일반휴게음식 - 일반한식"}]},{"lat":"37.283791298","long":"127.03361008","items":[{"name":"오!매운닭발","tel":"031-241-5567","addr":"경기도 수원시 팔달구 우만동 532-27번지 1층","category":"일반휴게음식 - 일반한식"}]},{"lat":"37.285323136","long":"127.03324985","items":[{"name":"오드리","tel":"031-305-5744","addr":"경기도 수원시 팔달구 우만동 516-7번지","category":"보건위생 - 피부미용실"},{"name":"퍼플하우스","tel":"031-245-7257","addr":"경기도 수원시 팔달구 우만동 516-7번지","category":"회원제형태 - 기타4"}]},{"lat":"37.286738276","long":"127.03110783","items":[{"name":"오로지수학학원","tel":"031-1111-1111","addr":"경기도 수원시 팔달구 우만동 495-23번지 2층","category":"학원 - 보습학원"},{"name":"육일방앗간","tel":"031-246-6274","addr":"경기도 수원시 팔달구 우만동 495-23번지","category":"음료식품 - 제과점"},{"name":"하이솔루션","tel":"031-244-1799","addr":"경기도 수원시 팔달구 우만동 495-23번지","category":"사무통신 - 컴퓨터"}]},{"lat":"37.28056613","long":"127.03159038","items":[{"name":"오키스토리바느질공방","tel":"070-8283-8841","addr":"경기도 수원시 팔달구 우만동 559-12번지 1층","category":"수리서비스 - 세탁소"}]},{"lat":"37.278340292","long":"127.0328073","items":[{"name":"오피스디포 동수원점","tel":"031-213-1456","addr":"경기도 수원시 팔달구 우만동 436번지 뉴신아빌딩 B동 1층","category":"사무통신 - 기타 사무용품"},{"name":"좋은곳(소호)","tel":"","addr":"경기도 수원시 팔달구 우만동 436번지 뉴신아빌딩 B동 1층","category":"음료식품 - 농·축·수산품"}]},{"lat":"37.289234763","long":"127.02825563","items":[{"name":"오향by헤어","tel":"","addr":"경기도 수원시 팔달구 우만동 469-6번지 1층","category":"보건위생 - 미용원"}]},{"lat":"37.289180165","long":"127.03064637","items":[{"name":"옥당골(우만점)","tel":"031-892-8299","addr":"경기도 수원시 팔달구 우만동 480-27번지","category":"일반휴게음식 - 일반한식"},{"name":"제이투피테크","tel":"070-8272-6698","addr":"경기도 수원시 팔달구 우만동 480-27번지","category":"사무통신 - 통신기기"}]},{"lat":"37.285098873","long":"127.02908871","items":[{"name":"옥이이모","tel":"031-247-4743","addr":"경기도 수원시 팔달구 우만동 506-2번지 1층","category":"일반휴게음식 - 일반한식"}]},{"lat":"37.282458187","long":"127.03199705","items":[{"name":"옥헤어샵","tel":"031-255-4107","addr":"경기도 수원시 팔달구 우만동 551-1번지 하이안 1층","category":"보건위생 - 미용원"}]},{"lat":"37.278040934","long":"127.03994458","items":[{"name":"온새미","tel":"031-293-0539","addr":"경기도 수원시 팔달구 우만동 100-17번지 4층","category":"신변잡화 - 기타잡화"}]},{"lat":"37.284323391","long":"127.03167075","items":[{"name":"온세미로","tel":"070-4307-1303","addr":"경기도 수원시 팔달구 우만동 513-7번지 1층","category":"음료식품 - 기타음료식품"},{"name":"포인트헤어","tel":"031-246-7172","addr":"경기도 수원시 팔달구 우만동 513-7번지 1층","category":"보건위생 - 미용원"}]},{"lat":"37.278093942","long":"127.0431694","items":[{"name":"올라스터디카페","tel":"","addr":"경기도 수원시 팔달구 우만동 63-6번지 3층","category":"일반휴게음식 - 서양음식"},{"name":"킹콩PC방","tel":"","addr":"경기도 수원시 팔달구 우만동 63-6번지 2층 201호","category":"레저업소 - 기타레져업소"},{"name":"화산2호점","tel":"031-211-4191","addr":"경기도 수원시 팔달구 우만동 63-6번지 1층","category":"일반휴게음식 - 일반한식"}]},{"lat":"37.288541149","long":"127.02742089","items":[{"name":"와이드카페","tel":"031-251-1215","addr":"경기도 수원시 팔달구 우만동 470-35번지","category":"일반휴게음식 - 서양음식"}]},{"lat":"37.288513798","long":"127.02892074","items":[{"name":"왔다!양꼬치","tel":"","addr":"경기도 수원시 팔달구 우만동 477-10번지 1층","category":"일반휴게음식 - 중국식"}]},{"lat":"37.283872177","long":"127.03442201","items":[{"name":"용성광고","tel":"031-253-4848","addr":"경기도 수원시 팔달구 우만동 532-12번지","category":"건축자재 - 인테리어전문"},{"name":"작은정원","tel":"031-1111-1111","addr":"경기도 수원시 팔달구 우만동 532-12번지 1층","category":"일반휴게음식 - 서양음식"},{"name":"한아름","tel":"031-255-8220","addr":"경기도 수원시 팔달구 우만동 532-12번지","category":"문화.취미 - 화원"}]},{"lat":"37.289207575","long":"127.02897736","items":[{"name":"용해통닭","tel":"031-242-1005","addr":"경기도 수원시 팔달구 우만동 478-10번지","category":"일반휴게음식 - 스넥"}]},{"lat":"37.288071853","long":"127.03086023","items":[{"name":"용혁건설(주)","tel":"031-473-3828","addr":"경기도 수원시 팔달구 우만동 482-24번지","category":"용역 서비스 - 기타용역서비스"}]},{"lat":"37.284017543","long":"127.02952811","items":[{"name":"우리교육","tel":"070-8830-5881","addr":"경기도 수원시 팔달구 우만동 510-8번지 정진하이츠 1층 102호","category":"서적문구 - 기타서적문구"}]},{"lat":"37.289486463","long":"127.03086075","items":[{"name":"우만1동우편취급소","tel":"031-258-2000","addr":"경기도 수원시 팔달구 우만동 480-35번지","category":"용역 서비스 - 공공요금대행서비스/소"},{"name":"험멜스포츠","tel":"031-251-2982","addr":"경기도 수원시 팔달구 우만동 480-35번지 1층","category":"레져용품 - 스포츠·레져용품"}]},{"lat":"37.285260998","long":"127.0293594","items":[{"name":"우만1동주민자치위원회","tel":"031-228-7892","addr":"경기도 수원시 팔달구 우만동 506 우민1길83","category":"문화.취미 - 문화취미기타"}]},{"lat":"37.277878837","long":"127.03966261","items":[{"name":"우만2동주민자치위원회","tel":"031-228-7907","addr":"경기도 수원시 팔달구 우만동 108-3중부대로207번길33","category":"문화.취미 - 문화취미기타"}]},{"lat":"37.27706866","long":"127.03717036","items":[{"name":"우만동","tel":"031-211-4943","addr":"경기도 수원시 팔달구 우만동 139-8번지 지하1층","category":"일반휴게음식 - 서양음식"},{"name":"추억의포차","tel":"031-216-9202","addr":"경기도 수원시 팔달구 우만동 139-8번지","category":"일반휴게음식 - 주점"}]},{"lat":"37.285711383","long":"127.02992339","items":[{"name":"우만동족발","tel":"031-8003-1025","addr":"경기도 수원시 팔달구 우만동 505번지 1층","category":"일반휴게음식 - 일반한식"},{"name":"푸르넷학원","tel":"","addr":"경기도 수원시 팔달구 우만동 505번지 2층","category":"학원 - 보습학원"},{"name":"픽미픽미아이스 우만점","tel":"","addr":"경기도 수원시 팔달구 우만동 505번지","category":"음료식품 - 기타음료식품"}]},{"lat":"37.278211293","long":"127.04252676","items":[{"name":"우만동족발집 아주대점","tel":"031-214-7056","addr":"경기도 수원시 팔달구 우만동 65-5번지","category":"일반휴게음식 - 일반한식"}]},{"lat":"37.283539706","long":"127.03080217","items":[{"name":"우만모든전","tel":"031-258-6989","addr":"경기도 수원시 팔달구 우만동 526-10번지","category":"일반휴게음식 - 일반한식"}]},{"lat":"37.285765943","long":"127.02764553","items":[{"name":"우만점현대자동차","tel":"031-251-0056","addr":"경기도 수원시 팔달구 우만동 490-3번지","category":"자동차정비 유지 - 자동차정비"}]},{"lat":"37.291180004","long":"127.0324515","items":[{"name":"우만초등학교","tel":"031-252-6085","addr":"경기도 수원시 팔달구 우만동 300-3번지 우만초등학교","category":"학원 - 초중고교육기관"}]},{"lat":"37.284872811","long":"127.03250542","items":[{"name":"우주교육센터학원","tel":"031-254-3309","addr":"경기도 수원시 팔달구 우만동 515-22번지 2층","category":"학원 - 보습학원"},{"name":"핫스타일도그샵","tel":"031-255-6075","addr":"경기도 수원시 팔달구 우만동 515-22번지","category":"문화.취미 - 애완동물"}]},{"lat":"37.282539243","long":"127.03214367","items":[{"name":"우형상사","tel":"031-211-7351","addr":"경기도 수원시 팔달구 우만동 551-16번지","category":"신변잡화 - 기타잡화"}]},{"lat":"37.283989274","long":"127.03455738","items":[{"name":"움트리어린이집[아이행복]","tel":"031-257-5300","addr":"경기도 수원시 팔달구 우만동 532-10번지","category":"학원 - 유아원"}]},{"lat":"37.289370301","long":"127.02639494","items":[{"name":"원에어테크","tel":"031-252-0738","addr":"경기도 수원시 팔달구 우만동 593-3번지","category":"전기제품 - 냉열기기"}]},{"lat":"37.285017593","long":"127.02992315","items":[{"name":"원진상사","tel":"031-44-7688","addr":"경기도 수원시 팔달구 우만동 507번지","category":"자동차정비 유지 - 카인테리어"}]},{"lat":"37.289073073","long":"127.02583099","items":[{"name":"원한의원","tel":"031-253-5510","addr":"경기도 수원시 팔달구 우만동 472-6번지 1층 (2층)","category":"의원 - 한의원"},{"name":"장수구들옥돌침대","tel":"031-244-5997","addr":"경기도 수원시 팔달구 우만동 472-6번지 1층","category":"가구 - 일반가구"}]},{"lat":"37.28709904","long":"127.02958558","items":[{"name":"월드김미용실","tel":"031-241-0530","addr":"경기도 수원시 팔달구 우만동 485-27번지","category":"보건위생 - 미용원"}]},{"lat":"37.282484966","long":"127.03300064","items":[{"name":"월드노래연습장","tel":"","addr":"경기도 수원시 팔달구 우만동 552-8번지 지층","category":"레저업소 - 노 래 방"}]},{"lat":"37.28726053","long":"127.03250635","items":[{"name":"월드바이크","tel":"031-243-7994","addr":"경기도 수원시 팔달구 우만동 499-21번지","category":"수리서비스 - 레져용품수리"}]},{"lat":"37.280097683","long":"127.03122938","items":[{"name":"월드숯불갈비","tel":"031-216-1666","addr":"경기도 수원시 팔달구 우만동 558-11번지 1층","category":"일반휴게음식 - 일반한식"}]},{"lat":"37.280484311","long":"127.03444315","items":[{"name":"월드아이사랑어린이집[아이행복]","tel":"031-8013-2885","addr":"경기도 수원시 팔달구 우만동 600번지 월드메르디앙","category":"학원 - 유아원"},{"name":"클라라헤어샵","tel":"031-216-3800","addr":"경기도 수원시 팔달구 우만동 600번지 월드메르디앙 주상가 210호","category":"보건위생 - 미용원"},{"name":"파인힐미술교습소","tel":"","addr":"경기도 수원시 팔달구 우만동 600번지 월드메르디앙단지내상가 303","category":"학원 - 예·체능계학원"},{"name":"환수학교습소","tel":"031-215-4835","addr":"경기도 수원시 팔달구 우만동 600번지 302 월드메르디앙상가","category":"학원 - 보습학원"}]},{"lat":"37.279485006","long":"127.03113895","items":[{"name":"월드전막걸리","tel":"","addr":"경기도 수원시 팔달구 우만동 562-19번지 101호","category":"일반휴게음식 - 일반한식"}]},{"lat":"37.285232563","long":"127.03503151","items":[{"name":"월드컵","tel":"031-256-6883","addr":"경기도 수원시 팔달구 우만동 519-3번지","category":"유통업 영리 - 편 의 점"}]},{"lat":"37.285683218","long":"127.0345017","items":[{"name":"월드컵당구장","tel":"031-000-0000","addr":"경기도 수원시 팔달구 우만동 519번지 연안빌딩 3층","category":"레저업소 - 당 구 장"}]},{"lat":"37.28954095","long":"127.02900003","items":[{"name":"위드미수원우만점","tel":"02-6916-1500","addr":"경기도 수원시 팔달구 우만동 469-17번지 누리하우스 1층","category":"유통업 영리 - 편 의 점"}]},{"lat":"37.2887937","long":"127.02611283","items":[{"name":"위생교육원동양주방인테리어","tel":"031-242-7799","addr":"경기도 수원시 팔달구 우만동 472-8번지 지하1층","category":"주방용구 - 주방용구"}]},{"lat":"37.283401556","long":"127.04146951","items":[{"name":"유신고등학교","tel":"031-547-4523","addr":"경기도 수원시 팔달구 우만동 9-1번지 유신고등학교","category":"학원 - 초중고교육기관"},{"name":"유신마켓","tel":"031-547-4520","addr":"경기도 수원시 팔달구 우만동 9-1번지 유신고등학교 매점","category":"음료식품 - 기타음료식품"},{"name":"창현고등학교","tel":"031-548-5016","addr":"경기도 수원시 팔달구 우만동 9-1번지","category":"학원 - 초중고교육기관"},{"name":"창현고등학교매점","tel":"031-724-6200","addr":"경기도 수원시 팔달구 우만동 9-1번지 창현고등학교","category":"음료식품 - 기타음료식품"}]},{"lat":"37.282593075","long":"127.03305706","items":[{"name":"유영서란제리","tel":"070-8699-6992","addr":"경기도 수원시 팔달구 우만동 552-22번지","category":"의류 - 내의판매"}]},{"lat":"37.282430856","long":"127.03319231","items":[{"name":"육콩","tel":"031-204-6060","addr":"경기도 수원시 팔달구 우만동 379-6번지 1층","category":"일반휴게음식 - 일반한식"},{"name":"준골프","tel":"031-203-0880","addr":"경기도 수원시 팔달구 우만동 379-6번지 2층","category":"수리서비스 - 레져용품수리"},{"name":"타샤의정원우만점","tel":"031-215-9611","addr":"경기도 수원시 팔달구 우만동 379-6번지 1층","category":"문화.취미 - 화원"}]},{"lat":"37.290378691","long":"127.02994762","items":[{"name":"윤하꽃직매장","tel":"031-252-5321","addr":"경기도 수원시 팔달구 우만동 466-13번지","category":"문화.취미 - 화원"},{"name":"이지시스템","tel":"031-241-0119","addr":"경기도 수원시 팔달구 우만동 466-13번지 1층","category":"사무통신 - 컴퓨터"}]},{"lat":"37.288369915","long":"127.02761255","items":[{"name":"은성전력","tel":"031-892-6228","addr":"경기도 수원시 팔달구 우만동 475-4번지","category":"용역 서비스 - 기타용역서비스"}]},{"lat":"37.284323123","long":"127.03275329","items":[{"name":"은성축산","tel":"031-242-1131","addr":"경기도 수원시 팔달구 우만동 523-23번지 1층","category":"음료식품 - 정육점"}]},{"lat":"37.283043574","long":"127.03311362","items":[{"name":"이근재초밥참치","tel":"","addr":"경기도 수원시 팔달구 우만동 530-26번지 대복빌딩","category":"일반휴게음식 - 일식·회집"},{"name":"풍년식당","tel":"031-255-1948","addr":"경기도 수원시 팔달구 우만동 530-26번지 대복빌딩","category":"일반휴게음식 - 일반한식"}]},{"lat":"37.28834264","long":"127.02875152","items":[{"name":"이모네","tel":"031-224-7113","addr":"경기도 수원시 팔달구 우만동 476-16번지 1층","category":"일반휴게음식 - 일반한식"}]},{"lat":"37.281872393","long":"127.03250424","items":[{"name":"이바둠감자탕","tel":"031-215-1788","addr":"경기도 수원시 팔달구 우만동 553-7번지","category":"일반휴게음식 - 일반한식"}]},{"lat":"37.28584552","long":"127.03406198","items":[{"name":"이조먹거리","tel":"031-244-7433","addr":"경기도 수원시 팔달구 우만동 518-16번지 1층","category":"일반휴게음식 - 일반한식"}]},{"lat":"37.282043664","long":"127.03219986","items":[{"name":"이화어린이집[아이행복]","tel":"031-214-6455","addr":"경기도 수원시 팔달구 우만동 553-2번지","category":"학원 - 유아원"}]},{"lat":"37.285260098","long":"127.03311451","items":[{"name":"이화인테리어","tel":"031-246-5588","addr":"경기도 수원시 팔달구 우만동 516-8번지 1층","category":"직물 - 카페트,커튼,천막,지물"}]},{"lat":"37.289514411","long":"127.02666564","items":[{"name":"인천공항콜밴,VIP콜밴","tel":"031-307-5060","addr":"경기도 수원시 팔달구 우만동 593-6번지 2층","category":"여행 - 기타교통수단"}]},{"lat":"37.287856187","long":"127.028289","items":[{"name":"인포스","tel":"031-8015-5943","addr":"경기도 수원시 팔달구 우만동 475-26번지 대건빌라 A동 301호","category":"사무통신 - 통신기기"}]},{"lat":"37.283377794","long":"127.0296181","items":[{"name":"인피니다드(Infinidad)","tel":"031-225-3585","addr":"경기도 수원시 팔달구 우만동 509-7번지 1층","category":"사무통신 - 컴퓨터"}]},{"lat":"37.28656714","long":"127.03085967","items":[{"name":"일인자감자탕","tel":"031-252-9112","addr":"경기도 수원시 팔달구 우만동 495-24번지 2층","category":"일반휴게음식 - 일반한식"},{"name":"채심오리전문점","tel":"031-251-2422","addr":"경기도 수원시 팔달구 우만동 495-24번지","category":"일반휴게음식 - 일반한식"}]},{"lat":"37.287126151","long":"127.02922473","items":[{"name":"임팩트유통","tel":"031-242-4827","addr":"경기도 수원시 팔달구 우만동 486-9번지 205호","category":"의류 - 스포츠의류"}]},{"lat":"37.288901714","long":"127.02666544","items":[{"name":"자립원","tel":"","addr":"경기도 수원시 팔달구 우만동 471-28번지","category":"보건위생 - 의료용품"}]},{"lat":"37.288739211","long":"127.02819908","items":[{"name":"자매주막","tel":"000-000-0000","addr":"경기도 수원시 팔달구 우만동 476-1번지","category":"일반휴게음식 - 일반한식"}]},{"lat":"37.285620747","long":"127.03216741","items":[{"name":"자연이주는선물들","tel":"031-248-1718","addr":"경기도 수원시 팔달구 우만동 515-1번지 송죽교회 1층","category":"신변잡화 - 기타잡화"}]},{"lat":"37.287820095","long":"127.0285258","items":[{"name":"자연추어탕","tel":"031-252-0624","addr":"경기도 수원시 팔달구 우만동 475-22번지","category":"일반휴게음식 - 일반한식"}]},{"lat":"37.289261894","long":"127.027782","items":[{"name":"작은행복","tel":"02-111-1111","addr":"경기도 수원시 팔달구 우만동 471-3번지 1층","category":"의류 - 정장"},{"name":"제일지물","tel":"031-257-5800","addr":"경기도 수원시 팔달구 우만동 471-3번지","category":"직물 - 카페트,커튼,천막,지물"}]},{"lat":"37.289099955","long":"127.02658657","items":[{"name":"장진주방냉동","tel":"031-296-3313","addr":"경기도 수원시 팔달구 우만동 595-6번지","category":"신변잡화 - 기타잡화"}]},{"lat":"37.288738894","long":"127.02964255","items":[{"name":"정광사","tel":"031-257-6343","addr":"경기도 수원시 팔달구 우만동 478-8번지","category":"기타 - 비영리/대상"}]},{"lat":"37.28673838","long":"127.03066803","items":[{"name":"정든포차","tel":"031-111-1111","addr":"경기도 수원시 팔달구 우만동 495-21번지 1층","category":"일반휴게음식 - 일반한식"}]},{"lat":"37.289378723","long":"127.02919169","items":[{"name":"정성김밥","tel":"031-253-1190","addr":"경기도 수원시 팔달구 우만동 478번지 1층","category":"일반휴게음식 - 스넥"},{"name":"투다리","tel":"031-241-3363","addr":"경기도 수원시 팔달구 우만동 478번지 1층","category":"일반휴게음식 - 일반한식"}]},{"lat":"37.286793183","long":"127.02730756","items":[{"name":"정영호내과의원","tel":"031-258-0888","addr":"경기도 수원시 팔달구 우만동 489-17번지","category":"의원 - 의원"},{"name":"탱크아쿠아","tel":"031-1111-1111","addr":"경기도 수원시 팔달구 우만동 489-17번지 2층 좌측","category":"문화.취미 - 수족관"}]},{"lat":"37.280097494","long":"127.03200741","items":[{"name":"정원보신마을","tel":"031-214-0962","addr":"경기도 수원시 팔달구 우만동 559-6번지","category":"일반휴게음식 - 일반한식"}]},{"lat":"37.289009543","long":"127.0280864","items":[{"name":"제니스모바일","tel":"031-251-9993","addr":"경기도 수원시 팔달구 우만동 470-20번지 1층101","category":"사무통신 - 통신기기"}]},{"lat":"37.2795986","long":"127.04333934","items":[{"name":"제이드레싱","tel":"031-214-5027","addr":"경기도 수원시 팔달구 우만동 58-32번지 501호","category":"보건위생 - 미용원"},{"name":"팝스스터디카페","tel":"02-1644-4529","addr":"경기도 수원시 팔달구 우만동 58-32번지 301호","category":"용역 서비스 - 사무서비스"},{"name":"프린키피아알파학원","tel":"031-217-9464","addr":"경기도 수원시 팔달구 우만동 58-32번지 401호","category":"학원 - 보습학원"}]},{"lat":"37.290343032","long":"127.02822217","items":[{"name":"제이블 (J-Bliss)","tel":"02-3472-4568","addr":"경기도 수원시 팔달구 우만동 585번지 501호","category":"의류 - 스포츠의류"}]},{"lat":"37.283260661","long":"127.02961806","items":[{"name":"제이엔(JN)스튜디오","tel":"031-254-3993","addr":"경기도 수원시 팔달구 우만동 509-9번지 성화빌라트 304호","category":"용역 서비스 - 종합용역"}]},{"lat":"37.276517719","long":"127.04144345","items":[{"name":"제이하우스아주대점","tel":"070-7420-6611","addr":"경기도 수원시 팔달구 우만동 94-9번지 아리움 101호","category":"보건위생 - 미용원"}]},{"lat":"37.288153265","long":"127.02947319","items":[{"name":"제일상회","tel":"031-244-2797","addr":"경기도 수원시 팔달구 우만동 484-16번지","category":"의류 - 내의판매"}]},{"lat":"37.284404348","long":"127.03222332","items":[{"name":"제일수퍼","tel":"031-242-6359","addr":"경기도 수원시 팔달구 우만동 523번지","category":"유통업 영리 - 슈퍼마켓"}]},{"lat":"37.278679713","long":"127.04286528","items":[{"name":"제일찌게백반","tel":"031-215-6751","addr":"경기도 수원시 팔달구 우만동 61-2번지","category":"일반휴게음식 - 일반한식"}]},{"lat":"37.282737259","long":"127.03297818","items":[{"name":"조이애드","tel":"031-212-7479","addr":"경기도 수원시 팔달구 우만동 552-23번지","category":"용역 서비스 - 종합용역"},{"name":"피부미인화장품","tel":"031-248-5003","addr":"경기도 수원시 팔달구 우만동 552-23번지","category":"회원제형태 - 기타4"}]},{"lat":"37.280593296","long":"127.0310266","items":[{"name":"좋은날","tel":"031-211-8984","addr":"경기도 수원시 팔달구 우만동 558-10번지 1층 101호","category":"일반휴게음식 - 서양음식"}]},{"lat":"37.282764762","long":"127.03106124","items":[{"name":"주)한국복지라이프","tel":"031-251-1106","addr":"경기도 수원시 팔달구 우만동 527-21번지 센트럴하우스","category":"용역 서비스 - 가례서비스업"},{"name":"효심코리아","tel":"","addr":"경기도 수원시 팔달구 우만동 527-21번지 센트럴하우스 1층","category":"용역 서비스 - 가례서비스업"}]},{"lat":"37.289739344","long":"127.02822197","items":[{"name":"주먹밥아저씨","tel":"031-245-2601","addr":"경기도 수원시 팔달구 우만동 468-3번지 1층","category":"일반휴게음식 - 스넥"}]},{"lat":"37.28782051","long":"127.02652978","items":[{"name":"주식회사 귀뚜라미다올","tel":"031-202-8900","addr":"경기도 수원시 팔달구 우만동 473-2번지 201호","category":"전기제품 - 냉열기기"},{"name":"창룡엔지니어링","tel":"031-221-6600","addr":"경기도 수원시 팔달구 우만동 473-2번지 101호","category":"수리서비스 - 가정용품수리"}]},{"lat":"37.288152852","long":"127.03125496","items":[{"name":"주식회사 에이스푸드쓰리","tel":"02-323-9323","addr":"경기도 수원시 팔달구 우만동 482-28번지 비125,126호","category":"일반휴게음식 - 서양음식"}]},{"lat":"37.286234355","long":"127.02822079","items":[{"name":"주식회사맑은세상건축인테리어","tel":"031-246-7997","addr":"경기도 수원시 팔달구 우만동 488-14번지 1층","category":"건축자재 - 인테리어전문"}]},{"lat":"37.28662052","long":"127.03361123","items":[{"name":"주식회사이엠씽크","tel":"031-782-5177","addr":"경기도 수원시 팔달구 우만동 518번지 유경프라자 B동 1505호","category":"용역 서비스 - 소프트웨어"},{"name":"중부세무회계","tel":"031-243-3160","addr":"경기도 수원시 팔달구 우만동 518번지 유경빌딩 602호","category":"용역 서비스 - 법률회계서비스(개인)"},{"name":"카페그날","tel":"031-252-1777","addr":"경기도 수원시 팔달구 우만동 518번지 유경프라자 102호","category":"일반휴게음식 - 서양음식"},{"name":"편의점사랑","tel":"031-837-5400","addr":"경기도 수원시 팔달구 우만동 518번지 유경프라자 1층","category":"유통업 영리 - 편 의 점"}]},{"lat":"37.288738723","long":"127.03038684","items":[{"name":"준성가스프라자","tel":"031-247-3002","addr":"경기도 수원시 팔달구 우만동 482-17번지 1층 우측","category":"수리서비스 - 가정용품수리"},{"name":"청수마트","tel":"031-246-2576","addr":"경기도 수원시 팔달구 우만동 482-17번지 1층","category":"유통업 영리 - 슈퍼마켓"}]},{"lat":"37.289153743","long":"127.02791729","items":[{"name":"준포토","tel":"031-207-4880","addr":"경기도 수원시 팔달구 우만동 470번지","category":"광학제품 - 사진관"},{"name":"충남열쇠","tel":"031-247-1600","addr":"경기도 수원시 팔달구 우만동 470번지","category":"기타 - 기계공구"}]},{"lat":"37.289567574","long":"127.03078184","items":[{"name":"중앙일보 연무센타","tel":"031-215-4887","addr":"경기도 수원시 팔달구 우만동 480-40번지 지하 좌측","category":"서적문구 - 정기간행물"}]},{"lat":"37.282683241","long":"127.03280902","items":[{"name":"지양당한의원","tel":"031-211-1075","addr":"경기도 수원시 팔달구 우만동 552-1번지","category":"의원 - 한의원"}]},{"lat":"37.276571607","long":"127.04197341","items":[{"name":"지저스 베베","tel":"031-216-0616","addr":"경기도 수원시 팔달구 우만동 89-1번지 101호","category":"의류 - 정장"}]},{"lat":"37.283295601","long":"127.03411731","items":[{"name":"지코바치킨","tel":"031-253-9233","addr":"경기도 수원시 팔달구 우만동 531-4번지","category":"일반휴게음식 - 일반한식"}]},{"lat":"37.283710925","long":"127.03070075","items":[{"name":"진도정육점","tel":"031-252-1964","addr":"경기도 수원시 팔달구 우만동 511-22번지 101호","category":"음료식품 - 정육점"},{"name":"팡팡쁘띠모","tel":"031-252-7078","addr":"경기도 수원시 팔달구 우만동 511-22번지 1층102호,103호,2층","category":"학원 - 기타 교육기관"}]},{"lat":"37.283683151","long":"127.03370025","items":[{"name":"진떼베기","tel":"031-248-8282","addr":"경기도 수원시 팔달구 우만동 532-28번지 1층","category":"일반휴게음식 - 일반한식"}]},{"lat":"37.283071262","long":"127.0304186","items":[{"name":"진영","tel":"031-751-1577","addr":"경기도 수원시 팔달구 우만동 527-1번지","category":"문화.취미 - 화원"}]},{"lat":"37.278818099","long":"127.03174758","items":[{"name":"진품정육점","tel":"031-214-1975","addr":"경기도 수원시 팔달구 우만동 561-12번지","category":"음료식품 - 정육점"},{"name":"진품정육점&식당","tel":"031-214-1975","addr":"경기도 수원시 팔달구 우만동 561-12번지 1층 101호","category":"일반휴게음식 - 일반한식"}]},{"lat":"37.284178745","long":"127.03358768","items":[{"name":"짬뽕이조아","tel":"031-246-5656","addr":"경기도 수원시 팔달구 우만동 522-22번지 1층","category":"일반휴게음식 - 중국식"},{"name":"짬뽕이조아","tel":"031-246-5656","addr":"경기도 수원시 팔달구 우만동 522-22번지 1층","category":"일반휴게음식 - 중국식"}]},{"lat":"37.28381816","long":"127.03425284","items":[{"name":"찬주유통","tel":"031-241-1190","addr":"경기도 수원시 팔달구 우만동 532-15번지 1층 좌측호","category":"음료식품 - 농·축·수산품"}]},{"lat":"37.283485869","long":"127.02983239","items":[{"name":"참선진네이처","tel":"031-241-7245","addr":"경기도 수원시 팔달구 우만동 511-9번지 1층","category":"건강식품 - 기타건강식품"}]},{"lat":"37.289595657","long":"127.02588753","items":[{"name":"창룡마트","tel":"031-245-3536","addr":"경기도 수원시 팔달구 우만동 596-29번지","category":"유통업 영리 - 슈퍼마켓"}]},{"lat":"37.289820983","long":"127.02552673","items":[{"name":"창룡문 전자","tel":"031-246-6868","addr":"경기도 수원시 팔달구 우만동 598-16번지","category":"자동차정비 유지 - 자동차부품"}]},{"lat":"37.289261711","long":"127.02863906","items":[{"name":"창조오토바이","tel":"031-252-2991","addr":"경기도 수원시 팔달구 우만동 469-13번지 상가","category":"수리서비스 - 기타수리서비스"}]},{"lat":"37.288207462","long":"127.02886425","items":[{"name":"천냥하우스","tel":"031-242-7118","addr":"경기도 수원시 팔달구 우만동 476-18번지 1층","category":"신변잡화 - 기타잡화"}]},{"lat":"37.283765294","long":"127.02935888","items":[{"name":"천상장군아가시","tel":"","addr":"경기도 수원시 팔달구 우만동 509-1번지 현대빌라 2동 B01호","category":"보건위생 - 기타대인서비스"}]},{"lat":"37.288648315","long":"127.03167239","items":[{"name":"철원정비공업사","tel":"031-238-3566","addr":"경기도 수원시 팔달구 우만동 481-5번지","category":"자동차정비 유지 - 자동차정비"}]},{"lat":"37.288540306","long":"127.03119872","items":[{"name":"철판미소","tel":"","addr":"경기도 수원시 팔달구 우만동 481-25번지","category":"일반휴게음식 - 스넥"}]},{"lat":"37.286260991","long":"127.03000253","items":[{"name":"청명엔지니어링","tel":"031-255-7101","addr":"경기도 수원시 팔달구 우만동 493-19번지 해양빌딩 1층 104호","category":"기타 - 기타 전문점"},{"name":"푸른교육센타","tel":"031-268-1337","addr":"경기도 수원시 팔달구 우만동 493-19번지","category":"용역 서비스 - 부동산 중개·임대"}]},{"lat":"37.287874053","long":"127.02899945","items":[{"name":"초록어린이집[아이행복]","tel":"031-246-1264","addr":"경기도 수원시 팔달구 우만동 485-2번지","category":"학원 - 유아원"},{"name":"하늘어린이집[아이행복]","tel":"031-253-0503","addr":"경기도 수원시 팔달구 우만동 485-2번지 1층","category":"학원 - 유아원"}]},{"lat":"37.283657251","long":"127.028998","items":[{"name":"초원숯불갈비","tel":"031-254-1944","addr":"경기도 수원시 팔달구 우만동 509-14번지","category":"일반휴게음식 - 갈비전문점"}]},{"lat":"37.285153046","long":"127.02858128","items":[{"name":"친구비어못골점","tel":"031-255-3435","addr":"경기도 수원시 팔달구 우만동 490-10번지 1층","category":"일반휴게음식 - 주점"}]},{"lat":"37.285376767","long":"127.03488498","items":[{"name":"카카오토","tel":"031-248-0338","addr":"경기도 수원시 팔달구 우만동 519-19번지 1층","category":"자동차정비 유지 - 자동차정비"}]},{"lat":"37.286982104","long":"127.02869467","items":[{"name":"카페더녹스","tel":"031-256-8051","addr":"경기도 수원시 팔달구 우만동 488번지 1층","category":"일반휴게음식 - 스넥"}]},{"lat":"37.289648693","long":"127.0306691","items":[{"name":"카페오월","tel":"031-256-7067","addr":"경기도 수원시 팔달구 우만동 480번지 1 ,2층","category":"일반휴게음식 - 서양음식"}]},{"lat":"37.285989669","long":"127.03411842","items":[{"name":"카페우만","tel":"031-257-5677","addr":"경기도 수원시 팔달구 우만동 518-3번지 1층","category":"일반휴게음식 - 서양음식"}]},{"lat":"37.278490497","long":"127.04286518","items":[{"name":"커피볶는수","tel":"070-1111-1111","addr":"경기도 수원시 팔달구 우만동 62-1번지 1층","category":"일반휴게음식 - 서양음식"}]},{"lat":"37.276679793","long":"127.04178179","items":[{"name":"커피타유(Coffee TA.U)","tel":"031-733-4900","addr":"경기도 수원시 팔달구 우만동 94-2번지 101,102호","category":"일반휴게음식 - 서양음식"}]},{"lat":"37.283845482","long":"127.03313649","items":[{"name":"컷트라인","tel":"070-8967-2153","addr":"경기도 수원시 팔달구 우만동 523-42번지","category":"보건위생 - 미용원"}]},{"lat":"37.280710294","long":"127.03159044","items":[{"name":"코리안바베큐/동수원점","tel":"031-211-9254","addr":"경기도 수원시 팔달구 우만동 559-13번지 상가 1층 101호","category":"일반휴게음식 - 주점"}]},{"lat":"37.277012813","long":"127.04286439","items":[{"name":"코지 프로젝트","tel":"031-8003-1080","addr":"경기도 수원시 팔달구 우만동 74-9번지 101호","category":"일반휴게음식 - 서양음식"}]},{"lat":"37.287378866","long":"127.02722881","items":[{"name":"크리스탈샘물","tel":"031-241-1687","addr":"경기도 수원시 팔달구 우만동 473-20 현대쌍동이맨션 나 5/4","category":"유통업 영리 - 기타유통업"}]},{"lat":"37.285540346","long":"127.02922418","items":[{"name":"태성마라탕","tel":"031-242-9651","addr":"경기도 수원시 팔달구 우만동 491-40번지","category":"일반휴게음식 - 중국식"},{"name":"푸른수산","tel":"031-241-2895","addr":"경기도 수원시 팔달구 우만동 491-40번지","category":"일반휴게음식 - 일식·회집"}]},{"lat":"37.285350044","long":"127.03372348","items":[{"name":"태양생막창","tel":"031-214-5013","addr":"경기도 수원시 팔달구 우만동 520-10번지 1층","category":"일반휴게음식 - 일반한식"}]},{"lat":"37.28984695","long":"127.03053385","items":[{"name":"토탈카센타","tel":"031-252-8886","addr":"경기도 수원시 팔달구 우만동 479-13번지","category":"자동차정비 유지 - 자동차정비"}]},{"lat":"37.28599033","long":"127.03150223","items":[{"name":"통큰돼지","tel":"031-245-7555","addr":"경기도 수원시 팔달구 우만동 502-8번지 1층","category":"일반휴게음식 - 일반한식"}]},{"lat":"37.277617826","long":"127.03872662","items":[{"name":"투비","tel":"031-215-2174","addr":"경기도 수원시 팔달구 우만동 136-16번지 신세계빌라 A동 101호","category":"회원제형태 - 기타4"}]},{"lat":"37.27978877","long":"127.04044157","items":[{"name":"틈","tel":"","addr":"경기도 수원시 팔달구 우만동 39-5번지 101호","category":"문화.취미 - 민예·공예품"}]},{"lat":"37.279429707","long":"127.03591983","items":[{"name":"팔달초등학교","tel":"031-217-3972","addr":"경기도 수원시 팔달구 우만동 601번지 팔달초등학교","category":"학원 - 초중고교육기관"}]},{"lat":"37.288955911","long":"127.02597756","items":[{"name":"팽현숙의 옛날순대국","tel":"031-256-5292","addr":"경기도 수원시 팔달구 우만동 472-7번지","category":"일반휴게음식 - 일반한식"}]},{"lat":"37.284791172","long":"127.0346141","items":[{"name":"퍼센트","tel":"031-1111-1111","addr":"경기도 수원시 팔달구 우만동 520-5번지","category":"일반휴게음식 - 서양음식"}]},{"lat":"37.275904606","long":"127.04269468","items":[{"name":"평창옛장터","tel":"031-211-6152","addr":"경기도 수원시 팔달구 우만동 89-13번지 골든파크 101호","category":"일반휴게음식 - 일반한식"}]},{"lat":"37.281899993","long":"127.03013628","items":[{"name":"포레스트힐 스튜디오","tel":"070-5031-0327","addr":"경기도 수원시 팔달구 우만동 549번지 2층","category":"광학제품 - 사진관"}]},{"lat":"37.287458679","long":"127.03281091","items":[{"name":"포토픽스수원점","tel":"031-243-3996","addr":"경기도 수원시 팔달구 우만동 499번지","category":"광학제품 - 사진관"},{"name":"황해연평도간장게장","tel":"031-255-2255","addr":"경기도 수원시 팔달구 우만동 499번지","category":"일반휴게음식 - 일반한식"}]},{"lat":"37.284927757","long":"127.0287278","items":[{"name":"푸딩김밥","tel":"031-254-2567","addr":"경기도 수원시 팔달구 우만동 508번지 1층","category":"일반휴게음식 - 일반한식"}]},{"lat":"37.289262319","long":"127.02567316","items":[{"name":"프리마웨딩","tel":"031-241-3003","addr":"경기도 수원시 팔달구 우만동 598-23번지","category":"회원제형태 - 기타4"}]},{"lat":"37.283791248","long":"127.03380178","items":[{"name":"프리저브드플라워 그니보니따","tel":"031-000-0000","addr":"경기도 수원시 팔달구 우만동 532-23번지 1층","category":"문화.취미 - 문화취미기타"}]},{"lat":"37.279185681","long":"127.03850185","items":[{"name":"피앤씨 이앤지","tel":"031-1111-1111","addr":"경기도 수원시 팔달구 우만동 120-5번지 소망빌라 A동 201호","category":"건축자재 - 인테리어전문"}]},{"lat":"37.28268355","long":"127.03155736","items":[{"name":"피앤씨종합상사","tel":"031-246-5237","addr":"경기도 수원시 팔달구 우만동 529-8번지","category":"신변잡화 - 기타잡화"}]},{"lat":"37.289622247","long":"127.02805277","items":[{"name":"필라테스 다나","tel":"","addr":"경기도 수원시 팔달구 우만동 468-2번지 다인캐슬 101동 1층 102호","category":"레저업소 - 헬스클럽"}]},{"lat":"37.283629157","long":"127.03344087","items":[{"name":"핑크레이디","tel":"031-247-9097","addr":"경기도 수원시 팔달구 우만동 523-27번지","category":"의류 - 정장"}]},{"lat":"37.284684001","long":"127.03083642","items":[{"name":"하나건축설비","tel":"031-8002-4544","addr":"경기도 수원시 팔달구 우만동 512-2번지","category":"건축자재 - 인테리어전문"}]},{"lat":"37.288234078","long":"127.03069113","items":[{"name":"하나인테리어","tel":"031-253-3753","addr":"경기도 수원시 팔달구 우만동 482-22번지","category":"건축자재 - 인테리어전문"}]},{"lat":"37.288982783","long":"127.02677824","items":[{"name":"한결인테리어","tel":"031-247-7782","addr":"경기도 수원시 팔달구 우만동 471-27번지","category":"건축자재 - 인테리어전문"}]},{"lat":"37.282809634","long":"127.03180548","items":[{"name":"한나미용실","tel":"031-892-7960","addr":"경기도 수원시 팔달구 우만동 529-18우성하이츠빌라A동1층","category":"보건위생 - 미용원"}]},{"lat":"37.288711541","long":"127.03102962","items":[{"name":"한방베스","tel":"031-245-4140","addr":"경기도 수원시 팔달구 우만동 481-27번지","category":"보건위생 - 미용재료"}]},{"lat":"37.284404442","long":"127.03183992","items":[{"name":"한식부페","tel":"031-248-1123","addr":"경기도 수원시 팔달구 우만동 513-6번지 1층","category":"일반휴게음식 - 일반한식"}]},{"lat":"37.278427464","long":"127.04275239","items":[{"name":"한식이야기","tel":"031-215-3339","addr":"경기도 수원시 팔달구 우만동 62번지","category":"일반휴게음식 - 일반한식"}]},{"lat":"37.28698171","long":"127.03044258","items":[{"name":"해경한의원","tel":"031-245-4413","addr":"경기도 수원시 팔달구 우만동 495-18번지","category":"의원 - 한의원"}]},{"lat":"37.289261234","long":"127.0307479","items":[{"name":"해담철물","tel":"031-306-9777","addr":"경기도 수원시 팔달구 우만동 480-31번지","category":"건축자재 - 목재·석재·철물"}]},{"lat":"37.287927734","long":"127.03066847","items":[{"name":"행복나라","tel":"031-247-1882","addr":"경기도 수원시 팔달구 우만동 483-6번지","category":"음료식품 - 기타음료식품"}]},{"lat":"37.278636708","long":"127.03625775","items":[{"name":"행복나무어린이집[아이행복]","tel":"031-271-5293","addr":"경기도 수원시 팔달구 우만동 606번지 동수원신도브래뉴 101동 101호","category":"학원 - 유아원"}]},{"lat":"37.289342998","long":"127.02772564","items":[{"name":"행복한 DC아울렛","tel":"031-254-7339","addr":"경기도 수원시 팔달구 우만동 471-2번지 1층","category":"신변잡화 - 기타잡화"}]},{"lat":"37.285259633","long":"127.03488493","items":[{"name":"허니달","tel":"031-247-3338","addr":"경기도 수원시 팔달구 우만동 519-2번지","category":"일반휴게음식 - 서양음식"}]},{"lat":"37.278429172","long":"127.03730629","items":[{"name":"헤븐헤어","tel":"031-213-0055","addr":"경기도 수원시 팔달구 우만동 135-66번지 1층","category":"보건위생 - 미용원"}]},{"lat":"37.276598856","long":"127.04130818","items":[{"name":"헤어랑","tel":"031-217-9104","addr":"경기도 수원시 팔달구 우만동 94-4번지 1충 101호","category":"보건위생 - 미용원"}]},{"lat":"37.284512429","long":"127.03239251","items":[{"name":"헤어카페","tel":"031-245-2242","addr":"경기도 수원시 팔달구 우만동 523-1번지","category":"보건위생 - 미용원"}]},{"lat":"37.278519069","long":"127.03800541","items":[{"name":"헤펠레DIY목공방","tel":"031-890-0901","addr":"경기도 수원시 팔달구 우만동 134-5번지","category":"건축자재 - 인테리어전문"}]},{"lat":"37.289955806","long":"127.02719581","items":[{"name":"현대마린","tel":"031-251-5764","addr":"경기도 수원시 팔달구 우만동 587-16번지","category":"전기제품 - 냉열기기"}]},{"lat":"37.2814583","long":"127.03094799","items":[{"name":"현대살수","tel":"031-241-8143","addr":"경기도 수원시 팔달구 우만동 556-4번지 102호","category":"용역 서비스 - 기타용역서비스"}]},{"lat":"37.281041978","long":"127.03789383","items":[{"name":"현대슈퍼","tel":"031-212-9615","addr":"경기도 수원시 팔달구 우만동 129-1번지 현대상가 101호","category":"유통업 영리 - 슈퍼마켓"}]},{"lat":"37.284403902","long":"127.03397118","items":[{"name":"현인테리어","tel":"031-241-5721","addr":"경기도 수원시 팔달구 우만동 521-14번지","category":"건축자재 - 인테리어전문"}]},{"lat":"37.281404098","long":"127.03153432","items":[{"name":"형제쌀상회","tel":"031-212-8639","addr":"경기도 수원시 팔달구 우만동 555-3번지","category":"음료식품 - 미곡상"}]},{"lat":"37.286017198","long":"127.03216757","items":[{"name":"호우공방","tel":"","addr":"경기도 수원시 팔달구 우만동 501-12번지 1층","category":"문화.취미 - 민예·공예품"}]},{"lat":"37.286566508","long":"127.0334195","items":[{"name":"홍화루","tel":"031-241-6001","addr":"경기도 수원시 팔달구 우만동 518-12번지 1층","category":"일반휴게음식 - 중국식"}]},{"lat":"37.281124755","long":"127.0316357","items":[{"name":"황금돼지","tel":"031-207-3302","addr":"경기도 수원시 팔달구 우만동 555-5번지 1층","category":"일반휴게음식 - 일반한식"}]},{"lat":"37.289676834","long":"127.02544774","items":[{"name":"황토우드","tel":"031-245-1669","addr":"경기도 수원시 팔달구 우만동 598-17번지","category":"주방용구 - 주방용구"}]},{"lat":"37.28301479","long":"127.0393381","items":[{"name":"효성초등학교","tel":"070-7730-2920","addr":"경기도 수원시 팔달구 우만동 16번지 효성초등학교","category":"학원 - 초중고교육기관"}]},{"lat":"37.284097676","long":"127.03349744","items":[{"name":"효원사진관","tel":"031-245-9126","addr":"경기도 수원시 팔달구 우만동 522-25번지","category":"광학제품 - 사진관"}]},{"lat":"37.286819491","long":"127.03058912","items":[{"name":"흥숙이묵은지김치찜","tel":"031-258-8887","addr":"경기도 수원시 팔달구 우만동 495-20번지","category":"일반휴게음식 - 일반한식"}]},{"lat":"37.293512934","long":"127.03522676","items":[{"name":"희망가스/삼원(담배)","tel":"031-251-0707","addr":"경기도 수원시 팔달구 우만동 241-3","category":"기타 - 기타 전문점"}]}]