[{"lat":"38.07642379","long":"127.22137329","items":[{"name":"묵이랑국수랑","tel":"","addr":"경기도 포천시 영북면 대회산리 446번지 1층","category":"일반휴게음식 - 일반한식"},{"name":"비둘기낭편의점","tel":"031-535-6023","addr":"경기도 포천시 영북면 대회산리 446번지","category":"음료식품 - 기타음료식품"}]},{"lat":"38.079702394","long":"127.21684685","items":[{"name":"비둘기낭 매점","tel":"031-536-7196","addr":"경기도 포천시 영북면 대회산리 415-2","category":"음료식품 - 기타음료식품"}]},{"lat":"38.070167723","long":"127.22815809","items":[{"name":"비둘기낭 황토펜션","tel":"031-536-7195","addr":"경기도 포천시 영북면 대회산리 271번지","category":"숙박업 - 여관/기타숙박업"}]},{"lat":"38.075393747","long":"127.22298858","items":[{"name":"비둘기낭가든","tel":"031-535-7740","addr":"경기도 포천시 영북면 대회산리 457","category":"일반휴게음식 - 일반한식"}]},{"lat":"38.067528739","long":"127.23703855","items":[{"name":"비둘기낭협동조합","tel":"031-531-1030","addr":"경기도 포천시 영북면 대회산리 128번지","category":"음료식품 - 기타음료식품"}]},{"lat":"38.084364785","long":"127.21918567","items":[{"name":"엄지척푸드","tel":"","addr":"경기도 포천시 영북면 대회산리 376번지","category":"일반휴게음식 - 스넥"},{"name":"엄지척푸드","tel":"","addr":"경기도 포천시 영북면 대회산리 376","category":"음식 - 분식"},{"name":"은골상회","tel":"","addr":"경기도 포천시 영북면 대회산리 376","category":"음식 - 식품접객업"},{"name":"은골상회","tel":"031-532-6972","addr":"경기도 포천시 영북면 대회산리 376","category":"일반휴게음식 - 일반한식"},{"name":"하늘다리상회","tel":"","addr":"경기도 포천시 영북면 대회산리 376","category":"음식 - 분식"},{"name":"하늘다리상회","tel":"033-535-8780","addr":"경기도 포천시 영북면 대회산리 376번지","category":"일반휴게음식 - 서양음식"},{"name":"하늘다리커피","tel":"031-532-6972","addr":"경기도 포천시 영북면 대회산리 376번지","category":"일반휴게음식 - 서양음식"},{"name":"하늘다리커피","tel":"","addr":"경기도 포천시 영북면 대회산리 376","category":"음식 - 커피"},{"name":"하늘카페","tel":"031-536-0567","addr":"경기도 포천시 영북면 대회산리 376번지","category":"일반휴게음식 - 서양음식"},{"name":"하늘카페","tel":"","addr":"경기도 포천시 영북면 대회산리 376","category":"음식 - 푸드트럭"},{"name":"하늘포차","tel":"031-532-6972","addr":"경기도 포천시 영북면 대회산리 376번지","category":"일반휴게음식 - 일반한식"},{"name":"하늘포차","tel":"","addr":"경기도 포천시 영북면 대회산리 376","category":"음식 - 푸드트럭"},{"name":"해설사의 집","tel":"031-532-6973","addr":"경기도 포천시 영북면 대회산리 376번지","category":"일반휴게음식 - 일반한식"},{"name":"해설사의집","tel":"","addr":"경기도 포천시 영북면 대회산리 376","category":"음식 - 휴게음식점"}]}]