[{"lat":"37.087491514","long":"127.37366854","items":[{"name":"(주)신아폐차산업","tel":"031-677-4981","addr":"경기도 안성시 삼죽면 덕산리 546-1","category":"신변잡화 - 기타잡화"}]},{"lat":"37.084822643","long":"127.37994248","items":[{"name":"농업회사법인(주)헬스머시","tel":"031-674-9954","addr":"경기도 안성시 삼죽면 덕산리 170-4번지","category":"음료식품 - 농·축·수산품"}]},{"lat":"37.075431006","long":"127.37508296","items":[{"name":"농업회사법인주식회사초원축산","tel":"031-671-5529","addr":"경기도 안성시 삼죽면 덕산리 254번지","category":"음료식품 - 정육점"}]},{"lat":"37.076431689","long":"127.37491917","items":[{"name":"달뜨면","tel":"031-675-5911","addr":"경기도 안성시 삼죽면 덕산리 262-2번지 1층","category":"일반휴게음식 - 일반한식"},{"name":"삼죽식당","tel":"031-671-1326","addr":"경기도 안성시 삼죽면 덕산리 262-2번지","category":"일반휴게음식 - 일반한식"}]},{"lat":"37.085961909","long":"127.38153394","items":[{"name":"담홍공간 서각놀이터","tel":"02-1111-1111","addr":"경기도 안성시 삼죽면 덕산리 155-2번지","category":"문화.취미 - 민예·공예품"}]},{"lat":"37.088267706","long":"127.37325617","items":[{"name":"대광축산","tel":"031-674-9354","addr":"경기도 안성시 삼죽면 덕산리 560번지","category":"음료식품 - 농·축·수산품"}]},{"lat":"37.075016069","long":"127.37522712","items":[{"name":"대박소주방","tel":"031-677-9141","addr":"경기도 안성시 삼죽면 덕산리 256번지 경기도안성시삼죽면삼죽초교 1층","category":"일반휴게음식 - 일반한식"}]},{"lat":"37.075908627","long":"127.3750628","items":[{"name":"미소플라워","tel":"031-673-2133","addr":"경기도 안성시 삼죽면 덕산리 261-4번지","category":"문화.취미 - 화원"},{"name":"삼죽식자재 마트","tel":"031-671-1123","addr":"경기도 안성시 삼죽면 덕산리 261-4번지","category":"유통업 영리 - 슈퍼마켓"},{"name":"준푸드","tel":"031-632-5000","addr":"경기도 안성시 삼죽면 덕산리 261-4번지","category":"음료식품 - 기타음료식품"},{"name":"준푸드 (삼죽식자재마트)","tel":"031-671-1123","addr":"경기도 안성시 삼죽면 덕산리 261-4번지","category":"유통업 영리 - 슈퍼마켓"}]},{"lat":"37.074513857","long":"127.37158121","items":[{"name":"삼강정미소","tel":"031-672-4073","addr":"경기도 안성시 삼죽면 덕산리 851번지","category":"음료식품 - 미곡상"}]},{"lat":"37.075902683","long":"127.37408442","items":[{"name":"삼죽초등학교","tel":"031-672-6060","addr":"경기도 안성시 삼죽면 덕산리 263번지 삼죽초등학교","category":"학원 - 초중고교육기관"},{"name":"삼죽초등학교병설유치원[아이행복]","tel":"031-672-6060","addr":"경기도 안성시 삼죽면 덕산리 263번지","category":"학원 - 유치원"}]},{"lat":"37.076213003","long":"127.37569404","items":[{"name":"수현피아노","tel":"031-673-1835","addr":"경기도 안성시 삼죽면 덕산리 246-5번지","category":"학원 - 예·체능계학원"}]},{"lat":"37.076215439","long":"127.37491811","items":[{"name":"썬호프치킨","tel":"031-671-0406","addr":"경기도 안성시 삼죽면 덕산리 261번지","category":"일반휴게음식 - 스넥"},{"name":"이모네해장국","tel":"031-675-5911","addr":"경기도 안성시 삼죽면 덕산리 261번지","category":"일반휴게음식 - 일반한식"},{"name":"이모네해장국","tel":"031-676-7933","addr":"경기도 안성시 삼죽면 덕산리 261번지","category":"일반휴게음식 - 일반한식"},{"name":"해뜨는식당","tel":"031-676-7552","addr":"경기도 안성시 삼죽면 덕산리 261번지 1층 X 1-X2호","category":"일반휴게음식 - 일반한식"}]},{"lat":"37.07676472","long":"127.37503325","items":[{"name":"쎄븐컴퓨터","tel":"031-672-6577","addr":"경기도 안성시 삼죽면 덕산리 250-1번지","category":"사무통신 - 컴퓨터"}]},{"lat":"37.086492047","long":"127.38199771","items":[{"name":"아리랑전자(음향)","tel":"031-673-3296","addr":"경기도 안성시 삼죽면 덕산리 154번지","category":"전기제품 - 기타전기제품"}]},{"lat":"37.086962634","long":"127.38135897","items":[{"name":"안성풍산개마을 영농조합법인","tel":"031-671-0141","addr":"경기도 안성시 삼죽면 덕산리 145-1","category":"레저업소 - 기타레져업소"}]},{"lat":"37.087187247","long":"127.38156253","items":[{"name":"안성풍산개체험교육장","tel":"031-111-1111","addr":"경기도 안성시 삼죽면 덕산리 145-3번지","category":"학원 - 기타 교육기관"}]},{"lat":"37.074794474","long":"127.37405653","items":[{"name":"애반가","tel":"031-674-7766","addr":"경기도 안성시 삼죽면 덕산리 816번지 1층","category":"일반휴게음식 - 일반한식"}]},{"lat":"37.088206599","long":"127.37836213","items":[{"name":"이솔가든","tel":"031-672-4348","addr":"경기도 안성시 삼죽면 덕산리 산11번지","category":"일반휴게음식 - 일반한식"}]},{"lat":"37.077682156","long":"127.37555504","items":[{"name":"통큰소머리국밥","tel":"031-671-2893","addr":"경기도 안성시 삼죽면 덕산리 237-3번지 1층","category":"일반휴게음식 - 일반한식"}]},{"lat":"37.079157702","long":"127.37624826","items":[{"name":"형제공업사","tel":"031-677-4483","addr":"경기도 안성시 삼죽면 덕산리 229-3번지","category":"수리서비스 - 기타수리서비스"}]}]