[{"lat":"37.042823467","long":"127.36286259","items":[{"name":"(주) 이지","tel":"031-672-2111","addr":"경기도 안성시 삼죽면 미장리 309번지","category":"건축자재 - 기타건축자재"}]},{"lat":"37.03666151","long":"127.37125201","items":[{"name":"내혜홀협업체안성맞춤한우촌","tel":"031-673-5550","addr":"경기도 안성시 삼죽면 미장리 82번지","category":"일반휴게음식 - 일반한식"},{"name":"안성맞춤한우촌","tel":"031-673-5550","addr":"경기도 안성시 삼죽면 미장리 82","category":"음료식품 - 정육점"}]},{"lat":"37.035801591","long":"127.35472574","items":[{"name":"빅트리모텔","tel":"031-674-4964","addr":"경기도 안성시 삼죽면 미장리 424-1번지 1층","category":"숙박업 - 여관/기타숙박업"}]},{"lat":"37.038966911","long":"127.35988827","items":[{"name":"스마트 마린","tel":"031-674-2174","addr":"경기도 안성시 삼죽면 미장리 359-1번지 B동 1층","category":"레져용품 - 스포츠·레져용품"}]},{"lat":"37.039854357","long":"127.35841996","items":[{"name":"신정중고판넬","tel":"031-673-9518","addr":"경기도 안성시 삼죽면 미장리 349-2번지","category":"건축자재 - 기타건축자재"}]},{"lat":"37.034048141","long":"127.35350381","items":[{"name":"씨제이대한통운(주)동안성주유소","tel":"041-551-3033","addr":"경기도 안성시 삼죽면 미장리 398번지","category":"연료판매점 - 쌍용S-OIL"},{"name":"주식회사두한","tel":"031-676-2815","addr":"경기도 안성시 삼죽면 미장리 398번지","category":"연료판매점 - 쌍용S-OIL"}]},{"lat":"37.039938344","long":"127.3574537","items":[{"name":"안성잔치국수","tel":"031-671-3439","addr":"경기도 안성시 삼죽면 미장리 457-2번지","category":"일반휴게음식 - 일반한식"},{"name":"안성잔치국수","tel":"031-671-3433","addr":"경기도 안성시 삼죽면 미장리 457-2","category":"일반휴게음식 - 일반한식"}]},{"lat":"37.039408303","long":"127.35692296","items":[{"name":"안성행복주유소","tel":"031-671-5158","addr":"경기도 안성시 삼죽면 미장리 457-4번지","category":"연료판매점 - 현대정유(오일뱅크)"}]},{"lat":"37.041684242","long":"127.36117116","items":[{"name":"정우중공업(주)안성공장","tel":"031-677-9535","addr":"경기도 안성시 삼죽면 미장리 336번지","category":"자동차판매 - 기타운송"}]},{"lat":"37.040048985","long":"127.35661121","items":[{"name":"호동이네","tel":"031-672-4000","addr":"경기도 안성시 삼죽면 미장리 460-4번지 1층","category":"일반휴게음식 - 일반한식"},{"name":"호동이네농원","tel":"031-672-4000","addr":"경기도 안성시 삼죽면 미장리 460-4번지","category":"음료식품 - 농·축·수산품"}]}]