[{"lat":"37.394079974","long":"126.95697645","items":[{"name":"공무원연금안양지구매점","tel":"031-388-4762","addr":"경기도 안양시 동안구 부림동","category":"유통업 비영리 - 공무원 연금 매점"}]},{"lat":"37.396945099","long":"126.95676013","items":[{"name":"그린나라어린이집[아이행복]","tel":"031-381-7779","addr":"경기도 안양시 동안구 부림동","category":"학원 - 유아원"},{"name":"석수종합보수","tel":"031-381-1833","addr":"경기도 안양시 동안구 부림동","category":"수리서비스 - 가정용품수리"},{"name":"주은혜한복","tel":"031-381-9453","addr":"경기도 안양시 동안구 부림동","category":"의류 - 맞춤복점"},{"name":"화장품","tel":"031-381-3420","addr":"경기도 안양시 동안구 부림동","category":"보건위생 - 화장품"}]},{"lat":"37.394892339","long":"126.96089462","items":[{"name":"그린텔 주식회사","tel":"070-4229-8150","addr":"경기도 안양시 동안구 부림동","category":"광학제품 - 기타광학제품"}]},{"lat":"37.399169092","long":"126.95306575","items":[{"name":"김명희헤어리더","tel":"031-383-5757","addr":"경기도 안양시 동안구 부림동","category":"보건위생 - 미용원"}]},{"lat":"37.396250512","long":"126.95472778","items":[{"name":"꿈예랑어린이집[아이행복]","tel":"031-381-1117","addr":"경기도 안양시 동안구 부림동","category":"학원 - 유아원"},{"name":"세경종합인테리어","tel":"031-388-4564","addr":"경기도 안양시 동안구 부림동","category":"건축자재 - 인테리어전문"}]},{"lat":"37.393775428","long":"126.96186643","items":[{"name":"부산돌곱창","tel":"031-387-6615","addr":"경기도 안양시 동안구 부림동","category":"일반휴게음식 - 일반한식"}]},{"lat":"37.392919587","long":"126.96220567","items":[{"name":"신성원","tel":"031-387-8866","addr":"경기도 안양시 동안구 부림동","category":"일반휴게음식 - 중국식"}]},{"lat":"37.394055599","long":"126.96441846","items":[{"name":"피씨뱅크","tel":"0031-0384-0119","addr":"경기도 안양시 동안구 부림동","category":"별도관리 - 자체물품대금"}]}]