[{"lat":"37.392440501","long":"126.92361904","items":[{"name":"T앤L","tel":"031-454-5376","addr":"경기도 안양시 만안구 냉천로","category":"회원제형태 - 서적"}]},{"lat":"37.384225957","long":"126.92770388","items":[{"name":"개와 고양이의 시간","tel":"031-445-6400","addr":"경기도 안양시 만안구 냉천로","category":"일반휴게음식 - 서양음식"}]},{"lat":"37.397528396","long":"126.91953677","items":[{"name":"나눔협동조합","tel":"031-1566-8813","addr":"경기도 안양시 만안구 냉천로","category":"신변잡화 - 기타잡화"},{"name":"모니카수선","tel":"031-471-8464","addr":"경기도 안양시 만안구 냉천로","category":"수리서비스 - 세탁소"},{"name":"사단법인예봉국악단","tel":"031-469-8162","addr":"경기도 안양시 만안구 냉천로","category":"학원 - 예·체능계학원"}]},{"lat":"37.394970652","long":"126.92114321","items":[{"name":"농협쌀직판장","tel":"031-449-9960","addr":"경기도 안양시 만안구 냉천로","category":"음료식품 - 미곡상"}]},{"lat":"37.396717584","long":"126.91967319","items":[{"name":"대양민물장어","tel":"031-443-9792","addr":"경기도 안양시 만안구 냉천로","category":"일반휴게음식 - 일반한식"}]},{"lat":"37.397383899","long":"126.91906261","items":[{"name":"대전집","tel":"031-449-0688","addr":"경기도 안양시 만안구 냉천로","category":"일반휴게음식 - 일반한식"}]},{"lat":"37.3964114","long":"126.91989939","items":[{"name":"덕산건어물","tel":"031-447-5752","addr":"경기도 안양시 만안구 냉천로","category":"음료식품 - 농·축·수산품"}]},{"lat":"37.38594641","long":"126.92695692","items":[{"name":"로빈스","tel":"031-447-2867","addr":"경기도 안양시 만안구 냉천로","category":"음료식품 - 기타음료식품"}]},{"lat":"37.395222762","long":"126.92089449","items":[{"name":"명정","tel":"070-8202-2062","addr":"경기도 안양시 만안구 냉천로","category":"일반휴게음식 - 서양음식"},{"name":"모아","tel":"031-466-0285","addr":"경기도 안양시 만안구 냉천로","category":"의류 - 정장"}]},{"lat":"37.382109941","long":"126.92987388","items":[{"name":"봉구스밥버거","tel":"031-466-9203","addr":"경기도 안양시 만안구 냉천로","category":"일반휴게음식 - 스넥"},{"name":"이디야커피성결대점","tel":"031-465-2621","addr":"경기도 안양시 만안구 냉천로","category":"일반휴게음식 - 서양음식"}]},{"lat":"37.382470086","long":"126.92945576","items":[{"name":"블랙빈","tel":"070-8631-3403","addr":"경기도 안양시 만안구 냉천로","category":"일반휴게음식 - 서양음식"}]},{"lat":"37.398167366","long":"126.91848577","items":[{"name":"숙이네양념고기","tel":"031-447-3003","addr":"경기도 안양시 만안구 냉천로","category":"일반휴게음식 - 일반한식"}]},{"lat":"37.395636975","long":"126.92053266","items":[{"name":"신일항아리","tel":"031-447-1048","addr":"경기도 안양시 만안구 냉천로","category":"문화.취미 - 민예·공예품"}]},{"lat":"37.393529844","long":"126.92231923","items":[{"name":"안양꽃직판매장","tel":"031-449-9942","addr":"경기도 안양시 만안구 냉천로","category":"문화.취미 - 화원"}]},{"lat":"37.38474824","long":"126.92722912","items":[{"name":"안양시수리장애인종합복지관","tel":"031-465-0950","addr":"경기도 안양시 만안구 냉천로","category":"기타 - 기타 전문점"}]},{"lat":"37.394718525","long":"126.92136935","items":[{"name":"육교오토바이","tel":"031-468-6093","addr":"경기도 안양시 만안구 냉천로","category":"자동차판매 - 이륜차판매"}]},{"lat":"37.38689247","long":"126.92695596","items":[{"name":"주식회사대한텔레메틱스협회","tel":"031-441-0998","addr":"경기도 안양시 만안구 냉천로","category":"자동차정비 유지 - 자동차부품"}]},{"lat":"37.395051922","long":"126.92140286","items":[{"name":"진주노래연습장","tel":"031-445-6888","addr":"경기도 안양시 만안구 냉천로","category":"레저업소 - 노 래 방"}]},{"lat":"37.385081916","long":"126.92770303","items":[{"name":"한주헌의드럼퍼즐음악교습소","tel":"031-466-9804","addr":"경기도 안양시 만안구 냉천로","category":"학원 - 예·체능계학원"}]},{"lat":"37.394412601","long":"126.92197949","items":[{"name":"황공방(Hwang공방)","tel":"031-466-0262","addr":"경기도 안양시 만안구 냉천로","category":"가구 - 기타가구"}]}]