[{"lat":"37.505517922","long":"127.43998683","items":[{"name":"(주)블랙스톤리조트 양평지점 더 힐 하우스","tel":"031-771-0001","addr":"경기도 양평군 강하면 전수리 17-3번지","category":"숙박업 - 여관/기타숙박업"},{"name":"녹우조경","tel":"031-771-2767","addr":"경기도 양평군 강하면 전수리 17-3번지","category":"문화.취미 - 화원"}]},{"lat":"37.502075516","long":"127.42023251","items":[{"name":"(주)알파칸코리아","tel":"1877-5259-0000","addr":"경기도 양평군 강하면 전수리 563-15번지","category":"건축자재 - 기타건축자재"},{"name":"주식회사 에이엠코리아","tel":"031-771-6903","addr":"경기도 양평군 강하면 전수리 563-15번지 2층","category":"가구 - 일반가구"}]},{"lat":"37.497213315","long":"127.41934602","items":[{"name":"(주)엠아이씨","tel":"031-770-7108","addr":"경기도 양평군 강하면 전수리 1016-6번지 다나암요양병원","category":"음료식품 - 기타음료식품"},{"name":"다나암요양병원","tel":"031-770-7000","addr":"경기도 양평군 강하면 전수리 1016-6번지","category":"병원 - 병원"}]},{"lat":"37.501832007","long":"127.42284353","items":[{"name":"9 (호텔나인)","tel":"031-774-7800","addr":"경기도 양평군 강하면 전수리 553-13번지","category":"숙박업 - 여관/기타숙박업"}]},{"lat":"37.503575448","long":"127.42661928","items":[{"name":"cafe퐁네프","tel":"000-000-0000","addr":"경기도 양평군 강하면 전수리 527-2번지 2층","category":"일반휴게음식 - 일반한식"}]},{"lat":"37.500185796","long":"127.41956608","items":[{"name":"가든하다","tel":"031-774-2203","addr":"경기도 양평군 강하면 전수리 566-4번지","category":"일반휴게음식 - 일반한식"},{"name":"불름노래연습장","tel":"031-773-4599","addr":"경기도 양평군 강하면 전수리 566-4번지","category":"레저업소 - 노 래 방"},{"name":"비어비스타","tel":"031-773-4599","addr":"경기도 양평군 강하면 전수리 566-4번지","category":"일반휴게음식 - 주점"}]},{"lat":"37.505967576","long":"127.43531858","items":[{"name":"강가에쉼터","tel":"","addr":"경기도 양평군 강하면 전수리 470-7번지","category":"유통업 영리 - 편 의 점"}]},{"lat":"37.50538691","long":"127.4314813","items":[{"name":"강촌","tel":"031-772-9059","addr":"경기도 양평군 강하면 전수리 481-2번지","category":"일반휴게음식 - 일반한식"},{"name":"강촌매운탕","tel":"031-772-9059","addr":"경기도 양평군 강하면 전수리 481-2번지","category":"일반휴게음식 - 일반한식"}]},{"lat":"37.503492877","long":"127.42451529","items":[{"name":"거북선해물찜/유한회사 늘솜","tel":"031-772-5481","addr":"경기도 양평군 강하면 전수리 548-1번지","category":"일반휴게음식 - 일반한식"},{"name":"거북선해물찜/유한회사 늘솜2호점","tel":"031-772-5481","addr":"경기도 양평군 강하면 전수리 548-1번지 오페라하우스","category":"일반휴게음식 - 일반한식"},{"name":"더블유","tel":"031-773-0367","addr":"경기도 양평군 강하면 전수리 548-1번지","category":"숙박업 - 여관/기타숙박업"},{"name":"더블유","tel":"031-773-0367","addr":"경기도 양평군 강하면 전수리 548-1번지","category":"숙박업 - 여관/기타숙박업"}]},{"lat":"37.485743441","long":"127.41942933","items":[{"name":"고려인삼연구(주)","tel":"0000-74-3417","addr":"경기도 양평군 강하면 전수리 704-1번지","category":"건강식품 - 홍삼제품"},{"name":"데밀(DEMIL)","tel":"","addr":"경기도 양평군 강하면 전수리 704-1번지","category":"의류 - 정장"}]},{"lat":"37.501998597","long":"127.42160047","items":[{"name":"그린가든","tel":"031-772-5554","addr":"경기도 양평군 강하면 전수리 559번지","category":"일반휴게음식 - 일반한식"}]},{"lat":"37.499524871","long":"127.41534428","items":[{"name":"그릴데미그라스","tel":"031-775-2188","addr":"경기도 양평군 강하면 전수리 1027-14번지 1층","category":"일반휴게음식 - 서양음식"}]},{"lat":"37.505942078","long":"127.43489998","items":[{"name":"긴자일식돈까스","tel":"031-774-7702","addr":"경기도 양평군 강하면 전수리 470-4","category":"일반휴게음식 - 일반한식"},{"name":"쏠트레인","tel":"031-774-5956","addr":"경기도 양평군 강하면 전수리 470-4번지","category":"일반휴게음식 - 서양음식"}]},{"lat":"37.502720102","long":"127.42393418","items":[{"name":"깜장(짜장면집)","tel":"031-8079-8300","addr":"경기도 양평군 강하면 전수리 555-4번지","category":"일반휴게음식 - 중국식"},{"name":"두물머리양평해장국","tel":"031-772-7047","addr":"경기도 양평군 강하면 전수리 555-4번지","category":"일반휴게음식 - 일반한식"}]},{"lat":"37.5051049","long":"127.4395999","items":[{"name":"나루께","tel":"031-771-0001","addr":"경기도 양평군 강하면 전수리 18-1번지 22통7반","category":"일반휴게음식 - 일반한식"}]},{"lat":"37.50257704","long":"127.43114859","items":[{"name":"나루치종합상사","tel":"","addr":"경기도 양평군 강하면 전수리 428-1번지","category":"서적문구 - 문구용품"}]},{"lat":"37.493048266","long":"127.41749105","items":[{"name":"남구이야기","tel":"031-000-0000","addr":"경기도 양평군 강하면 전수리 965-3번지","category":"문화.취미 - 민예·공예품"}]},{"lat":"37.50432986","long":"127.43965194","items":[{"name":"남원추어탕","tel":"031-771-7374","addr":"경기도 양평군 강하면 전수리 24-1번지","category":"일반휴게음식 - 일반한식"}]},{"lat":"37.505190009","long":"127.43111827","items":[{"name":"낭만가","tel":"031-774-2739","addr":"경기도 양평군 강하면 전수리 481-4번지","category":"일반휴게음식 - 일반한식"}]},{"lat":"37.476581612","long":"127.42162821","items":[{"name":"다빈갤러리하우스","tel":"","addr":"경기도 양평군 강하면 전수리 788번지","category":"숙박업 - 여관/기타숙박업"}]},{"lat":"37.499941917","long":"127.41717859","items":[{"name":"다이안모텔","tel":"031-775-8786","addr":"경기도 양평군 강하면 전수리 1030번지","category":"숙박업 - 여관/기타숙박업"}]},{"lat":"37.483832557","long":"127.41451179","items":[{"name":"대명교육사","tel":"070-8870-5782","addr":"경기도 양평군 강하면 전수리 823번지","category":"서적문구 - 기타서적문구"}]},{"lat":"37.503548549","long":"127.42406323","items":[{"name":"대복식당","tel":"031-774-6077","addr":"경기도 양평군 강하면 전수리 532-11번지 1층","category":"일반휴게음식 - 일반한식"}]},{"lat":"37.502272531","long":"127.42057288","items":[{"name":"대진침대(주)","tel":"031-774-9715","addr":"경기도 양평군 강하면 전수리 563-7번지","category":"가구 - 일반가구"},{"name":"라리아 레스토랑","tel":"031-774-9717","addr":"경기도 양평군 강하면 전수리 563-7번지","category":"일반휴게음식 - 서양음식"},{"name":"지니버디","tel":"070-9258-8792","addr":"경기도 양평군 강하면 전수리 563-7번지","category":"서적문구 - 기타서적문구"}]},{"lat":"37.503047832","long":"127.42298605","items":[{"name":"더뷰","tel":"031-774-9755","addr":"경기도 양평군 강하면 전수리 545번지","category":"숙박업 - 여관/기타숙박업"}]},{"lat":"37.504300438","long":"127.42795788","items":[{"name":"더키친스","tel":"031-774-3348","addr":"경기도 양평군 강하면 전수리 495-23번지 나동","category":"일반휴게음식 - 일반한식"},{"name":"또봉이통닭 양평강하점","tel":"031-772-2929","addr":"경기도 양평군 강하면 전수리 495-23번지 가동 1호","category":"일반휴게음식 - 스넥"},{"name":"토마토 수상레저","tel":"031-774-7768","addr":"경기도 양평군 강하면 전수리 495-23번지 495-5","category":"레저업소 - 기타레져업소"}]},{"lat":"37.504887823","long":"127.44225636","items":[{"name":"더호텔자자","tel":"031-774-9516","addr":"경기도 양평군 강하면 전수리 4-3번지","category":"숙박업 - 여관/기타숙박업"},{"name":"더호텔자자(THE HOTELZAZA)","tel":"070-8881-5366","addr":"경기도 양평군 강하면 전수리 4-3번지","category":"숙박업 - 여관/기타숙박업"}]},{"lat":"37.504630374","long":"127.43634003","items":[{"name":"도예갤러리몬티첼로","tel":"031-774-9301","addr":"경기도 양평군 강하면 전수리 20-2번지","category":"문화.취미 - 민예·공예품"}]},{"lat":"37.50166143","long":"127.42012842","items":[{"name":"동식당","tel":"031-773-7505","addr":"경기도 양평군 강하면 전수리 563-10번지 1층","category":"일반휴게음식 - 일반한식"}]},{"lat":"37.477361288","long":"127.42026462","items":[{"name":"뜰과한옥농장","tel":"031-772-1709","addr":"경기도 양평군 강하면 전수리 791-5","category":"학원 - 기타 교육기관"}]},{"lat":"37.503855542","long":"127.42890534","items":[{"name":"라온건축디자인","tel":"031-774-9390","addr":"경기도 양평군 강하면 전수리 506-1번지","category":"일반휴게음식 - 일반한식"},{"name":"라온카페/(주)라온주택","tel":"031-774-9390","addr":"경기도 양평군 강하면 전수리 506-1번지","category":"일반휴게음식 - 서양음식"},{"name":"분식 강나루","tel":"","addr":"경기도 양평군 강하면 전수리 506-1번지","category":"일반휴게음식 - 스넥"}]},{"lat":"37.504243412","long":"127.44109903","items":[{"name":"리버타운 당구클럽","tel":"070-2354-7892","addr":"경기도 양평군 강하면 전수리 26번지 2층","category":"레저업소 - 당 구 장"},{"name":"리버타운당구장","tel":"031-775-4939","addr":"경기도 양평군 강하면 전수리 26번지","category":"레저업소 - 당 구 장"},{"name":"신한개발","tel":"031-772-0606","addr":"경기도 양평군 강하면 전수리 26번지 1층","category":"일반휴게음식 - 서양음식"}]},{"lat":"37.503991981","long":"127.44087137","items":[{"name":"리버타운 모텔","tel":"031-771-7070","addr":"경기도 양평군 강하면 전수리 25-7번지","category":"숙박업 - 여관/기타숙박업"},{"name":"리버타운사우나","tel":"031-772-2222","addr":"경기도 양평군 강하면 전수리 25-7번지","category":"보건위생 - 사우나"},{"name":"리버타운투(2)","tel":"031-771-7070","addr":"경기도 양평군 강하면 전수리 25-7번지 리버타운","category":"숙박업 - 여관/기타숙박업"},{"name":"자연미가","tel":"031-772-2222","addr":"경기도 양평군 강하면 전수리 25-7번지 리버타운","category":"보건위생 - 화장품"}]},{"lat":"37.503269889","long":"127.42640268","items":[{"name":"마당","tel":"","addr":"경기도 양평군 강하면 전수리 512번지","category":"일반휴게음식 - 일반한식"}]},{"lat":"37.482332897","long":"127.41823457","items":[{"name":"명문스포츠(주)","tel":"031-775-2542","addr":"경기도 양평군 강하면 전수리 805번지","category":"레져용품 - 스포츠·레져용품"}]},{"lat":"37.503073292","long":"127.42342725","items":[{"name":"모나코모텔","tel":"031-771-4813","addr":"경기도 양평군 강하면 전수리 546번지","category":"숙박업 - 여관/기타숙박업"},{"name":"모나코모텔","tel":"031-771-4813","addr":"경기도 양평군 강하면 전수리 546번지","category":"숙박업 - 여관/기타숙박업"},{"name":"모나코모텔","tel":"031-771-4813","addr":"경기도 양평군 강하면 전수리 546번지","category":"숙박업 - 여관/기타숙박업"}]},{"lat":"37.503769144","long":"127.43037506","items":[{"name":"문리버","tel":"031-774-2714","addr":"경기도 양평군 강하면 전수리 433-2번지 1층","category":"일반휴게음식 - 일반한식"},{"name":"문리버","tel":"031-774-2714","addr":"경기도 양평군 강하면 전수리 433-2번지","category":"일반휴게음식 - 일반한식"}]},{"lat":"37.50115984","long":"127.41928877","items":[{"name":"미가돈","tel":"031-772-1515","addr":"경기도 양평군 강하면 전수리 1026-4번지","category":"일반휴게음식 - 일반한식"}]},{"lat":"37.503996294","long":"127.43970654","items":[{"name":"미소정원","tel":"031-774-0192","addr":"경기도 양평군 강하면 전수리 24-3번지","category":"일반휴게음식 - 일반한식"}]},{"lat":"37.497107346","long":"127.42634526","items":[{"name":"바다디자인 앤 아틀리에","tel":"031-774-5342","addr":"경기도 양평군 강하면 전수리 331-9번지","category":"문화.취미 - 화랑"}]},{"lat":"37.494110887","long":"127.43028608","items":[{"name":"별다래하우스","tel":"","addr":"경기도 양평군 강하면 전수리 312-2번지","category":"숙박업 - 여관/기타숙박업"}]},{"lat":"37.495193072","long":"127.43000955","items":[{"name":"산수골펜션","tel":"031-000-0000","addr":"경기도 양평군 강하면 전수리 314번지","category":"숙박업 - 여관/기타숙박업"}]},{"lat":"37.485137237","long":"127.42014958","items":[{"name":"산야","tel":"031-773-0880","addr":"경기도 양평군 강하면 전수리 702-3번지","category":"음료식품 - 기타음료식품"}]},{"lat":"37.503441479","long":"127.42629055","items":[{"name":"솔향장어전문점","tel":"031-771-7587","addr":"경기도 양평군 강하면 전수리 527번지 1층","category":"일반휴게음식 - 일반한식"}]},{"lat":"37.50399553","long":"127.44234161","items":[{"name":"숑스바베큐","tel":"031-774-9180","addr":"경기도 양평군 강하면 전수리 6번지","category":"일반휴게음식 - 일반한식"}]},{"lat":"37.504880726","long":"127.43193079","items":[{"name":"스카이하우스","tel":"031-771-2284","addr":"경기도 양평군 강하면 전수리 478번지","category":"숙박업 - 여관/기타숙박업"}]},{"lat":"37.502721109","long":"127.42365146","items":[{"name":"씨유양평전수리점","tel":"031-771-6704","addr":"경기도 양평군 강하면 전수리 555-1번지","category":"유통업 영리 - 편 의 점"}]},{"lat":"37.502997425","long":"127.42448989","items":[{"name":"아리아모텔","tel":"031-775-1704","addr":"경기도 양평군 강하면 전수리 551-1","category":"숙박업 - 여관/기타숙박업"}]},{"lat":"37.503633274","long":"127.42556784","items":[{"name":"아미원","tel":"","addr":"경기도 양평군 강하면 전수리 532-9번지","category":"신변잡화 - 기타잡화"}]},{"lat":"37.5042683","long":"127.426872","items":[{"name":"애니텔","tel":"031-774-7500","addr":"경기도 양평군 강하면 전수리 495-25번지","category":"숙박업 - 여관/기타숙박업"}]},{"lat":"37.505435632","long":"127.43787147","items":[{"name":"양평대게직판장","tel":"031-772-3313","addr":"경기도 양평군 강하면 전수리 18-15번지 1층","category":"일반휴게음식 - 일반한식"}]},{"lat":"37.499213928","long":"127.43181921","items":[{"name":"양평뜨락에서","tel":"031-774-8212","addr":"경기도 양평군 강하면 전수리 355-5번지","category":"일반휴게음식 - 일반한식"}]},{"lat":"37.498189342","long":"127.41593629","items":[{"name":"양평민물수산","tel":"031-774-5457","addr":"경기도 양평군 강하면 전수리 1003-3번지","category":"음료식품 - 농·축·수산품"}]},{"lat":"37.501018248","long":"127.43365025","items":[{"name":"양평북스","tel":"031-771-1516","addr":"경기도 양평군 강하면 전수리 450-3번지","category":"서적문구 - 일반서적"}]},{"lat":"37.498325278","long":"127.41571086","items":[{"name":"양평수산 양어장","tel":"031-774-5457","addr":"경기도 양평군 강하면 전수리 1003-7번지","category":"음료식품 - 농·축·수산품"}]},{"lat":"37.487602786","long":"127.41848988","items":[{"name":"양평종합피아노","tel":"031-774-9002","addr":"경기도 양평군 강하면 전수리 874-1번지","category":"회원제형태 - 기타4"}]},{"lat":"37.500798376","long":"127.4195921","items":[{"name":"양평한우마을","tel":"031-772-5578","addr":"경기도 양평군 강하면 전수리 567-2번지 1층","category":"음료식품 - 정육점"}]},{"lat":"37.482637159","long":"127.41882417","items":[{"name":"엄마닭두마리치킨","tel":"031-774-3659","addr":"경기도 양평군 강하면 전수리 808번지","category":"일반휴게음식 - 스넥"},{"name":"엄마닭두마리치킨","tel":"031-774-3659","addr":"경기도 양평군 강하면 전수리 808번지 1층","category":"일반휴게음식 - 스넥"}]},{"lat":"37.50369026","long":"127.42726456","items":[{"name":"엄마불고기","tel":"031-772-4554","addr":"경기도 양평군 강하면 전수리 510-1번지","category":"일반휴게음식 - 일반한식"}]},{"lat":"37.50349624","long":"127.44092502","items":[{"name":"에이앤지","tel":"031-772-3663","addr":"경기도 양평군 강하면 전수리 30-3번지","category":"음료식품 - 기타음료식품"}]},{"lat":"37.489524835","long":"127.41765249","items":[{"name":"예다솜 어린이집[아이행복]","tel":"","addr":"경기도 양평군 강하면 전수리 885-1번지","category":"학원 - 유아원"}]},{"lat":"37.499997925","long":"127.42173631","items":[{"name":"오세븐스 양평지점","tel":"031-770-8933","addr":"경기도 양평군 강하면 전수리 1235번지","category":"일반휴게음식 - 서양음식"},{"name":"현대종합연수원(주)스카이라운지","tel":"031-525-2175","addr":"경기도 양평군 강하면 전수리 1235","category":"일반휴게음식 - 위탁급식업"},{"name":"현대종합연수원주식회사","tel":"031-770-8801","addr":"경기도 양평군 강하면 전수리 1235번지","category":"일반휴게음식 - 위탁급식업"}]},{"lat":"37.500359133","long":"127.41895637","items":[{"name":"올레","tel":"031-771-0082","addr":"경기도 양평군 강하면 전수리 567-4번지 외3필지","category":"숙박업 - 여관/기타숙박업"}]},{"lat":"37.495665468","long":"127.43390221","items":[{"name":"유기농산","tel":"031-774-4189","addr":"경기도 양평군 강하면 전수리 84-9번지","category":"음료식품 - 농·축·수산품"}]},{"lat":"37.50221452","long":"127.43173459","items":[{"name":"이쁜아줌마네식당","tel":"031-774-5645","addr":"경기도 양평군 강하면 전수리 427-4번지","category":"일반휴게음식 - 일반한식"}]},{"lat":"37.504275403","long":"127.42990295","items":[{"name":"전수리밥상","tel":"031-771-0650","addr":"경기도 양평군 강하면 전수리 498-1번지","category":"일반휴게음식 - 일반한식"}]},{"lat":"37.502940721","long":"127.42270272","items":[{"name":"종가집","tel":"031-774-9314","addr":"경기도 양평군 강하면 전수리 544-3번지","category":"일반휴게음식 - 일반한식"}]},{"lat":"37.505406532","long":"127.43598261","items":[{"name":"주식회사 카포레","tel":"031-000-0000","addr":"경기도 양평군 강하면 전수리 467-3번지","category":"문화.취미 - 화랑"}]},{"lat":"37.501074802","long":"127.42040788","items":[{"name":"주식회사다우(위닝샷)","tel":"031-775-2203","addr":"경기도 양평군 강하면 전수리 566번지","category":"레저업소 - 스크린골프"}]},{"lat":"37.492412381","long":"127.41640201","items":[{"name":"참좋은날","tel":"031-1661-4225","addr":"경기도 양평군 강하면 전수리 938-2번지 주택","category":"보건위생 - 의료용품"}]},{"lat":"37.483744905","long":"127.41120988","items":[{"name":"참좋은생각","tel":"031-774-7577","addr":"경기도 양평군 강하면 전수리 1078-1번지","category":"일반휴게음식 - 일반한식"}]},{"lat":"37.505160231","long":"127.43187584","items":[{"name":"초가사랑","tel":"031-774-1069","addr":"경기도 양평군 강하면 전수리 473번지","category":"일반휴게음식 - 일반한식"}]},{"lat":"37.50310336","long":"127.42510118","items":[{"name":"카리브모텔","tel":"031-771-9975","addr":"경기도 양평군 강하면 전수리 551-6번지","category":"숙박업 - 여관/기타숙박업"}]},{"lat":"37.500826318","long":"127.4269317","items":[{"name":"켄트28","tel":"031-775-8842","addr":"경기도 양평군 강하면 전수리 530-61번지","category":"숙박업 - 여관/기타숙박업"}]},{"lat":"37.500658801","long":"127.41829081","items":[{"name":"터갈비","tel":"031-775-2335","addr":"경기도 양평군 강하면 전수리 1026","category":"일반휴게음식 - 일반한식"}]},{"lat":"37.500440698","long":"127.41882112","items":[{"name":"테마1","tel":"031-773-0404","addr":"경기도 양평군 강하면 전수리 1024-4번지 2층","category":"숙박업 - 여관/기타숙박업"},{"name":"테마노래연습장","tel":"031-773-0406","addr":"경기도 양평군 강하면 전수리 1024-4번지","category":"레저업소 - 노 래 방"},{"name":"테마포장마차","tel":"031-774-0466","addr":"경기도 양평군 강하면 전수리 1024-4번지 1층","category":"일반휴게음식 - 일반한식"}]},{"lat":"37.504661842","long":"127.42767719","items":[{"name":"토마토","tel":"031-774-7768","addr":"경기도 양평군 강하면 전수리 495-4","category":"레져용품 - 스포츠·레져용품"}]},{"lat":"37.503386939","long":"127.423904","items":[{"name":"파인아트","tel":"","addr":"경기도 양평군 강하면 전수리 548-7번지","category":"가구 - 일반가구"}]},{"lat":"37.498495118","long":"127.41609629","items":[{"name":"하늘소가든","tel":"031-774-4383","addr":"경기도 양평군 강하면 전수리 1003-1번지","category":"일반휴게음식 - 일반한식"}]},{"lat":"37.501636043","long":"127.42220913","items":[{"name":"한방토종닭오리","tel":"031-775-5432","addr":"경기도 양평군 강하면 전수리 559-11번지","category":"일반휴게음식 - 일반한식"}]},{"lat":"37.501137682","long":"127.43301764","items":[{"name":"한옥마을황토펜션","tel":"031-773-6300","addr":"경기도 양평군 강하면 전수리 448-5","category":"숙박업 - 여관/기타숙박업"}]},{"lat":"37.500574091","long":"127.41931945","items":[{"name":"한우마을","tel":"031-773-8007","addr":"경기도 양평군 강하면 전수리 567-3","category":"일반휴게음식 - 일반한식"}]},{"lat":"37.501466624","long":"127.42171059","items":[{"name":"현대무인텔","tel":"031-774-7762","addr":"경기도 양평군 강하면 전수리 559-14번지","category":"숙박업 - 여관/기타숙박업"}]},{"lat":"37.499825663","long":"127.41692915","items":[{"name":"호텔 엘리스","tel":"","addr":"경기도 양평군 강하면 전수리 1030-2번지","category":"숙박업 - 여관/기타숙박업"},{"name":"호텔엘리스","tel":"031-774-7793","addr":"경기도 양평군 강하면 전수리 1030-2번지","category":"숙박업 - 여관/기타숙박업"},{"name":"호텔엘리스","tel":"031-774-7793","addr":"경기도 양평군 강하면 전수리 1030-2번지 외2필지","category":"숙박업 - 여관/기타숙박업"},{"name":"호텔엘리스","tel":"070-8244-9391","addr":"경기도 양평군 강하면 전수리 1030-2번지","category":"숙박업 - 여관/기타숙박업"}]},{"lat":"37.505386464","long":"127.44142238","items":[{"name":"호텔나폴리","tel":"","addr":"경기도 양평군 강하면 전수리 9-4번지","category":"숙박업 - 여관/기타숙박업"}]}]