[{"lat":"37.286723305","long":"126.57448841","items":[{"name":"(유)대부해운","tel":"032-886-7813","addr":"경기도 안산시 단원구 대부북동 1841-9번지","category":"여행 - 여객선"},{"name":"천안옛날호두과자","tel":"032-883-2261","addr":"경기도 안산시 단원구 대부북동 1841-9번지","category":"음료식품 - 제과점"}]},{"lat":"37.242844206","long":"126.58476735","items":[{"name":"(재)아주산업의학연구소대부센타치과의원","tel":"032-884-2875","addr":"경기도 안산시 단원구 대부북동 473-2번지 현수빌딩 1층","category":"의원 - 치과의원"},{"name":"대부센타치과의원","tel":"032-887-2870","addr":"경기도 안산시 단원구 대부북동 473-2번지 현수빌딩 1층","category":"의원 - 치과의원"},{"name":"행운노래연습장","tel":"031-881-5600","addr":"경기도 안산시 단원구 대부북동 473-2번지 현수빌딩 지하1층","category":"레저업소 - 노 래 방"}]},{"lat":"37.250427042","long":"126.57612544","items":[{"name":"(주) 엠제이테크올로지","tel":"070-8282-7930","addr":"경기도 안산시 단원구 대부북동 753-1번지","category":"의류 - 기타의류"},{"name":"다다종합인테리어","tel":"032-888-6623","addr":"경기도 안산시 단원구 대부북동 753-1번지","category":"건축자재 - 인테리어전문"},{"name":"보은유리","tel":"032-882-2464","addr":"경기도 안산시 단원구 대부북동 753-1번지 3호","category":"건축자재 - 유리"}]},{"lat":"37.258702851","long":"126.58493898","items":[{"name":"(주)드림특장자동차공업사","tel":"032-886-2222","addr":"경기도 안산시 단원구 대부북동 23-2번지","category":"자동차정비 유지 - 자동차정비"},{"name":"대부타이어","tel":"032-880-0526","addr":"경기도 안산시 단원구 대부북동 23-2번지","category":"자동차정비 유지 - 자동차시트·타이어"},{"name":"주식회사대부렉카","tel":"032-885-4982","addr":"경기도 안산시 단원구 대부북동 23-2번지","category":"여행 - 렌터카"},{"name":"주식회사대부일심1급자동차","tel":"032-886-2727","addr":"경기도 안산시 단원구 대부북동 23-2번지","category":"자동차정비 유지 - 카인테리어"}]},{"lat":"37.267476137","long":"126.56916348","items":[{"name":"(주)아메리카노","tel":"032-882-5533","addr":"경기도 안산시 단원구 대부북동 1827","category":"용역 서비스 - 기타용역서비스"},{"name":"대부종합공구상사","tel":"032-881-0209","addr":"경기도 안산시 단원구 대부북동 1827번지","category":"기타 - 기계공구"}]},{"lat":"37.280419606","long":"126.56801802","items":[{"name":"(주)조은인터내셔널","tel":"032-887-0394","addr":"경기도 안산시 단원구 대부북동 1854-26번지","category":"음료식품 - 농·축·수산품"}]},{"lat":"37.270394533","long":"126.57137904","items":[{"name":"11호남도할머니칼국수","tel":"032-882-1542","addr":"경기도 안산시 단원구 대부북동 1837-29번지 1층","category":"일반휴게음식 - 일반한식"}]},{"lat":"37.2703945332","long":"126.5713790445","items":[{"name":"11호남도할머니칼국수","tel":"032-882-1542","addr":"경기도 안산시 단원구 대부북동 1837-29번지","category":"숙박 및 음식점업 - 한식"}]},{"lat":"37.2705646139","long":"126.5710736676","items":[{"name":"16호원조할머니칼국수","tel":"032-883-5590","addr":"경기도 안산시 단원구 대부북동 1837-1번지","category":"숙박 및 음식점업 - 요식업"}]},{"lat":"37.270564614","long":"126.57107367","items":[{"name":"16호원조할머니칼국수","tel":"032-883-5590","addr":"경기도 안산시 단원구 대부북동 1837-1번지 1동 1층","category":"일반휴게음식 - 일반한식"},{"name":"히트피싱낚시마트","tel":"032-881-0772","addr":"경기도 안산시 단원구 대부북동 1837-1번지 2동","category":"레져용품 - 스포츠·레져용품"}]},{"lat":"37.2685943679","long":"126.5743769315","items":[{"name":"1호 친할머니칼국수","tel":"032-880-9983","addr":"경기도 안산시 단원구 대부북동 1222-3번지","category":"숙박 및 음식점업 - 한식"},{"name":"1호친할머니칼국수","tel":"032-880-9983","addr":"경기도 안산시 단원구 대부북동 1222-3번지","category":"숙박 및 음식점업 - 칼국수"}]},{"lat":"37.268594368","long":"126.57437693","items":[{"name":"1호할머니칼국수","tel":"032-880-9983","addr":"경기도 안산시 단원구 대부북동 1222-3번지 1층","category":"일반휴게음식 - 일반한식"},{"name":"대추나무집","tel":"032-880-9983","addr":"경기도 안산시 단원구 대부북동 1222-3번지 1층","category":"일반휴게음식 - 일반한식"}]},{"lat":"37.2716212523","long":"126.5717441014","items":[{"name":"20호 할머니칼국수","tel":"031-886-0280","addr":"경기도 안산시 단원구 대부북동 1161-79번지","category":"숙박 및 음식점업 - 간이음식"}]},{"lat":"37.271621252","long":"126.5717441","items":[{"name":"20호할머니칼국수(별관)","tel":"032-886-0280","addr":"경기도 안산시 단원구 대부북동 1161-79번지 1층","category":"일반휴게음식 - 일반한식"},{"name":"황금토목측량설계공사","tel":"032-886-1817","addr":"경기도 안산시 단원구 대부북동 1161-79번지 2층","category":"용역 서비스 - 사무서비스"}]},{"lat":"37.271396289","long":"126.57182431","items":[{"name":"20호할머니칼국수(본관)","tel":"032-886-0280","addr":"경기도 안산시 단원구 대부북동 1161-16번지 1층","category":"일반휴게음식 - 일반한식"},{"name":"대부도노래방","tel":"032-886-6300","addr":"경기도 안산시 단원구 대부북동 1161-16번지 2층","category":"레저업소 - 노 래 방"},{"name":"대부도노래연습장","tel":"032-886-6300","addr":"경기도 안산시 단원구 대부북동 1161-16번지 2층","category":"레저업소 - 노 래 방"},{"name":"철판이야기","tel":"031-886-7484","addr":"경기도 안산시 단원구 대부북동 1161-16번지","category":"일반휴게음식 - 일반한식"}]},{"lat":"37.286007592","long":"126.57340992","items":[{"name":"23호할머니손칼국수","tel":"032-882-8989","addr":"경기도 안산시 단원구 대부북동 1843-1번지 1층","category":"일반휴게음식 - 일반한식"}]},{"lat":"37.262065623","long":"126.57290333","items":[{"name":"24시","tel":"032-886-2410","addr":"경기도 안산시 단원구 대부북동 1776-1번지","category":"음료식품 - 농·축·수산품"}]},{"lat":"37.285398758","long":"126.57199253","items":[{"name":"24시슈퍼","tel":"032-886-4647","addr":"경기도 안산시 단원구 대부북동 1848-424,1층","category":"유통업 영리 - 슈퍼마켓"}]},{"lat":"37.27203115","long":"126.57049029","items":[{"name":"33호할머니칼국수","tel":"032-886-9908","addr":"경기도 안산시 단원구 대부북동 1161-105번지 1층","category":"일반휴게음식 - 일반한식"},{"name":"용당구장","tel":"032-8705-3381","addr":"경기도 안산시 단원구 대부북동 1161-105번지 2층","category":"레저업소 - 당 구 장"}]},{"lat":"37.2720311495","long":"126.5704902914","items":[{"name":"33호할머니칼국수","tel":"032-886-9908","addr":"경기도 안산시 단원구 대부북동 1161-105번지","category":"숙박 및 음식점업 - 칼국수"}]},{"lat":"37.271010048","long":"126.57215346","items":[{"name":"365 타이어","tel":"032-880-9856","addr":"경기도 안산시 단원구 대부북동 1161-17번지 A동 101,102,103,104,105호","category":"자동차정비 유지 - 자동차시트·타이어"},{"name":"대부도 농산","tel":"031-887-9741","addr":"경기도 안산시 단원구 대부북동 1161-17번지","category":"음료식품 - 미곡상"},{"name":"백령수산","tel":"032-887-0900","addr":"경기도 안산시 단원구 대부북동 1161-17번지 A동 106호","category":"음료식품 - 농·축·수산품"},{"name":"판다팜","tel":"032-890-4147","addr":"경기도 안산시 단원구 대부북동 1161-17번지 A동 일부","category":"신변잡화 - 기타잡화"}]},{"lat":"37.2830365621","long":"126.5691080263","items":[{"name":"CU대부명소점","tel":"032-882-1332","addr":"경기도 안산시 단원구 대부북동 1850번지","category":"도매 및 소매업 - 편의점"}]},{"lat":"37.287037348","long":"126.57412578","items":[{"name":"GS25대부바다점","tel":"","addr":"경기도 안산시 단원구 대부북동 1848-100번지 1층 전체","category":"유통업 영리 - 편 의 점"}]},{"lat":"37.241347616","long":"126.58451641","items":[{"name":"GS25대부상동점","tel":"","addr":"경기도 안산시 단원구 대부북동 511번지 101호, 102호","category":"유통업 영리 - 편 의 점"},{"name":"여포수산직영","tel":"070-8970-4016","addr":"경기도 안산시 단원구 대부북동 511번지 1층 6호","category":"일반휴게음식 - 일반한식"},{"name":"응사미롤돈가스","tel":"031-401-2815","addr":"경기도 안산시 단원구 대부북동 511번지 1층","category":"일반휴게음식 - 일반한식"}]},{"lat":"37.274260892","long":"126.56918093","items":[{"name":"GS25대부중앙점","tel":"","addr":"경기도 안산시 단원구 대부북동 1856-61번지 1층 101호","category":"유통업 영리 - 편 의 점"},{"name":"대부도맛집","tel":"032-882-1282","addr":"경기도 안산시 단원구 대부북동 1856-61번지 1층 일부","category":"일반휴게음식 - 일반한식"}]},{"lat":"37.285895826","long":"126.57240693","items":[{"name":"GS25대부해변점","tel":"","addr":"경기도 안산시 단원구 대부북동 1848-116번지 1층 101호","category":"유통업 영리 - 편 의 점"}]},{"lat":"37.2710100478","long":"126.5721534641","items":[{"name":"NEW판다생활용품쇼핑몰","tel":"032-890-4147","addr":"경기도 안산시 단원구 대부북동 1161-17번지","category":"도매 및 소매업 - 생필품"},{"name":"대부도 농산","tel":"1666-7941","addr":"경기도 안산시 단원구 대부북동 1161-17번지","category":"제조업 - 제조,화훼 재배,잡화"}]},{"lat":"37.2738983837","long":"126.5686079949","items":[{"name":"㈜우이당","tel":"031-403-2131","addr":"경기도 안산시 단원구 대부북동 1857-60번지","category":"도매 및 소매업 - 전자상거래,식품제"},{"name":"㈜우이당","tel":"031-403-2131","addr":"경기도 안산시 단원구 대부북동 1857-60번지","category":"도매 및 소매업 - 소금"},{"name":"수타왕","tel":"032-886-7088","addr":"경기도 안산시 단원구 대부북동 1857-60번지","category":"숙박 및 음식점업 - 중식"}]},{"lat":"37.265206476","long":"126.56941324","items":[{"name":"강남종합설비","tel":"032-883-0918","addr":"경기도 안산시 단원구 대부북동 1710-13번지 1층 3호","category":"용역 서비스 - 기타용역서비스"}]},{"lat":"37.271836466","long":"126.57146101","items":[{"name":"강원건재철물","tel":"032-885-2050","addr":"경기도 안산시 단원구 대부북동 1161-76,1층","category":"기타 - 기계공구"}]},{"lat":"37.266928011","long":"126.56957247","items":[{"name":"강화원조밴댕이","tel":"032-886-2900","addr":"경기도 안산시 단원구 대부북동 1826-32번지 1층","category":"일반휴게음식 - 일반한식"}]},{"lat":"37.286620558","long":"126.57348537","items":[{"name":"갯벌노래연습장","tel":"032-888-1845","addr":"경기도 안산시 단원구 대부북동 1848-107번지","category":"레저업소 - 노 래 방"},{"name":"갯벌조개구이","tel":"032-888-1845","addr":"경기도 안산시 단원구 대부북동 1848-107번지 1층","category":"일반휴게음식 - 일반한식"}]},{"lat":"37.288061024","long":"126.57565363","items":[{"name":"갯벌놀이터","tel":"","addr":"경기도 안산시 단원구 대부북동 1848-62번지 1층","category":"일반휴게음식 - 일반한식"}]},{"lat":"37.2881697546","long":"126.5758221707","items":[{"name":"갯벌놀이터","tel":"032-883-2133","addr":"경기도 안산시 단원구 대부북동 1848-58번지","category":"숙박 및 음식점업 - 한식"}]},{"lat":"37.240875464","long":"126.58349346","items":[{"name":"거농영농자재","tel":"032-885-0402","addr":"경기도 안산시 단원구 대부북동 435-1번지","category":"농업 - 기타농업관련"}]},{"lat":"37.2434791391","long":"126.5834114086","items":[{"name":"거북건강원","tel":"032-882-8182","addr":"경기도 안산시 단원구 대부북동 450-3번지","category":"도매 및 소매업 - 건강원"},{"name":"선한손장식","tel":"032-886-9087","addr":"경기도 안산시 단원구 대부북동 450-3번지","category":"도매 및 소매업 - 지업사"}]},{"lat":"37.243479139","long":"126.58341141","items":[{"name":"거북건강원","tel":"032-882-8182","addr":"경기도 안산시 단원구 대부북동 450-3번지","category":"건강식품 - 기타건강식품"},{"name":"놈이네방앗간","tel":"032-111-1111","addr":"경기도 안산시 단원구 대부북동 450-3번지","category":"음료식품 - 제과점"},{"name":"선한손장식","tel":"032-886-9087","addr":"경기도 안산시 단원구 대부북동 450-3번지","category":"직물 - 카페트,커튼,천막,지물"},{"name":"인천강화옹진축산업협동조합(대부지점)","tel":"032-886-8240","addr":"경기도 안산시 단원구 대부북동 450-3번지","category":"음료식품 - 정육점"},{"name":"인천강화옹진축산업협동조합/대부지점","tel":"032-886-8240","addr":"경기도 안산시 단원구 대부북동 450-3번지","category":"유통업 비영리 - 농,축협 직영매장"}]},{"lat":"37.296479541","long":"126.57399325","items":[{"name":"거성호","tel":"032-883-2242","addr":"경기도 안산시 단원구 대부북동 1955-1번지","category":"일반휴게음식 - 일반한식"},{"name":"나루터","tel":"032-886-8852","addr":"경기도 안산시 단원구 대부북동 1955-1번지 2층","category":"일반휴게음식 - 일반한식"},{"name":"대길1호","tel":"032-888-9674","addr":"경기도 안산시 단원구 대부북동 1955-1번지","category":"일반휴게음식 - 일반한식"},{"name":"대부1호","tel":"032-888-5164","addr":"경기도 안산시 단원구 대부북동 1955-1번지 1층","category":"일반휴게음식 - 일반한식"},{"name":"대양7호","tel":"032-886-6660","addr":"경기도 안산시 단원구 대부북동 1955-1번지 1층","category":"일반휴게음식 - 일반한식"},{"name":"부성호","tel":"032-431-8297","addr":"경기도 안산시 단원구 대부북동 1955-1번지 웅진수산업협동조합1층일부","category":"일반휴게음식 - 일반한식"},{"name":"상복호","tel":"032-882-1209","addr":"경기도 안산시 단원구 대부북동 1955-1번지 1층","category":"일반휴게음식 - 일반한식"},{"name":"인선호","tel":"031-888-4330","addr":"경기도 안산시 단원구 대부북동 1955-1번지 1층 일부","category":"일반휴게음식 - 일식·회집"}]},{"lat":"37.276982826","long":"126.56941337","items":[{"name":"건흥전기조명","tel":"031-403-1900","addr":"경기도 안산시 단원구 대부북동 1856-247번지 1층","category":"전기제품 - 기타전기제품"}]},{"lat":"37.281781859","long":"126.55399414","items":[{"name":"걸리버","tel":"032-885-4333","addr":"경기도 안산시 단원구 대부북동 1870-87번지","category":"신변잡화 - 기타잡화"}]},{"lat":"37.269454447","long":"126.57055012","items":[{"name":"경기종합건재철물","tel":"032-889-1977","addr":"경기도 안산시 단원구 대부북동 1837-13번지","category":"건축자재 - 기타건축자재"}]},{"lat":"37.259704064","long":"126.57018877","items":[{"name":"경동종합설비","tel":"032-886-0056","addr":"경기도 안산시 단원구 대부북동 1365-1번지 1층","category":"수리서비스 - 기타수리서비스"},{"name":"대부경동ENG","tel":"032-885-7789","addr":"경기도 안산시 단원구 대부북동 1365-1번지","category":"수리서비스 - 기타수리서비스"},{"name":"대부도로또편의점","tel":"032-889-4421","addr":"경기도 안산시 단원구 대부북동 1365-1번지 1층","category":"유통업 영리 - 편 의 점"}]},{"lat":"37.2415353539","long":"126.5840983799","items":[{"name":"고가네소문난순대국","tel":"032-880-0464","addr":"경기도 안산시 단원구 대부북동 509-4번지","category":"숙박 및 음식점업 - 일반음식"}]},{"lat":"37.241535354","long":"126.58409838","items":[{"name":"고가네소문난순대국집","tel":"032-880-0464","addr":"경기도 안산시 단원구 대부북동 509-4번지 1층","category":"일반휴게음식 - 일반한식"}]},{"lat":"37.268262032","long":"126.56971139","items":[{"name":"고랫부리손칼국수매운탕","tel":"032-886-6655","addr":"경기도 안산시 단원구 대부북동 1836-6번지","category":"일반휴게음식 - 일반한식"}]},{"lat":"37.267230924","long":"126.56863501","items":[{"name":"고려단열","tel":"031-886-0416","addr":"경기도 안산시 단원구 대부북동 1826-22번지 101호","category":"용역 서비스 - 기타용역서비스"},{"name":"대부종합목재","tel":"032-886-2448","addr":"경기도 안산시 단원구 대부북동 1826-22번지","category":"건축자재 - 기타건축자재"}]},{"lat":"37.2419796353","long":"126.5848848259","items":[{"name":"고운미용실","tel":"032-880-9800","addr":"경기도 안산시 단원구 대부북동 505번지","category":"협회 및 단체, 수리 및 기타 개인서"},{"name":"명성식당","tel":"032-884-2054","addr":"경기도 안산시 단원구 대부북동 505번지","category":"숙박 및 음식점업 - 한식"}]},{"lat":"37.241979635","long":"126.58488483","items":[{"name":"고운미용실","tel":"032-880-9800","addr":"경기도 안산시 단원구 대부북동 505번지 1동 103호","category":"보건위생 - 미용원"},{"name":"명성","tel":"032-884-2054","addr":"경기도 안산시 단원구 대부북동 505번지 102호","category":"일반휴게음식 - 일반한식"}]},{"lat":"37.27117783","long":"126.57121673","items":[{"name":"고향맛손칼국수","tel":"032-884-3310","addr":"경기도 안산시 단원구 대부북동 1161-41번지 1층","category":"일반휴게음식 - 일반한식"},{"name":"클래식","tel":"032-881-5011","addr":"경기도 안산시 단원구 대부북동 1161-41번지","category":"일반휴게음식 - 일반한식"}]},{"lat":"37.28097422","long":"126.56937921","items":[{"name":"고흥매생이국","tel":"032-886-5664","addr":"경기도 안산시 단원구 대부북동 1854-2번지 1층","category":"일반휴게음식 - 일반한식"}]},{"lat":"37.275424465","long":"126.56952378","items":[{"name":"광덕상회","tel":"032-883-1332","addr":"경기도 안산시 단원구 대부북동 1856-26번지","category":"음료식품 - 농·축·수산품"}]},{"lat":"37.288229338","long":"126.5773555","items":[{"name":"교동짬뽕","tel":"032-888-0006","addr":"경기도 안산시 단원구 대부북동 1847-17번지 1층","category":"일반휴게음식 - 중국식"}]},{"lat":"37.2882293378","long":"126.5773554989","items":[{"name":"교동짬뽕","tel":"032-888-0006","addr":"경기도 안산시 단원구 대부북동 1847-17번지","category":"숙박 및 음식점업 - 중식"}]},{"lat":"37.286919646","long":"126.57396857","items":[{"name":"교자","tel":"031-882-2224","addr":"경기도 안산시 단원구 대부북동 1848-102번지 1층","category":"일반휴게음식 - 일반한식"}]},{"lat":"37.273898384","long":"126.56860799","items":[{"name":"구봉 나두야 마트","tel":"032-884-6789","addr":"경기도 안산시 단원구 대부북동 1857-60번지 3호","category":"유통업 영리 - 슈퍼마켓"},{"name":"수타왕","tel":"032-886-7088","addr":"경기도 안산시 단원구 대부북동 1857-60번지 1층","category":"일반휴게음식 - 중국식"}]},{"lat":"37.280392952","long":"126.55127365","items":[{"name":"구봉노래연습장","tel":"032-884-2121","addr":"경기도 안산시 단원구 대부북동 1870-59번지 2층","category":"레저업소 - 노 래 방"},{"name":"구봉도 활어회센타","tel":"032-888-1876","addr":"경기도 안산시 단원구 대부북동 1870-59번지","category":"음료식품 - 농·축·수산품"}]},{"lat":"37.2742049486","long":"126.5565534191","items":[{"name":"구봉도 버섯마을","tel":"032-881-6888","addr":"경기도 안산시 단원구 대부북동 1865-45번지","category":"숙박 및 음식점업 - 한식"}]},{"lat":"37.280700453","long":"126.55157626","items":[{"name":"구봉도 활어회센타","tel":"032-888-1876","addr":"경기도 안산시 단원구 대부북동 1870-8","category":"일반휴게음식 - 일반한식"},{"name":"해솔슈퍼","tel":"031-884-3022","addr":"경기도 안산시 단원구 대부북동 1870-8번지 101호","category":"유통업 영리 - 슈퍼마켓"},{"name":"해솔식당","tel":"032-884-3022","addr":"경기도 안산시 단원구 대부북동 1870-8번지 102호","category":"일반휴게음식 - 일반한식"}]},{"lat":"37.276729166","long":"126.54979593","items":[{"name":"구봉도가리비칼국수","tel":"032-888-1718","addr":"경기도 안산시 단원구 대부북동 1871-12번지 구봉어촌 1동 207호","category":"일반휴게음식 - 일반한식"},{"name":"기분좋은휴게실","tel":"031-885-7733","addr":"경기도 안산시 단원구 대부북동 1871-12 1-108","category":"신변잡화 - 기타잡화"},{"name":"김영미국제교육원","tel":"032-880-0580","addr":"경기도 안산시 단원구 대부북동 1871-12번지 구봉어촌 1동 303호","category":"학원 - 기타 교육기관"},{"name":"대부도카페","tel":"032-888-6627","addr":"경기도 안산시 단원구 대부북동 1871-12번지 구봉어촌 208호","category":"일반휴게음식 - 일반한식"},{"name":"독도횟집","tel":"032-886-4833","addr":"경기도 안산시 단원구 대부북동 1871-12번지 1동 103, 104호","category":"일반휴게음식 - 일반한식"},{"name":"독도횟집","tel":"032-886-4833","addr":"경기도 안산시 단원구 대부북동 1871-12번지 1동 104호 103","category":"일반휴게음식 - 일반한식"},{"name":"돌돌이회집","tel":"032-886-0998","addr":"경기도 안산시 단원구 대부북동 1871-12번지 구봉어촌 1동 106호","category":"일반휴게음식 - 일반한식"},{"name":"만사형통","tel":"032-887-2268","addr":"경기도 안산시 단원구 대부북동 1871-12번지 구봉어촌 1동 107호","category":"일반휴게음식 - 일반한식"},{"name":"바다노래연습장","tel":"031-886-3484","addr":"경기도 안산시 단원구 대부북동 1871-12번지 구봉어촌1동B03호","category":"레저업소 - 노 래 방"},{"name":"옹기 빚는 여인","tel":"032-880-9679","addr":"경기도 안산시 단원구 대부북동 1871-12번지 구봉어촌 1동 3층 308호","category":"문화.취미 - 민예·공예품"},{"name":"형제횟집","tel":"032-886-6556","addr":"경기도 안산시 단원구 대부북동 1871-12번지 구봉어촌 101호","category":"일반휴게음식 - 일반한식"}]},{"lat":"37.274204949","long":"126.55655342","items":[{"name":"구봉도버섯마을","tel":"032-881-2888","addr":"경기도 안산시 단원구 대부북동 1865-45번지 1층","category":"일반휴게음식 - 일반한식"},{"name":"낭만레스토랑","tel":"031-886-8459","addr":"경기도 안산시 단원구 대부북동 1865-45번지 1층","category":"일반휴게음식 - 서양음식"},{"name":"토닭","tel":"032-881-6888","addr":"경기도 안산시 단원구 대부북동 1865-45번지 1층","category":"일반휴게음식 - 일반한식"}]},{"lat":"37.2605673764","long":"126.5847708600","items":[{"name":"구봉양식장","tel":"032-885-4788","addr":"경기도 안산시 단원구 대부북동 11번지","category":"도매 및 소매업 - 수산물"}]},{"lat":"37.267507636","long":"126.56062899","items":[{"name":"구봉양식장","tel":"032-885-4788","addr":"경기도 안산시 단원구 대부북동 1865번지","category":"음료식품 - 농·축·수산품"}]},{"lat":"37.2703096837","long":"126.5728226357","items":[{"name":"구팔한우안산대부도점","tel":"032-880-9938","addr":"경기도 안산시 단원구 대부북동 1161-20번지","category":"숙박 및 음식점업 - 한식"},{"name":"제이엔제이","tel":"032-888-1226","addr":"경기도 안산시 단원구 대부북동 1161-20번지","category":"협회 및 단체, 수리 및 기타 개인서"}]},{"lat":"37.243562663","long":"126.58409843","items":[{"name":"군자농협대부지점","tel":"032-886-0182","addr":"경기도 안산시 단원구 대부북동 469-1번지","category":"농업 - 농기계"},{"name":"군자농협대부지점","tel":"032-886-3100","addr":"경기도 안산시 단원구 대부북동 469-1번지","category":"농업 - 비료,사료,종자"}]},{"lat":"37.257926991","long":"126.58466146","items":[{"name":"굽네치킨(대부도점)","tel":"032-880-0492","addr":"경기도 안산시 단원구 대부북동 38-7번지 1층 102호","category":"일반휴게음식 - 스넥"},{"name":"이기면가","tel":"032-880-0456","addr":"경기도 안산시 단원구 대부북동 38-7번지 1층 일부","category":"일반휴게음식 - 일반한식"}]},{"lat":"37.242513973","long":"126.58565951","items":[{"name":"굿모닝의원","tel":"032-881-7557","addr":"경기도 안산시 단원구 대부북동 485-5번지 2층 207호","category":"의원 - 의원"},{"name":"다이소 (대부점)","tel":"032-881-6016","addr":"경기도 안산시 단원구 대부북동 485-5번지 2층 101호","category":"신변잡화 - 기타잡화"},{"name":"대부수산","tel":"032-885-7254","addr":"경기도 안산시 단원구 대부북동 485-5번지 수산코너","category":"음료식품 - 농·축·수산품"},{"name":"럭키할인마트(대부점)","tel":"032-882-8326","addr":"경기도 안산시 단원구 대부북동 485-5번지 외3필지","category":"유통업 영리 - 슈퍼마켓"},{"name":"럭키할인마트정육코너","tel":"032-885-6289","addr":"경기도 안산시 단원구 대부북동 485-5번지","category":"음료식품 - 정육점"},{"name":"마트약국","tel":"032-881-1071","addr":"경기도 안산시 단원구 대부북동 485-5번지","category":"약국 - 약국"},{"name":"주식회사 럭키할인마트","tel":"032-882-8327","addr":"경기도 안산시 단원구 대부북동 485-5번지","category":"유통업 영리 - 슈퍼마켓"}]},{"lat":"37.2425139727","long":"126.5856595146","items":[{"name":"굿모닝의원","tel":"032-881-7555","addr":"경기도 안산시 단원구 대부북동 485-5번지","category":"보건업 및 사회복지서비스업 - 일반의"},{"name":"대부이조은치과의원","tel":"032-886-9536","addr":"경기도 안산시 단원구 대부북동 485-5번지","category":"보건업 및 사회복지서비스업 - 치과의"},{"name":"럭키할인마트정육코너","tel":"","addr":"경기도 안산시 단원구 대부북동 485-5번지","category":"도매 및 소매업 - 식육"},{"name":"마트약국","tel":"032-881-1071","addr":"경기도 안산시 단원구 대부북동 485-5번지","category":"도매 및 소매업 - 약국"},{"name":"주식회사 럭키할인마트","tel":"032-882-8326","addr":"경기도 안산시 단원구 대부북동 485-5번지","category":"도매 및 소매업 - 슈퍼"}]},{"lat":"37.257034739","long":"126.58205122","items":[{"name":"그린영농조합법인","tel":"032-886-9873","addr":"경기도 안산시 단원구 대부북동 1011-3번지","category":"음료식품 - 기타음료식품"}]},{"lat":"37.2570347389","long":"126.5820512162","items":[{"name":"그린영농조합법인","tel":"032-886-9873","addr":"경기도 안산시 단원구 대부북동 1011-3번지","category":"농업, 임업 및 어업 - 포도가공,축"},{"name":"대부도와인영농조합법인","tel":"032-886-7799","addr":"경기도 안산시 단원구 대부북동 1011-3번지","category":"농업, 임업 및 어업 - 주류,과수,"}]},{"lat":"37.242011233","long":"126.58618071","items":[{"name":"그린카정비","tel":"031-884-5182","addr":"경기도 안산시 단원구 대부북동 486-5번지","category":"자동차정비 유지 - 자동차정비"}]},{"lat":"37.2444589609","long":"126.5777144139","items":[{"name":"그린퓨처스","tel":"","addr":"경기도 안산시 단원구 대부북동 694-19","category":"농업, 임업 및 어업 - 육묘(채소,"}]},{"lat":"37.274891635","long":"126.56918859","items":[{"name":"길광고기획","tel":"032-882-2720","addr":"경기도 안산시 단원구 대부북동 1856-166번지","category":"용역 서비스 - 종합용역"}]},{"lat":"37.286367091","long":"126.57315979","items":[{"name":"까망조개이야기","tel":"032-891-3455","addr":"경기도 안산시 단원구 대부북동 1848-110번지","category":"일반휴게음식 - 일반한식"},{"name":"대부도청정수산물","tel":"032-886-8176","addr":"경기도 안산시 단원구 대부북동 1848-110번지 2층","category":"음료식품 - 농·축·수산품"}]},{"lat":"37.281363376","long":"126.55293669","items":[{"name":"까페시모","tel":"032-882-1276","addr":"경기도 안산시 단원구 대부북동 1870-82번지","category":"일반휴게음식 - 일반한식"}]},{"lat":"37.242842135","long":"126.58418131","items":[{"name":"꽃미남꽃미녀","tel":"032-885-7034","addr":"경기도 안산시 단원구 대부북동 472-5번지","category":"보건위생 - 미용원"},{"name":"대부화장품","tel":"032-888-7850","addr":"경기도 안산시 단원구 대부북동 472-5번지 1층","category":"보건위생 - 화장품"},{"name":"밥이랑술이랑","tel":"031-880-9866","addr":"경기도 안산시 단원구 대부북동 472-5번지 1층","category":"일반휴게음식 - 일반한식"},{"name":"시선집중","tel":"02-1111-1111","addr":"경기도 안산시 단원구 대부북동 472-5번지","category":"의류 - 정장"},{"name":"요리왕중화요리","tel":"","addr":"경기도 안산시 단원구 대부북동 472-5번지 2층","category":"일반휴게음식 - 중국식"},{"name":"장미커피호프","tel":"032-891-8117","addr":"경기도 안산시 단원구 대부북동 472-5번지 지하1층","category":"일반휴게음식 - 주점"}]},{"lat":"37.2422601012","long":"126.5852101099","items":[{"name":"꾼","tel":"","addr":"경기도 안산시 단원구 대부북동 492-3번지","category":"숙박 및 음식점업 - 기타음식"},{"name":"대부세탁소","tel":"032-882-9237","addr":"경기도 안산시 단원구 대부북동 492-3번지","category":"협회 및 단체, 수리 및 기타 개인서"},{"name":"서울뼈다귀감자탕","tel":"032-886-1060","addr":"경기도 안산시 단원구 대부북동 492-3번지","category":"숙박 및 음식점업 - 한식"}]},{"lat":"37.242260101","long":"126.58521011","items":[{"name":"꾼","tel":"032-884-4577","addr":"경기도 안산시 단원구 대부북동 492-3번지 1층","category":"일반휴게음식 - 일반한식"},{"name":"대부종묘농약사","tel":"032-883-8170","addr":"경기도 안산시 단원구 대부북동 492-3번지","category":"농업 - 비료,사료,종자"},{"name":"뼈다구싸다구","tel":"031-886-1060","addr":"경기도 안산시 단원구 대부북동 492-3번지 1층","category":"일반휴게음식 - 일반한식"},{"name":"상동아구찜탕","tel":"032-880-9899","addr":"경기도 안산시 단원구 대부북동 492-3번지 1층","category":"일반휴게음식 - 일반한식"},{"name":"서울뼈다귀감자탕","tel":"032-886-1060","addr":"경기도 안산시 단원구 대부북동 492-3번지 1층","category":"일반휴게음식 - 일반한식"},{"name":"중앙다방","tel":"032-886-1574","addr":"경기도 안산시 단원구 대부북동 492-3번지","category":"일반휴게음식 - 서양음식"}]},{"lat":"37.241759743","long":"126.58640749","items":[{"name":"나그네 부대찌개","tel":"032-886-3151","addr":"경기도 안산시 단원구 대부북동 526번지 1층","category":"일반휴게음식 - 일반한식"},{"name":"나그네부대찌개","tel":"032-886-3151","addr":"경기도 안산시 단원구 대부북동 526번지 1층","category":"일반휴게음식 - 일반한식"},{"name":"대부왕족발보쌈","tel":"032-882-1508","addr":"경기도 안산시 단원구 대부북동 526번지 중앙의원 1층 105호","category":"일반휴게음식 - 일반한식"},{"name":"대부이조은치과의원","tel":"032-886-9536","addr":"경기도 안산시 단원구 대부북동 526번지 중앙의원 202호","category":"의원 - 치과의원"},{"name":"명품농원","tel":"070-8031-4038","addr":"경기도 안산시 단원구 대부북동 526번지","category":"음료식품 - 농·축·수산품"},{"name":"이글스크린골프","tel":"032-886-0413","addr":"경기도 안산시 단원구 대부북동 526번지 2층","category":"회원제형태 - 레져업소"},{"name":"정진스크린골프","tel":"031-886-0413","addr":"경기도 안산시 단원구 대부북동 526번지 2층","category":"회원제형태 - 레져업소"},{"name":"코리아레포츠","tel":"031-1544-3438","addr":"경기도 안산시 단원구 대부북동 526번지 중앙의원 3층 305호","category":"레져용품 - 스포츠·레져용품"},{"name":"킹당구장","tel":"02-000-0000","addr":"경기도 안산시 단원구 대부북동 526번지 2층","category":"레저업소 - 당 구 장"}]},{"lat":"37.273815928","long":"126.5682364","items":[{"name":"나금왕새우낚시","tel":"032-888-0414","addr":"경기도 안산시 단원구 대부북동 1857-61번지 1층","category":"일반휴게음식 - 일반한식"},{"name":"대부도그집","tel":"032-880-9620","addr":"경기도 안산시 단원구 대부북동 1857-61번지 1층 C-1호","category":"일반휴게음식 - 일반한식"},{"name":"바바부단커피창고","tel":"02-000-0000","addr":"경기도 안산시 단원구 대부북동 1857-61번지 C-3, 1857-62번지","category":"일반휴게음식 - 서양음식"}]},{"lat":"37.240535177","long":"126.57401741","items":[{"name":"나도 당신도 편의점","tel":"070-4922-1261","addr":"경기도 안산시 단원구 대부북동 640번지","category":"유통업 영리 - 편 의 점"},{"name":"장호덕손만두(대부도2호점)","tel":"031-2231-1942","addr":"경기도 안산시 단원구 대부북동 640번지 1층","category":"일반휴게음식 - 일반한식"}]},{"lat":"37.243875583","long":"126.58340921","items":[{"name":"나들이정보","tel":"031-1566-3531","addr":"경기도 안산시 단원구 대부북동 305-5번지","category":"용역 서비스 - 종합용역"}]},{"lat":"37.296228854","long":"126.57443452","items":[{"name":"나루터","tel":"032-886-8852","addr":"경기도 안산시 단원구 대부북동 1955번지 2층","category":"일반휴게음식 - 일반한식"},{"name":"나루터","tel":"032-886-8852","addr":"경기도 안산시 단원구 대부북동 1955번지 2층","category":"일반휴게음식 - 일반한식"},{"name":"대부터미날마트","tel":"032-882-1760","addr":"경기도 안산시 단원구 대부북동 1955번지","category":"유통업 영리 - 슈퍼마켓"}]},{"lat":"37.277280157","long":"126.56941167","items":[{"name":"나무향기공방카페","tel":"","addr":"경기도 안산시 단원구 대부북동 1855-30번지 1층","category":"문화.취미 - 문화취미기타"}]},{"lat":"37.285335482","long":"126.57193651","items":[{"name":"나사","tel":"031-886-8059","addr":"경기도 안산시 단원구 대부북동 1848-124번지 1층","category":"일반휴게음식 - 주점"},{"name":"대부닭강정","tel":"032-889-0555","addr":"경기도 안산시 단원구 대부북동 1848-124번지 1층","category":"일반휴게음식 - 일반한식"}]},{"lat":"37.240039215","long":"126.57390752","items":[{"name":"낙지촌","tel":"032-880-1700","addr":"경기도 안산시 단원구 대부북동 640-23번지 1층","category":"일반휴게음식 - 일반한식"},{"name":"최가네춘천닭갈비","tel":"031-434-8292","addr":"경기도 안산시 단원구 대부북동 640-23번지 1층","category":"일반휴게음식 - 일반한식"}]},{"lat":"37.276420058","long":"126.55380047","items":[{"name":"낚시터식당","tel":"032-881-1559","addr":"경기도 안산시 단원구 대부북동 1870-40번지","category":"일반휴게음식 - 일반한식"}]},{"lat":"37.2876746110","long":"126.5759377375","items":[{"name":"노랑보랑베이커리카페","tel":"032-882-2279","addr":"경기도 안산시 단원구 대부북동 1848-185번지","category":"숙박 및 음식점업 - 제과,커피"},{"name":"장메밀왕돈가스","tel":"032-880-0468","addr":"경기도 안산시 단원구 대부북동 1848-185번지","category":"숙박 및 음식점업 - 기타음식"}]},{"lat":"37.287674611","long":"126.57593774","items":[{"name":"노랑보랑베이커리카페","tel":"032-882-2279","addr":"경기도 안산시 단원구 대부북동 1848-185번지 외4필지","category":"일반휴게음식 - 서양음식"},{"name":"메밀과감자촌","tel":"032-884-3233","addr":"경기도 안산시 단원구 대부북동 1848-185번지 1층","category":"일반휴게음식 - 일반한식"},{"name":"장메밀왕돈까스","tel":"","addr":"경기도 안산시 단원구 대부북동 1848-185번지 1층","category":"일반휴게음식 - 일반한식"}]},{"lat":"37.2767273906","long":"126.5516901812","items":[{"name":"노을이아름다운펜션","tel":"032-886-1838","addr":"경기도 안산시 단원구 대부북동 1871-14번지","category":"숙박 및 음식점업 - 펜션"}]},{"lat":"37.262895697","long":"126.56583034","items":[{"name":"놀러와카라반펜션","tel":"070-7404-1462","addr":"경기도 안산시 단원구 대부북동 1735-27번지","category":"레저업소 - 기타레져업소"}]},{"lat":"37.249566233","long":"126.56982971","items":[{"name":"농업회사법인주식회사웰빙대부도","tel":"032-886-9747","addr":"경기도 안산시 단원구 대부북동 1495번지","category":"음료식품 - 기타음료식품"}]},{"lat":"37.283002834","long":"126.56973969","items":[{"name":"농업회사법인주식회사해금송이","tel":"032-886-9747","addr":"경기도 안산시 단원구 대부북동 1849-7번지","category":"음료식품 - 농·축·수산품"},{"name":"대부축산유통","tel":"032-885-0092","addr":"경기도 안산시 단원구 대부북동 1849-7번지","category":"음료식품 - 정육점"}]},{"lat":"37.274641249","long":"126.55996714","items":[{"name":"늘푸른포도농장","tel":"032-772-7365","addr":"경기도 안산시 단원구 대부북동 1865-82번지","category":"음료식품 - 농·축·수산품"}]},{"lat":"37.274506521","long":"126.56008068","items":[{"name":"늘푸른포도농장","tel":"032-526-8858","addr":"경기도 안산시 단원구 대부북동 1865-83번지","category":"음료식품 - 농·축·수산품"}]},{"lat":"37.262059784","long":"126.58130178","items":[{"name":"다온조각카페","tel":"032-885-5566","addr":"경기도 안산시 단원구 대부북동 1037-7번지 2층","category":"일반휴게음식 - 서양음식"},{"name":"다온조각카페","tel":"032-885-5566","addr":"경기도 안산시 단원구 대부북동 1037-7번지 2층","category":"일반휴게음식 - 서양음식"},{"name":"보궁농원","tel":"032-880-9870","addr":"경기도 안산시 단원구 대부북동 1037-7번지 1층","category":"일반휴게음식 - 일반한식"}]},{"lat":"37.264618568","long":"126.56635023","items":[{"name":"다윌","tel":"032-885-1001","addr":"경기도 안산시 단원구 대부북동 1694-1번지","category":"음료식품 - 농·축·수산품"}]},{"lat":"37.285786886","long":"126.57218202","items":[{"name":"대갓집해물왕창칼국수","tel":"032-881-2543","addr":"경기도 안산시 단원구 대부북동 1848-118번지 ,1,2층","category":"일반휴게음식 - 일반한식"}]},{"lat":"37.2870373484","long":"126.5741257780","items":[{"name":"대갓집해물왕창칼국수","tel":"032-881-2543","addr":"경기도 안산시 단원구 대부북동 1848-100번지","category":"숙박 및 음식점업 - 칼국수"}]},{"lat":"37.265151151","long":"126.57901858","items":[{"name":"대관령황태구이","tel":"02-000-0000","addr":"경기도 안산시 단원구 대부북동 1094-1번지 1층","category":"일반휴게음식 - 일반한식"}]},{"lat":"37.242620505","long":"126.58520812","items":[{"name":"대명당구장","tel":"032-886-6086","addr":"경기도 안산시 단원구 대부북동 493-1번지 대명빌딩 2층","category":"레저업소 - 당 구 장"},{"name":"대부약국","tel":"032-886-2087","addr":"경기도 안산시 단원구 대부북동 493-1번지","category":"약국 - 약국"},{"name":"엄마분식","tel":"032-886-0244","addr":"경기도 안산시 단원구 대부북동 493-1번지","category":"일반휴게음식 - 일반한식"}]},{"lat":"37.277089625","long":"126.56905195","items":[{"name":"대부25슈퍼","tel":"032-885-4480","addr":"경기도 안산시 단원구 대부북동 1855-36번지 방아머리칼국수 1층 102호","category":"유통업 영리 - 슈퍼마켓"}]},{"lat":"37.280313539","long":"126.55171388","items":[{"name":"대부객주","tel":"032-880-9643","addr":"경기도 안산시 단원구 대부북동 1870-74번지 1층","category":"일반휴게음식 - 일반한식"}]},{"lat":"37.2803135392","long":"126.5517138791","items":[{"name":"대부갱주","tel":"032-880-9643","addr":"경기도 안산시 단원구 대부북동 1870-74번지","category":"숙박 및 음식점업 - 한식"}]},{"lat":"37.247704043","long":"126.57810194","items":[{"name":"대부고등학교","tel":"","addr":"경기도 안산시 단원구 대부북동 697-6번지 대부종합고등학교","category":"학원 - 초중고교육기관"},{"name":"대부고등학교_수업료","tel":"","addr":"경기도 안산시 단원구 대부북동 697-6번지 대부종합고등학교","category":"학원 - 초중고교육기관"},{"name":"대부중학교","tel":"031-880-3507","addr":"경기도 안산시 단원구 대부북동 697-6번지","category":"학원 - 초중고교육기관"},{"name":"우명리테일-대부고등학교점","tel":"","addr":"경기도 안산시 단원구 대부북동 697-6번지 대부종합고등학교","category":"음료식품 - 기타음료식품"}]},{"lat":"37.260394703","long":"126.56932808","items":[{"name":"대부국밥&불고기/농업회사법인(주)웰빙대부","tel":"","addr":"경기도 안산시 단원구 대부북동 1364-5번지 1층","category":"일반휴게음식 - 일반한식"}]},{"lat":"37.280730661","long":"126.56930167","items":[{"name":"대부낚시물류창고","tel":"032-882-5000","addr":"경기도 안산시 단원구 대부북동 1854-1번지","category":"레져용품 - 스포츠·레져용품"}]},{"lat":"37.239424692","long":"126.57340387","items":[{"name":"대부농산","tel":"","addr":"경기도 안산시 단원구 대부북동 639-20번지","category":"음료식품 - 농·축·수산품"}]},{"lat":"37.252899478","long":"126.57463491","items":[{"name":"대부농자재","tel":"032-882-5533","addr":"경기도 안산시 단원구 대부북동 802번지","category":"농업 - 농기계"}]},{"lat":"37.24289747","long":"126.58454165","items":[{"name":"대부다방","tel":"032-885-7080","addr":"경기도 안산시 단원구 대부북동 471-5번지 2층","category":"일반휴게음식 - 서양음식"},{"name":"대부상회","tel":"032-886-0418","addr":"경기도 안산시 단원구 대부북동 471-5번지","category":"신변잡화 - 신발"},{"name":"세명안경협동조합남대문안경","tel":"032-888-3200","addr":"경기도 안산시 단원구 대부북동 471-5번지","category":"보건위생 - 안경"}]},{"lat":"37.253315937","long":"126.57518487","items":[{"name":"대부단호박찐빵","tel":"032-889-5050","addr":"경기도 안산시 단원구 대부북동 814-1번지 1층","category":"음료식품 - 제과점"},{"name":"대부단호박찐빵","tel":"032-889-5050","addr":"경기도 안산시 단원구 대부북동 814-1번지","category":"음료식품 - 제과점"}]},{"lat":"37.2533159374","long":"126.5751848659","items":[{"name":"대부단호박찐빵","tel":"032-889-5050","addr":"경기도 안산시 단원구 대부북동 814-1번지","category":"숙박 및 음식점업 - 제과류"}]},{"lat":"37.2853354824","long":"126.5719365130","items":[{"name":"대부닭강정","tel":"","addr":"경기도 안산시 단원구 대부북동 1848-124번지","category":"숙박 및 음식점업 - 일반음식"}]},{"lat":"37.2432365453","long":"126.5836043472","items":[{"name":"대부도 빵집","tel":"031-884-3150","addr":"경기도 안산시 단원구 대부북동 449-3번지","category":"숙박 및 음식점업 - 제과점"},{"name":"바다 헤어라인","tel":"032-885-3119","addr":"경기도 안산시 단원구 대부북동 449-3번지","category":"도매 및 소매업 - 미용업 화장품"}]},{"lat":"37.2877831378","long":"126.5760498932","items":[{"name":"대부도 전동바이크& 바다향기 휴게소","tel":"","addr":"경기도 안산시 단원구 대부북동 1848-182번지","category":"협회 및 단체, 수리 및 기타 개인서"},{"name":"알로하피크닉","tel":"","addr":"경기도 안산시 단원구 대부북동 1848-182번지","category":"도매 및 소매업 - 스포츠 및 레크레"}]},{"lat":"37.287783138","long":"126.57604989","items":[{"name":"대부도 전동바이크&바다향기 휴게소","tel":"032-884-3233","addr":"경기도 안산시 단원구 대부북동 1848-182번지","category":"레져용품 - 스포츠·레져용품"},{"name":"알로하피크닉","tel":"031-000-0000","addr":"경기도 안산시 단원구 대부북동 1848-182번지 2층","category":"레져용품 - 스포츠·레져용품"}]},{"lat":"37.276810273","long":"126.56904228","items":[{"name":"대부도24시슈퍼,낚시","tel":"032-886-0450","addr":"경기도 안산시 단원구 대부북동 1855-37번지 (101,102,103)","category":"유통업 영리 - 슈퍼마켓"}]},{"lat":"37.281448196","long":"126.56840676","items":[{"name":"대부도관광레저 협동조합","tel":"070-4401-2544","addr":"경기도 안산시 단원구 대부북동 산20-6번지 101호","category":"레져용품 - 스포츠·레져용품"},{"name":"대부도레져타운","tel":"070-4401-2544","addr":"경기도 안산시 단원구 대부북동 산20-6번지 산20-7","category":"레저업소 - 기타레져업소"},{"name":"대부맛집바지락손칼국수","tel":"032-886-8845","addr":"경기도 안산시 단원구 대부북동 산20-6번지 1층 106호","category":"일반휴게음식 - 일반한식"},{"name":"삼다도","tel":"032-886-6801","addr":"경기도 안산시 단원구 대부북동 산20-6번지 1층","category":"일반휴게음식 - 일반한식"},{"name":"솔밭횟집","tel":"032-886-2993","addr":"경기도 안산시 단원구 대부북동 산20-6번지 101호","category":"일반휴게음식 - 일반한식"},{"name":"에바다","tel":"032-887-9191","addr":"경기도 안산시 단원구 대부북동 산20-6번지 1층 107호","category":"일반휴게음식 - 서양음식"},{"name":"충무공이순신","tel":"032-886-8845","addr":"경기도 안산시 단원구 대부북동 산20-6번지","category":"일반휴게음식 - 일식·회집"},{"name":"파도","tel":"031-357-6040","addr":"경기도 안산시 단원구 대부북동 산20-6번지 110호","category":"음료식품 - 농·축·수산품"},{"name":"파도마루","tel":"070-7614-3579","addr":"경기도 안산시 단원구 대부북동 산20-6번지 1층 110호","category":"일반휴게음식 - 서양음식"},{"name":"파도슈퍼","tel":"032-888-8387","addr":"경기도 안산시 단원구 대부북동 산20-6번지","category":"유통업 영리 - 슈퍼마켓"},{"name":"해월","tel":"032-882-5292","addr":"경기도 안산시 단원구 대부북동 산20-6번지 114호","category":"음료식품 - 농·축·수산품"}]},{"lat":"37.282784447","long":"126.56915458","items":[{"name":"대부도낚시물류창고","tel":"032-887-2788","addr":"경기도 안산시 단원구 대부북동 1850-3번지","category":"레져용품 - 스포츠·레져용품"}]},{"lat":"37.2814481958","long":"126.5684067581","items":[{"name":"대부도레저타운","tel":"032-886-9100","addr":"경기도 안산시 단원구 대부북동 산20-6번지","category":"예술, 스포츠 및 여가관련 서비스업"},{"name":"솔밭회집","tel":"032-886-2992","addr":"경기도 안산시 단원구 대부북동 산20-6번지","category":"숙박 및 음식점업 - 요식업"},{"name":"에바다","tel":"032-887-9191","addr":"경기도 안산시 단원구 대부북동 산20-6번지","category":"숙박 및 음식점업 - 카페"},{"name":"충무공이순신","tel":"032-886-6801","addr":"경기도 안산시 단원구 대부북동 산20-6번지","category":"숙박 및 음식점업 - 일식"}]},{"lat":"37.281093261","long":"126.54827008","items":[{"name":"대부도맛집","tel":"032-886-2314","addr":"경기도 안산시 단원구 대부북동 산34-1번지","category":"일반휴게음식 - 일반한식"},{"name":"산호회집","tel":"032-886-1521","addr":"경기도 안산시 단원구 대부북동 산34-1","category":"음료식품 - 농·축·수산품"}]},{"lat":"37.2882549483","long":"126.5769606613","items":[{"name":"대부도보물섬 특산품점","tel":"032-890-4289","addr":"경기도 안산시 단원구 대부북동 1847-13번지","category":"도매 및 소매업 - 특산품,잡화"}]},{"lat":"37.288254948","long":"126.57696066","items":[{"name":"대부도보물섬특산품점","tel":"031-890-4289","addr":"경기도 안산시 단원구 대부북동 1847-13번지 2층","category":"음료식품 - 기타음료식품"}]},{"lat":"37.243236545","long":"126.58360435","items":[{"name":"대부도빵집","tel":"031-884-3150","addr":"경기도 안산시 단원구 대부북동 449-3번지","category":"음료식품 - 제과점"},{"name":"수연반찬","tel":"032-818-0157","addr":"경기도 안산시 단원구 대부북동 449-3번지 1층","category":"음료식품 - 기타음료식품"}]},{"lat":"37.286143723","long":"126.57367978","items":[{"name":"대부도수산","tel":"","addr":"경기도 안산시 단원구 대부북동 1844-5번지 외 오션시티종합어시장 A동 117,126호","category":"음료식품 - 농·축·수산품"},{"name":"바다수산","tel":"031-483-3060","addr":"경기도 안산시 단원구 대부북동 1844-5번지 오션시티종합어시장 A동 104호,105호","category":"음료식품 - 농·축·수산품"},{"name":"새우랑닭이랑","tel":"032-880-9616","addr":"경기도 안산시 단원구 대부북동 1844-5번지 A동 1층 111호","category":"일반휴게음식 - 일반한식"},{"name":"아침수산","tel":"032-890-4227","addr":"경기도 안산시 단원구 대부북동 1844-5번지 외 4필지 135,136호","category":"음료식품 - 농·축·수산품"},{"name":"전라도이모네양념집","tel":"032-8800-0537","addr":"경기도 안산시 단원구 대부북동 1844-5번지 A동 201-205호","category":"일반휴게음식 - 일반한식"},{"name":"정은수산","tel":"031-483-3060","addr":"경기도 안산시 단원구 대부북동 1844-5번지 A동 112,113호","category":"음료식품 - 농·축·수산품"},{"name":"큰손","tel":"032-890-4260","addr":"경기도 안산시 단원구 대부북동 1844-5번지 A동 208,209호","category":"일반휴게음식 - 일반한식"},{"name":"팔도강산","tel":"","addr":"경기도 안산시 단원구 대부북동 1844-5번지 B동 110-112호","category":"음료식품 - 농·축·수산품"},{"name":"황금어장","tel":"","addr":"경기도 안산시 단원구 대부북동 1844-5번지 에이동 131,132호","category":"음료식품 - 농·축·수산품"},{"name":"효도수산","tel":"031-410-2400","addr":"경기도 안산시 단원구 대부북동 1844-5번지 오션시티종합어시장 A동 137,138호","category":"음료식품 - 농·축·수산품"}]},{"lat":"37.260897175","long":"126.57121904","items":[{"name":"대부도정보화마을영농조합법인","tel":"032-886-5200","addr":"경기도 안산시 단원구 대부북동 1302-1번지","category":"농업 - 기타농업관련"}]},{"lat":"37.264396233","long":"126.56959825","items":[{"name":"대부도칼국수","tel":"032-886-3877","addr":"경기도 안산시 단원구 대부북동 1710-2번지 1층","category":"일반휴게음식 - 일반한식"}]},{"lat":"37.2670087551","long":"126.5597412771","items":[{"name":"대부도펜션반딧불","tel":"032-886-8131","addr":"경기도 안산시 단원구 대부북동 1864-2번지","category":"숙박 및 음식점업 - 민박,매점,통신"}]},{"lat":"37.288423336","long":"126.5761816","items":[{"name":"대부도풍천민물장어직판장","tel":"032-880-0595","addr":"경기도 안산시 단원구 대부북동 1848-50번지 1층","category":"일반휴게음식 - 일반한식"},{"name":"대부영흥낚시1번지","tel":"032-889-5489","addr":"경기도 안산시 단원구 대부북동 1848-50번지,52,54,57","category":"레져용품 - 스포츠·레져용품"},{"name":"소문난수산","tel":"032-886-1566","addr":"경기도 안산시 단원구 대부북동 1848-50번지","category":"음료식품 - 농·축·수산품"},{"name":"위드미대부도점","tel":"031-985-3179","addr":"경기도 안산시 단원구 대부북동 1848-50, 52,54,57","category":"유통업 영리 - 편 의 점"},{"name":"주식회사 양지","tel":"031-111-1111","addr":"경기도 안산시 단원구 대부북동 1848-50번지 1층","category":"레져용품 - 스포츠·레져용품"}]},{"lat":"37.2884233361","long":"126.5761816008","items":[{"name":"대부도풍천민물장어직판장","tel":"032-880-0595","addr":"경기도 안산시 단원구 대부북동 1848-50번지","category":"숙박 및 음식점업 - 한식"}]},{"lat":"37.258844159","long":"126.57158021","items":[{"name":"대부도협동조합","tel":"032-888-0304","addr":"경기도 안산시 단원구 대부북동 1331-2번지","category":"음료식품 - 기타음료식품"}]},{"lat":"37.287418014","long":"126.57474384","items":[{"name":"대부도횟집","tel":"","addr":"경기도 안산시 단원구 대부북동 1848-93번지 1층","category":"일반휴게음식 - 일반한식"},{"name":"일번지수산","tel":"032-882-6001","addr":"경기도 안산시 단원구 대부북동 1848-93.","category":"음료식품 - 농·축·수산품"},{"name":"조개일번지","tel":"02-7600-2804","addr":"경기도 안산시 단원구 대부북동 1848-93번지 1층","category":"일반휴게음식 - 일반한식"},{"name":"조개일번지","tel":"032-882-6001","addr":"경기도 안산시 단원구 대부북동 1848-93번지","category":"일반휴게음식 - 일반한식"}]},{"lat":"37.278422404","long":"126.56885262","items":[{"name":"대부마트","tel":"032-574-9078","addr":"경기도 안산시 단원구 대부북동 1855-4번지","category":"유통업 영리 - 슈퍼마켓"}]},{"lat":"37.2686207412","long":"126.5692471024","items":[{"name":"대부맛집청미","tel":"032-887-1108","addr":"경기도 안산시 단원구 대부북동 1826-156번지","category":"숙박 및 음식점업 - 한식점업"}]},{"lat":"37.268620741","long":"126.5692471","items":[{"name":"대부맛집청미","tel":"032-887-1108","addr":"경기도 안산시 단원구 대부북동 1826-156번지 1층","category":"일반휴게음식 - 일반한식"}]},{"lat":"37.2433167566","long":"126.5757936167","items":[{"name":"대부매콤명태조림","tel":"032-880-9985","addr":"경기도 안산시 단원구 대부북동 648-1번지","category":"숙박 및 음식점업 - 일반음식"}]},{"lat":"37.243316757","long":"126.57579362","items":[{"name":"대부매콤명태조림","tel":"032-880-9985","addr":"경기도 안산시 단원구 대부북동 648-1번지 1층","category":"일반휴게음식 - 일반한식"}]},{"lat":"37.2421802024","long":"126.5855486534","items":[{"name":"대부명성한의원","tel":"032-886-8081","addr":"경기도 안산시 단원구 대부북동 491-3번지","category":"보건업 및 사회복지서비스업 - 한의원"}]},{"lat":"37.242180202","long":"126.58554865","items":[{"name":"대부명성한의원","tel":"032-886-8081","addr":"경기도 안산시 단원구 대부북동 491-3번지 1층2호3호","category":"의원 - 한의원"},{"name":"번개오토바이","tel":"032-884-6340","addr":"경기도 안산시 단원구 대부북동 491-3번지","category":"수리서비스 - 레져용품수리"},{"name":"빅마트","tel":"031-111-1111","addr":"경기도 안산시 단원구 대부북동 491-3번지 종하빌딩","category":"유통업 영리 - 슈퍼마켓"},{"name":"우진창호","tel":"031-886-3698","addr":"경기도 안산시 단원구 대부북동 491-3번지","category":"건축자재 - 보일러·펌프·샷시"}]},{"lat":"37.279035452","long":"126.55207105","items":[{"name":"대부바다낚시","tel":"032-886-4130","addr":"경기도 안산시 단원구 대부북동 1870-70 70,71,72,73번지","category":"레저업소 - 기타레져업소"},{"name":"대부바다낚시","tel":"031-886-4130","addr":"경기도 안산시 단원구 대부북동 1870-70.71.72.73번지","category":"레저업소 - 기타레져업소"}]},{"lat":"37.243928165","long":"126.58299192","items":[{"name":"대부바다농장","tel":"031-886-7691","addr":"경기도 안산시 단원구 대부북동 306-6번지 1층","category":"음료식품 - 농·축·수산품"}]},{"lat":"37.290392295","long":"126.58254214","items":[{"name":"대부섬낚시","tel":"032-884-0336","addr":"경기도 안산시 단원구 대부북동 1848-366번지","category":"레져용품 - 스포츠·레져용품"},{"name":"대포네칼국수","tel":"032-884-1524","addr":"경기도 안산시 단원구 대부북동 1848-366번지","category":"일반휴게음식 - 일반한식"},{"name":"방아머리회집","tel":"032-884-1524","addr":"경기도 안산시 단원구 대부북동 1848-366번지","category":"일반휴게음식 - 일반한식"}]},{"lat":"37.243006905","long":"126.58491296","items":[{"name":"대부세탁소","tel":"032-882-9237","addr":"경기도 안산시 단원구 대부북동 473-1번지","category":"수리서비스 - 세탁소"}]},{"lat":"37.265534299","long":"126.57782143","items":[{"name":"대부슈퍼","tel":"032-882-1747","addr":"경기도 안산시 단원구 대부북동 1253-1번지","category":"유통업 영리 - 슈퍼마켓"}]},{"lat":"37.250700266","long":"126.57693544","items":[{"name":"대부실버케어","tel":"031-882-1107","addr":"경기도 안산시 단원구 대부북동 749-1번지","category":"기타의료기관 - 기타의료기관 및 기타"}]},{"lat":"37.2424836830","long":"126.5847355307","items":[{"name":"대부아울렛마트","tel":"031-886-3678","addr":"경기도 안산시 단원구 대부북동 496-1번지","category":"도매 및 소매업 - 할인마트"}]},{"lat":"37.242483683","long":"126.58473553","items":[{"name":"대부아울렛마트","tel":"032-886-3678","addr":"경기도 안산시 단원구 대부북동 496-1번지","category":"유통업 영리 - 슈퍼마켓"}]},{"lat":"37.2426205047","long":"126.5852081212","items":[{"name":"대부약국","tel":"032-886-2087","addr":"경기도 안산시 단원구 대부북동 493-1번지","category":"도매 및 소매업 - 의약품"}]},{"lat":"37.27955977","long":"126.55016234","items":[{"name":"대부영어조합법인","tel":"032-886-9446","addr":"경기도 안산시 단원구 대부북동 1870-1","category":"음료식품 - 농·축·수산품"}]},{"lat":"37.2607870417","long":"126.5609050140","items":[{"name":"대부오름","tel":"","addr":"경기도 안산시 단원구 대부북동 1665-4번지","category":"도매 및 소매업 - 슈퍼마켓,전자상거"}]},{"lat":"37.260977094","long":"126.56112936","items":[{"name":"대부오름","tel":"032-526-0110","addr":"경기도 안산시 단원구 대부북동 1665-2번지 1층","category":"유통업 영리 - 슈퍼마켓"}]},{"lat":"37.249014248","long":"126.57662934","items":[{"name":"대부옥수수찐빵분식","tel":"032-884-7795","addr":"경기도 안산시 단원구 대부북동 737번지","category":"일반휴게음식 - 스넥"},{"name":"티오커피 (COFFEE)","tel":"032-885-4013","addr":"경기도 안산시 단원구 대부북동 737번지 102호","category":"일반휴게음식 - 서양음식"}]},{"lat":"37.261259791","long":"126.56935694","items":[{"name":"대부왕손찐빵만두","tel":"032-881-1142","addr":"경기도 안산시 단원구 대부북동 1395-1번지","category":"일반휴게음식 - 스넥"}]},{"lat":"37.243067706","long":"126.58427023","items":[{"name":"대부이불","tel":"032-886-1372","addr":"경기도 안산시 단원구 대부북동 471-1번지","category":"직물 - 침구·수예점"}]},{"lat":"37.2443952104","long":"126.5825723208","items":[{"name":"대부이엠학원","tel":"032-884-6633","addr":"경기도 안산시 단원구 대부북동 288-2번지","category":"교육서비스업 - 보습학원"}]},{"lat":"37.242203017","long":"126.5843539","items":[{"name":"대부이엠학원","tel":"032-884-6633","addr":"경기도 안산시 단원구 대부북동 501-8번지","category":"학원 - 보습학원"},{"name":"진미한식부페","tel":"032-880-0497","addr":"경기도 안산시 단원구 대부북동 501-8번지 제A동 1층","category":"일반휴게음식 - 일반한식"},{"name":"투존치킨","tel":"032-886-0113","addr":"경기도 안산시 단원구 대부북동 501-8번지","category":"일반휴게음식 - 스넥"},{"name":"한우마을","tel":"032-882-1553","addr":"경기도 안산시 단원구 대부북동 501-8번지","category":"일반휴게음식 - 일반한식"}]},{"lat":"37.2688094149","long":"126.5690994578","items":[{"name":"대부점 현대자동차","tel":"032-882-0043","addr":"경기도 안산시 단원구 대부북동 1826-155번지","category":"협회 및 단체, 수리 및 기타 개인서"}]},{"lat":"37.268809415","long":"126.56909946","items":[{"name":"대부점 현대자동차","tel":"032-882-0043","addr":"경기도 안산시 단원구 대부북동 1826-155번지","category":"자동차정비 유지 - 자동차정비"}]},{"lat":"37.2417907815","long":"126.5849872990","items":[{"name":"대부종묘농약사","tel":"032-883-8170","addr":"경기도 안산시 단원구 대부북동 507번지","category":"도매 및 소매업 - 종약,농약,비료"},{"name":"들꽃향기","tel":"","addr":"경기도 안산시 단원구 대부북동 507번지","category":"도매 및 소매업 - 화훼"}]},{"lat":"37.2674761372","long":"126.5691634750","items":[{"name":"대부종합공구상사","tel":"032-881-0209","addr":"경기도 안산시 단원구 대부북동 1827번지","category":"부동산업 및 임대업 - 점포, 공구"}]},{"lat":"37.2672309241","long":"126.5686350121","items":[{"name":"대부종합목재","tel":"032-886-2448","addr":"경기도 안산시 단원구 대부북동 1826-22번지","category":"도매 및 소매업 - 목재"}]},{"lat":"37.253811002","long":"126.57504681","items":[{"name":"대부종합상사","tel":"032-886-6999","addr":"경기도 안산시 단원구 대부북동 811번지","category":"유통업 영리 - 슈퍼마켓"}]},{"lat":"37.243119893","long":"126.58374024","items":[{"name":"대부체육관","tel":"032-886-9696","addr":"경기도 안산시 단원구 대부북동 449-10번지 2층","category":"학원 - 예·체능계학원"},{"name":"또래오래 대부점","tel":"032-884-3392","addr":"경기도 안산시 단원구 대부북동 449-10번지","category":"일반휴게음식 - 스넥"},{"name":"머리박사","tel":"032-885-4006","addr":"경기도 안산시 단원구 대부북동 449-10번지 102호","category":"보건위생 - 미용원"}]},{"lat":"37.245207146","long":"126.58032498","items":[{"name":"대부초등학교","tel":"031-883-0441","addr":"경기도 안산시 단원구 대부북동 181번지 대부초등학교","category":"학원 - 초중고교육기관"},{"name":"대부초등학교병설유치원[아이행복]","tel":"032-883-0441","addr":"경기도 안산시 단원구 대부북동 181번지","category":"학원 - 유치원"}]},{"lat":"37.245231187","long":"126.58201542","items":[{"name":"대부페인트","tel":"032-6403-2954","addr":"경기도 안산시 단원구 대부북동 263-2번지 1층","category":"건축자재 - 페인트"},{"name":"홍연가 농원","tel":"031-884-0089","addr":"경기도 안산시 단원구 대부북동 263-2번지 1층","category":"음료식품 - 기타음료식품"},{"name":"홍연가 농원","tel":"031-473-9107","addr":"경기도 안산시 단원구 대부북동 263-2번지 1층","category":"음료식품 - 기타음료식품"}]},{"lat":"37.241708616","long":"126.58468346","items":[{"name":"대성","tel":"","addr":"경기도 안산시 단원구 대부북동 508-8번지","category":"레져용품 - 스포츠·레져용품"},{"name":"상동회센터","tel":"032-880-0563","addr":"경기도 안산시 단원구 대부북동 508-8번지 1층","category":"일반휴게음식 - 일식·회집"},{"name":"파슈(passu)헤어살롱","tel":"032-880-9746","addr":"경기도 안산시 단원구 대부북동 508-8번지 1층","category":"보건위생 - 미용원"}]},{"lat":"37.261143156","long":"126.56949289","items":[{"name":"대성목재","tel":"032-883-1313","addr":"경기도 안산시 단원구 대부북동 1394-1번지 101호","category":"건축자재 - 목재·석재·철물"},{"name":"대주전기조명","tel":"032-886-0477","addr":"경기도 안산시 단원구 대부북동 1394-1번지 1호","category":"건축자재 - 조명기구"}]},{"lat":"37.271366917","long":"126.57118183","items":[{"name":"대성카센터","tel":"032-884-6866","addr":"경기도 안산시 단원구 대부북동 1161-82번지","category":"자동차정비 유지 - 자동차정비"}]},{"lat":"37.267865667","long":"126.56240817","items":[{"name":"대양호","tel":"032-886-0194","addr":"경기도 안산시 단원구 대부북동 1863-1번지","category":"음료식품 - 농·축·수산품"}]},{"lat":"37.292480437","long":"126.57688045","items":[{"name":"대양호","tel":"032-886-0194","addr":"경기도 안산시 단원구 대부북동 1848-445번지 1층 2호","category":"일반휴게음식 - 일반한식"}]},{"lat":"37.261394323","long":"126.56918708","items":[{"name":"대영레미콘판매(주)","tel":"032-886-2855","addr":"경기도 안산시 단원구 대부북동 1401-1번지","category":"건축자재 - 기타건축자재"},{"name":"케이냉동","tel":"031-319-0069","addr":"경기도 안산시 단원구 대부북동 1401-1번지","category":"주방용구 - 주방용구"}]},{"lat":"37.241594993","long":"126.58312883","items":[{"name":"대영상사","tel":"032-346-3542","addr":"경기도 안산시 단원구 대부북동 332번지","category":"건축자재 - 기타건축자재"}]},{"lat":"37.287313275","long":"126.57568041","items":[{"name":"대일호","tel":"032-883-1362","addr":"경기도 안산시 단원구 대부북동 1848-75번지","category":"음료식품 - 농·축·수산품"},{"name":"허벌네횟집","tel":"032-883-1362","addr":"경기도 안산시 단원구 대부북동 1848-75번지 1층","category":"일반휴게음식 - 일반한식"}]},{"lat":"37.259062179","long":"126.58463264","items":[{"name":"대진골재","tel":"","addr":"경기도 안산시 단원구 대부북동 23-6번지 (1,2,3호3칸)","category":"건축자재 - 기타건축자재"}]},{"lat":"37.244593212","long":"126.56510204","items":[{"name":"대한불교법상종대선사","tel":"032-885-0996","addr":"경기도 안산시 단원구 대부북동 1570-2 외2필지","category":"보건위생 - 기타대인서비스"}]},{"lat":"37.251396759","long":"126.58273632","items":[{"name":"대한불교조계종자현사","tel":"032-883-9033","addr":"경기도 안산시 단원구 대부북동 123번지","category":"보건위생 - 기타대인서비스"}]},{"lat":"37.243733791","long":"126.57901457","items":[{"name":"대흥버섯","tel":"","addr":"경기도 안산시 단원구 대부북동 199-4","category":"음료식품 - 농·축·수산품"}]},{"lat":"37.2437337908","long":"126.5790145737","items":[{"name":"대흥버섯","tel":"","addr":"경기도 안산시 단원구 대부북동 199-4","category":"도매 및 소매업 - 농산물"}]},{"lat":"37.241812932","long":"126.58615926","items":[{"name":"댕댕이","tel":"","addr":"경기도 안산시 단원구 대부북동 487번지 2층","category":"음료식품 - 기타음료식품"}]},{"lat":"37.280280543","long":"126.54780139","items":[{"name":"더나인","tel":"032-7200-1113","addr":"경기도 안산시 단원구 대부북동 1870-37번지","category":"신변잡화 - 액세서리"},{"name":"종현매점","tel":"032-889-7009","addr":"경기도 안산시 단원구 대부북동 1870-37번지 종현농어촌체험휴양마을내 1층","category":"음료식품 - 기타음료식품"},{"name":"종현어촌계","tel":"032-886-6044","addr":"경기도 안산시 단원구 대부북동 1870-37번지 1층","category":"학원 - 기타 교육기관"},{"name":"종현어촌계","tel":"032-886-6044","addr":"경기도 안산시 단원구 대부북동 1870-37번지","category":"학원 - 기타 교육기관"}]},{"lat":"37.2767291661","long":"126.5497959333","items":[{"name":"독도 조개타운","tel":"032-886-4833","addr":"경기도 안산시 단원구 대부북동 1871-12번지","category":"숙박 및 음식점업 - 한식"},{"name":"돌돌이횟집","tel":"032-886-0998","addr":"경기도 안산시 단원구 대부북동 1871-12번지","category":"숙박 및 음식점업 - 한식"},{"name":"형제횟집","tel":"032-886-6556","addr":"경기도 안산시 단원구 대부북동 1871-12번지","category":"숙박 및 음식점업 - 한식"}]},{"lat":"37.239705655","long":"126.56646013","items":[{"name":"독도바다낚시터","tel":"032-884-1111","addr":"경기도 안산시 단원구 대부북동 642-172번지","category":"레저업소 - 기타레져업소"}]},{"lat":"37.2838639531","long":"126.5686860547","items":[{"name":"동서가든","tel":"032-885-4461","addr":"경기도 안산시 단원구 대부북동 1851-2번지","category":"숙박 및 음식점업 - 한식"}]},{"lat":"37.283863953","long":"126.56868605","items":[{"name":"동서가든","tel":"032-885-4461","addr":"경기도 안산시 단원구 대부북동 1851-2번지 1층","category":"일반휴게음식 - 일반한식"}]},{"lat":"37.242511442","long":"126.57485147","items":[{"name":"동양낚시","tel":"032-882-1828","addr":"경기도 안산시 단원구 대부북동 642번지 105호","category":"레져용품 - 스포츠·레져용품"},{"name":"명가갯마을","tel":"032-886-9119","addr":"경기도 안산시 단원구 대부북동 642번지 1층","category":"일반휴게음식 - 일반한식"}]},{"lat":"37.287698832","long":"126.5751595","items":[{"name":"동원횟집","tel":"032-881-8811","addr":"경기도 안산시 단원구 대부북동 1848-78번지 1,2층 209호","category":"일반휴게음식 - 일반한식"},{"name":"동원횟집(조개구이)","tel":"032-881-8811","addr":"경기도 안산시 단원구 대부북동 1848-78번지","category":"일반휴게음식 - 일식·회집"}]},{"lat":"37.2876988321","long":"126.5751594968","items":[{"name":"동원횟집","tel":"032-881-8811","addr":"경기도 안산시 단원구 대부북동 1848-78번지","category":"숙박 및 음식점업 - 일반음식"}]},{"lat":"37.287590101","long":"126.57499096","items":[{"name":"동해수산","tel":"031-881-8811","addr":"경기도 안산시 단원구 대부북동 1848-84번지","category":"음료식품 - 농·축·수산품"}]},{"lat":"37.241790782","long":"126.5849873","items":[{"name":"들꽃향기","tel":"031-000-0000","addr":"경기도 안산시 단원구 대부북동 507번지","category":"문화.취미 - 화원"},{"name":"시화건재","tel":"032-886-8236","addr":"경기도 안산시 단원구 대부북동 507번지","category":"기타 - 기계공구"}]},{"lat":"37.241097879","long":"126.58523906","items":[{"name":"디디치킨(대부도점)","tel":"032-882-2277","addr":"경기도 안산시 단원구 대부북동 517-5번지","category":"일반휴게음식 - 스넥"},{"name":"백년손님","tel":"032-880-9835","addr":"경기도 안산시 단원구 대부북동 517-5번지 1층","category":"일반휴게음식 - 일반한식"},{"name":"선영막창구이","tel":"032-880-0466","addr":"경기도 안산시 단원구 대부북동 517-5번지 1층","category":"일반휴게음식 - 일반한식"}]},{"lat":"37.244619902","long":"126.58241329","items":[{"name":"떡볶이스타 집밥도시락","tel":"032-887-2299","addr":"경기도 안산시 단원구 대부북동 267-1번지 1층 일부","category":"일반휴게음식 - 일반한식"}]},{"lat":"37.2762519651","long":"126.5522455010","items":[{"name":"뜨락","tel":"","addr":"경기도 안산시 단원구 대부북동 1871-21번지","category":"숙박 및 음식점업 - 민박"}]},{"lat":"37.25536687","long":"126.57674009","items":[{"name":"라라랜드(LALALAND)","tel":"032-880-9743","addr":"경기도 안산시 단원구 대부북동 906번지","category":"일반휴게음식 - 일반한식"}]},{"lat":"37.276757534","long":"126.56940339","items":[{"name":"라이브음향","tel":"032-880-9887","addr":"경기도 안산시 단원구 대부북동 1856-8번지","category":"전기제품 - 가전제품"},{"name":"한신종합 (건축) 설비","tel":"032-885-3044","addr":"경기도 안산시 단원구 대부북동 1856-8번지 지층","category":"용역 서비스 - 기타용역서비스"}]},{"lat":"37.255619318","long":"126.58182238","items":[{"name":"라임향기처럼","tel":"032-888-8382","addr":"경기도 안산시 단원구 대부북동 977번지 1층 상가","category":"일반휴게음식 - 서양음식"}]},{"lat":"37.265731224","long":"126.57745957","items":[{"name":"러빈 (Luvin)","tel":"032-886-7760","addr":"경기도 안산시 단원구 대부북동 1248-1번지 1층","category":"일반휴게음식 - 서양음식"},{"name":"우렁이세상","tel":"032-882-1352","addr":"경기도 안산시 단원구 대부북동 1248-1번지 1층","category":"일반휴게음식 - 일반한식"}]},{"lat":"37.247231715","long":"126.57704513","items":[{"name":"레온 (LEON)","tel":"032-3648-7968","addr":"경기도 안산시 단원구 대부북동 697-3번지 1층 5호","category":"의류 - 정장"},{"name":"오다가다 찬방","tel":"031-111-1111","addr":"경기도 안산시 단원구 대부북동 697-3번지 1층 2호","category":"음료식품 - 기타음료식품"},{"name":"오다가다 한끼","tel":"032-880-9623","addr":"경기도 안산시 단원구 대부북동 697-3번지","category":"일반휴게음식 - 일반한식"},{"name":"쿠로쌀롱","tel":"","addr":"경기도 안산시 단원구 대부북동 697-3번지 1층 6호","category":"보건위생 - 피부미용실"}]},{"lat":"37.288446753","long":"126.57768131","items":[{"name":"로그보트(Log Boat)","tel":"032-888-6652","addr":"경기도 안산시 단원구 대부북동 1847-20번지 1층","category":"레져용품 - 스포츠·레져용품"},{"name":"백제레저여가문화진흥협회","tel":"032-889-1929","addr":"경기도 안산시 단원구 대부북동 1847-20번지 2층","category":"학원 - 기타 교육기관"}]},{"lat":"37.287535755","long":"126.57491233","items":[{"name":"림스키친","tel":"031-111-1111","addr":"경기도 안산시 단원구 대부북동 1848-85번지 1층","category":"일반휴게음식 - 서양음식"}]},{"lat":"37.276253663","long":"126.55032872","items":[{"name":"만블라선원","tel":"032-886-2314","addr":"경기도 안산시 단원구 대부북동 1871-9번지","category":"음료식품 - 농·축·수산품"}]},{"lat":"37.269892804","long":"126.57215983","items":[{"name":"맘대로바지락칼국수","tel":"032-886-4453","addr":"경기도 안산시 단원구 대부북동 1837-70번지 1층","category":"일반휴게음식 - 일반한식"}]},{"lat":"37.2698928042","long":"126.5721598282","items":[{"name":"맘대로바지락칼국수","tel":"032-886-4453","addr":"경기도 안산시 단원구 대부북동 1837-70번지","category":"숙박 및 음식점업 - 기타음식점"}]},{"lat":"37.2878670310","long":"126.5768275250","items":[{"name":"맛자랑칼국수","tel":"032-883-4156","addr":"경기도 안산시 단원구 대부북동 1847-24번지","category":"숙박 및 음식점업 - 요식업"}]},{"lat":"37.287867031","long":"126.57682753","items":[{"name":"맛자랑칼국수","tel":"032-883-4156","addr":"경기도 안산시 단원구 대부북동 1847-24번지","category":"일반휴게음식 - 일반한식"}]},{"lat":"37.273669116","long":"126.56751566","items":[{"name":"명동칼국수","tel":"032-881-3455","addr":"경기도 안산시 단원구 대부북동 1857-5번지","category":"일반휴게음식 - 일반한식"}]},{"lat":"37.242735209","long":"126.58452001","items":[{"name":"명인족발","tel":"032-881-1018","addr":"경기도 안산시 단원구 대부북동 472-4번지","category":"일반휴게음식 - 일반한식"},{"name":"엣지","tel":"032-887-2561","addr":"경기도 안산시 단원구 대부북동 472-4번지","category":"의류 - 정장"}]},{"lat":"37.273504986","long":"126.56698669","items":[{"name":"명장","tel":"032-886-1709","addr":"경기도 안산시 단원구 대부북동 1857-29번지 1층","category":"일반휴게음식 - 일반한식"},{"name":"코코","tel":"","addr":"경기도 안산시 단원구 대부북동 1857-29번지","category":"의류 - 정장"}]},{"lat":"37.2402367211","long":"126.5863257146","items":[{"name":"명품농원","tel":"","addr":"경기도 안산시 단원구 대부북동 550","category":"도매 및 소매업 - 포도,딸기,농산물"}]},{"lat":"37.2398402991","long":"126.5737170607","items":[{"name":"모두가본집","tel":"032-887-2505","addr":"경기도 안산시 단원구 대부북동 640-26번지","category":"숙박 및 음식점업 - 한식"}]},{"lat":"37.239840299","long":"126.57371706","items":[{"name":"모두가본집","tel":"032-887-2505","addr":"경기도 안산시 단원구 대부북동 640-26번지 빅토리아빌 1층","category":"일반휴게음식 - 일반한식"}]},{"lat":"37.2763644144","long":"126.5533836227","items":[{"name":"몽당연필펜션","tel":"032-886-0808","addr":"경기도 안산시 단원구 대부북동 1871-1번지","category":"숙박 및 음식점업 - 펜션"}]},{"lat":"37.265981844","long":"126.57699594","items":[{"name":"문성5호","tel":"032-883-2456","addr":"경기도 안산시 단원구 대부북동 1245-1번지 1층","category":"일반휴게음식 - 일반한식"}]},{"lat":"37.2881180118","long":"126.5764652482","items":[{"name":"문씨네","tel":"032-882-9168","addr":"경기도 안산시 단원구 대부북동 1848-156번지","category":"숙박 및 음식점업 - 한식"}]},{"lat":"37.288118012","long":"126.57646525","items":[{"name":"문씨네","tel":"032-882-9168","addr":"경기도 안산시 단원구 대부북동 1848-156번지 1층 2층","category":"일반휴게음식 - 일반한식"}]},{"lat":"37.257589062","long":"126.57332331","items":[{"name":"물레방아","tel":"","addr":"경기도 안산시 단원구 대부북동 920-4번지 1층","category":"일반휴게음식 - 일반한식"}]},{"lat":"37.260424249","long":"126.57001555","items":[{"name":"미레기획","tel":"032-886-0781","addr":"경기도 안산시 단원구 대부북동 1392-16번지","category":"용역 서비스 - 종합용역"},{"name":"샤브랑버섯소고기샤브","tel":"032-886-6755","addr":"경기도 안산시 단원구 대부북동 1392-16번지 1층","category":"일반휴게음식 - 일반한식"}]},{"lat":"37.282559404","long":"126.56921225","items":[{"name":"미리내손칼국수","tel":"032-886-6916","addr":"경기도 안산시 단원구 대부북동 1850-5번지 1층","category":"일반휴게음식 - 일반한식"}]},{"lat":"37.2825594036","long":"126.5692122496","items":[{"name":"미리내우리밀칼국수","tel":"032-886-6916","addr":"경기도 안산시 단원구 대부북동 1850-5번지","category":"숙박 및 음식점업 - 한식"}]},{"lat":"37.2747577463","long":"126.5597973357","items":[{"name":"민들레펜션","tel":"032-885-4788","addr":"경기도 안산시 단원구 대부북동 1865-17번지","category":"숙박 및 음식점업 - 펜션"},{"name":"봉평메밀마을","tel":"032-885-4788","addr":"경기도 안산시 단원구 대부북동 1865-17번지","category":"숙박 및 음식점업 - 한식"}]},{"lat":"37.257815336","long":"126.57360384","items":[{"name":"밀알칼국수","tel":"032-881-0331","addr":"경기도 안산시 단원구 대부북동 920-1번지","category":"일반휴게음식 - 일반한식"},{"name":"옛날찐빵","tel":"032-887-0070","addr":"경기도 안산시 단원구 대부북동 920-1번지 1층","category":"일반휴게음식 - 일반한식"}]},{"lat":"37.2578153356","long":"126.5736038365","items":[{"name":"밀알칼국수","tel":"032-881-0331","addr":"경기도 안산시 단원구 대부북동 920-1번지","category":"숙박 및 음식점업 - 음식점"}]},{"lat":"37.281281428","long":"126.55271166","items":[{"name":"바다랜드슈퍼","tel":"032-884-2121","addr":"경기도 안산시 단원구 대부북동 1870-81번지","category":"유통업 영리 - 슈퍼마켓"}]},{"lat":"37.281454418","long":"126.55318422","items":[{"name":"바다식당","tel":"032-884-3188","addr":"경기도 안산시 단원구 대부북동 1870-83번지 1층","category":"일반휴게음식 - 일반한식"}]},{"lat":"37.263449478","long":"126.56941203","items":[{"name":"바다양푼이동태탕","tel":"032-882-1544","addr":"경기도 안산시 단원구 대부북동 1799-1번지 1층","category":"일반휴게음식 - 일반한식"},{"name":"쟁이골건축","tel":"032-886-8304","addr":"경기도 안산시 단원구 대부북동 1799-1번지","category":"건축자재 - 인테리어전문"}]},{"lat":"37.2634494781","long":"126.5694120315","items":[{"name":"바다양푼이동태탕","tel":"032-882-1544","addr":"경기도 안산시 단원구 대부북동 1799-1번지","category":"숙박 및 음식점업 - 한식"}]},{"lat":"37.276787865","long":"126.56055215","items":[{"name":"바다횟집","tel":"032-886-3164","addr":"경기도 안산시 단원구 대부북동 1866-12번지","category":"일반휴게음식 - 일식·회집"}]},{"lat":"37.2767878649","long":"126.5605521532","items":[{"name":"바다횟집","tel":"032-886-3164","addr":"경기도 안산시 단원구 대부북동 1866-12번지","category":"숙박 및 음식점업 - 횟집"}]},{"lat":"37.287807563","long":"126.57532803","items":[{"name":"바닷가가는길커피하우스","tel":"032-881-8811","addr":"경기도 안산시 단원구 대부북동 1848-72번지 2층","category":"일반휴게음식 - 서양음식"}]},{"lat":"37.276699978","long":"126.55873736","items":[{"name":"바닷가매점","tel":"032-886-6162","addr":"경기도 안산시 단원구 대부북동 1866-2번지","category":"음료식품 - 기타음료식품"},{"name":"바닷가매점","tel":"032-886-6162","addr":"경기도 안산시 단원구 대부북동 1866-2번지 1층","category":"음료식품 - 기타음료식품"}]},{"lat":"37.2738159281","long":"126.5682364003","items":[{"name":"바바부단커피창고","tel":"032-880-9712","addr":"경기도 안산시 단원구 대부북동 1857-61번지","category":"숙박 및 음식점업 - 일반음식점"}]},{"lat":"37.26831407","long":"126.56915867","items":[{"name":"바지락마을","tel":"032-885-0550","addr":"경기도 안산시 단원구 대부북동 1826-157번지","category":"일반휴게음식 - 일반한식"}]},{"lat":"37.2683140699","long":"126.5691586691","items":[{"name":"바지락마을","tel":"032-885-0550","addr":"경기도 안산시 단원구 대부북동 1826-157번지","category":"숙박 및 음식점업 - 기타음식점업"}]},{"lat":"37.2739811686","long":"126.5690697869","items":[{"name":"배터지는집","tel":"032-884-4787","addr":"경기도 안산시 단원구 대부북동 1857-7번지","category":"숙박 및 음식점업 - 한식"}]},{"lat":"37.273981169","long":"126.56906979","items":[{"name":"배터지는집","tel":"032-884-4787","addr":"경기도 안산시 단원구 대부북동 1857-7번지 A동","category":"일반휴게음식 - 일반한식"}]},{"lat":"37.2410978793","long":"126.5852390627","items":[{"name":"백년손님","tel":"032-880-9835","addr":"경기도 안산시 단원구 대부북동 517-5번지","category":"숙박 및 음식점업 - 한식"}]},{"lat":"37.2755040270","long":"126.5691061489","items":[{"name":"백합칼국수","tel":"","addr":"경기도 안산시 단원구 대부북동 1856-132번지","category":"숙박 및 음식점업 - 기타음식"}]},{"lat":"37.275504027","long":"126.56910615","items":[{"name":"백합칼국수","tel":"032-886-1002","addr":"경기도 안산시 단원구 대부북동 1856-132번지 1,2층","category":"일반휴게음식 - 일반한식"}]},{"lat":"37.2575890624","long":"126.5733233110","items":[{"name":"벚나무집","tel":"02-880-9724","addr":"경기도 안산시 단원구 대부북동 920-4번지","category":"숙박 및 음식점업 - 한식"}]},{"lat":"37.270259876","long":"126.5715151","items":[{"name":"병천토속순대","tel":"031-882-1400","addr":"경기도 안산시 단원구 대부북동 1837-31번지 1층","category":"일반휴게음식 - 일반한식"},{"name":"소담","tel":"032-882-1400","addr":"경기도 안산시 단원구 대부북동 1837-31번지","category":"일반휴게음식 - 일반한식"}]},{"lat":"37.274757746","long":"126.55979734","items":[{"name":"봉평메밀마을","tel":"032-885-4788","addr":"경기도 안산시 단원구 대부북동 1865-17번지 1층","category":"일반휴게음식 - 일반한식"}]},{"lat":"37.241923385","long":"126.58426528","items":[{"name":"부일농자재","tel":"032-889-1223","addr":"경기도 안산시 단원구 대부북동 504-2번지","category":"농업 - 농기계"},{"name":"정진컴퓨터","tel":"032-885-0000","addr":"경기도 안산시 단원구 대부북동 504-2번지","category":"사무통신 - 컴퓨터"}]},{"lat":"37.249066726","long":"126.57618947","items":[{"name":"부자커피","tel":"032-890-4183","addr":"경기도 안산시 단원구 대부북동 735-3번지","category":"일반휴게음식 - 서양음식"}]},{"lat":"37.272982177","long":"126.57184909","items":[{"name":"북동건축","tel":"031-000-0000","addr":"경기도 안산시 단원구 대부북동 1160-12번지","category":"건축자재 - 기타건축자재"}]},{"lat":"37.256339962","long":"126.58177328","items":[{"name":"북동낚시터","tel":"032-882-9033","addr":"경기도 안산시 단원구 대부북동 999번지","category":"레저업소 - 기타레져업소"},{"name":"북동낚시터매점","tel":"031-882-9033","addr":"경기도 안산시 단원구 대부북동 999번지 1층","category":"음료식품 - 기타음료식품"},{"name":"북동민물매운탕","tel":"032-882-9033","addr":"경기도 안산시 단원구 대부북동 999번지","category":"일반휴게음식 - 일반한식"}]},{"lat":"37.2701174396","long":"126.5719894350","items":[{"name":"북동삼거리손칼국수","tel":"032-880-9971","addr":"경기도 안산시 단원구 대부북동 1837-69번지","category":"숙박 및 음식점업 - 기타음식점업"}]},{"lat":"37.27011744","long":"126.57198944","items":[{"name":"북동삼거리손칼국수","tel":"032-880-9971","addr":"경기도 안산시 단원구 대부북동 1837-69번지 1층","category":"일반휴게음식 - 일반한식"}]},{"lat":"37.258874306","long":"126.57243675","items":[{"name":"북수원","tel":"070-4649-1101","addr":"경기도 안산시 단원구 대부북동 1280-1번지 1층","category":"일반휴게음식 - 일반한식"}]},{"lat":"37.2588743062","long":"126.5724367525","items":[{"name":"북수원","tel":"","addr":"경기도 안산시 단원구 대부북동 1280-1번지","category":"숙박 및 음식점업 - 한식"}]},{"lat":"37.252811863","long":"126.57532298","items":[{"name":"불난그집","tel":"032-889-3557","addr":"경기도 안산시 단원구 대부북동 831-1번지","category":"일반휴게음식 - 일반한식"}]},{"lat":"37.2868682808","long":"126.5747131279","items":[{"name":"불란서찐빵","tel":"032-880-9766","addr":"경기도 안산시 단원구 대부북동 1844-7번지","category":"숙박 및 음식점업 - 기타음식"}]},{"lat":"37.286868281","long":"126.57471313","items":[{"name":"불란서찐빵","tel":"031-880-9766","addr":"경기도 안산시 단원구 대부북동 1844-7번지 1층","category":"일반휴게음식 - 일반한식"}]},{"lat":"37.2811993949","long":"126.5524640761","items":[{"name":"블루이펜션","tel":"032-885-0876","addr":"경기도 안산시 단원구 대부북동 1870-80번지","category":"숙박 및 음식점업 - 팬션"}]},{"lat":"37.243703792","long":"126.58324111","items":[{"name":"비에이치씨치킨","tel":"032-887-5892","addr":"경기도 안산시 단원구 대부북동 451-4번지 1층","category":"일반휴게음식 - 스넥"}]},{"lat":"37.2704769378","long":"126.5717393518","items":[{"name":"빛고을 소한마리","tel":"032-886-0633","addr":"경기도 안산시 단원구 대부북동 1837-65번지","category":"숙박 및 음식점업 - 한식"}]},{"lat":"37.259895416","long":"126.57077385","items":[{"name":"빛고을소한마리","tel":"032-886-0633","addr":"경기도 안산시 단원구 대부북동 1377-1번지","category":"일반휴게음식 - 일반한식"},{"name":"어머나칼국수","tel":"032-880-9775","addr":"경기도 안산시 단원구 대부북동 1377-1번지 1층","category":"일반휴게음식 - 일반한식"}]},{"lat":"37.286838229","long":"126.57387882","items":[{"name":"사또노래연습장","tel":"032-888-3271","addr":"경기도 안산시 단원구 대부북동 1848-103번지 지층","category":"레저업소 - 노 래 방"},{"name":"자감치킨대부도점","tel":"032-880-9860","addr":"경기도 안산시 단원구 대부북동 1848-103번지 지하1층","category":"일반휴게음식 - 일반한식"}]},{"lat":"37.2867838833","long":"126.5738001908","items":[{"name":"사또횟집","tel":"032-881-4424","addr":"경기도 안산시 단원구 대부북동 1848-104번지","category":"숙박 및 음식점업 - 수산물"}]},{"lat":"37.286783883","long":"126.57380019","items":[{"name":"사또횟집.수산물직판사또조개구이","tel":"032-885-9393","addr":"경기도 안산시 단원구 대부북동 1848-104번지 1 ,2,3층 (1848-105,1848-106)","category":"일반휴게음식 - 일반한식"}]},{"lat":"37.282480543","long":"126.56982161","items":[{"name":"사랑손칼국수","tel":"","addr":"경기도 안산시 단원구 대부북동 1849-1번지","category":"일반휴게음식 - 일반한식"}]},{"lat":"37.261785032","long":"126.56274795","items":[{"name":"산마루","tel":"031-402-9969","addr":"경기도 안산시 단원구 대부북동 1660-17번지","category":"음료식품 - 농·축·수산품"}]},{"lat":"37.284093291","long":"126.57227061","items":[{"name":"산모롱이 로뎀나무","tel":"031-882-1175","addr":"경기도 안산시 단원구 대부북동 1838-5번지","category":"일반휴게음식 - 서양음식"},{"name":"산모퉁이로뎀나무","tel":"031-882-1175","addr":"경기도 안산시 단원구 대부북동 1838-5번지","category":"일반휴게음식 - 일반한식"}]},{"lat":"37.2810932610","long":"126.5482700839","items":[{"name":"산호횟집","tel":"032-886-1521","addr":"경기도 안산시 단원구 대부북동 산34-1번지","category":"숙박 및 음식점업 - 생선회/어패류"}]},{"lat":"37.287113874","long":"126.57535451","items":[{"name":"삼대째할머니칼국수","tel":"032-886-4356","addr":"경기도 안산시 단원구 대부북동 1848-89번지 1층","category":"일반휴게음식 - 일반한식"}]},{"lat":"37.2871138742","long":"126.5753545129","items":[{"name":"삼대째할머니칼국수","tel":"032-886-4356","addr":"경기도 안산시 단원구 대부북동 1848-89번지","category":"숙박 및 음식점업 - 한식"}]},{"lat":"37.2674563816","long":"126.5686900867","items":[{"name":"삼삼오오맛집","tel":"032-880-9956","addr":"경기도 안산시 단원구 대부북동 1826-21번지","category":"숙박 및 음식점업 - 한식"}]},{"lat":"37.279394266","long":"126.54929511","items":[{"name":"삼삼오오편의점","tel":"032-881-3355","addr":"경기도 안산시 단원구 대부북동 1870-14번지","category":"유통업 영리 - 슈퍼마켓"}]},{"lat":"37.2793942664","long":"126.5492951077","items":[{"name":"삼삼오오편의점","tel":"032-881-3355","addr":"경기도 안산시 단원구 대부북동 1870-14번지","category":"도매 및 소매업 - 슈퍼마켓"}]},{"lat":"37.264142425","long":"126.56918259","items":[{"name":"삼정누룽지백숙","tel":"032-886-8186","addr":"경기도 안산시 단원구 대부북동 1710-19번지 1층","category":"일반휴게음식 - 일반한식"}]},{"lat":"37.241929365","long":"126.58340873","items":[{"name":"삼화페인트 아트","tel":"031-880-9912","addr":"경기도 안산시 단원구 대부북동 441-5번지 103,104호","category":"건축자재 - 페인트"}]},{"lat":"37.2964795409","long":"126.5739932465","items":[{"name":"상복호","tel":"032-882-1209","addr":"경기도 안산시 단원구 대부북동 1955-1번지","category":"숙박 및 음식점업 - 한식"}]},{"lat":"37.246315788","long":"126.58043149","items":[{"name":"상지목골포도농원","tel":"","addr":"경기도 안산시 단원구 대부북동 176번지","category":"음료식품 - 농·축·수산품"}]},{"lat":"37.243014044","long":"126.58438322","items":[{"name":"새김밥천국","tel":"031-884-3119","addr":"경기도 안산시 단원구 대부북동 470-9번지","category":"일반휴게음식 - 스넥"},{"name":"풍년떡방앗간","tel":"032-883-9600","addr":"경기도 안산시 단원구 대부북동 470-9번지","category":"음료식품 - 제과점"}]},{"lat":"37.2430140439","long":"126.5843832242","items":[{"name":"새김밥천국","tel":"032-884-3119","addr":"경기도 안산시 단원구 대부북동 470-9번지","category":"숙박 및 음식점업 - 기타음식"}]},{"lat":"37.2604242495","long":"126.5700155537","items":[{"name":"샤브랑버섯소고기샤브","tel":"032-886-6755","addr":"경기도 안산시 단원구 대부북동 1392-16번지","category":"숙박 및 음식점업 - 일반음식"}]},{"lat":"37.245868537","long":"126.58134691","items":[{"name":"샵(#)6014","tel":"032-888-6014","addr":"경기도 안산시 단원구 대부북동 225번지 1층","category":"음료식품 - 기타음료식품"}]},{"lat":"37.281140139","long":"126.55346798","items":[{"name":"서울바다낚시터","tel":"031-884-4488","addr":"경기도 안산시 단원구 대부북동 1870-65번지,66,68,12,51,67,13,137,49,138,75,139,109","category":"레저업소 - 기타레져업소"}]},{"lat":"37.243122364","long":"126.58443898","items":[{"name":"서위수산","tel":"032-886-9822","addr":"경기도 안산시 단원구 대부북동 470-7번지","category":"회원제형태 - 기타1"},{"name":"엄마손부대찌개","tel":"032-880-0562","addr":"경기도 안산시 단원구 대부북동 470-7번지 1층","category":"일반휴게음식 - 일반한식"}]},{"lat":"37.248589151","long":"126.57618089","items":[{"name":"서진슈퍼낚시","tel":"032-883-2733","addr":"경기도 안산시 단원구 대부북동 737-3번지 1층","category":"유통업 영리 - 슈퍼마켓"}]},{"lat":"37.282092266","long":"126.55032759","items":[{"name":"서쪽뻘","tel":"032-885-4599","addr":"경기도 안산시 단원구 대부북동 산33번지","category":"음료식품 - 농·축·수산품"}]},{"lat":"37.254089499","long":"126.57481979","items":[{"name":"석화구이소머리국밥","tel":"032-888-6988","addr":"경기도 안산시 단원구 대부북동 811-1번지 1층일부","category":"일반휴게음식 - 일반한식"},{"name":"시골집건강원","tel":"031-434-3837","addr":"경기도 안산시 단원구 대부북동 811-1번지 105호","category":"건강식품 - 기타건강식품"}]},{"lat":"37.252424837","long":"126.57543788","items":[{"name":"섬데이 캔들","tel":"032-888-9960","addr":"경기도 안산시 단원구 대부북동 831번지 1층","category":"신변잡화 - 기타잡화"}]},{"lat":"37.245289407","long":"126.58318724","items":[{"name":"성보건축디자인","tel":"031-000-0000","addr":"경기도 안산시 단원구 대부북동 298번지","category":"건축자재 - 인테리어전문"}]},{"lat":"37.264198631","long":"126.56976849","items":[{"name":"성진종합판넬&건축","tel":"032-889-0806","addr":"경기도 안산시 단원구 대부북동 1805-1번지, 1806-27","category":"건축자재 - 기타건축자재"}]},{"lat":"37.252561958","long":"126.58610007","items":[{"name":"성호네포도농장","tel":"","addr":"경기도 안산시 단원구 대부북동 116-3번지","category":"음료식품 - 농·축·수산품"}]},{"lat":"37.287864716","long":"126.57618476","items":[{"name":"세계로수산","tel":"032-884-5575","addr":"경기도 안산시 단원구 대부북동 1848-168번지","category":"음료식품 - 농·축·수산품"},{"name":"세계로유통","tel":"032-884-5575","addr":"경기도 안산시 단원구 대부북동 1848-168번지","category":"음료식품 - 농·축·수산품"},{"name":"주식회사세계로유통","tel":"032-884-5575","addr":"경기도 안산시 단원구 대부북동 1848-168번지","category":"음료식품 - 농·축·수산품"}]},{"lat":"37.2428974703","long":"126.5845416515","items":[{"name":"세명안경협동조합남대문안경","tel":"032-888-3200","addr":"경기도 안산시 단원구 대부북동 471-5번지","category":"도매 및 소매업 - 안경"}]},{"lat":"37.2583701550","long":"126.5851324519","items":[{"name":"세븐일레븐","tel":"032-883-0171","addr":"경기도 안산시 단원구 대부북동 23-1번지","category":"도매 및 소매업 - 편의점,담배"}]},{"lat":"37.266231803","long":"126.56891132","items":[{"name":"세븐일레븐대부도2호점","tel":"","addr":"경기도 안산시 단원구 대부북동 1826-27번지","category":"유통업 영리 - 편 의 점"}]},{"lat":"37.258370155","long":"126.58513245","items":[{"name":"세븐일레븐대부도북동점","tel":"","addr":"경기도 안산시 단원구 대부북동 23-1번지","category":"유통업 영리 - 편 의 점"}]},{"lat":"37.274146238","long":"126.56985808","items":[{"name":"세븐일레븐대부도점","tel":"031-1577-0711","addr":"경기도 안산시 단원구 대부북동 1857-15번지 1층","category":"유통업 영리 - 편 의 점"}]},{"lat":"37.28620401","long":"126.57291263","items":[{"name":"세븐일레븐대부도해솔점","tel":"031-1577-0711","addr":"경기도 안산시 단원구 대부북동 1848-112번지 , 1,2층","category":"유통업 영리 - 편 의 점"}]},{"lat":"37.276453572","long":"126.55313504","items":[{"name":"세븐일레븐안산구봉길점","tel":"","addr":"경기도 안산시 단원구 대부북동 1871-13번지","category":"유통업 영리 - 편 의 점"}]},{"lat":"37.242541402","long":"126.57566275","items":[{"name":"솔나무집","tel":"032-886-9339","addr":"경기도 안산시 단원구 대부북동 646-1번지","category":"일반휴게음식 - 일반한식"}]},{"lat":"37.277590329","long":"126.55115509","items":[{"name":"솔바다양식장","tel":"031-886-5330","addr":"경기도 안산시 단원구 대부북동 1870-52","category":"레저업소 - 기타레져업소"}]},{"lat":"37.279115821","long":"126.54952229","items":[{"name":"솔밭정","tel":"032-886-3601","addr":"경기도 안산시 단원구 대부북동 1870-29번지","category":"일반휴게음식 - 일반한식"}]},{"lat":"37.278953857","long":"126.54957964","items":[{"name":"솔밭정수산","tel":"070-7767-3601","addr":"경기도 안산시 단원구 대부북동 1871-35번지","category":"일반휴게음식 - 일반한식"},{"name":"솔밭정수산","tel":"070-7767-3601","addr":"경기도 안산시 단원구 대부북동 1871-35번지","category":"음료식품 - 농·축·수산품"}]},{"lat":"37.288336444","long":"126.57707297","items":[{"name":"솔밭칼국수전문점","tel":"032-882-7361","addr":"경기도 안산시 단원구 대부북동 1847-14번지","category":"일반휴게음식 - 일반한식"}]},{"lat":"37.2883364441","long":"126.5770729716","items":[{"name":"솔밭칼국수전문점","tel":"032-882-7361","addr":"경기도 안산시 단원구 대부북동 1847-14번지","category":"숙박 및 음식점업 - 한식"}]},{"lat":"37.260976348","long":"126.56335012","items":[{"name":"솔빛","tel":"031-318-4252","addr":"경기도 안산시 단원구 대부북동 1660-13번지","category":"음료식품 - 기타음료식품"}]},{"lat":"37.269425595","long":"126.57252326","items":[{"name":"솟대그리고","tel":"031-888-3988","addr":"경기도 안산시 단원구 대부북동 1837-73번지","category":"문화.취미 - 화원"}]},{"lat":"37.2740918483","long":"126.5697681917","items":[{"name":"수노을대부도맛집","tel":"","addr":"경기도 안산시 단원구 대부북동 1857-75번지","category":"숙박 및 음식점업 - 일반음식점"}]},{"lat":"37.25759251","long":"126.58690651","items":[{"name":"수목건강원","tel":"032-886-2309","addr":"경기도 안산시 단원구 대부북동 30-1번지","category":"건강식품 - 기타건강식품"}]},{"lat":"37.267900367","long":"126.55963459","items":[{"name":"수진청과","tel":"","addr":"경기도 안산시 단원구 대부북동 1864-3번지","category":"음료식품 - 농·축·수산품"}]},{"lat":"37.242091372","long":"126.58590979","items":[{"name":"수타제면","tel":"032-886-5926","addr":"경기도 안산시 단원구 대부북동 486-3번지","category":"음료식품 - 기타음료식품"}]},{"lat":"37.2865059622","long":"126.5741851763","items":[{"name":"수호할머니칼국수","tel":"032-881-1320","addr":"경기도 안산시 단원구 대부북동 1844-3번지","category":"숙박 및 음식점업 - 한식"}]},{"lat":"37.286505962","long":"126.57418518","items":[{"name":"수호할머니칼국수","tel":"032-881-1320","addr":"경기도 안산시 단원구 대부북동 1844-3번지 1층","category":"일반휴게음식 - 일반한식"}]},{"lat":"37.271367416","long":"126.5737975","items":[{"name":"숯뿌리영농조합법인","tel":"032-886-2436","addr":"경기도 안산시 단원구 대부북동 1161-4번지","category":"음료식품 - 농·축·수산품"}]},{"lat":"37.243373026","long":"126.5814397","items":[{"name":"시립대부어린이집[아이행복]","tel":"032-886-4700","addr":"경기도 안산시 단원구 대부북동 348-5번지","category":"학원 - 유아원"}]},{"lat":"37.2413979691","long":"126.5834680217","items":[{"name":"시화건재","tel":"032-886-8236","addr":"경기도 안산시 단원구 대부북동 437-1번지","category":"도매 및 소매업 - 철물"}]},{"lat":"37.258004465","long":"126.57358022","items":[{"name":"신대부종합인테리어","tel":"070-8825-2698","addr":"경기도 안산시 단원구 대부북동 922번지","category":"건축자재 - 인테리어전문"}]},{"lat":"37.252177957","long":"126.57693839","items":[{"name":"신양아트","tel":"031-317-5771","addr":"경기도 안산시 단원구 대부북동 869-2번지","category":"신변잡화 - 기타잡화"}]},{"lat":"37.2866417248","long":"126.5743535568","items":[{"name":"신우정","tel":"032-884-1446","addr":"경기도 안산시 단원구 대부북동 1844-6번지","category":"숙박 및 음식점업 - 한식"},{"name":"신우정","tel":"032-884-1446","addr":"경기도 안산시 단원구 대부북동 1844-6번지","category":"숙박 및 음식점업 - 한식"}]},{"lat":"37.286641725","long":"126.57435356","items":[{"name":"신우정","tel":"032-884-1446","addr":"경기도 안산시 단원구 대부북동 1844-6번지 1층","category":"일반휴게음식 - 일반한식"}]},{"lat":"37.250759927","long":"126.57598831","items":[{"name":"쌍둥농원","tel":"032-886-2194","addr":"경기도 안산시 단원구 대부북동 754-5번지","category":"음료식품 - 농·축·수산품"}]},{"lat":"37.2777287572","long":"126.5496546378","items":[{"name":"썬리치 레저타운","tel":"032-884-6622","addr":"경기도 안산시 단원구 대부북동 1871-33번지","category":"숙박 및 음식점업 - 매점,펜션"}]},{"lat":"37.277728757","long":"126.54965464","items":[{"name":"썬리치 레저타운","tel":"032-884-6622","addr":"경기도 안산시 단원구 대부북동 1871-33번지 1층","category":"일반휴게음식 - 일반한식"}]},{"lat":"37.283036562","long":"126.56910803","items":[{"name":"씨유대부명소점","tel":"031-882-1332","addr":"경기도 안산시 단원구 대부북동 1850번지","category":"유통업 영리 - 편 의 점"}]},{"lat":"37.285671888","long":"126.57276906","items":[{"name":"씨유대부평안점","tel":"031-431-8533","addr":"경기도 안산시 단원구 대부북동 1845번지 104, 105호","category":"유통업 영리 - 편 의 점"},{"name":"천년대운옛날동태탕 (대부도점)","tel":"032-881-8515","addr":"경기도 안산시 단원구 대부북동 1845번지 1층","category":"일반휴게음식 - 일반한식"},{"name":"홍백칼국수","tel":"","addr":"경기도 안산시 단원구 대부북동 1845번지 108,109호","category":"일반휴게음식 - 일반한식"}]},{"lat":"37.269316041","long":"126.56966026","items":[{"name":"씨유안산대부점","tel":"031-239-6693","addr":"경기도 안산시 단원구 대부북동 1837-18번지 101호","category":"유통업 영리 - 편 의 점"}]},{"lat":"37.2816452121","long":"126.5536002909","items":[{"name":"아라민박","tel":"032-885-9400","addr":"경기도 안산시 단원구 대부북동 1870-85번지","category":"숙박 및 음식점업 - 팬션"}]},{"lat":"37.25150699","long":"126.57576994","items":[{"name":"아리랑","tel":"032-886-2197","addr":"경기도 안산시 단원구 대부북동 844-4번지","category":"일반휴게음식 - 일반한식"}]},{"lat":"37.2432026582","long":"126.5842131278","items":[{"name":"아씨미용실","tel":"032-883-2278","addr":"경기도 안산시 단원구 대부북동 470-12번지","category":"협회 및 단체, 수리 및 기타 개인서"}]},{"lat":"37.243202658","long":"126.58421313","items":[{"name":"아씨미용실","tel":"032-883-2278","addr":"경기도 안산시 단원구 대부북동 470-12번지 1층","category":"보건위생 - 미용원"},{"name":"아이텔","tel":"032-884-0107","addr":"경기도 안산시 단원구 대부북동 470-12번지 1층","category":"사무통신 - 통신기기"}]},{"lat":"37.269650525","long":"126.56996274","items":[{"name":"안동국밥(대부점)","tel":"032-881-1822","addr":"경기도 안산시 단원구 대부북동 1837-17번지","category":"일반휴게음식 - 일반한식"}]},{"lat":"37.242173435","long":"126.58363278","items":[{"name":"애견마트","tel":"032-3137-1088","addr":"경기도 안산시 단원구 대부북동 441-1번지","category":"문화.취미 - 애완동물"}]},{"lat":"37.249264135","long":"126.57596293","items":[{"name":"어소반","tel":"032-880-9685","addr":"경기도 안산시 단원구 대부북동 730-3번지 1층","category":"일반휴게음식 - 일반한식"}]},{"lat":"37.266676914","long":"126.57735279","items":[{"name":"어심 선구 낚시점","tel":"032-882-1990","addr":"경기도 안산시 단원구 대부북동 1195-1번지","category":"음료식품 - 기타음료식품"}]},{"lat":"37.287195657","long":"126.57554576","items":[{"name":"어심수산","tel":"032-886-7313","addr":"경기도 안산시 단원구 대부북동 1848-81번지","category":"음료식품 - 농·축·수산품"}]},{"lat":"37.2719803390","long":"126.5713812692","items":[{"name":"엄지척 까투리할매 손칼국수","tel":"032-884-0770","addr":"경기도 안산시 단원구 대부북동 1161-15번지","category":"숙박 및 음식점업 - 한식"}]},{"lat":"37.271980339","long":"126.57138127","items":[{"name":"엄지척까투리할매손칼국수","tel":"032-886-9629","addr":"경기도 안산시 단원구 대부북동 1161-15번지 까치할머니칼국수1호점 1층 26호","category":"일반휴게음식 - 일반한식"}]},{"lat":"37.240732215","long":"126.57368946","items":[{"name":"엠에스건설장비 주식회사","tel":"032-880-0438","addr":"경기도 안산시 단원구 대부북동 640-2번지 1층","category":"기타 - 기계공구"}]},{"lat":"37.2427352091","long":"126.5845200079","items":[{"name":"엣지","tel":"032-887-2561","addr":"경기도 안산시 단원구 대부북동 472-4번지","category":"도매 및 소매업 - 남녀옷"}]},{"lat":"37.241040277","long":"126.58423636","items":[{"name":"여러분식","tel":"032-885-3090","addr":"경기도 안산시 단원구 대부북동 509-7번지 1층","category":"일반휴게음식 - 일반한식"}]},{"lat":"37.262781497","long":"126.56907767","items":[{"name":"여숙예","tel":"032-886-0145","addr":"경기도 안산시 단원구 대부북동 1751외1필지","category":"일반휴게음식 - 일반한식"}]},{"lat":"37.260594504","long":"126.56001559","items":[{"name":"여우야 펜션","tel":"032-891-5593","addr":"경기도 안산시 단원구 대부북동 1678번지","category":"유통업 영리 - 슈퍼마켓"}]},{"lat":"37.2605945035","long":"126.5600155862","items":[{"name":"여우야 펜션","tel":"","addr":"경기도 안산시 단원구 대부북동 1678번지","category":"도매 및 소매업 - 슈퍼마켓"}]},{"lat":"37.238176894","long":"126.58732876","items":[{"name":"여정농원","tel":"032-880-9674","addr":"경기도 안산시 단원구 대부북동 569번지","category":"음료식품 - 농·축·수산품"}]},{"lat":"37.269951809","long":"126.57104334","items":[{"name":"여정농원바지락칼국수","tel":"032-880-9674","addr":"경기도 안산시 단원구 대부북동 1837-10번지 1층","category":"일반휴게음식 - 일반한식"},{"name":"왕할머니손칼국수","tel":"032-888-8933","addr":"경기도 안산시 단원구 대부북동 1837-10번지 1층","category":"일반휴게음식 - 일반한식"}]},{"lat":"37.2699518086","long":"126.5710433443","items":[{"name":"여정농원바지랑칼국수","tel":"032-880-9674","addr":"경기도 안산시 단원구 대부북동 1837-10번지","category":"숙박 및 음식점업 - 한식"}]},{"lat":"37.239983539","long":"126.57846082","items":[{"name":"열린이벤트기획","tel":"031-414-5669","addr":"경기도 안산시 단원구 대부북동 632-27번지","category":"용역 서비스 - 종합용역"}]},{"lat":"37.266979222","long":"126.56879429","items":[{"name":"영진종합철물건재","tel":"032-883-0989","addr":"경기도 안산시 단원구 대부북동 1826-23번지","category":"건축자재 - 목재·석재·철물"}]},{"lat":"37.250815003","long":"126.57626978","items":[{"name":"예도","tel":"032-884-2358","addr":"경기도 안산시 단원구 대부북동 754-3번지","category":"음료식품 - 주류 판매점"}]},{"lat":"37.261059712","long":"126.56885081","items":[{"name":"예석원","tel":"032-882-1858","addr":"경기도 안산시 단원구 대부북동 1403-3번지","category":"주방용구 - 주방용식기"}]},{"lat":"37.2763432801","long":"126.5694621389","items":[{"name":"옛날 보리밥 칼국수","tel":"032-886-6110","addr":"경기도 안산시 단원구 대부북동 1856-12번지","category":"숙박 및 음식점업 - 요식업"}]},{"lat":"37.27634328","long":"126.56946214","items":[{"name":"옛날보리밥삼색칼국수","tel":"032-886-6110","addr":"경기도 안산시 단원구 대부북동 1856-12번지 1층","category":"일반휴게음식 - 일반한식"}]},{"lat":"37.267007987","long":"126.56926762","items":[{"name":"옛날보리촌","tel":"031-883-2515","addr":"경기도 안산시 단원구 대부북동 1826-16번지 1층","category":"일반휴게음식 - 일반한식"}]},{"lat":"37.266146617","long":"126.57771653","items":[{"name":"오가네 두부마을","tel":"032-883-4532","addr":"경기도 안산시 단원구 대부북동 1249-1번지","category":"일반휴게음식 - 일반한식"}]},{"lat":"37.2472317145","long":"126.5770451284","items":[{"name":"오다가다한끼","tel":"032-880-9623","addr":"경기도 안산시 단원구 대부북동 697-3번지","category":"숙박 및 음식점업 - 한식"}]},{"lat":"37.245896572","long":"126.5791039","items":[{"name":"옥련철물","tel":"032-886-7733","addr":"경기도 안산시 단원구 대부북동 187-1번지","category":"건축자재 - 목재·석재·철물"}]},{"lat":"37.268864796","long":"126.56945991","items":[{"name":"왕돈까스","tel":"032-891-7141","addr":"경기도 안산시 단원구 대부북동 1826-154번지","category":"일반휴게음식 - 일반한식"}]},{"lat":"37.258676986","long":"126.57268587","items":[{"name":"왕진물칼국수","tel":"032-887-2288","addr":"경기도 안산시 단원구 대부북동 1278번지","category":"일반휴게음식 - 일반한식"}]},{"lat":"37.2586769865","long":"126.5726858712","items":[{"name":"왕진물칼국수","tel":"032-887-2288","addr":"경기도 안산시 단원구 대부북동 1278번지","category":"숙박 및 음식점업 - 한식"}]},{"lat":"37.2697890111","long":"126.5708751611","items":[{"name":"왕할머니손칼국수","tel":"032-888-8933","addr":"경기도 안산시 단원구 대부북동 1837-11번지","category":"숙박 및 음식점업 - 한식"}]},{"lat":"37.285696375","long":"126.57206977","items":[{"name":"요거프레소 대부도점","tel":"032-0000-0000","addr":"경기도 안산시 단원구 대부북동 1848-119","category":"일반휴게음식 - 서양음식"}]},{"lat":"37.2428421352","long":"126.5841813114","items":[{"name":"요리왕중화요리","tel":"032-886-8808","addr":"경기도 안산시 단원구 대부북동 472-5번지","category":"숙박 및 음식점업 - 중식"}]},{"lat":"37.2431198930","long":"126.5837402361","items":[{"name":"용인대석사 대부태권도","tel":"032-886-9696","addr":"경기도 안산시 단원구 대부북동 449-10번지","category":"예술, 스포츠 및 여가관련 서비스업"}]},{"lat":"37.254953669","long":"126.58723664","items":[{"name":"용인대석사대부태권도","tel":"032-886-9696","addr":"경기도 안산시 단원구 대부북동 90번지 2층","category":"학원 - 예·체능계학원"}]},{"lat":"37.2777564484","long":"126.5690706737","items":[{"name":"우리밀 칼국수","tel":"032-884-9083","addr":"경기도 안산시 단원구 대부북동 1855-42번지","category":"숙박 및 음식점업 - 한식"}]},{"lat":"37.277756448","long":"126.56907067","items":[{"name":"우리밀칼국수","tel":"032-884-9083","addr":"경기도 안산시 단원구 대부북동 1855-42번지","category":"일반휴게음식 - 일반한식"}]},{"lat":"37.269650312","long":"126.57237542","items":[{"name":"우리칼국수","tel":"02-000-0000","addr":"경기도 안산시 단원구 대부북동 1837-39번지 1층","category":"일반휴게음식 - 일반한식"}]},{"lat":"37.2696503125","long":"126.5723754188","items":[{"name":"우리칼국수","tel":"032-881-1232","addr":"경기도 안산시 단원구 대부북동 1837-39번지","category":"숙박 및 음식점업 - 한식"}]},{"lat":"37.2477040433","long":"126.5781019359","items":[{"name":"우명리테일-대부고등학교점","tel":"","addr":"경기도 안산시 단원구 대부북동 697-6번지","category":"도매 및 소매업 - 매점"}]},{"lat":"37.262204441","long":"126.56896824","items":[{"name":"우진샷시","tel":"032-888-0607","addr":"경기도 안산시 단원구 대부북동 1746번지","category":"용역 서비스 - 기타용역서비스"},{"name":"장호덕손만두(대부도점)","tel":"032-880-0489","addr":"경기도 안산시 단원구 대부북동 1746번지 1층","category":"일반휴게음식 - 일반한식"}]},{"lat":"37.242534517","long":"126.58382237","items":[{"name":"웅진카센타","tel":"032-881-9907","addr":"경기도 안산시 단원구 대부북동 443-3번지","category":"자동차정비 유지 - 자동차정비"}]},{"lat":"37.263982597","long":"126.56982609","items":[{"name":"원조남원추어탕","tel":"032-888-8092","addr":"경기도 안산시 단원구 대부북동 1801-1번지 1층","category":"일반휴게음식 - 일반한식"}]},{"lat":"37.280668788","long":"126.56962903","items":[{"name":"위드미안산대부점","tel":"02-6916-1500","addr":"경기도 안산시 단원구 대부북동 1854-112번지 101호","category":"유통업 영리 - 편 의 점"}]},{"lat":"37.2761424157","long":"126.5687416814","items":[{"name":"유가네 칼국수","tel":"032-886-5334","addr":"경기도 안산시 단원구 대부북동 1856-50번지","category":"숙박 및 음식점업 - 한식"}]},{"lat":"37.276142416","long":"126.56874168","items":[{"name":"유가네 칼국수","tel":"032-886-5334","addr":"경기도 안산시 단원구 대부북동 1856-50번지 1층","category":"일반휴게음식 - 일반한식"}]},{"lat":"37.2834512290","long":"126.5691620275","items":[{"name":"윤숙이네 손칼국수","tel":"032-882-1947","addr":"경기도 안산시 단원구 대부북동 1851-1번지","category":"숙박 및 음식점업 - 한식"},{"name":"허브앤조이 대부도점","tel":"032-887-3977","addr":"경기도 안산시 단원구 대부북동 1851-1번지","category":"도매 및 소매업 - 허브용품"}]},{"lat":"37.283451229","long":"126.56916203","items":[{"name":"윤숙이네손칼국수","tel":"032-882-1947","addr":"경기도 안산시 단원구 대부북동 1851-1번지 1층","category":"일반휴게음식 - 일반한식"},{"name":"허브앤조이대부도점","tel":"032-887-3977","addr":"경기도 안산시 단원구 대부북동 1851-1번지","category":"신변잡화 - 기타잡화"}]},{"lat":"37.24375905","long":"126.58357891","items":[{"name":"은미어린이집[아이행복]","tel":"032-886-3254","addr":"경기도 안산시 단원구 대부북동 451-8번지 1층","category":"학원 - 유아원"}]},{"lat":"37.2604762343","long":"126.5597119130","items":[{"name":"은재각","tel":"","addr":"경기도 안산시 단원구 대부북동 1678-6번지","category":"도매 및 소매업 - 전자상거래업"}]},{"lat":"37.254511708","long":"126.57446798","items":[{"name":"은혜","tel":"","addr":"경기도 안산시 단원구 대부북동 809-7번지","category":"의류 - 내의판매"}]},{"lat":"37.286977216","long":"126.57493805","items":[{"name":"이런칼국수를보았나","tel":"031-886-2563","addr":"경기도 안산시 단원구 대부북동 1841-14번지 1층","category":"일반휴게음식 - 일반한식"}]},{"lat":"37.2869772164","long":"126.5749380459","items":[{"name":"이런칼국수를봤나","tel":"032-886-2563","addr":"경기도 안산시 단원구 대부북동 1841-14번지","category":"숙박 및 음식점업 - 한식"}]},{"lat":"37.24479067","long":"126.57976378","items":[{"name":"이선화화실","tel":"032-886-2930","addr":"경기도 안산시 단원구 대부북동 195-3번지","category":"학원 - 예·체능계학원"}]},{"lat":"37.2814544182","long":"126.5531842157","items":[{"name":"이야기가있는바다","tel":"032-886-4942","addr":"경기도 안산시 단원구 대부북동 1870-83번지","category":"숙박 및 음식점업 - 민박"}]},{"lat":"37.263784046","long":"126.56973704","items":[{"name":"이영화 교동짬뽕","tel":"032-880-9733","addr":"경기도 안산시 단원구 대부북동 1802-6번지","category":"일반휴게음식 - 중국식"}]},{"lat":"37.2637840458","long":"126.5697370398","items":[{"name":"이영화교동짬뽕","tel":"032-880-9733","addr":"경기도 안산시 단원구 대부북동 1802-6번지","category":"숙박 및 음식점업 - 중식"}]},{"lat":"37.250873516","long":"126.58002282","items":[{"name":"이조숯불갈비","tel":"032-886-6676","addr":"경기도 안산시 단원구 대부북동 152번지","category":"일반휴게음식 - 일반한식"}]},{"lat":"37.237649701","long":"126.57590448","items":[{"name":"인선호","tel":"032-888-4330","addr":"경기도 안산시 단원구 대부북동 636-8번지","category":"음료식품 - 농·축·수산품"}]},{"lat":"37.260813309","long":"126.572933","items":[{"name":"인스토리","tel":"070-7583-2345","addr":"경기도 안산시 단원구 대부북동 1289-2번지 1,2층","category":"일반휴게음식 - 일반한식"}]},{"lat":"37.258754838","long":"126.5717949","items":[{"name":"입이행복한집","tel":"031-886-7949","addr":"경기도 안산시 단원구 대부북동 1332-2번지 1층","category":"일반휴게음식 - 일반한식"}]},{"lat":"37.2587548381","long":"126.5717948969","items":[{"name":"입이행복한집","tel":"032-886-7949","addr":"경기도 안산시 단원구 대부북동 1332-2번지","category":"숙박 및 음식점업 - 한식"}]},{"lat":"37.281117678","long":"126.56918669","items":[{"name":"자월24시","tel":"032-881-5220","addr":"경기도 안산시 단원구 대부북동 1854-119","category":"레져용품 - 스포츠·레져용품"}]},{"lat":"37.2839479770","long":"126.5694861898","items":[{"name":"전통 우리밀 칼국수","tel":"032-886-2993","addr":"경기도 안산시 단원구 대부북동 1849-36번지","category":"숙박 및 음식점업 - 한식"}]},{"lat":"37.283947977","long":"126.56948619","items":[{"name":"전통우리밀칼국수전문","tel":"070-4649-1101","addr":"경기도 안산시 단원구 대부북동 1849-36번지 1층","category":"일반휴게음식 - 일반한식"}]},{"lat":"37.258506856","long":"126.58557133","items":[{"name":"정연마린테크","tel":"031-882-1580","addr":"경기도 안산시 단원구 대부북동 23번지","category":"수리서비스 - 레져용품수리"}]},{"lat":"37.274371283","long":"126.56980042","items":[{"name":"정왕타일","tel":"032-885-6875","addr":"경기도 안산시 단원구 대부북동 1857-14번지","category":"건축자재 - 건축용 요업제품"}]},{"lat":"37.279198128","long":"126.55457326","items":[{"name":"정일수산","tel":"032-886-3955","addr":"경기도 안산시 단원구 대부북동 1870-4","category":"음료식품 - 농·축·수산품"}]},{"lat":"37.238234869","long":"126.58332777","items":[{"name":"정진카공업사","tel":"031-886-8900","addr":"경기도 안산시 단원구 대부북동 598-13번지","category":"자동차정비 유지 - 자동차정비"}]},{"lat":"37.270309684","long":"126.57282264","items":[{"name":"제이앤제이","tel":"032-888-1226","addr":"경기도 안산시 단원구 대부북동 1161-20번지 전층","category":"자동차정비 유지 - 세차장"},{"name":"태양공업사","tel":"031-499-9900","addr":"경기도 안산시 단원구 대부북동 1161-20번지","category":"자동차정비 유지 - 자동차정비"},{"name":"한우와버거 5628","tel":"032-880-9938","addr":"경기도 안산시 단원구 대부북동 1161-20번지 1층","category":"일반휴게음식 - 일반한식"}]},{"lat":"37.266170137","long":"126.56929498","items":[{"name":"제이파블로","tel":"032-891-7288","addr":"경기도 안산시 단원구 대부북동 산 97-33","category":"일반휴게음식 - 서양음식"}]},{"lat":"37.240846437","long":"126.58293012","items":[{"name":"제일농자재","tel":"032-886-0482","addr":"경기도 안산시 단원구 대부북동 431번지","category":"농업 - 기타농업관련"}]},{"lat":"37.285727545","long":"126.57320853","items":[{"name":"조개이야기","tel":"062-882-9886","addr":"경기도 안산시 단원구 대부북동 1845-5번지 1층","category":"일반휴게음식 - 일반한식"}]},{"lat":"37.287254895","long":"126.5744854","items":[{"name":"조이상사","tel":"032-883-2221","addr":"경기도 안산시 단원구 대부북동 1848-96 외비동,1848-97외3필지(전층)","category":"레져용품 - 스포츠·레져용품"}]},{"lat":"37.2802805428","long":"126.5478013904","items":[{"name":"종현농어촌체험 휴양마을","tel":"032-889-7009","addr":"경기도 안산시 단원구 대부북동 1870-37번지","category":"도매 및 소매업 - 잡화"}]},{"lat":"37.26756167","long":"126.55821607","items":[{"name":"종현수산 주식회사","tel":"031-886-9446","addr":"경기도 안산시 단원구 대부북동 1865-113번지","category":"음료식품 - 농·축·수산품"}]},{"lat":"37.258396364","long":"126.57232675","items":[{"name":"주식회사 가온누리","tel":"032-881-0494","addr":"경기도 안산시 단원구 대부북동 1336-3번지","category":"음료식품 - 기타음료식품"}]},{"lat":"37.270427237","long":"126.56312608","items":[{"name":"주식회사 조부장바다낚시터","tel":"032-880-9778","addr":"경기도 안산시 단원구 대부북동 1865-240번지 1층","category":"레저업소 - 기타레져업소"}]},{"lat":"37.272120576","long":"126.56296966","items":[{"name":"주식회사 케이박스","tel":"031-434-1251","addr":"경기도 안산시 단원구 대부북동 1865-126번지","category":"자동차정비 유지 - 주차장"},{"name":"케이박스","tel":"","addr":"경기도 안산시 단원구 대부북동 1865-126번지 대부도케이박스","category":"일반휴게음식 - 일반한식"},{"name":"홈치킨","tel":"031-891-5400","addr":"경기도 안산시 단원구 대부북동 1865-126번지 대부도 K BOX 1층 일부","category":"일반휴게음식 - 스넥"}]},{"lat":"37.2718414448","long":"126.5703560823","items":[{"name":"주식회사 케이엘마트","tel":"032-891-2255","addr":"경기도 안산시 단원구 대부북동 1161-110번지","category":"도매 및 소매업 - 슈퍼마켓"}]},{"lat":"37.2612013348","long":"126.5608575016","items":[{"name":"주흘","tel":"032-682-2141","addr":"경기도 안산시 단원구 대부북동 1665-1번지","category":"도매 및 소매업 - 반도체부품,매점,"}]},{"lat":"37.261201335","long":"126.5608575","items":[{"name":"주흘","tel":"031-682-2243","addr":"경기도 안산시 단원구 대부북동 1665-1번지","category":"음료식품 - 기타음료식품"}]},{"lat":"37.2612846960","long":"126.5614657523","items":[{"name":"주흘마을","tel":"032-682-2141","addr":"경기도 안산시 단원구 대부북동 1665번지","category":"도매 및 소매업 - 마트"}]},{"lat":"37.242902009","long":"126.57571707","items":[{"name":"죽여주는동치미국수","tel":"032-886-3343","addr":"경기도 안산시 단원구 대부북동 646-4번지","category":"일반휴게음식 - 일반한식"}]},{"lat":"37.242985739","long":"126.58402273","items":[{"name":"중앙사","tel":"032-886-0090","addr":"경기도 안산시 단원구 대부북동 471-3번지","category":"서적문구 - 문구용품"}]},{"lat":"37.2429857386","long":"126.5840227341","items":[{"name":"중앙사","tel":"032-886-0090","addr":"경기도 안산시 단원구 대부북동 471-3번지","category":"도매 및 소매업 - 문구 점포(자기땅"}]},{"lat":"37.2413476159","long":"126.5845164072","items":[{"name":"지에스25 대부상동점","tel":"","addr":"경기도 안산시 단원구 대부북동 511번지","category":"도매 및 소매업 - 편의점"}]},{"lat":"37.2422030167","long":"126.5843538981","items":[{"name":"진미한식부페","tel":"032-880-0497","addr":"경기도 안산시 단원구 대부북동 501-8번지","category":"숙박 및 음식점업 - 한식"},{"name":"투존치킨","tel":"032-886-0113","addr":"경기도 안산시 단원구 대부북동 501-8번지","category":"숙박 및 음식점업 - 치킨"}]},{"lat":"37.242790623","long":"126.58490289","items":[{"name":"진흥농약","tel":"032-886-2738","addr":"경기도 안산시 단원구 대부북동 473-8번지","category":"농업 - 비료,사료,종자"}]},{"lat":"37.2427906227","long":"126.5849028877","items":[{"name":"진흥농약","tel":"032-886-2738","addr":"경기도 안산시 단원구 대부북동 473-8번지","category":"도매 및 소매업 - 농약 종묘 비료"},{"name":"진흥농약","tel":"031-886-2738","addr":"경기도 안산시 단원구 대부북동 473-8번지","category":"도매 및 소매업 - 농약,종묘농자재"}]},{"lat":"37.257451089","long":"126.58512625","items":[{"name":"쭈꾸미불고기","tel":"032-884-6414","addr":"경기도 안산시 단원구 대부북동 40번지","category":"일반휴게음식 - 일반한식"}]},{"lat":"37.266115899","long":"126.5766908","items":[{"name":"창기네포도농원","tel":"031-1111-1111","addr":"경기도 안산시 단원구 대부북동 1237번지","category":"음료식품 - 농·축·수산품"}]},{"lat":"37.2856718875","long":"126.5727690605","items":[{"name":"천년대운옛날동태탕","tel":"031-881-8515","addr":"경기도 안산시 단원구 대부북동 1845번지","category":"숙박 및 음식점업 - 한식"},{"name":"홍백칼국수","tel":"","addr":"경기도 안산시 단원구 대부북동 1845번지","category":"숙박 및 음식점업 - 한식"}]},{"lat":"37.2867233047","long":"126.5744884149","items":[{"name":"천안옛날호두과자","tel":"032-883-2261","addr":"경기도 안산시 단원구 대부북동 1841-9번지","category":"숙박 및 음식점업 - 호두과자"}]},{"lat":"37.287897948","long":"126.57540646","items":[{"name":"총각네조개구이","tel":"032-889-3001","addr":"경기도 안산시 단원구 대부북동 1848-71번지 1층","category":"일반휴게음식 - 일반한식"}]},{"lat":"37.2878979484","long":"126.5754064615","items":[{"name":"총각네조개구이","tel":"032-889-3001","addr":"경기도 안산시 단원구 대부북동 1848-71번지","category":"숙박 및 음식점업 - 일반음식점"}]},{"lat":"37.285390035","long":"126.57207152","items":[{"name":"최가네짬뽕","tel":"032-886-8089","addr":"경기도 안산시 단원구 대부북동 1848-323번지","category":"일반휴게음식 - 일반한식"}]},{"lat":"37.2853900350","long":"126.5720715202","items":[{"name":"최가네짬뽕","tel":"032-886-8089","addr":"경기도 안산시 단원구 대부북동 1848-323번지","category":"숙박 및 음식점업 - 한식"}]},{"lat":"37.257676142","long":"126.58506865","items":[{"name":"친척집","tel":"032-883-9466","addr":"경기도 안산시 단원구 대부북동 38-2번지","category":"일반휴게음식 - 일반한식"}]},{"lat":"37.242932037","long":"126.58412446","items":[{"name":"카라","tel":"032-888-3614","addr":"경기도 안산시 단원구 대부북동 471-6번지 1층","category":"신변잡화 - 기타잡화"}]},{"lat":"37.2429320368","long":"126.5841244631","items":[{"name":"카라","tel":"031-888-3614","addr":"경기도 안산시 단원구 대부북동 471-6번지","category":"도매 및 소매업 - 잡화"}]},{"lat":"37.278728823","long":"126.54963737","items":[{"name":"카리브카페","tel":"032-883-3000","addr":"경기도 안산시 단원구 대부북동 1871-34번지","category":"일반휴게음식 - 주점"}]},{"lat":"37.2870917352","long":"126.5742156836","items":[{"name":"커피에 빠지다","tel":"032-882-1021","addr":"경기도 안산시 단원구 대부북동 1848-99번지","category":"숙박 및 음식점업 - 카페"}]},{"lat":"37.287091735","long":"126.57421568","items":[{"name":"커피에빠지다","tel":"032-882-1021","addr":"경기도 안산시 단원구 대부북동 1848-99번지 1층","category":"일반휴게음식 - 서양음식"},{"name":"커피에빠지다","tel":"032-882-1021","addr":"경기도 안산시 단원구 대부북동 1848-99번지 1층","category":"일반휴게음식 - 서양음식"}]},{"lat":"37.243847354","long":"126.58307126","items":[{"name":"코털호","tel":"031-886-2166","addr":"경기도 안산시 단원구 대부북동 306-9번지","category":"음료식품 - 농·축·수산품"}]},{"lat":"37.264039424","long":"126.58056926","items":[{"name":"큰마당","tel":"032-883-6052","addr":"경기도 안산시 단원구 대부북동 1061-1번지 1층","category":"일반휴게음식 - 일반한식"}]},{"lat":"37.285973555","long":"126.57396266","items":[{"name":"큰손수산","tel":"032-890-4260","addr":"경기도 안산시 단원구 대부북동 1844-1번지 B동 114,115,116,125,126호","category":"음료식품 - 농·축·수산품"}]},{"lat":"37.2773422770","long":"126.5499050118","items":[{"name":"큰언니간장게장","tel":"032-880-9741","addr":"경기도 안산시 단원구 대부북동 1870-56번지","category":"숙박 및 음식점업 - 기타음식점업"}]},{"lat":"37.277342277","long":"126.54990501","items":[{"name":"큰언니간장게장","tel":"032-880-9741","addr":"경기도 안산시 단원구 대부북동 1870-56번지 1층","category":"일반휴게음식 - 일반한식"}]},{"lat":"37.261230489","long":"126.5687371","items":[{"name":"태성엔지니어링","tel":"032-882-1170","addr":"경기도 안산시 단원구 대부북동 1402-1번지","category":"건축자재 - 보일러·펌프·샷시"}]},{"lat":"37.260595266","long":"126.57243823","items":[{"name":"토도리 도자세상","tel":"032-885-2322","addr":"경기도 안산시 단원구 대부북동 1308번지","category":"문화.취미 - 민예·공예품"}]},{"lat":"37.241734293","long":"126.58430014","items":[{"name":"토박이식당","tel":"032-882-1661","addr":"경기도 안산시 단원구 대부북동 509-13번지 107호","category":"일반휴게음식 - 일반한식"}]},{"lat":"37.275620041","long":"126.56880106","items":[{"name":"토실이","tel":"032-890-4101","addr":"경기도 안산시 단원구 대부북동 1856-193번지 1층","category":"일반휴게음식 - 일반한식"}]},{"lat":"37.271447309","long":"126.57098971","items":[{"name":"토탈피싱","tel":"032-882-1259","addr":"경기도 안산시 단원구 대부북동 1161-1번지 2호","category":"레져용품 - 스포츠·레져용품"}]},{"lat":"37.285587557","long":"126.57187869","items":[{"name":"파도수산","tel":"032-866-6629","addr":"경기도 안산시 단원구 대부북동 1848-122번지 1층","category":"일반휴게음식 - 일반한식"}]},{"lat":"37.2855875573","long":"126.5718786928","items":[{"name":"파도수산","tel":"032-886-6629","addr":"경기도 안산시 단원구 대부북동 1848-122번지","category":"숙박 및 음식점업 - 한식"}]},{"lat":"37.270781964","long":"126.57137683","items":[{"name":"파리바게트 대부도점","tel":"032-880-9883","addr":"경기도 안산시 단원구 대부북동 1837-80번지","category":"음료식품 - 제과점"}]},{"lat":"37.243125146","long":"126.57763174","items":[{"name":"패시브한옥","tel":"032-886-8494","addr":"경기도 안산시 단원구 대부북동 395-7번지","category":"용역 서비스 - 기타용역서비스"}]},{"lat":"37.242401716","long":"126.58448804","items":[{"name":"포도나무건강식품","tel":"032-882-7588","addr":"경기도 안산시 단원구 대부북동 501-6번지 1층 일부","category":"건강식품 - 기타건강식품"},{"name":"포도나무메디컬의원","tel":"032-882-7588","addr":"경기도 안산시 단원구 대부북동 501-6번지","category":"의원 - 의원"},{"name":"포도나무약국","tel":"032-884-3428","addr":"경기도 안산시 단원구 대부북동 501-6번지","category":"약국 - 약국"}]},{"lat":"37.2424017165","long":"126.5844880408","items":[{"name":"포도나무약국","tel":"032-884-3428","addr":"경기도 안산시 단원구 대부북동 501-6번지","category":"도매 및 소매업 - 양 약"},{"name":"한우마을","tel":"032-882-1553","addr":"경기도 안산시 단원구 대부북동 501-6번지","category":"숙박 및 음식점업 - 한식"}]},{"lat":"37.2806437790","long":"126.5701816846","items":[{"name":"포도밭 할머니칼국수","tel":"032-887-3080","addr":"경기도 안산시 단원구 대부북동 1854-113번지","category":"숙박 및 음식점업 - 한식"}]},{"lat":"37.280643779","long":"126.57018168","items":[{"name":"포도밭할머니칼국수","tel":"032-887-3080","addr":"경기도 안산시 단원구 대부북동 1854-113번지 1층~3층","category":"일반휴게음식 - 일반한식"}]},{"lat":"37.261644041","long":"126.56848672","items":[{"name":"포도스토리","tel":"032-886-4303","addr":"경기도 안산시 단원구 대부북동 1404-1번지","category":"음료식품 - 기타음료식품"}]},{"lat":"37.2752552789","long":"126.5603243451","items":[{"name":"포도향기펜션","tel":"070-4203-0232","addr":"경기도 안산시 단원구 대부북동 1865-14번지","category":"숙박 및 음식점업 - 민박"}]},{"lat":"37.2773142976","long":"126.5496571227","items":[{"name":"푸른섬","tel":"032-885-9234","addr":"경기도 안산시 단원구 대부북동 1871-32번지","category":"숙박 및 음식점업 - 음식점"}]},{"lat":"37.277314298","long":"126.54965712","items":[{"name":"푸른섬","tel":"032-885-9234","addr":"경기도 안산시 단원구 대부북동 1871-32번지","category":"일반휴게음식 - 일반한식"},{"name":"푸른섬","tel":"032-885-9234","addr":"경기도 안산시 단원구 대부북동 1871-32번지 1층","category":"일반휴게음식 - 일반한식"},{"name":"푸른섬노래연습장","tel":"032-885-9233","addr":"경기도 안산시 단원구 대부북동 1871-32번지","category":"레저업소 - 노 래 방"},{"name":"푸른섬노래연습장","tel":"031-885-9234","addr":"경기도 안산시 단원구 대부북동 1871-32지하1층","category":"레저업소 - 노 래 방"}]},{"lat":"37.243506496","long":"126.57593906","items":[{"name":"풍경","tel":"032-887-6250","addr":"경기도 안산시 단원구 대부북동 649-1번지 1층","category":"일반휴게음식 - 일반한식"}]},{"lat":"37.268755569","long":"126.57410544","items":[{"name":"풍년한식부페","tel":"032-882-1159","addr":"경기도 안산시 단원구 대부북동 1222-2번지","category":"일반휴게음식 - 일반한식"}]},{"lat":"37.266481466","long":"126.57065731","items":[{"name":"필라테스 레이","tel":"032-111-1111","addr":"경기도 안산시 단원구 대부북동 1826-208번지","category":"레저업소 - 헬스클럽"}]},{"lat":"37.2862855919","long":"126.5730474841","items":[{"name":"하겐나(Hagenna)","tel":"032-888-3455","addr":"경기도 안산시 단원구 대부북동 1848-111번지","category":"숙박 및 음식점업 - 커피,주류"}]},{"lat":"37.286285592","long":"126.57304748","items":[{"name":"하겐나(Hagenna)","tel":"031-891-3455","addr":"경기도 안산시 단원구 대부북동 1848-111번지","category":"일반휴게음식 - 서양음식"}]},{"lat":"37.2861133778","long":"126.5727665478","items":[{"name":"하늘 바다에","tel":"032-886-2663","addr":"경기도 안산시 단원구 대부북동 1848-113번지","category":"숙박 및 음식점업 - 한식"}]},{"lat":"37.286113378","long":"126.57276655","items":[{"name":"하늘에바다에","tel":"032-886-2663","addr":"경기도 안산시 단원구 대부북동 1848-113번지","category":"일반휴게음식 - 일반한식"}]},{"lat":"37.2613981290","long":"126.5827371371","items":[{"name":"한마당오리","tel":"032-886-5292","addr":"경기도 안산시 단원구 대부북동 1035번지","category":"숙박 및 음식점업 - 한식"}]},{"lat":"37.261398129","long":"126.58273714","items":[{"name":"한마당오리","tel":"032-886-5292","addr":"경기도 안산시 단원구 대부북동 1035번지 1층","category":"일반휴게음식 - 일반한식"}]},{"lat":"37.243839942","long":"126.58352211","items":[{"name":"한일사","tel":"032-886-5170","addr":"경기도 안산시 단원구 대부북동 305-3","category":"수리서비스 - 기타수리서비스"}]},{"lat":"37.274531317","long":"126.5692132","items":[{"name":"해녀물회","tel":"032-883-1999","addr":"경기도 안산시 단원구 대부북동 1856-303번지 1층","category":"일반휴게음식 - 일반한식"},{"name":"해녀물회","tel":"032-883-1999","addr":"경기도 안산시 단원구 대부북동 1856-303번지 1층","category":"일반휴게음식 - 일반한식"}]},{"lat":"37.2745313168","long":"126.5692132040","items":[{"name":"해녀물회","tel":"032-883-1999","addr":"경기도 안산시 단원구 대부북동 1856-303번지","category":"숙박 및 음식점업 - 한식"}]},{"lat":"37.276729925","long":"126.55951517","items":[{"name":"해변매점","tel":"032-886-3634","addr":"경기도 안산시 단원구 대부북동 1866-5번지","category":"음료식품 - 기타음료식품"}]},{"lat":"37.2766206452","long":"126.5520516249","items":[{"name":"해솔길펜션","tel":"","addr":"경기도 안산시 단원구 대부북동 1871-16번지","category":"숙박 및 음식점업 - 민박"}]},{"lat":"37.237898634","long":"126.57248843","items":[{"name":"해솔낙지","tel":"032-883-1014","addr":"경기도 안산시 단원구 대부북동 639-85번지 1층","category":"일반휴게음식 - 일반한식"}]},{"lat":"37.278091136","long":"126.55490681","items":[{"name":"해솔바다낚시터","tel":"032-880-9865","addr":"경기도 안산시 단원구 대부북동 1870-15번지 외12필지","category":"레저업소 - 기타레져업소"}]},{"lat":"37.2679209393","long":"126.5750233608","items":[{"name":"해신마린","tel":"032-889-5953","addr":"경기도 안산시 단원구 대부북동 1225-4번지","category":"제조업 - 보트수리제작"}]},{"lat":"37.267920939","long":"126.57502336","items":[{"name":"해신마린","tel":"032-889-5953","addr":"경기도 안산시 단원구 대부북동 1225-4번지","category":"레져용품 - 스포츠·레져용품"}]},{"lat":"37.260206607","long":"126.56963353","items":[{"name":"해피타임","tel":"031-882-1346","addr":"경기도 안산시 단원구 대부북동 1364번지","category":"유통업 영리 - 슈퍼마켓"}]},{"lat":"37.242097124","long":"126.58498561","items":[{"name":"행복농기계","tel":"032-884-7956","addr":"경기도 안산시 단원구 대부북동 506번지","category":"농업 - 농기계"}]},{"lat":"37.249986564","long":"126.57640971","items":[{"name":"행운찐빵","tel":"031-886-8230","addr":"경기도 안산시 단원구 대부북동 744-1번지","category":"일반휴게음식 - 스넥"}]},{"lat":"37.2873132750","long":"126.5756804123","items":[{"name":"허벌네횟집","tel":"032-883-1362","addr":"경기도 안산시 단원구 대부북동 1848-75번지","category":"숙박 및 음식점업 - 일반음식"}]},{"lat":"37.243317915","long":"126.58368279","items":[{"name":"형제사","tel":"032-886-1378","addr":"경기도 안산시 단원구 대부북동 449-2","category":"건축자재 - 조명기구"}]},{"lat":"37.2616440415","long":"126.5684867209","items":[{"name":"홍카페","tel":"","addr":"경기도 안산시 단원구 대부북동 1404-1번지","category":"도매 및 소매업 - 매점"}]},{"lat":"37.2739807183","long":"126.5568253383","items":[{"name":"화이트아일랜드","tel":"032-886-1120","addr":"경기도 안산시 단원구 대부북동 1865-97번지","category":"숙박 및 음식점업 - 민박"}]},{"lat":"37.274810545","long":"126.56918905","items":[{"name":"황금철물","tel":"032-886-6222","addr":"경기도 안산시 단원구 대부북동 1856-172번지","category":"건축자재 - 목재·석재·철물"}]},{"lat":"37.25906241","long":"126.57213132","items":[{"name":"효민수산","tel":"032-886-2308","addr":"경기도 안산시 단원구 대부북동 1327번지","category":"음료식품 - 농·축·수산품"}]},{"lat":"37.256205493","long":"126.58196565","items":[{"name":"휴갤러리","tel":"031-111-1111","addr":"경기도 안산시 단원구 대부북동 998번지","category":"일반휴게음식 - 서양음식"}]},{"lat":"37.242984075","long":"126.57598709","items":[{"name":"휴먼오아이스(HUMAN OASIS)","tel":"032-883-2662","addr":"경기도 안산시 단원구 대부북동 646-6번지","category":"일반휴게음식 - 서양음식"}]},{"lat":"37.281891133","long":"126.55429794","items":[{"name":"힐하우스","tel":"032-882-1485","addr":"경기도 안산시 단원구 대부북동 1870-154번지","category":"주방용구 - 주방용식기"}]}]