[{"lat":"37.036493012","long":"127.19991382","items":[{"name":"(주)티케이테크","tel":"070-4258-7188","addr":"경기도 안성시 양성면 명목리 60-7번지","category":"전기제품 - 기타전기제품"},{"name":"디에이치기술","tel":"","addr":"경기도 안성시 양성면 명목리 60-7번지 B동","category":"전기제품 - 기타전기제품"}]},{"lat":"37.033298423","long":"127.19737674","items":[{"name":"삼희어린이집[아이행복]","tel":"031-673-7280","addr":"경기도 안성시 양성면 명목리 97","category":"학원 - 유아원"}]},{"lat":"37.040852233","long":"127.18996616","items":[{"name":"솔약국","tel":"031-523-9420","addr":"경기도 안성시 양성면 명목리 276-2번지 1동","category":"약국 - 약국"}]},{"lat":"37.036906452","long":"127.20054431","items":[{"name":"에스앤엠(S&M)","tel":"031-667-1238","addr":"경기도 안성시 양성면 명목리 60-6번지","category":"전기제품 - 기타전기제품"}]},{"lat":"37.03171404","long":"127.20191325","items":[{"name":"엠케이","tel":"031-677-6994","addr":"경기도 안성시 양성면 명목리 431-6번지","category":"기타 - 기계공구"}]},{"lat":"37.037242019","long":"127.19371139","items":[{"name":"우성통운(주)","tel":"02-877-7814","addr":"경기도 안성시 양성면 명목리 238-1번지","category":"주방용구 - 주방용구"}]},{"lat":"37.035716048","long":"127.18424386","items":[{"name":"주식회사 아인리스","tel":"02-0000-0000","addr":"경기도 안성시 양성면 명목리 302-3번지","category":"건축자재 - 기타건축자재"}]},{"lat":"37.037433181","long":"127.1867769","items":[{"name":"주식회사 파파몰","tel":"","addr":"경기도 안성시 양성면 명목리 293-4번지","category":"신변잡화 - 기타잡화"}]},{"lat":"37.035127927","long":"127.18582722","items":[{"name":"프로인주식회사","tel":"031-657-0979","addr":"경기도 안성시 양성면 명목리 307번지","category":"전기제품 - 기타전기제품"}]},{"lat":"37.030461221","long":"127.19107579","items":[{"name":"흥이네꽃가게","tel":"031-654-3557","addr":"경기도 안성시 양성면 명목리 428-6","category":"문화.취미 - 화원"}]}]