[{"lat":"37.728840395","long":"126.71877275","items":[{"name":"(주)유에스퍼시픽바이오","tel":"070-8807-6008","addr":"경기도 파주시 다율동 986번지 청석마을대원효성아파트","category":"용역 서비스 - 사무서비스"}]},{"lat":"37.728347153","long":"126.7159955","items":[{"name":"(주)유한소방","tel":"031-944-3119","addr":"경기도 파주시 다율동 992-16번지","category":"용역 서비스 - 기타용역서비스"}]},{"lat":"37.73540185","long":"126.73524254","items":[{"name":"(주)황토나라","tel":"031-909-1234","addr":"경기도 파주시 다율동 23-28","category":"건축자재 - 기타건축자재"}]},{"lat":"37.738976312","long":"126.71884747","items":[{"name":"A.L상사","tel":"031-943-9561","addr":"경기도 파주시 다율동 340-2번지","category":"유통업 영리 - 기타유통업"}]},{"lat":"37.727258083","long":"126.71644209","items":[{"name":"Bosch Car Service제일오토샵","tel":"031-949-3999","addr":"경기도 파주시 다율동 999-11번지","category":"자동차정비 유지 - 자동차정비"},{"name":"교하중국어","tel":"031-942-3500","addr":"경기도 파주시 다율동 999-11번지","category":"학원 - 외국어학원"}]},{"lat":"37.727761455","long":"126.71596373","items":[{"name":"GS25교하다율점","tel":"080-555-2525","addr":"경기도 파주시 다율동 992-11번지","category":"유통업 영리 - 편 의 점"}]},{"lat":"37.728481464","long":"126.71937532","items":[{"name":"GS25교하본점","tel":"","addr":"경기도 파주시 다율동 986번지","category":"유통업 영리 - 편 의 점"},{"name":"대원효성컴퓨터크리닝","tel":"031-943-9965","addr":"경기도 파주시 다율동 986대원효성A상가동202","category":"수리서비스 - 세탁소"},{"name":"별모래어린이집[아이행복]","tel":"031-939-7960","addr":"경기도 파주시 다율동 986번지 청석마을대원효성아파트","category":"학원 - 유아원"},{"name":"뷰티하우스","tel":"","addr":"경기도 파주시 다율동 986번지 청석마을대원효성아파트","category":"건축자재 - 기타건축자재"},{"name":"삼성영어청석초교실학원","tel":"031-943-9772","addr":"경기도 파주시 다율동 986번지 청석마을대원효성아파트","category":"학원 - 보습학원"},{"name":"주식회사 코끼리렌트카","tel":"02-3295-5152","addr":"경기도 파주시 다율동 986번지 청석마을대원효성아파트","category":"여행 - 렌터카"},{"name":"헤어룩","tel":"031-948-2155","addr":"경기도 파주시 다율동 986번지 청석마을대원효성아파트","category":"보건위생 - 미용원"}]},{"lat":"37.727066787","long":"126.71558074","items":[{"name":"MIHO","tel":"031-000-0000","addr":"경기도 파주시 다율동 997-7번지","category":"일반휴게음식 - 서양음식"}]},{"lat":"37.729512379","long":"126.72097083","items":[{"name":"SB파티","tel":"","addr":"경기도 파주시 다율동 986번지 청석마을대원효성아파트","category":"용역 서비스 - 종합용역"},{"name":"꽃사랑","tel":"","addr":"경기도 파주시 다율동 986번지 청석마을대원효성아파트","category":"문화.취미 - 화원"},{"name":"성도산업","tel":"070-7594-5717","addr":"경기도 파주시 다율동 986번지 청석마을대원효성아파트","category":"회원제형태 - 기타4"},{"name":"수빈맘돌상","tel":"0502-432-7777","addr":"경기도 파주시 다율동 986번지 청석마을대원효성아파트","category":"회원제형태 - 기타4"}]},{"lat":"37.733976984","long":"126.72301856","items":[{"name":"SH industry","tel":"02-821-3937","addr":"경기도 파주시 다율동 640-4","category":"보건위생 - 미용재료"}]},{"lat":"37.72788028","long":"126.72039851","items":[{"name":"SH에어컨","tel":"","addr":"경기도 파주시 다율동 986번지 청석마을대원효성아파트","category":"용역 서비스 - 기타용역서비스"},{"name":"수스킨앤바디","tel":"031-956-8902","addr":"경기도 파주시 다율동 986번지 청석마을대원효성아파트","category":"회원제형태 - 기타1"},{"name":"윤채인테리어디자인","tel":"","addr":"경기도 파주시 다율동 986번지 청석마을대원효성아파트","category":"건축자재 - 인테리어전문"}]},{"lat":"37.728868349","long":"126.71543766","items":[{"name":"가온소방","tel":"031-942-3119","addr":"경기도 파주시 다율동 994-5번지","category":"기타 - 기계공구"}]},{"lat":"37.730029399","long":"126.71866611","items":[{"name":"개인과외","tel":"031-939-9975","addr":"경기도 파주시 다율동 986번지 청석마을대원효성아파트","category":"학원 - 기타 교육기관"},{"name":"개인과외","tel":"","addr":"경기도 파주시 다율동 986번지 청석마을대원효성아파트","category":"학원 - 기타 교육기관"}]},{"lat":"37.728260171","long":"126.72102095","items":[{"name":"개인과외","tel":"070-8868-4042","addr":"경기도 파주시 다율동 986번지 청석마을대원효성아파트","category":"학원 - 기타 교육기관"},{"name":"사모님키친(kitchen)","tel":"02-6340-5359","addr":"경기도 파주시 다율동 986번지 청석마을대원효성아파트","category":"회원제형태 - 학원"}]},{"lat":"37.728537621","long":"126.71651656","items":[{"name":"건몰(Gun Mall)","tel":"031-946-1934","addr":"경기도 파주시 다율동 991-16번지","category":"레져용품 - 스포츠·레져용품"}]},{"lat":"37.735839072","long":"126.7294666","items":[{"name":"계룡산업(주)파주운정식당","tel":"","addr":"경기도 파주시 다율동 140-1 현장식당","category":"일반휴게음식 - 일반한식"}]},{"lat":"37.728339083","long":"126.72011318","items":[{"name":"고려대 KMD 축구클럽","tel":"070-8070-6751","addr":"경기도 파주시 다율동 986번지 청석마을대원효성아파트","category":"학원 - 예·체능계학원"},{"name":"마늘.삼성보호대","tel":"070-8618-3165","addr":"경기도 파주시 다율동 986","category":"회원제형태 - 기타4"}]},{"lat":"37.7266167","long":"126.71574128","items":[{"name":"고향갈비","tel":"031-949-4768","addr":"경기도 파주시 다율동 1002-5번지","category":"일반휴게음식 - 일반한식"}]},{"lat":"37.736841449","long":"126.73837984","items":[{"name":"교하 운정 스카이 승마장","tel":"031-941-9455","addr":"경기도 파주시 다율동 852번지","category":"레저업소 - 기타레져업소"}]},{"lat":"37.739339119","long":"126.71985579","items":[{"name":"교하베스트골프존","tel":"031-941-1122","addr":"경기도 파주시 다율동 526-6","category":"회원제형태 - 레져업소"}]},{"lat":"37.732485313","long":"126.72088015","items":[{"name":"교하줄리어드음악학원","tel":"031-943-7088","addr":"경기도 파주시 다율동 982번지","category":"학원 - 예·체능계학원"},{"name":"교하회포장전문점","tel":"031-943-0266","addr":"경기도 파주시 다율동 982번지","category":"일반휴게음식 - 일식·회집"},{"name":"구경아영어교습소","tel":"031-946-6250","addr":"경기도 파주시 다율동 982 동문굿모닝힐상가동508호","category":"회원제형태 - 학원"},{"name":"뉴동문할인마트","tel":"031-946-8983","addr":"경기도 파주시 다율동 982번지","category":"유통업 영리 - 슈퍼마켓"},{"name":"더스타즈청석태권도장","tel":"031-957-7880","addr":"경기도 파주시 다율동 982 청석마을동문굿모닝힐상가401-405호","category":"학원 - 예·체능계학원"},{"name":"맘스맘 어린이집[아이행복]","tel":"031-939-9464","addr":"경기도 파주시 다율동 982번지","category":"학원 - 유아원"},{"name":"본어린이집[아이행복]","tel":"031-941-3106","addr":"경기도 파주시 다율동 982번지 청석마을동문굿모닝힐","category":"학원 - 유아원"},{"name":"쁘띠헤어샵","tel":"031-945-3927","addr":"경기도 파주시 다율동 982번지","category":"보건위생 - 미용원"},{"name":"알로에퀸","tel":"","addr":"경기도 파주시 다율동 982번지 청석마을동문굿모닝힐","category":"보건위생 - 피부미용실"},{"name":"엘수학학원","tel":"","addr":"경기도 파주시 다율동 982번지","category":"학원 - 보습학원"},{"name":"올리브영어교습소","tel":"031-945-7033","addr":"경기도 파주시 다율동 982번지","category":"학원 - 외국어학원"},{"name":"우쿠네","tel":"02-1234-1234","addr":"경기도 파주시 다율동 982번지 청석마을동문굿모닝힐","category":"일반휴게음식 - 일반한식"},{"name":"유클리드수학학원","tel":"031-957-6334","addr":"경기도 파주시 다율동 982청석마을8단지상가-509","category":"회원제형태 - 학원"},{"name":"장독마을로 놀러오세요","tel":"031-943-5323","addr":"경기도 파주시 다율동 982번지","category":"일반휴게음식 - 일반한식"},{"name":"제이스킨(J.Skin)","tel":"031-8035-6077","addr":"경기도 파주시 다율동 982번지","category":"보건위생 - 피부미용실"},{"name":"주식회사 헬리닥터","tel":"070-7783-9831","addr":"경기도 파주시 다율동 982번지 동문굿모닝힐상가동2층201호","category":"서적문구 - 완구점"},{"name":"처갓집양념치킨교하점","tel":"031-946-9955","addr":"경기도 파주시 다율동 982번지","category":"일반휴게음식 - 스넥"},{"name":"청석위즈학원","tel":"031-946-0582","addr":"경기도 파주시 다율동 982번지","category":"학원 - 보습학원"},{"name":"칼국수에빠지다","tel":"070-4179-4432","addr":"경기도 파주시 다율동 982번지","category":"일반휴게음식 - 일반한식"},{"name":"토끼들의작은작업실미술교습소","tel":"070-2291-3397","addr":"경기도 파주시 다율동 982번지","category":"학원 - 예·체능계학원"},{"name":"핑키","tel":"031-957-1022","addr":"경기도 파주시 다율동 982 상가2층","category":"보건위생 - 화장품"},{"name":"해법독서논술교습소","tel":"031-939-5969","addr":"경기도 파주시 다율동 982 청석마을동문굿모닝힐8단지상가310호","category":"회원제형태 - 학원"}]},{"lat":"37.734762723","long":"126.72004338","items":[{"name":"교하청석스포츠센터매점","tel":"031-949-1229","addr":"경기도 파주시 다율동 980-4번지","category":"음료식품 - 기타음료식품"}]},{"lat":"37.729206412","long":"126.71737609","items":[{"name":"교하풀잎문화센터","tel":"031-947-5578","addr":"경기도 파주시 다율동 987-2번지 센터프라자2 107호","category":"문화.취미 - 문화취미기타"},{"name":"빈트리","tel":"031-941-7478","addr":"경기도 파주시 다율동 987-2번지","category":"일반휴게음식 - 서양음식"},{"name":"한마음장애인평생교육원","tel":"070-4222-6556","addr":"경기도 파주시 다율동 987-2번지","category":"학원 - 기타 교육기관"},{"name":"해솔컴퍼니","tel":"031-8070-3230","addr":"경기도 파주시 다율동 987-2번지 센타프라자 501호","category":"사무통신 - 기타 사무용품"}]},{"lat":"37.727402703","long":"126.71663436","items":[{"name":"교하황제족발","tel":"031-942-8986","addr":"경기도 파주시 다율동 999-3번지","category":"일반휴게음식 - 일반한식"}]},{"lat":"37.729449943","long":"126.7174886","items":[{"name":"국제제활 제이 필라테스 교하점","tel":"031-000-0000","addr":"경기도 파주시 다율동 987-1번지","category":"레저업소 - 헬스클럽"},{"name":"노브랜드파주다율점","tel":"02-380-5678","addr":"경기도 파주시 다율동 987-1번지","category":"신변잡화 - 기타잡화"},{"name":"노브랜드파주다율점/은련","tel":"02-380-5678","addr":"경기도 파주시 다율동 987-1번지","category":"신변잡화 - 기타잡화"}]},{"lat":"37.737205769","long":"126.71691428","items":[{"name":"기웅종합볼트공구","tel":"031-943-5048","addr":"경기도 파주시 다율동 513-4번지","category":"기타 - 기계공구"}]},{"lat":"37.728595065","long":"126.72166626","items":[{"name":"꿈속의효성 어린이집[아이행복]","tel":"031-957-8397","addr":"경기도 파주시 다율동 986번지 청석마을대원효성아파트","category":"학원 - 유아원"},{"name":"에듀프라임(어드벤처피아노)파주지사","tel":"031-946-8123","addr":"경기도 파주시 다율동 986번지 청석마을대원효성아파트","category":"회원제형태 - 서적"},{"name":"지엔씨","tel":"","addr":"경기도 파주시 다율동 986번지 청석마을대원효성아파트","category":"서적문구 - 완구점"}]},{"lat":"37.736507454","long":"126.7301902","items":[{"name":"나이키에스","tel":"031-949-8129","addr":"경기도 파주시 다율동 141-9","category":"레져용품 - 스포츠·레져용품"}]},{"lat":"37.728286375","long":"126.71693723","items":[{"name":"나정순할매쭈꾸미","tel":"031-942-6922","addr":"경기도 파주시 다율동 990-7","category":"일반휴게음식 - 일반한식"}]},{"lat":"37.726619595","long":"126.7169323","items":[{"name":"남도복국","tel":"031-949-2185","addr":"경기도 파주시 다율동 1001-7번지","category":"일반휴게음식 - 일반한식"},{"name":"어울림노래연습장","tel":"031-946-7702","addr":"경기도 파주시 다율동 1001-7번지","category":"레저업소 - 노 래 방"}]},{"lat":"37.72876192","long":"126.71613002","items":[{"name":"노가리와생맥주","tel":"031-111-1111","addr":"경기도 파주시 다율동 992-1번지","category":"일반휴게음식 - 일반한식"}]},{"lat":"37.727736054","long":"126.71663308","items":[{"name":"늘푸른마트","tel":"031-948-6307","addr":"경기도 파주시 다율동 991-9번지 1층","category":"유통업 영리 - 슈퍼마켓"},{"name":"씨유교하다율점","tel":"031-948-6307","addr":"경기도 파주시 다율동 991-9번지","category":"유통업 영리 - 편 의 점"}]},{"lat":"37.729501413","long":"126.72015414","items":[{"name":"다물종합관리","tel":"031-957-1917","addr":"경기도 파주시 다율동 986","category":"회원제형태 - 기타4"},{"name":"종로정보통신","tel":"02-2276-0234","addr":"경기도 파주시 다율동 986번지 청석마을대원효성아파트","category":"사무통신 - 통신기기"}]},{"lat":"37.727538506","long":"126.71690608","items":[{"name":"대림전기조명","tel":"031-8071-3971","addr":"경기도 파주시 다율동 1000-1번지","category":"건축자재 - 조명기구"}]},{"lat":"37.732487778","long":"126.72191245","items":[{"name":"더블유웰","tel":"070-8631-5350","addr":"경기도 파주시 다율동 982번지 청석마을동문굿모닝힐","category":"음료식품 - 기타음료식품"}]},{"lat":"37.72815115","long":"126.71690372","items":[{"name":"돈모닝","tel":"031-946-7676","addr":"경기도 파주시 다율동 990-6","category":"일반휴게음식 - 일반한식"}]},{"lat":"37.727871196","long":"126.71663256","items":[{"name":"동막골포차","tel":"031-8071-1105","addr":"경기도 파주시 다율동 991-8번지","category":"일반휴게음식 - 일반한식"}]},{"lat":"37.726842959","long":"126.71616011","items":[{"name":"두툼1kg","tel":"031-944-1490","addr":"경기도 파주시 다율동 998-7번지","category":"일반휴게음식 - 일반한식"}]},{"lat":"37.728511666","long":"126.71695906","items":[{"name":"디팩토리","tel":"031-943-9663","addr":"경기도 파주시 다율동 990-1번지","category":"자동차정비 유지 - 세차장"}]},{"lat":"37.726617253","long":"126.71596814","items":[{"name":"라임동물병원","tel":"031-8071-2060","addr":"경기도 파주시 다율동 1001-1","category":"기타의료기관 - 동물병원"},{"name":"유진","tel":"031-941-6969","addr":"경기도 파주시 다율동 1001-1번지","category":"일반휴게음식 - 스넥"},{"name":"주식회사 대신투어","tel":"031-922-7955","addr":"경기도 파주시 다율동 1001-1번지","category":"여행 - 관광여행"}]},{"lat":"37.726952891","long":"126.71690833","items":[{"name":"로엠헤어살롱","tel":"031-957-3011","addr":"경기도 파주시 다율동 1000-4번지 1층","category":"보건위생 - 미용원"}]},{"lat":"37.732096521","long":"126.72030309","items":[{"name":"리틀예뜨락어린이집[아이행복]","tel":"031-946-8483","addr":"경기도 파주시 다율동 982","category":"학원 - 유아원"}]},{"lat":"37.726618053","long":"126.71629709","items":[{"name":"마부감자탕 교하점","tel":"031-957-0999","addr":"경기도 파주시 다율동 1001-3번지","category":"일반휴게음식 - 일반한식"}]},{"lat":"37.734123268","long":"126.7164043","items":[{"name":"멀피플라이텍","tel":"031-943-5701","addr":"경기도 파주시 다율동 481-2번지","category":"기타 - 기타 전문점"}]},{"lat":"37.727536688","long":"126.71615743","items":[{"name":"명가돌삼겹","tel":"031-941-5727","addr":"경기도 파주시 다율동 998-2번지","category":"일반휴게음식 - 일반한식"},{"name":"서경포장기계","tel":"031-947-7497","addr":"경기도 파주시 다율동 998-2번지","category":"기타 - 기계공구"}]},{"lat":"37.728759211","long":"126.71501837","items":[{"name":"문스킨케어","tel":"031-942-5259","addr":"경기도 파주시 다율동 994-9번지","category":"보건위생 - 피부미용실"}]},{"lat":"37.729400102","long":"126.71923569","items":[{"name":"미래로교육","tel":"031-123-4567","addr":"경기도 파주시 다율동 986번지 청석마을대원효성아파트","category":"학원 - 기타 교육기관"},{"name":"보니하니 어린이집[아이행복]","tel":"031-9493-731","addr":"경기도 파주시 다율동 986번지 청석마을대원효성아파트","category":"학원 - 유아원"},{"name":"제이제이트레이딩","tel":"","addr":"경기도 파주시 다율동 986번지 청석마을대원효성아파트","category":"자동차정비 유지 - 자동차부품"}]},{"lat":"37.727178127","long":"126.71690747","items":[{"name":"바퀴달린그림책(교하)","tel":"031-948-7173","addr":"경기도 파주시 다율동 1000-6번지","category":"회원제형태 - 서적"},{"name":"철수와영희포차","tel":"031-941-6931","addr":"경기도 파주시 다율동 1000-6번지","category":"일반휴게음식 - 주점"}]},{"lat":"37.728402424","long":"126.7164944","items":[{"name":"복청","tel":"031-945-7778","addr":"경기도 파주시 다율동 991-15번지","category":"일반휴게음식 - 일반한식"}]},{"lat":"37.726624687","long":"126.71532156","items":[{"name":"봉쥬르다방","tel":"","addr":"경기도 파주시 다율동 1002-2번지","category":"일반휴게음식 - 서양음식"}]},{"lat":"37.727940868","long":"126.71936604","items":[{"name":"비손어린이집[아이행복]","tel":"031-947-9837","addr":"경기도 파주시 다율동 986번지 청석마을대원효성아파트","category":"학원 - 유아원"},{"name":"에프앤이(F.N.E)","tel":"031-947-9896","addr":"경기도 파주시 다율동 986번지 청석마을대원효성아파트","category":"전기제품 - 가전제품"}]},{"lat":"37.727064709","long":"126.71843923","items":[{"name":"빠져드는 수학","tel":"","addr":"경기도 파주시 다율동 986번지 청석마을대원효성아파트","category":"학원 - 기타 교육기관"}]},{"lat":"37.737366801","long":"126.7277933","items":[{"name":"삼일식당","tel":"031-947-9086","addr":"경기도 파주시 다율동 248-12번지 107호","category":"일반휴게음식 - 일반한식"}]},{"lat":"37.728732515","long":"126.7151546","items":[{"name":"삼천리자전거(파주교하점)","tel":"031-8071-3033","addr":"경기도 파주시 다율동 994-8","category":"레져용품 - 스포츠·레져용품"},{"name":"카페순못길","tel":"","addr":"경기도 파주시 다율동 994-8번지","category":"일반휴게음식 - 서양음식"}]},{"lat":"37.728150076","long":"126.71646134","items":[{"name":"삿포로벨리카","tel":"031-947-9971","addr":"경기도 파주시 다율동 991-13번지","category":"일반휴게음식 - 서양음식"}]},{"lat":"37.726978762","long":"126.71643182","items":[{"name":"서가네흑마늘보쌈족발","tel":"031-946-5358","addr":"경기도 파주시 다율동 999-9","category":"일반휴게음식 - 일반한식"}]},{"lat":"37.739448348","long":"126.72032052","items":[{"name":"성운건강원","tel":"031-948-2029","addr":"경기도 파주시 다율동 527번지","category":"건강식품 - 기타건강식품"}]},{"lat":"37.727870727","long":"126.71643973","items":[{"name":"셀프맥주광장","tel":"031-943-0489","addr":"경기도 파주시 다율동 991-11번지","category":"일반휴게음식 - 주점"}]},{"lat":"37.726618797","long":"126.71660335","items":[{"name":"수상한오징어","tel":"031-938-9457","addr":"경기도 파주시 다율동 1001-5번지 1층","category":"일반휴게음식 - 일반한식"}]},{"lat":"37.728123461","long":"126.71663159","items":[{"name":"신독도참치","tel":"031-942-2270","addr":"경기도 파주시 다율동 991-6번지","category":"일반휴게음식 - 일반한식"}]},{"lat":"37.728957087","long":"126.71488148","items":[{"name":"씨유파주다율희망점","tel":"031-945-7712","addr":"경기도 파주시 다율동 994-1번지","category":"유통업 영리 - 편 의 점"}]},{"lat":"37.727094202","long":"126.71573944","items":[{"name":"아람뚝배기","tel":"031-943-2523","addr":"경기도 파주시 다율동 997-2번지","category":"일반휴게음식 - 일반한식"}]},{"lat":"37.727537845","long":"126.71663384","items":[{"name":"아람자동차공업사","tel":"031-949-7450","addr":"경기도 파주시 다율동 999-2번지","category":"자동차정비 유지 - 자동차정비"}]},{"lat":"37.729118375","long":"126.7182272","items":[{"name":"아이크니어린이집[아이행복]","tel":"031-948-6542","addr":"경기도 파주시 다율동 986번지 청석마을대원효성아파트","category":"학원 - 유아원"}]},{"lat":"37.732522029","long":"126.72116362","items":[{"name":"아이힘몬테소리 어린이집[아이행복]","tel":"031-939-5111","addr":"경기도 파주시 다율동 982번지 청석마을동문굿모닝힐","category":"학원 - 유아원"},{"name":"파란교육","tel":"031-939-3665","addr":"경기도 파주시 다율동 982","category":"회원제형태 - 서적"}]},{"lat":"37.726625046","long":"126.71546901","items":[{"name":"알쓰리","tel":"031-943-0275","addr":"경기도 파주시 다율동 1002-3번지","category":"자동차정비 유지 - 자동차부품"}]},{"lat":"37.728841984","long":"126.71571","items":[{"name":"양스플러스 (+)","tel":"070-5121-6771","addr":"경기도 파주시 다율동 993-1번지","category":"일반휴게음식 - 일반한식"}]},{"lat":"37.735729508","long":"126.73274557","items":[{"name":"에메스전자","tel":"031-957-1628","addr":"경기도 파주시 다율동 162-4","category":"전기제품 - 기타전기제품"}]},{"lat":"37.728806104","long":"126.71949886","items":[{"name":"엔젤키즈어린이집[아이행복]","tel":"031-945-4624","addr":"경기도 파주시 다율동 986번지 청석마을대원효성아파트","category":"학원 - 유아원"},{"name":"해피아이 어린이집[아이행복]","tel":"031-949-6850","addr":"경기도 파주시 다율동 986번지 청석마을대원효성아파트","category":"학원 - 유아원"}]},{"lat":"37.735785408","long":"126.73355083","items":[{"name":"옛날부대찌개순대국","tel":"031-949-6315","addr":"경기도 파주시 다율동 116-20번지2동","category":"일반휴게음식 - 일반한식"}]},{"lat":"37.742090268","long":"126.72885364","items":[{"name":"우아 (WOO-A)","tel":"031-000-0000","addr":"경기도 파주시 다율동 299-1번지","category":"의류 - 정장"}]},{"lat":"37.728735305","long":"126.71630027","items":[{"name":"위듀커피","tel":"031-942-9739","addr":"경기도 파주시 다율동 992-2번지","category":"일반휴게음식 - 서양음식"}]},{"lat":"37.727122252","long":"126.71615903","items":[{"name":"위풍당당막창대장","tel":"031-943-9892","addr":"경기도 파주시 다율동 998-5번지","category":"일반휴게음식 - 일반한식"}]},{"lat":"37.728591071","long":"126.7162668","items":[{"name":"윤기획","tel":"031-943-8471","addr":"경기도 파주시 다율동 992-3","category":"용역 서비스 - 종합용역"}]},{"lat":"37.728081519","long":"126.71791355","items":[{"name":"이정애","tel":"031-945-3896","addr":"경기도 파주시 다율동 986번지 청석마을대원효성아파트","category":"회원제형태 - 학원"}]},{"lat":"37.728672901","long":"126.71657276","items":[{"name":"자매식당","tel":"031-949-4437","addr":"경기도 파주시 다율동 991-1번지","category":"일반휴게음식 - 일반한식"}]},{"lat":"37.728455791","long":"126.7162106","items":[{"name":"자트인테리어","tel":"031-8070-2283","addr":"경기도 파주시 다율동 992-4번지","category":"건축자재 - 인테리어전문"}]},{"lat":"37.72881537","long":"126.71588026","items":[{"name":"장어마을","tel":"031-949-9623","addr":"경기도 파주시 다율동 993-2번지","category":"일반휴게음식 - 일반한식"}]},{"lat":"37.726617639","long":"126.71612694","items":[{"name":"장어박사","tel":"031-957-0122","addr":"경기도 파주시 다율동 1001-2번지","category":"일반휴게음식 - 일반한식"}]},{"lat":"37.732982947","long":"126.72176311","items":[{"name":"정훈어린이집[아이행복]","tel":"031-939-1569","addr":"경기도 파주시 다율동 982","category":"학원 - 유아원"}]},{"lat":"37.727537377","long":"126.71644101","items":[{"name":"제주수산횟집","tel":"031-948-3241","addr":"경기도 파주시 다율동 999-1번지","category":"일반휴게음식 - 일식·회집"}]},{"lat":"37.736873422","long":"126.72871404","items":[{"name":"종합패션","tel":"031-948-6488","addr":"경기도 파주시 다율동 133-4","category":"의류 - 기타의류"}]},{"lat":"37.728311585","long":"126.71618847","items":[{"name":"쥬얼제이","tel":"","addr":"경기도 파주시 다율동 992-5번지","category":"문화.취미 - 애완동물"}]},{"lat":"37.745312852","long":"126.73546781","items":[{"name":"지엘냉난방시스템","tel":"031-946-7785","addr":"경기도 파주시 다율동 60-33","category":"전기제품 - 냉열기기"}]},{"lat":"37.727761924","long":"126.71615656","items":[{"name":"차이홍","tel":"031-957-5880","addr":"경기도 파주시 다율동 992-10번지","category":"일반휴게음식 - 중국식"}]},{"lat":"37.742035567","long":"126.73643263","items":[{"name":"채소의 온도","tel":"070-7799-6584","addr":"경기도 파주시 다율동 810번지","category":"음료식품 - 농·축·수산품"}]},{"lat":"37.727286241","long":"126.71690705","items":[{"name":"청석골부속구이","tel":"031-947-5636","addr":"경기도 파주시 다율동 1000-7번지","category":"일반휴게음식 - 일반한식"}]},{"lat":"37.727202178","long":"126.71568231","items":[{"name":"청석동오리구이","tel":"031-948-6292","addr":"경기도 파주시 다율동 997-1번지","category":"일반휴게음식 - 일반한식"}]},{"lat":"37.728646285","long":"126.71674301","items":[{"name":"청석로점 현대자동차","tel":"031-943-5292","addr":"경기도 파주시 다율동 991-2번지","category":"자동차정비 유지 - 자동차정비"}]},{"lat":"37.730679665","long":"126.71932156","items":[{"name":"청석초등학교병설유치원[아이행복]","tel":"031-943-9312","addr":"경기도 파주시 다율동 983번지","category":"학원 - 유치원"}]},{"lat":"37.726842545","long":"126.71598996","items":[{"name":"칸","tel":"031-941-9560","addr":"경기도 파주시 다율동 998-8번지","category":"일반휴게음식 - 일반한식"}]},{"lat":"37.727228711","long":"126.7191986","items":[{"name":"테일러","tel":"031-311-2531","addr":"경기도 파주시 다율동 986번지 청석마을대원효성아파트","category":"회원제형태 - 기타1"}]},{"lat":"37.726977687","long":"126.71598944","items":[{"name":"토람","tel":"031-943-7759","addr":"경기도 파주시 다율동 998-9번지","category":"일반휴게음식 - 일반한식"}]},{"lat":"37.727763743","long":"126.71690521","items":[{"name":"토박이(교하점)","tel":"031-957-0909","addr":"경기도 파주시 다율동 990-3번지","category":"일반휴게음식 - 일반한식"}]},{"lat":"37.72684362","long":"126.71643234","items":[{"name":"파주숯불고깃집","tel":"070-9451-6484","addr":"경기도 파주시 다율동 999-8번지","category":"일반휴게음식 - 일반한식"}]},{"lat":"37.728481218","long":"126.71555259","items":[{"name":"플레이독","tel":"070-7614-3579","addr":"경기도 파주시 다율동 993-7번지","category":"문화.취미 - 애완동물"}]},{"lat":"37.72712341","long":"126.71663544","items":[{"name":"하츠카페","tel":"","addr":"경기도 파주시 다율동 999-5번지","category":"일반휴게음식 - 서양음식"}]},{"lat":"37.7320264","long":"126.72112012","items":[{"name":"한길공부방","tel":"070-8818-4577","addr":"경기도 파주시 다율동 982번지 청석마을동문굿모닝힐","category":"회원제형태 - 학원"}]},{"lat":"37.733864737","long":"126.72128331","items":[{"name":"해피스마일","tel":"02-592-7238","addr":"경기도 파주시 다율동 982번지 청석마을동문굿모닝힐","category":"사무통신 - 통신기기"}]},{"lat":"37.728402837","long":"126.71666455","items":[{"name":"향연","tel":"031-948-0822","addr":"경기도 파주시 다율동 991-4번지","category":"일반휴게음식 - 일반한식"}]},{"lat":"37.736532724","long":"126.7180173","items":[{"name":"헐크워시 파주점","tel":"","addr":"경기도 파주시 다율동 978-5번지","category":"일반휴게음식 - 서양음식"}]},{"lat":"37.727061004","long":"126.71690792","items":[{"name":"헤어팡","tel":"070-4133-6575","addr":"경기도 파주시 다율동 1000-5번지","category":"보건위생 - 미용원"}]},{"lat":"37.726979258","long":"126.71663599","items":[{"name":"호동이숯불갈비","tel":"031-947-8024","addr":"경기도 파주시 다율동 999-6번지","category":"일반휴게음식 - 일반한식"}]},{"lat":"37.726618466","long":"126.71646724","items":[{"name":"호원왕족발","tel":"031-941-2225","addr":"경기도 파주시 다율동 1001-4번지","category":"일반휴게음식 - 일반한식"}]},{"lat":"37.726844116","long":"126.71663651","items":[{"name":"홍가숯불신꼼장어","tel":"031-957-9926","addr":"경기도 파주시 다율동 999-7번지","category":"일반휴게음식 - 일반한식"}]},{"lat":"37.727122914","long":"126.71643126","items":[{"name":"홍가파주점","tel":"031-945-5658","addr":"경기도 파주시 다율동 999-10번지","category":"일반휴게음식 - 일반한식"}]},{"lat":"37.726597326","long":"126.71518554","items":[{"name":"화려한경양식","tel":"031-000-0000","addr":"경기도 파주시 다율동 1002-1번지","category":"일반휴게음식 - 일반한식"}]},{"lat":"37.728930391","long":"126.71501771","items":[{"name":"황소막창","tel":"031-945-3120","addr":"경기도 파주시 다율동 994-2번지","category":"일반휴게음식 - 일반한식"}]},{"lat":"37.726817748","long":"126.71690885","items":[{"name":"황진영의 육전국수","tel":"031-949-0551","addr":"경기도 파주시 다율동 1000-3번지","category":"일반휴게음식 - 일반한식"}]}]