[{"lat":"37.244666197","long":"127.47560071","items":[{"name":"LP주차장","tel":"070-8807-3435","addr":"경기도 이천시 대월면 대흥리 18-8번지","category":"자동차정비 유지 - 주차장"}]},{"lat":"37.249525471","long":"127.47490971","items":[{"name":"Man'S 컷","tel":"031-636-1199","addr":"경기도 이천시 대월면 대흥리 1-6번지 아미가든쇼핑센타 B동 221호","category":"보건위생 - 미용원"},{"name":"STAR GYM","tel":"031-631-2793","addr":"경기도 이천시 대월면 대흥리 1-6번지 아미가든쇼핑센타 B동 4층 401호","category":"레저업소 - 헬스클럽"},{"name":"구이가","tel":"031-632-9244","addr":"경기도 이천시 대월면 대흥리 1-6번지 아미가든쇼핑센타 2층 224호","category":"일반휴게음식 - 일반한식"},{"name":"구이칠(927)","tel":"031-631-1223","addr":"경기도 이천시 대월면 대흥리 1-6번지 아미가든쇼핑센타 107호","category":"일반휴게음식 - 일반한식"},{"name":"김밥천국 (대흥리점)","tel":"031-632-1226","addr":"경기도 이천시 대월면 대흥리 1-6번지 308호~311호","category":"일반휴게음식 - 일반한식"},{"name":"남해굴국밥","tel":"031-637-5553","addr":"경기도 이천시 대월면 대흥리 1-6번지 아이쇼핑센터 B동 103호","category":"일반휴게음식 - 일반한식"},{"name":"뉴 라마","tel":"031-631-7178","addr":"경기도 이천시 대월면 대흥리 1-6번지 아미가든쇼핑센타 B동 403호","category":"보건위생 - 미용재료"},{"name":"대관령황태촌","tel":"031-633-3648","addr":"경기도 이천시 대월면 대흥리 1-6번지 아미가든쇼핑센타 B동 323,324호","category":"일반휴게음식 - 일반한식"},{"name":"독도왕새우튀김(하이닉스점)","tel":"031-634-4754","addr":"경기도 이천시 대월면 대흥리 1-6번지 아미가든쇼핑센터 116호","category":"일반휴게음식 - 스넥"},{"name":"돼지꿈","tel":"031-634-9255","addr":"경기도 이천시 대월면 대흥리 1-6번지 아미쇼핑 나동 108호","category":"일반휴게음식 - 일반한식"},{"name":"만나","tel":"031-637-6989","addr":"경기도 이천시 대월면 대흥리 1-6 아미쇼핑센타B동(201,202호)","category":"일반휴게음식 - 일반한식"},{"name":"명인토속순대국","tel":"031-631-3077","addr":"경기도 이천시 대월면 대흥리 1-6번지 아미가든쇼핑센터 318,319,320","category":"일반휴게음식 - 일반한식"},{"name":"봄,가을","tel":"031-632-5513","addr":"경기도 이천시 대월면 대흥리 1-6번지 B동211,212.213호","category":"일반휴게음식 - 일반한식"},{"name":"삼천포 마차","tel":"02-0000-0000","addr":"경기도 이천시 대월면 대흥리 1-6번지 아미가든쇼핑센타 105호","category":"일반휴게음식 - 일반한식"},{"name":"서가네돼지국밥","tel":"031-631-9829","addr":"경기도 이천시 대월면 대흥리 1-6 아미쇼핑센터B동205-206호","category":"일반휴게음식 - 일반한식"},{"name":"소소식당","tel":"","addr":"경기도 이천시 대월면 대흥리 1-6번지 아미가든쇼핑센타 B동 207호","category":"일반휴게음식 - 일반한식"},{"name":"승희네쌀밥","tel":"031-634-5611","addr":"경기도 이천시 대월면 대흥리 1-6번지 아미가든쇼핑센타 B동 312호","category":"일반휴게음식 - 일반한식"},{"name":"아성루","tel":"031-634-1513","addr":"경기도 이천시 대월면 대흥리 1-6번지 아미쇼핑센터 B동 303호","category":"일반휴게음식 - 중국식"},{"name":"온유","tel":"031-634-8331","addr":"경기도 이천시 대월면 대흥리 1-6번지 아미가든쇼핑센타 B동 2층 206호","category":"일반휴게음식 - 서양음식"},{"name":"유앤아이짐","tel":"031-634-9445","addr":"경기도 이천시 대월면 대흥리 1-6번지","category":"레저업소 - 헬스클럽"},{"name":"의정부부대찌개 생삼겹살","tel":"031-632-1226","addr":"경기도 이천시 대월면 대흥리 1-6번지 B동 326호~330호","category":"일반휴게음식 - 일반한식"},{"name":"인천해물파전","tel":"031-633-2674","addr":"경기도 이천시 대월면 대흥리 1-6번지 아미가든쇼핑센타 B동 106호","category":"일반휴게음식 - 일반한식"},{"name":"즐거운식당","tel":"031-634-8969","addr":"경기도 이천시 대월면 대흥리 1-6번지 B동 222, 223호(아미상가)","category":"일반휴게음식 - 일반한식"},{"name":"찌개타운","tel":"031-632-4832","addr":"경기도 이천시 대월면 대흥리 1-6번지 아미가든쇼핑센타 B동 207호","category":"일반휴게음식 - 일반한식"},{"name":"크린스피드","tel":"031-634-6264","addr":"경기도 이천시 대월면 대흥리 1-6번지 아미가든쇼핑센타 B동 204호","category":"수리서비스 - 세탁소"},{"name":"팔오","tel":"031-000-0000","addr":"경기도 이천시 대월면 대흥리 1-6번지 아미가든쇼핑센타 104호","category":"일반휴게음식 - 일반한식"},{"name":"행복식당","tel":"031-633-6058","addr":"경기도 이천시 대월면 대흥리 1-6번지 아미가든쇼핑센타 218동 220호","category":"일반휴게음식 - 일반한식"}]},{"lat":"37.249361763","long":"127.4752919","items":[{"name":"NEET(니트)","tel":"031-633-0208","addr":"경기도 이천시 대월면 대흥리 1-5번지 아미쇼핑 A동 301호","category":"보건위생 - 피부미용실"},{"name":"경원중화요리","tel":"031-632-5688","addr":"경기도 이천시 대월면 대흥리 1-5번지 아미가든쇼핑센터 A동 206호","category":"일반휴게음식 - 중국식"},{"name":"굽신 솥뚜껑 삼겹살","tel":"031-694-0972","addr":"경기도 이천시 대월면 대흥리 1-5번지 아미가든쇼핑센타 306호","category":"일반휴게음식 - 일반한식"},{"name":"까치마을","tel":"031-635-1668","addr":"경기도 이천시 대월면 대흥리 1-5번지 아미가든쇼핑센타 가동 105호","category":"일반휴게음식 - 일반한식"},{"name":"니트네일","tel":"031-634-0208","addr":"경기도 이천시 대월면 대흥리 1-5번지 아미쇼핑 A동 301호","category":"보건위생 - 피부미용실"},{"name":"다온 (Da on)","tel":"","addr":"경기도 이천시 대월면 대흥리 1-5번지 아미가든쇼핑센타 A동 103호","category":"일반휴게음식 - 일반한식"},{"name":"더캠프PC이천대흥점","tel":"02-2222-2222","addr":"경기도 이천시 대월면 대흥리 1-5번지 아미가든쇼핑센타 303호","category":"레저업소 - 기타레져업소"},{"name":"더팝(The pop)","tel":"","addr":"경기도 이천시 대월면 대흥리 1-5번지 아미가든쇼핑센타 A동 1층 111호","category":"일반휴게음식 - 일반한식"},{"name":"도면가","tel":"031-634-5092","addr":"경기도 이천시 대월면 대흥리 1-5번지 아미가든쇼핑센타 104호","category":"일반휴게음식 - 일반한식"},{"name":"드르와","tel":"031-631-1975","addr":"경기도 이천시 대월면 대흥리 1-5번지 아미가든쇼핑센타 A동 115호","category":"일반휴게음식 - 일반한식"},{"name":"드르와 키친","tel":"031-632-1760","addr":"경기도 이천시 대월면 대흥리 1-5번지 아이가든쇼핑센터 A동 1층 120호","category":"일반휴게음식 - 일반한식"},{"name":"맥주바","tel":"031-634-6117","addr":"경기도 이천시 대월면 대흥리 1-5번지","category":"일반휴게음식 - 일반한식"},{"name":"배꼽시계","tel":"031-633-9472","addr":"경기도 이천시 대월면 대흥리 1-5번지 아미가든쇼핑센타 가동 204호","category":"일반휴게음식 - 일반한식"},{"name":"부엉이","tel":"070-4789-2381","addr":"경기도 이천시 대월면 대흥리 1-5번지 아미가든쇼핑센타 A동 1층 106호","category":"일반휴게음식 - 일반한식"},{"name":"오늘은술요일","tel":"031-636-1572","addr":"경기도 이천시 대월면 대흥리 1-5번지 아미가든쇼핑센타 A동 117호,118호","category":"일반휴게음식 - 주점"},{"name":"옹가네돌밥","tel":"031-633-6637","addr":"경기도 이천시 대월면 대흥리 1-5번지 아미쇼핑센터 215호","category":"일반휴게음식 - 일반한식"},{"name":"왕실족발","tel":"031-631-8568","addr":"경기도 이천시 대월면 대흥리 1-5번지 아미가든쇼핑센타 A동 112호","category":"일반휴게음식 - 일반한식"},{"name":"요거프레소(고담행복마을점)","tel":"031-636-1199","addr":"경기도 이천시 대월면 대흥리 1-5번지 아미가든쇼핑센타 102호","category":"일반휴게음식 - 서양음식"},{"name":"진성식당","tel":"031-633-1508","addr":"경기도 이천시 대월면 대흥리 1-5번지 아미가든 207호","category":"일반휴게음식 - 일반한식"},{"name":"폰하우스","tel":"031-631-7935","addr":"경기도 이천시 대월면 대흥리 1-5번지 아미쇼핑 A동 116호","category":"사무통신 - 통신기기"},{"name":"풋타이마사지","tel":"031-635-1301","addr":"경기도 이천시 대월면 대흥리 1-5번지 아미가든쇼핑센타 A동 208호","category":"신변잡화 - 기타잡화"},{"name":"하루세끼","tel":"032-000-0000","addr":"경기도 이천시 대월면 대흥리 1-5번지 아미가든쇼핑센타 A동 209호","category":"일반휴게음식 - 일반한식"},{"name":"하이닉스 당구장","tel":"031-637-4707","addr":"경기도 이천시 대월면 대흥리 1-5번지 아미가든쇼핑센타 A동 302호","category":"레저업소 - 당 구 장"},{"name":"하이컴(HYCOM)","tel":"031-636-0002","addr":"경기도 이천시 대월면 대흥리 1-5번지 아미상가 A-107호","category":"사무통신 - 컴퓨터"},{"name":"헤어짱앤전설","tel":"031-633-4082","addr":"경기도 이천시 대월면 대흥리 1-5번지 아미쇼핑가든 A동 210호","category":"보건위생 - 미용원"}]},{"lat":"37.241052525","long":"127.48246405","items":[{"name":"고구마","tel":"070-4649-1101","addr":"경기도 이천시 대월면 대흥리 83-1번지 102호","category":"일반휴게음식 - 일반한식"},{"name":"고기구워먹는마당","tel":"070-4649-1101","addr":"경기도 이천시 대월면 대흥리 83-1번지 101호","category":"음료식품 - 정육점"}]},{"lat":"37.244306786","long":"127.47535052","items":[{"name":"대흥골","tel":"031-634-9225","addr":"경기도 이천시 대월면 대흥리 18-6번지 269동 10호","category":"일반휴게음식 - 일반한식"}]},{"lat":"37.238781742","long":"127.47804327","items":[{"name":"대흥농원","tel":"031-632-1270","addr":"경기도 이천시 대월면 대흥리 57번지","category":"회원제형태 - 기타1"}]},{"lat":"37.230390383","long":"127.48320783","items":[{"name":"동성식당","tel":"031-632-1209","addr":"경기도 이천시 대월면 대흥리 304-4번지","category":"일반휴게음식 - 일반한식"}]},{"lat":"37.244996145","long":"127.47645933","items":[{"name":"들마루","tel":"031-631-1077","addr":"경기도 이천시 대월면 대흥리 8-2번지","category":"일반휴게음식 - 일반한식"},{"name":"미니스톱이천대흥점","tel":"","addr":"경기도 이천시 대월면 대흥리 8-2","category":"유통업 영리 - 편 의 점"},{"name":"포차닭","tel":"031-637-7272","addr":"경기도 이천시 대월면 대흥리 8-2번지 2층","category":"일반휴게음식 - 스넥"}]},{"lat":"37.248389851","long":"127.47499279","items":[{"name":"세탁을위한사람들sk하이닉스점","tel":"070-4895-3777","addr":"경기도 이천시 대월면 대흥리 1-9번지 1층","category":"수리서비스 - 세탁소"},{"name":"아미쉼터","tel":"031-8094-8726","addr":"경기도 이천시 대월면 대흥리 1-9번지 SK행복마을커뮤니티센터 2층","category":"일반휴게음식 - 일반한식"}]},{"lat":"37.232055316","long":"127.47698688","items":[{"name":"수지학원","tel":"031-638-8749","addr":"경기도 이천시 대월면 대흥리 361번지","category":"회원제형태 - 학원"}]},{"lat":"37.243106204","long":"127.47590653","items":[{"name":"예촌고기마을","tel":"031-631-9030","addr":"경기도 이천시 대월면 대흥리 17번지","category":"일반휴게음식 - 일반한식"},{"name":"위드미이천대흥점","tel":"02-6916-1500","addr":"경기도 이천시 대월면 대흥리 17번지","category":"유통업 영리 - 편 의 점"}]},{"lat":"37.241722533","long":"127.47718266","items":[{"name":"이천굿푸드","tel":"","addr":"경기도 이천시 대월면 대흥리 34-9번지","category":"일반휴게음식 - 위탁급식업"}]}]