[{"lat":"37.086757082","long":"126.82486272","items":[{"name":"(주)마이엠티","tel":"031-358-5880","addr":"경기도 화성시 우정읍 조암리 796-6번지 1층","category":"용역 서비스 - 사무서비스"},{"name":"펀(FUN)마트","tel":"031-351-1470","addr":"경기도 화성시 우정읍 조암리 796-6번지","category":"유통업 영리 - 슈퍼마켓"}]},{"lat":"37.085118038","long":"126.81952429","items":[{"name":"(주)아시아레스토랑화성조암지점","tel":"031-352-8684","addr":"경기도 화성시 우정읍 조암리 218-12번지 101호","category":"일반휴게음식 - 서양음식"},{"name":"치킨파티","tel":"031-351-5538","addr":"경기도 화성시 우정읍 조암리 218-12번지","category":"일반휴게음식 - 스넥"}]},{"lat":"37.091141244","long":"126.82824928","items":[{"name":"(주)화성자동차학원","tel":"031-351-0405","addr":"경기도 화성시 우정읍 조암리 85번지","category":"학원 - 기능학원"}]},{"lat":"37.086842349","long":"126.82166834","items":[{"name":"CafeVivaldi (카페비발디)","tel":"031-351-1381","addr":"경기도 화성시 우정읍 조암리 803-5번지 14호","category":"일반휴게음식 - 서양음식"}]},{"lat":"37.084895647","long":"126.8213918","items":[{"name":"GS25조암남로점","tel":"","addr":"경기도 화성시 우정읍 조암리 810-1번지","category":"유통업 영리 - 편 의 점"}]},{"lat":"37.087537223","long":"126.82236401","items":[{"name":"GS25조암동로점","tel":"","addr":"경기도 화성시 우정읍 조암리 802-2번지 1층 102호","category":"유통업 영리 - 편 의 점"}]},{"lat":"37.084869383","long":"126.81608336","items":[{"name":"GS25조암서로점","tel":"","addr":"경기도 화성시 우정읍 조암리 360-12번지 101호","category":"유통업 영리 - 편 의 점"}]},{"lat":"37.088227119","long":"126.81980923","items":[{"name":"JA바디홀릭","tel":"","addr":"경기도 화성시 우정읍 조암리 148-2번지 1층","category":"레저업소 - 헬스클럽"},{"name":"아이비플라워","tel":"031-355-7975","addr":"경기도 화성시 우정읍 조암리 148-2번지 104호","category":"문화.취미 - 화원"},{"name":"어서왈왈","tel":"031-358-5606","addr":"경기도 화성시 우정읍 조암리 148-2번지 1층 6호","category":"문화.취미 - 애완동물"},{"name":"조암 레전드 태권도","tel":"070-8699-4464","addr":"경기도 화성시 우정읍 조암리 148-2번지 202호","category":"학원 - 예·체능계학원"},{"name":"크린토피아 화성조암점","tel":"031-351-7858","addr":"경기도 화성시 우정읍 조암리 148-2번지 102호","category":"수리서비스 - 세탁소"}]},{"lat":"37.086619328","long":"126.82314223","items":[{"name":"ONE 골프아카데미","tel":"031-000-0000","addr":"경기도 화성시 우정읍 조암리 801번지 2층","category":"레저업소 - 골프연습장"},{"name":"수제청나라","tel":"","addr":"경기도 화성시 우정읍 조암리 801번지 1층 102호","category":"음료식품 - 기타음료식품"},{"name":"아너스보습학원","tel":"070-8810-3474","addr":"경기도 화성시 우정읍 조암리 801번지 1층","category":"학원 - 보습학원"},{"name":"카페13월","tel":"031-1111-1111","addr":"경기도 화성시 우정읍 조암리 801번지 1층 101호","category":"일반휴게음식 - 서양음식"}]},{"lat":"37.082447108","long":"126.81707899","items":[{"name":"by혀니","tel":"031-351-2583","addr":"경기도 화성시 우정읍 조암리 345-2번지","category":"의류 - 정장"}]},{"lat":"37.082616097","long":"126.81567277","items":[{"name":"가나종합설비","tel":"031-358-0413","addr":"경기도 화성시 우정읍 조암리 340-6","category":"용역 서비스 - 기타용역서비스"}]},{"lat":"37.087146318","long":"126.826054","items":[{"name":"가마솥식당","tel":"031-351-3422","addr":"경기도 화성시 우정읍 조암리 794-12번지 1층 일부","category":"일반휴게음식 - 일반한식"}]},{"lat":"37.083394092","long":"126.81763901","items":[{"name":"가보곱창","tel":"031-351-0164","addr":"경기도 화성시 우정읍 조암리 352-3번지","category":"일반휴게음식 - 일반한식"},{"name":"그래도삼겹살","tel":"031-358-9400","addr":"경기도 화성시 우정읍 조암리 352-3번지","category":"일반휴게음식 - 일반한식"},{"name":"라니마라탕","tel":"031-358-5001","addr":"경기도 화성시 우정읍 조암리 352-3번지","category":"일반휴게음식 - 중국식"},{"name":"블링블링 노래연습장","tel":"","addr":"경기도 화성시 우정읍 조암리 352-3번지 지하1층","category":"레저업소 - 노 래 방"},{"name":"빨간머리앤미용실","tel":"031-358-5564","addr":"경기도 화성시 우정읍 조암리 352-3번지 1층","category":"보건위생 - 미용원"},{"name":"페리카나치킨","tel":"031-358-6843","addr":"경기도 화성시 우정읍 조암리 352-3번지","category":"일반휴게음식 - 주점"}]},{"lat":"37.083728604","long":"126.81835799","items":[{"name":"갈매기","tel":"031-351-8484","addr":"경기도 화성시 우정읍 조암리 267-3번지","category":"음료식품 - 기타음료식품"},{"name":"참갈매기살","tel":"031-351-5050","addr":"경기도 화성시 우정읍 조암리 267-3번지 1층","category":"일반휴게음식 - 일반한식"},{"name":"한아름 막창 곱창","tel":"031-351-7959","addr":"경기도 화성시 우정읍 조암리 267-3번지 1층 102호","category":"일반휴게음식 - 일반한식"}]},{"lat":"37.083451439","long":"126.81975324","items":[{"name":"갈비전설전집","tel":"031-351-1253","addr":"경기도 화성시 우정읍 조암리 273-3번지","category":"일반휴게음식 - 일반한식"},{"name":"애경유통","tel":"","addr":"경기도 화성시 우정읍 조암리 273-3번지","category":"신변잡화 - 기타잡화"},{"name":"인화네포차","tel":"031-351-9008","addr":"경기도 화성시 우정읍 조암리 273-3","category":"일반휴게음식 - 일반한식"},{"name":"조암중고가전랜드","tel":"031-351-5635","addr":"경기도 화성시 우정읍 조암리 273-3번지 1층","category":"전기제품 - 가전제품"},{"name":"친구비어","tel":"031-351-6326","addr":"경기도 화성시 우정읍 조암리 273-3번지","category":"일반휴게음식 - 주점"},{"name":"프린스","tel":"031-351-4664","addr":"경기도 화성시 우정읍 조암리 273-3번지","category":"일반휴게음식 - 주점"},{"name":"허흑오리","tel":"031-358-8978","addr":"경기도 화성시 우정읍 조암리 273-3번지","category":"일반휴게음식 - 중국식"}]},{"lat":"37.086816296","long":"126.82230948","items":[{"name":"강현네 족발보쌈","tel":"031-358-7774","addr":"경기도 화성시 우정읍 조암리 802-10번지","category":"일반휴게음식 - 일반한식"}]},{"lat":"37.08406257","long":"126.81872832","items":[{"name":"거기헤어","tel":"031-358-4486","addr":"경기도 화성시 우정읍 조암리 265-2번지","category":"보건위생 - 미용원"},{"name":"다온국수","tel":"031-351-6355","addr":"경기도 화성시 우정읍 조암리 265-2번지","category":"일반휴게음식 - 일반한식"}]},{"lat":"37.084895337","long":"126.82118936","items":[{"name":"거북송탄부대찌개","tel":"031-351-3757","addr":"경기도 화성시 우정읍 조암리 244-7번지","category":"일반휴게음식 - 일반한식"}]},{"lat":"37.08683553","long":"126.82310798","items":[{"name":"건강한 밥상","tel":"031-351-3335","addr":"경기도 화성시 우정읍 조암리 799-18번지","category":"일반휴게음식 - 일반한식"},{"name":"보보메종(BoBo maison)","tel":"031-352-1673","addr":"경기도 화성시 우정읍 조암리 799-18번지 202호","category":"보건위생 - 화장품"}]},{"lat":"37.084784179","long":"126.81922143","items":[{"name":"경희복싱클럽","tel":"031-558-4476","addr":"경기도 화성시 우정읍 조암리 217-10번지","category":"회원제형태 - 레져업소"},{"name":"생맥주타운","tel":"031-0000-0000","addr":"경기도 화성시 우정읍 조암리 217-10번지","category":"일반휴게음식 - 주점"},{"name":"아이리스카페","tel":"031-351-5746","addr":"경기도 화성시 우정읍 조암리 217-10번지","category":"일반휴게음식 - 서양음식"}]},{"lat":"37.082203047","long":"126.81658475","items":[{"name":"경희삼성한의원","tel":"031-358-3633","addr":"경기도 화성시 우정읍 조암리 340-29번지 2층 전체","category":"의원 - 한의원"},{"name":"멘사영재원","tel":"053-636-6522","addr":"경기도 화성시 우정읍 조암리 340-29번지","category":"학원 - 기타 교육기관"},{"name":"팔팔정육점","tel":"031-358-5588","addr":"경기도 화성시 우정읍 조암리 340-29번지","category":"음료식품 - 정육점"},{"name":"팔팔통닭","tel":"031-358-5588","addr":"경기도 화성시 우정읍 조암리 340-29번지 1층","category":"일반휴게음식 - 스넥"}]},{"lat":"37.081814018","long":"126.81558477","items":[{"name":"경희제일한의원","tel":"031-361-3536","addr":"경기도 화성시 우정읍 조암리 334-8번지 2층","category":"의원 - 한의원"},{"name":"조암약국","tel":"031-351-0483","addr":"경기도 화성시 우정읍 조암리 334-8번지","category":"약국 - 약국"}]},{"lat":"37.082755991","long":"126.81869774","items":[{"name":"고려식물약국","tel":"031-351-6777","addr":"경기도 화성시 우정읍 조암리 290-12번지","category":"농업 - 비료,사료,종자"},{"name":"불티","tel":"031-351-3377","addr":"경기도 화성시 우정읍 조암리 290-12번지","category":"레저업소 - 노 래 방"},{"name":"솜씨","tel":"031-351-4140","addr":"경기도 화성시 우정읍 조암리 290-12번지","category":"보건위생 - 화장품"}]},{"lat":"37.081118355","long":"126.81441687","items":[{"name":"고려인지원상담소","tel":"031-8197-7008","addr":"경기도 화성시 우정읍 조암리 327-10번지","category":"용역 서비스 - 사무서비스"},{"name":"대박낙지마을","tel":"031-358-4421","addr":"경기도 화성시 우정읍 조암리 327-10번지","category":"일반휴게음식 - 일반한식"},{"name":"무스리마","tel":"","addr":"경기도 화성시 우정읍 조암리 327-10번지 1층 일부","category":"일반휴게음식 - 서양음식"},{"name":"황철수피자","tel":"031-351-3693","addr":"경기도 화성시 우정읍 조암리 327-10","category":"일반휴게음식 - 스넥"}]},{"lat":"37.083648766","long":"126.81916794","items":[{"name":"고향초두부","tel":"031-351-9090","addr":"경기도 화성시 우정읍 조암리 270-33번지","category":"일반휴게음식 - 일반한식"},{"name":"충남떡방아간","tel":"031-351-3697","addr":"경기도 화성시 우정읍 조암리 270-33","category":"음료식품 - 제과점"}]},{"lat":"37.084950002","long":"126.82158287","items":[{"name":"곱창부대","tel":"031-351-3392","addr":"경기도 화성시 우정읍 조암리 810-2번지 1층","category":"일반휴게음식 - 일반한식"},{"name":"신전떡볶이","tel":"031-351-3860","addr":"경기도 화성시 우정읍 조암리 810-2번지 101호","category":"일반휴게음식 - 스넥"}]},{"lat":"37.086641482","long":"126.81420075","items":[{"name":"공간디자인","tel":"031-351-7077","addr":"경기도 화성시 우정읍 조암리 384-10번지 2호(상가)","category":"건축자재 - 인테리어전문"},{"name":"남원추어탕","tel":"031-358-4414","addr":"경기도 화성시 우정읍 조암리 384-10번지","category":"일반휴게음식 - 일반한식"}]},{"lat":"37.083675152","long":"126.81875175","items":[{"name":"공작다방","tel":"031-358-7222","addr":"경기도 화성시 우정읍 조암리 270-14번지 지하1층","category":"일반휴게음식 - 일반한식"},{"name":"신세계 노래연습장","tel":"031-358-5421","addr":"경기도 화성시 우정읍 조암리 270-14번지","category":"레저업소 - 노 래 방"},{"name":"엘리트텔레콤","tel":"031-351-8883","addr":"경기도 화성시 우정읍 조암리 270-14번지 1층 중앙","category":"사무통신 - 통신기기"}]},{"lat":"37.084841067","long":"126.82105453","items":[{"name":"공주설렁탕","tel":"031-351-1166","addr":"경기도 화성시 우정읍 조암리 244-8번지 1층","category":"일반휴게음식 - 일반한식"},{"name":"김선화수학학원","tel":"031-351-1151","addr":"경기도 화성시 우정읍 조암리 244-8번지 1층 2층 일부","category":"학원 - 보습학원"},{"name":"톱클래스학원","tel":"","addr":"경기도 화성시 우정읍 조암리 244-8번지 2층","category":"학원 - 보습학원"}]},{"lat":"37.08650362","long":"126.82408726","items":[{"name":"공터영어장안마인드센터학원","tel":"","addr":"경기도 화성시 우정읍 조암리 800-3번지 101호","category":"학원 - 보습학원"}]},{"lat":"37.083810781","long":"126.81905508","items":[{"name":"광신당(GS jewelry)","tel":"031-351-1149","addr":"경기도 화성시 우정읍 조암리 270-21번지","category":"신변잡화 - 귀금속"},{"name":"샘의나라레스토랑","tel":"031-351-0059","addr":"경기도 화성시 우정읍 조암리 270-21","category":"일반휴게음식 - 일반한식"},{"name":"신세계","tel":"031-351-3368","addr":"경기도 화성시 우정읍 조암리 270-21번지","category":"일반휴게음식 - 일반한식"}]},{"lat":"37.082175397","long":"126.81619119","items":[{"name":"구인한의원","tel":"031-351-1500","addr":"경기도 화성시 우정읍 조암리 340-12번지","category":"의원 - 한의원"},{"name":"조암미소치과의원","tel":"031-351-2770","addr":"경기도 화성시 우정읍 조암리 340-12번지 2층","category":"의원 - 치과의원"},{"name":"조암아시아마트","tel":"","addr":"경기도 화성시 우정읍 조암리 340-12번지","category":"유통업 영리 - 슈퍼마켓"},{"name":"터미날미용실","tel":"031-352-2290","addr":"경기도 화성시 우정읍 조암리 340-12","category":"보건위생 - 미용원"},{"name":"터미널순대","tel":"031-351-1350","addr":"경기도 화성시 우정읍 조암리 340-12번지 C동","category":"일반휴게음식 - 일반한식"},{"name":"터미널식당","tel":"031-691-1316","addr":"경기도 화성시 우정읍 조암리 340-12번지","category":"일반휴게음식 - 일반한식"},{"name":"향남해장국","tel":"031-351-1127","addr":"경기도 화성시 우정읍 조암리 340-12번지","category":"일반휴게음식 - 일반한식"}]},{"lat":"37.082366804","long":"126.81758528","items":[{"name":"국제슈즈타운","tel":"031-351-0655","addr":"경기도 화성시 우정읍 조암리 349-17번지","category":"신변잡화 - 제화"},{"name":"명품노래연습장","tel":"031-351-9430","addr":"경기도 화성시 우정읍 조암리 349-17번지","category":"레저업소 - 노 래 방"},{"name":"조암동의보감한의원","tel":"031-351-6565","addr":"경기도 화성시 우정읍 조암리 349-17번지","category":"의원 - 한의원"}]},{"lat":"37.084813569","long":"126.82075093","items":[{"name":"궁전도배","tel":"031-358-7936","addr":"경기도 화성시 우정읍 조암리 243-1번지","category":"직물 - 카페트,커튼,천막,지물"},{"name":"김선화서적","tel":"031-351-1151","addr":"경기도 화성시 우정읍 조암리 243-1번지 202호","category":"서적문구 - 일반서적"},{"name":"김선화어학원","tel":"031-351-1151","addr":"경기도 화성시 우정읍 조암리 243-1번지 2층","category":"학원 - 보습학원"}]},{"lat":"37.084506277","long":"126.82014434","items":[{"name":"그대가꽃","tel":"031-351-6057","addr":"경기도 화성시 우정읍 조암리 263-1번지","category":"일반휴게음식 - 주점"},{"name":"대성유리상회","tel":"031-351-6262","addr":"경기도 화성시 우정읍 조암리 263-1번지","category":"건축자재 - 유리"},{"name":"마음","tel":"031-358-7885","addr":"경기도 화성시 우정읍 조암리 263-1","category":"일반휴게음식 - 일반한식"},{"name":"우정포차","tel":"031-358-2739","addr":"경기도 화성시 우정읍 조암리 263-1번지","category":"일반휴게음식 - 일반한식"},{"name":"장어랑돼지랑","tel":"031-351-2231","addr":"경기도 화성시 우정읍 조암리 263-1번지","category":"일반휴게음식 - 일반한식"},{"name":"풀향기","tel":"031-351-8089","addr":"경기도 화성시 우정읍 조암리 263-1번지 2층","category":"일반휴게음식 - 주점"},{"name":"호프타임","tel":"031-358-3459","addr":"경기도 화성시 우정읍 조암리 263-1번지 1층","category":"일반휴게음식 - 주점"}]},{"lat":"37.085037378","long":"126.81980566","items":[{"name":"길포차","tel":"031-351-0123","addr":"경기도 화성시 우정읍 조암리 218-7번지","category":"일반휴게음식 - 일반한식"},{"name":"아름보습학원","tel":"031-358-4289","addr":"경기도 화성시 우정읍 조암리 218-7번지 2층","category":"학원 - 보습학원"}]},{"lat":"37.08211363","long":"126.81702358","items":[{"name":"김밥천국","tel":"031-351-0323","addr":"경기도 화성시 우정읍 조암리 311-9번지","category":"일반휴게음식 - 일반한식"}]},{"lat":"37.083394864","long":"126.81813386","items":[{"name":"깍꼬뽁꼬헤어샵","tel":"031-351-5612","addr":"경기도 화성시 우정읍 조암리 267-32번지 헤어벨","category":"보건위생 - 미용원"}]},{"lat":"37.0820929","long":"126.81530293","items":[{"name":"깜놀헤어샵","tel":"031-358-6711","addr":"경기도 화성시 우정읍 조암리 335번지 111호","category":"보건위생 - 미용원"},{"name":"무한밥상","tel":"031-351-9677","addr":"경기도 화성시 우정읍 조암리 335번지 101,104,105호","category":"일반휴게음식 - 일반한식"},{"name":"비비헤어","tel":"031-358-7147","addr":"경기도 화성시 우정읍 조암리 335번지","category":"보건위생 - 미용원"},{"name":"아시안푸드","tel":"031-358-5494","addr":"경기도 화성시 우정읍 조암리 335번지 116호","category":"음료식품 - 기타음료식품"},{"name":"코끼리노래연습장","tel":"031-351-3094","addr":"경기도 화성시 우정읍 조암리 335번지 지하층","category":"레저업소 - 노 래 방"},{"name":"해주메밀냉면","tel":"031-111-1111","addr":"경기도 화성시 우정읍 조암리 335번지 4층 2호","category":"일반휴게음식 - 일반한식"},{"name":"홀인원실내골프","tel":"031-358-0757","addr":"경기도 화성시 우정읍 조암리 335번지 3층","category":"레저업소 - 스크린골프"}]},{"lat":"37.084451399","long":"126.81961587","items":[{"name":"꼬마김밥","tel":"031-351-0997","addr":"경기도 화성시 우정읍 조암리 263-6번지","category":"일반휴게음식 - 스넥"},{"name":"또와식당","tel":"031-351-6788","addr":"경기도 화성시 우정읍 조암리 263-6번지 1층","category":"일반휴게음식 - 일반한식"},{"name":"화수국밥","tel":"031-351-7234","addr":"경기도 화성시 우정읍 조암리 263-6번지","category":"일반휴게음식 - 일반한식"}]},{"lat":"37.081727408","long":"126.81781176","items":[{"name":"꽃나라","tel":"031-358-7054","addr":"경기도 화성시 우정읍 조암리 285-1번지","category":"문화.취미 - 화원"}]},{"lat":"37.083613281","long":"126.81952792","items":[{"name":"꽃다방카페","tel":"031-351-6595","addr":"경기도 화성시 우정읍 조암리 271-9번지","category":"일반휴게음식 - 서양음식"},{"name":"상해전통마사지/롯데","tel":"070-4321-7892","addr":"경기도 화성시 우정읍 조암리 271-9번지 2층","category":"레저업소 - 헬스클럽"},{"name":"수카페","tel":"","addr":"경기도 화성시 우정읍 조암리 271-9번지 1층","category":"일반휴게음식 - 일반한식"},{"name":"썸카페","tel":"031-358-0025","addr":"경기도 화성시 우정읍 조암리 271-9번지","category":"일반휴게음식 - 주점"},{"name":"연인카페","tel":"031-358-1457","addr":"경기도 화성시 우정읍 조암리 271-9번지","category":"일반휴게음식 - 일반한식"}]},{"lat":"37.086339371","long":"126.82272676","items":[{"name":"꽃돼지","tel":"031-351-9297","addr":"경기도 화성시 우정읍 조암리 798-10번지 1층 101,102호","category":"일반휴게음식 - 일반한식"}]},{"lat":"37.083034531","long":"126.81819097","items":[{"name":"꾸러기치킨&닭강정","tel":"031-358-6545","addr":"경기도 화성시 우정읍 조암리 350-21번지 1층","category":"일반휴게음식 - 일반한식"},{"name":"롯데리아화성조암점","tel":"031-351-3189","addr":"경기도 화성시 우정읍 조암리 350-21번지 1층","category":"일반휴게음식 - 서양음식"},{"name":"체리PC방","tel":"070-9745-7545","addr":"경기도 화성시 우정읍 조암리 350-21번지","category":"레저업소 - 기타레져업소"}]},{"lat":"37.082893895","long":"126.82047436","items":[{"name":"나무나라","tel":"","addr":"경기도 화성시 우정읍 조암리 278-2번지","category":"문화.취미 - 화원"}]},{"lat":"37.082754871","long":"126.81797796","items":[{"name":"낭만회포차","tel":"031-351-7429","addr":"경기도 화성시 우정읍 조암리 350-19번지","category":"일반휴게음식 - 일반한식"},{"name":"일미꼬치","tel":"031-358-8054","addr":"경기도 화성시 우정읍 조암리 350-19번지","category":"일반휴게음식 - 일반한식"}]},{"lat":"37.084117052","long":"126.81899811","items":[{"name":"내 스타일","tel":"031-358-2283","addr":"경기도 화성시 우정읍 조암리 265-5번지","category":"의류 - 정장"},{"name":"영원당","tel":"031-351-2340","addr":"경기도 화성시 우정읍 조암리 265-5번지","category":"신변잡화 - 귀금속"},{"name":"옛날남원추어탕","tel":"031-351-6669","addr":"경기도 화성시 우정읍 조암리 265-5번지","category":"일반휴게음식 - 일반한식"},{"name":"우승","tel":"050-4174-3615","addr":"경기도 화성시 우정읍 조암리 265-5번지 1층","category":"의류 - 정장"}]},{"lat":"37.08430834","long":"126.82033601","items":[{"name":"너랑나랑","tel":"031-358-2028","addr":"경기도 화성시 우정읍 조암리 262-29번지","category":"일반휴게음식 - 일반한식"}]},{"lat":"37.084148272","long":"126.82171974","items":[{"name":"네일클로버","tel":"031-358-8102","addr":"경기도 화성시 우정읍 조암리 812-11번지 성민빌딩 1층 2호","category":"보건위생 - 화장품"},{"name":"더블유","tel":"031-351-1301","addr":"경기도 화성시 우정읍 조암리 812-11번지 1층","category":"일반휴게음식 - 서양음식"}]},{"lat":"37.087171077","long":"126.81864207","items":[{"name":"논두렁전집","tel":"070-8947-8693","addr":"경기도 화성시 우정읍 조암리 203-2번지","category":"일반휴게음식 - 일반한식"}]},{"lat":"37.084227799","long":"126.82069609","items":[{"name":"놀러와식당","tel":"031-351-9532","addr":"경기도 화성시 우정읍 조암리 243-10번지","category":"일반휴게음식 - 일반한식"},{"name":"대한식당","tel":"031-358-8695","addr":"경기도 화성시 우정읍 조암리 243-10번지","category":"일반휴게음식 - 일반한식"},{"name":"사랑방","tel":"031-351-0887","addr":"경기도 화성시 우정읍 조암리 243-10번지","category":"일반휴게음식 - 서양음식"},{"name":"킹당구장","tel":"031-351-5222","addr":"경기도 화성시 우정읍 조암리 243-10번지 2층","category":"레저업소 - 당 구 장"}]},{"lat":"37.086149466","long":"126.82227732","items":[{"name":"놀부보쌈","tel":"031-351-1030","addr":"경기도 화성시 우정읍 조암리 805-3번지 102호","category":"일반휴게음식 - 일반한식"},{"name":"박성오헤어","tel":"031-358-3278","addr":"경기도 화성시 우정읍 조암리 805-3번지 101호","category":"보건위생 - 미용원"},{"name":"본가정분식","tel":"031-355-3678","addr":"경기도 화성시 우정읍 조암리 805-3번지","category":"일반휴게음식 - 일반한식"},{"name":"잼스터디","tel":"070-8818-9304","addr":"경기도 화성시 우정읍 조암리 805-3번지 202호","category":"학원 - 기타 교육기관"},{"name":"효쓰네일(hyozznail)","tel":"070-7723-0417","addr":"경기도 화성시 우정읍 조암리 805-3번지 104호","category":"보건위생 - 피부미용실"}]},{"lat":"37.082059532","long":"126.81700122","items":[{"name":"누네띠네","tel":"031-358-3023","addr":"경기도 화성시 우정읍 조암리 346번지","category":"보건위생 - 화장품"},{"name":"서울의원","tel":"031-358-8275","addr":"경기도 화성시 우정읍 조암리 346","category":"의원 - 의원"}]},{"lat":"37.084614057","long":"126.81991914","items":[{"name":"느티나무집","tel":"031-351-8881","addr":"경기도 화성시 우정읍 조암리 242-2번지 1층","category":"일반휴게음식 - 일반한식"},{"name":"일품소머리국밥","tel":"031-351-6729","addr":"경기도 화성시 우정읍 조암리 242-2번지","category":"일반휴게음식 - 일반한식"},{"name":"장안보신장","tel":"031-351-6266","addr":"경기도 화성시 우정읍 조암리 242-2","category":"일반휴게음식 - 일반한식"},{"name":"천년지기","tel":"031-351-0222","addr":"경기도 화성시 우정읍 조암리 242-2번지","category":"일반휴게음식 - 주점"}]},{"lat":"37.084199781","long":"126.8200551","items":[{"name":"다락방","tel":"031-111-1111","addr":"경기도 화성시 우정읍 조암리 261-4번지","category":"일반휴게음식 - 일반한식"},{"name":"다락방","tel":"031-358-4131","addr":"경기도 화성시 우정읍 조암리 261-4번지","category":"일반휴게음식 - 일반한식"}]},{"lat":"37.084118079","long":"126.81966166","items":[{"name":"다문화마트","tel":"031-358-8813","addr":"경기도 화성시 우정읍 조암리 262-24번지","category":"유통업 영리 - 슈퍼마켓"},{"name":"연지헤어라인","tel":"031-351-7895","addr":"경기도 화성시 우정읍 조암리 262-24","category":"보건위생 - 미용원"}]},{"lat":"37.086474563","long":"126.82274893","items":[{"name":"달봉감자 조암점","tel":"031-1670-3541","addr":"경기도 화성시 우정읍 조암리 798-9번지 103호","category":"일반휴게음식 - 일반한식"}]},{"lat":"37.082871359","long":"126.81756156","items":[{"name":"대성세탁소","tel":"031-358-4624","addr":"경기도 화성시 우정읍 조암리 350-8번지","category":"수리서비스 - 세탁소"},{"name":"새벽닭","tel":"070-3575-9848","addr":"경기도 화성시 우정읍 조암리 350-8번지 1층","category":"일반휴게음식 - 스넥"},{"name":"화양제분소","tel":"031-351-1134","addr":"경기도 화성시 우정읍 조암리 350-8번지","category":"음료식품 - 기타음료식품"}]},{"lat":"37.082538128","long":"126.81766359","items":[{"name":"대성약국","tel":"031-351-0533","addr":"경기도 화성시 우정읍 조암리 349-3번지","category":"약국 - 약국"},{"name":"베스킨라빈스 조암점","tel":"031-358-3136","addr":"경기도 화성시 우정읍 조암리 349-3번지","category":"음료식품 - 제과점"},{"name":"시론헤어","tel":"031-358-8668","addr":"경기도 화성시 우정읍 조암리 349-3번지","category":"보건위생 - 미용원"}]},{"lat":"37.085117481","long":"126.81916439","items":[{"name":"대신안경","tel":"031-351-0430","addr":"경기도 화성시 우정읍 조암리 217-6번지","category":"보건위생 - 안경"}]},{"lat":"37.085063853","long":"126.81944569","items":[{"name":"대한사료","tel":"031-351-1234","addr":"경기도 화성시 우정읍 조암리 219-7번지","category":"농업 - 비료,사료,종자"},{"name":"제일교복","tel":"031-251-1988","addr":"경기도 화성시 우정읍 조암리 219-7번지","category":"의류 - 단체복"}]},{"lat":"37.080954625","long":"126.8134501","items":[{"name":"대한이오리삼계탕","tel":"031-252-7686","addr":"경기도 화성시 우정읍 조암리 475-10번지 1층","category":"일반휴게음식 - 일반한식"}]},{"lat":"37.083756421","long":"126.81886402","items":[{"name":"더벨라인","tel":"","addr":"경기도 화성시 우정읍 조암리 270-17번지","category":"보건위생 - 피부미용실"},{"name":"에이린(aileen)","tel":"031-1111-1111","addr":"경기도 화성시 우정읍 조암리 270-17번지 1층","category":"의류 - 정장"},{"name":"오렌지헤어샵","tel":"031-351-9142","addr":"경기도 화성시 우정읍 조암리 270-17번지","category":"보건위생 - 미용원"},{"name":"쿨가이(남성컷트전문점)","tel":"","addr":"경기도 화성시 우정읍 조암리 270-17","category":"보건위생 - 미용원"},{"name":"형제고무","tel":"031-351-1238","addr":"경기도 화성시 우정읍 조암리 270-17번지","category":"신변잡화 - 신발"}]},{"lat":"37.08261945","long":"126.8178096","items":[{"name":"돈천년","tel":"031-358-6882","addr":"경기도 화성시 우정읍 조암리 350-15번지","category":"일반휴게음식 - 일반한식"}]},{"lat":"37.086535131","long":"126.82110671","items":[{"name":"동감숯불갈비","tel":"031-351-3308","addr":"경기도 화성시 우정읍 조암리 231-1번지 신태영아파트 1층 104호","category":"일반휴게음식 - 일반한식"}]},{"lat":"37.083280239","long":"126.81975365","items":[{"name":"동진밧데리","tel":"031-358-4500","addr":"경기도 화성시 우정읍 조암리 283-1번지","category":"자동차정비 유지 - 카인테리어"}]},{"lat":"37.083919291","long":"126.81930224","items":[{"name":"동화 내의류","tel":"031-663-0447","addr":"경기도 화성시 우정읍 조암리 270-27번지","category":"의류 - 내의판매"}]},{"lat":"37.088085423","long":"126.82141794","items":[{"name":"동화각","tel":"031-351-7788","addr":"경기도 화성시 우정읍 조암리 150-12번지","category":"일반휴게음식 - 중국식"}]},{"lat":"37.083891789","long":"126.81899865","items":[{"name":"두발로","tel":"031-351-0067","addr":"경기도 화성시 우정읍 조암리 270-63번지","category":"신변잡화 - 제화"}]},{"lat":"37.083620949","long":"126.81866191","items":[{"name":"두별화장품","tel":"031-351-8487","addr":"경기도 화성시 우정읍 조암리 270-12번지","category":"보건위생 - 화장품"}]},{"lat":"37.088284388","long":"126.81608623","items":[{"name":"드렁큰타이어","tel":"031-351-9951","addr":"경기도 화성시 우정읍 조암리 385-9번지 1층","category":"자동차정비 유지 - 자동차시트·타이어"}]},{"lat":"37.083260493","long":"126.81864028","items":[{"name":"떳다 막창집","tel":"031-358-7930","addr":"경기도 화성시 우정읍 조암리 270-5번지","category":"일반휴게음식 - 일반한식"},{"name":"부킹","tel":"031-358-1577","addr":"경기도 화성시 우정읍 조암리 270-5번지","category":"일반휴게음식 - 일반한식"},{"name":"숙자네","tel":"031-351-0272","addr":"경기도 화성시 우정읍 조암리 270-5","category":"일반휴게음식 - 일반한식"}]},{"lat":"37.083314085","long":"126.8183365","items":[{"name":"뚜레쥬르 화성조암(3)","tel":"031-358-6776","addr":"경기도 화성시 우정읍 조암리 270-7번지 (지하1층,지상1층)","category":"음료식품 - 제과점"},{"name":"뷰티화장품","tel":"031-358-7191","addr":"경기도 화성시 우정읍 조암리 270-7번지","category":"보건위생 - 화장품"},{"name":"이브자리조암점","tel":"031-351-1278","addr":"경기도 화성시 우정읍 조암리 270-7번지","category":"의류 - 맞춤복점"},{"name":"축산물도매센터","tel":"031-358-9325","addr":"경기도 화성시 우정읍 조암리 270-7번지 외4필지","category":"음료식품 - 정육점"}]},{"lat":"37.086281385","long":"126.82016257","items":[{"name":"뚝경이감자탕","tel":"031-351-4792","addr":"경기도 화성시 우정읍 조암리 230-9번지 지하층","category":"일반휴게음식 - 일반한식"},{"name":"홍익메디칼동물병원","tel":"031-358-0200","addr":"경기도 화성시 우정읍 조암리 230-9번지","category":"기타의료기관 - 동물병원"}]},{"lat":"37.082864502","long":"126.8189449","items":[{"name":"로로코코(LOLO COCO)","tel":"031-351-5757","addr":"경기도 화성시 우정읍 조암리 289번지","category":"의류 - 정장"}]},{"lat":"37.084369904","long":"126.81935739","items":[{"name":"리체","tel":"031-357-6340","addr":"경기도 화성시 우정읍 조암리 264-3번지","category":"의류 - 정장"},{"name":"모스크바","tel":"031-439-2912","addr":"경기도 화성시 우정읍 조암리 264-3번지 1층","category":"음료식품 - 제과점"},{"name":"코코헤어","tel":"031-358-3524","addr":"경기도 화성시 우정읍 조암리 264-3번지","category":"보건위생 - 미용원"}]},{"lat":"37.083864111","long":"126.81858259","items":[{"name":"리치","tel":"02-111-1111","addr":"경기도 화성시 우정읍 조암리 265-6번지 2층","category":"의류 - 내의판매"}]},{"lat":"37.084982323","long":"126.81916472","items":[{"name":"마돈나호프","tel":"031-351-9323","addr":"경기도 화성시 우정읍 조암리 217-14번지","category":"일반휴게음식 - 주점"},{"name":"써니","tel":"031-358-5710","addr":"경기도 화성시 우정읍 조암리 217-14번지","category":"의류 - 정장"}]},{"lat":"37.08725441","long":"126.82603126","items":[{"name":"마스타골프스크린연습장","tel":"031-351-5933","addr":"경기도 화성시 우정읍 조암리 794-11","category":"회원제형태 - 레져업소"},{"name":"태풍상회","tel":"070-8917-7082","addr":"경기도 화성시 우정읍 조암리 794-11번지","category":"문화.취미 - 애완동물"}]},{"lat":"37.086531487","long":"126.81874484","items":[{"name":"마스터카경정비,세차","tel":"031-351-9639","addr":"경기도 화성시 우정읍 조암리 203-28번지","category":"자동차정비 유지 - 자동차정비"}]},{"lat":"37.084370547","long":"126.81977352","items":[{"name":"만원포차","tel":"","addr":"경기도 화성시 우정읍 조암리 263-10번지","category":"일반휴게음식 - 일반한식"}]},{"lat":"37.080370799","long":"126.80358868","items":[{"name":"말뫼골한식뷔페","tel":"031-358-2972","addr":"경기도 화성시 우정읍 조암리 533번지","category":"일반휴게음식 - 일반한식"},{"name":"한진편의점","tel":"031-351-9632","addr":"경기도 화성시 우정읍 조암리 533번지","category":"음료식품 - 기타음료식품"}]},{"lat":"37.090732521","long":"126.82605692","items":[{"name":"맛돼지","tel":"031-358-8951","addr":"경기도 화성시 우정읍 조암리 80-3번지","category":"일반휴게음식 - 일반한식"}]},{"lat":"37.081121041","long":"126.81611505","items":[{"name":"매향수산","tel":"031-351-0324","addr":"경기도 화성시 우정읍 조암리 312-3번지","category":"음료식품 - 농·축·수산품"}]},{"lat":"37.083955002","long":"126.81908847","items":[{"name":"멋찐여우","tel":"031-352-1671","addr":"경기도 화성시 우정읍 조암리 270-64번지","category":"의류 - 정장"}]},{"lat":"37.083477566","long":"126.81916835","items":[{"name":"멍석","tel":"031-351-7644","addr":"경기도 화성시 우정읍 조암리 270-57번지","category":"음료식품 - 농·축·수산품"},{"name":"멍석골 해장국","tel":"031-351-7645","addr":"경기도 화성시 우정읍 조암리 270-57번지","category":"일반휴게음식 - 일반한식"}]},{"lat":"37.084392362","long":"126.82224775","items":[{"name":"메노플라워","tel":"031-351-3229","addr":"경기도 화성시 우정읍 조암리 812-7번지","category":"문화.취미 - 화원"},{"name":"뷰티를 디자인 하다","tel":"031-351-6933","addr":"경기도 화성시 우정읍 조암리 812-7번지 201호","category":"보건위생 - 피부미용실"}]},{"lat":"37.085645082","long":"126.82241348","items":[{"name":"명문","tel":"031-351-0503","addr":"경기도 화성시 우정읍 조암리 805-7번지 1동 1호","category":"일반휴게음식 - 일반한식"},{"name":"지노헤어","tel":"031-358-3165","addr":"경기도 화성시 우정읍 조암리 805-7번지 101호","category":"보건위생 - 미용원"}]},{"lat":"37.087677252","long":"126.81966434","items":[{"name":"명품출장세차","tel":"","addr":"경기도 화성시 우정읍 조암리 194-18번지 조암베라체 B동 202호","category":"자동차정비 유지 - 세차장"}]},{"lat":"37.086921616","long":"126.82047595","items":[{"name":"모닝건설","tel":"031-358-4644","addr":"경기도 화성시 우정읍 조암리 229번지 모닝건설","category":"건축자재 - 보일러·펌프·샷시"}]},{"lat":"37.083503987","long":"126.81877465","items":[{"name":"모모양품","tel":"031-351-0710","addr":"경기도 화성시 우정읍 조암리 270-39","category":"의류 - 정장"}]},{"lat":"37.084450668","long":"126.81914351","items":[{"name":"모텔네오텔","tel":"031-358-8220","addr":"경기도 화성시 우정읍 조암리 217-13번지","category":"숙박업 - 여관/기타숙박업"},{"name":"오복정","tel":"031-351-2110","addr":"경기도 화성시 우정읍 조암리 217-13번지","category":"일반휴게음식 - 일반한식"}]},{"lat":"37.083038614","long":"126.81505317","items":[{"name":"무지개세탁소","tel":"031-358-7080","addr":"경기도 화성시 우정읍 조암리 340-24번지","category":"수리서비스 - 세탁소"},{"name":"신돼랑이","tel":"031-253-4239","addr":"경기도 화성시 우정읍 조암리 340-24번지 1층","category":"일반휴게음식 - 일반한식"}]},{"lat":"37.087835322","long":"126.82285818","items":[{"name":"미당","tel":"02-2201-6373","addr":"경기도 화성시 우정읍 조암리 793-1번지","category":"일반휴게음식 - 일반한식"},{"name":"용인대장안태권도","tel":"031-358-6998","addr":"경기도 화성시 우정읍 조암리 793-1번지 2층 2호","category":"학원 - 예·체능계학원"},{"name":"지니허니","tel":"031-358-7095","addr":"경기도 화성시 우정읍 조암리 793-1번지","category":"의류 - 정장"},{"name":"카페9295","tel":"","addr":"경기도 화성시 우정읍 조암리 793-1번지 1층 102호","category":"일반휴게음식 - 서양음식"}]},{"lat":"37.087059614","long":"126.8223314","items":[{"name":"미성닭갈비","tel":"031-358-3995","addr":"경기도 화성시 우정읍 조암리 802-8번지 103호,104호","category":"일반휴게음식 - 일반한식"}]},{"lat":"37.084229676","long":"126.82192198","items":[{"name":"바바","tel":"","addr":"경기도 화성시 우정읍 조암리 812-10번지 금샘빌딩 102호","category":"의류 - 정장"},{"name":"씨엠헤어","tel":"031-358-8825","addr":"경기도 화성시 우정읍 조암리 812-10번지 성진빌딩 102동","category":"보건위생 - 미용원"}]},{"lat":"37.083838422","long":"126.81944865","items":[{"name":"바젤PC방","tel":"031-773-3572","addr":"경기도 화성시 우정읍 조암리 270-30번지","category":"레저업소 - 기타레져업소"},{"name":"세븐일레븐화성우정점","tel":"031-1577-0711","addr":"경기도 화성시 우정읍 조암리 270-30번지","category":"유통업 영리 - 편 의 점"},{"name":"우정주방마트","tel":"031-351-1341","addr":"경기도 화성시 우정읍 조암리 270-30번지","category":"주방용구 - 주방용구"}]},{"lat":"37.086288378","long":"126.8188579","items":[{"name":"박성미옷집","tel":"031-426-3885","addr":"경기도 화성시 우정읍 조암리 210-1번지 101호","category":"의류 - 내의판매"},{"name":"본초강목","tel":"031-358-5756","addr":"경기도 화성시 우정읍 조암리 210-1번지","category":"건강식품 - 기타건강식품"},{"name":"황금인력","tel":"031-351-5405","addr":"경기도 화성시 우정읍 조암리 210-1번지 101호","category":"용역 서비스 - 종합용역"}]},{"lat":"37.083170563","long":"126.81875297","items":[{"name":"발리","tel":"031-351-2530","addr":"경기도 화성시 우정읍 조암리 270-79번지","category":"일반휴게음식 - 일반한식"},{"name":"좋은날","tel":"031-351-6978","addr":"경기도 화성시 우정읍 조암리 270-79번지 1층","category":"일반휴게음식 - 일반한식"}]},{"lat":"37.087203833","long":"126.8223648","items":[{"name":"밝은전기조명","tel":"031-351-0309","addr":"경기도 화성시 우정읍 조암리 802-7번지","category":"건축자재 - 조명기구"},{"name":"썬스토어","tel":"031-000-0000","addr":"경기도 화성시 우정읍 조암리 802-7번지","category":"유통업 영리 - 편 의 점"},{"name":"화성우정차이랑중국어교습소","tel":"031-1111-1111","addr":"경기도 화성시 우정읍 조암리 802-7번지 102호","category":"학원 - 외국어학원"}]},{"lat":"37.08655913","long":"126.81913842","items":[{"name":"배터지는생돈까스구어조은닭","tel":"031-358-7809","addr":"경기도 화성시 우정읍 조암리 203-11번지","category":"일반휴게음식 - 일반한식"}]},{"lat":"37.083496665","long":"126.81986559","items":[{"name":"백옥호프포차","tel":"031-358-2228","addr":"경기도 화성시 우정읍 조암리 273-3번지 A동 1층","category":"일반휴게음식 - 일반한식"}]},{"lat":"37.082337763","long":"126.81630326","items":[{"name":"베트남쌀국수(TRANG MY QUAN)","tel":"031-111-1111","addr":"경기도 화성시 우정읍 조암리 341-5번지","category":"일반휴게음식 - 서양음식"},{"name":"예진헤어샵","tel":"031-358-1088","addr":"경기도 화성시 우정읍 조암리 341-5번지","category":"보건위생 - 미용원"},{"name":"이화면옥","tel":"031-351-5452","addr":"경기도 화성시 우정읍 조암리 341-5번지 340-19","category":"일반휴게음식 - 일반한식"},{"name":"터미널방아간","tel":"031-351-0737","addr":"경기도 화성시 우정읍 조암리 341-5번지","category":"음료식품 - 제과점"}]},{"lat":"37.085392924","long":"126.82250406","items":[{"name":"별밤포차","tel":"031-351-9655","addr":"경기도 화성시 우정읍 조암리 805-9번지 1동 1층 101호","category":"일반휴게음식 - 주점"},{"name":"부성감자탕","tel":"031-000-0000","addr":"경기도 화성시 우정읍 조암리 805-9번지 103호","category":"일반휴게음식 - 일반한식"}]},{"lat":"37.083008321","long":"126.81871962","items":[{"name":"별이 빛나는 밤에","tel":"031-351-0230","addr":"경기도 화성시 우정읍 조암리 270-48번지","category":"일반휴게음식 - 서양음식"},{"name":"사단법인 화성청우협회","tel":"031-358-7003","addr":"경기도 화성시 우정읍 조암리 270-48번지 3층","category":"기타 - 비영리/비대상"},{"name":"학우당","tel":"031-351-1277","addr":"경기도 화성시 우정읍 조암리 270-48번지 49","category":"서적문구 - 문구용품"}]},{"lat":"37.089311412","long":"126.82778109","items":[{"name":"본오자동차운전전문학원","tel":"031-351-8900","addr":"경기도 화성시 우정읍 조암리 88-1번지","category":"학원 - 기능학원"}]},{"lat":"37.082672688","long":"126.81728088","items":[{"name":"부성사진관","tel":"031-351-3061","addr":"경기도 화성시 우정읍 조암리 344-3번지","category":"광학제품 - 사진관"}]},{"lat":"37.086699107","long":"126.82227602","items":[{"name":"비발디카페","tel":"","addr":"경기도 화성시 우정읍 조암리 802-11번지 1층","category":"일반휴게음식 - 서양음식"}]},{"lat":"37.081588879","long":"126.81566405","items":[{"name":"뿌리깊은치과","tel":"031-351-2875","addr":"경기도 화성시 우정읍 조암리 327-1번지 3층","category":"의원 - 치과의원"},{"name":"세븐일레븐화성조암본점","tel":"","addr":"경기도 화성시 우정읍 조암리 327-1번지 1층 102호","category":"유통업 영리 - 편 의 점"}]},{"lat":"37.084009483","long":"126.81935826","items":[{"name":"사라헤어","tel":"031-663-0447","addr":"경기도 화성시 우정읍 조암리 270-67번지","category":"보건위생 - 미용원"}]},{"lat":"37.082339298","long":"126.81728169","items":[{"name":"사랑새미용실","tel":"031-351-2788","addr":"경기도 화성시 우정읍 조암리 349-5","category":"보건위생 - 미용원"},{"name":"이디야 (화성조암점)","tel":"031-358-1960","addr":"경기도 화성시 우정읍 조암리 349-5번지 1층","category":"일반휴게음식 - 서양음식"},{"name":"파리바게뜨조암점","tel":"031-351-3191","addr":"경기도 화성시 우정읍 조암리 349-5번지","category":"음료식품 - 제과점"}]},{"lat":"37.082898952","long":"126.81792138","items":[{"name":"산타크로스","tel":"031-351-1340","addr":"경기도 화성시 우정읍 조암리 350-13번지","category":"서적문구 - 문구용품"}]},{"lat":"37.083840294","long":"126.82066328","items":[{"name":"산화수","tel":"","addr":"경기도 화성시 우정읍 조암리 260-18번지 조암프라자 1층 111호","category":"일반휴게음식 - 일반한식"},{"name":"아이비스PC화성조암점","tel":"","addr":"경기도 화성시 우정읍 조암리 260-18번지 조암프라자 301호","category":"레저업소 - 기타레져업소"},{"name":"캐롬당구장","tel":"","addr":"경기도 화성시 우정읍 조암리 260-18번지 조암프라자 5층 501호","category":"레저업소 - 당 구 장"},{"name":"프라자 편의점","tel":"031-358-6265","addr":"경기도 화성시 우정읍 조암리 260-18번지 외4필지 118호","category":"유통업 영리 - 편 의 점"},{"name":"합기도 화랑 연무관","tel":"031-358-9634","addr":"경기도 화성시 우정읍 조암리 260-18번지 조암프라자 201호","category":"학원 - 예·체능계학원"},{"name":"힐링","tel":"031-223-4570","addr":"경기도 화성시 우정읍 조암리 260-18번지 조암프라자 202호","category":"보건위생 - 화장품"}]},{"lat":"37.084622042","long":"126.81925556","items":[{"name":"삽다리","tel":"031-358-6424","addr":"경기도 화성시 우정읍 조암리 217-11번지","category":"일반휴게음식 - 칵테일바"}]},{"lat":"37.08339891","long":"126.81497356","items":[{"name":"새싹공판장","tel":"031-358-7965","addr":"경기도 화성시 우정읍 조암리 363-3번지","category":"유통업 영리 - 슈퍼마켓"},{"name":"우정태권도학원","tel":"031-358-5623","addr":"경기도 화성시 우정읍 조암리 363-3번지 2층","category":"학원 - 예·체능계학원"}]},{"lat":"37.084335787","long":"126.82060586","items":[{"name":"서영노래연습장","tel":"070-8947-4490","addr":"경기도 화성시 우정읍 조암리 243-7번지 2층","category":"레저업소 - 노 래 방"},{"name":"수궁한식","tel":"031-351-5070","addr":"경기도 화성시 우정읍 조암리 243-7번지","category":"일반휴게음식 - 일반한식"},{"name":"우정스트레칭요가","tel":"031-351-0121","addr":"경기도 화성시 우정읍 조암리 243-7번지","category":"레저업소 - 헬스클럽"}]},{"lat":"37.081842007","long":"126.81619201","items":[{"name":"서울바른마취통증의학과","tel":"031-358-1275","addr":"경기도 화성시 우정읍 조암리 311-1번지 2,3층","category":"의원 - 의원"},{"name":"중국슈퍼","tel":"031-358-8887","addr":"경기도 화성시 우정읍 조암리 311-1","category":"유통업 영리 - 슈퍼마켓"},{"name":"카페테라랩","tel":"070-8810-2315","addr":"경기도 화성시 우정읍 조암리 311-1번지 1층 1호","category":"일반휴게음식 - 서양음식"}]},{"lat":"37.082953786","long":"126.8184161","items":[{"name":"서은우힐링헤어","tel":"031-351-2880","addr":"경기도 화성시 우정읍 조암리 350-3번지","category":"보건위생 - 미용원"},{"name":"스타노래연습장","tel":"031-351-1772","addr":"경기도 화성시 우정읍 조암리 350-3번지","category":"레저업소 - 노 래 방"},{"name":"행복한사람들","tel":"031-358-6977","addr":"경기도 화성시 우정읍 조암리 350-3번지 2층","category":"일반휴게음식 - 일반한식"},{"name":"훈춘양꼬치","tel":"031-352-1673","addr":"경기도 화성시 우정읍 조암리 350-3번지 1층","category":"일반휴게음식 - 일반한식"}]},{"lat":"37.083617222","long":"126.81627763","items":[{"name":"서해건강원","tel":"031-351-0833","addr":"경기도 화성시 우정읍 조암리 360-32번지 외1필지 2층","category":"건강식품 - 기타건강식품"}]},{"lat":"37.082367205","long":"126.79602584","items":[{"name":"서해복집","tel":"031-111-1111","addr":"경기도 화성시 우정읍 조암리 666번지 1층","category":"일반휴게음식 - 일반한식"},{"name":"카페182","tel":"070-8810-2657","addr":"경기도 화성시 우정읍 조암리 666번지 2동 1층","category":"일반휴게음식 - 서양음식"}]},{"lat":"37.082619749","long":"126.81800079","items":[{"name":"석수노래연습장","tel":"031-358-8991","addr":"경기도 화성시 우정읍 조암리 350-45번지","category":"레저업소 - 노 래 방"}]},{"lat":"37.084423078","long":"126.81878368","items":[{"name":"세븐일레븐화성조암점","tel":"","addr":"경기도 화성시 우정읍 조암리 265-1","category":"유통업 영리 - 편 의 점"}]},{"lat":"37.083892015","long":"126.81914486","items":[{"name":"속옷짱","tel":"031-351-7969","addr":"경기도 화성시 우정읍 조암리 270-65번지","category":"의류 - 내의판매"}]},{"lat":"37.084145284","long":"126.81977406","items":[{"name":"손씨초두부","tel":"031-358-7798","addr":"경기도 화성시 우정읍 조암리 261-14번지 2층","category":"일반휴게음식 - 일반한식"},{"name":"수앤미(Su&Me)","tel":"031-351-0844","addr":"경기도 화성시 우정읍 조암리 261-14번지","category":"보건위생 - 미용재료"},{"name":"조암주막집","tel":"031-358-1994","addr":"경기도 화성시 우정읍 조암리 261-14번지 1층 일부","category":"일반휴게음식 - 일반한식"},{"name":"하복","tel":"031-351-2556","addr":"경기도 화성시 우정읍 조암리 261-14번지 1층","category":"의류 - 내의판매"}]},{"lat":"37.087755454","long":"126.82366817","items":[{"name":"송연셀프세차장","tel":"","addr":"경기도 화성시 우정읍 조암리 793-6번지","category":"자동차정비 유지 - 세차장"}]},{"lat":"37.082980134","long":"126.81797742","items":[{"name":"수리축산","tel":"031-351-5788","addr":"경기도 화성시 우정읍 조암리 350-11번지","category":"음료식품 - 정육점"}]},{"lat":"37.082585785","long":"126.8193392","items":[{"name":"수정꽃직매장","tel":"031-358-7177","addr":"경기도 화성시 우정읍 조암리 280-2번지","category":"문화.취미 - 화원"},{"name":"화성사료","tel":"031-351-1178","addr":"경기도 화성시 우정읍 조암리 280-2번지","category":"농업 - 비료,사료,종자"}]},{"lat":"37.084704595","long":"126.82020009","items":[{"name":"수정호프","tel":"031-351-0101","addr":"경기도 화성시 우정읍 조암리 242-3번지 외1필지","category":"일반휴게음식 - 주점"}]},{"lat":"37.083647386","long":"126.81827946","items":[{"name":"술앤미소","tel":"031-351-5776","addr":"경기도 화성시 우정읍 조암리 267-7번지","category":"일반휴게음식 - 일반한식"},{"name":"애플노래연습장","tel":"031-351-6060","addr":"경기도 화성시 우정읍 조암리 267-7번지","category":"레저업소 - 노 래 방"}]},{"lat":"37.08517137","long":"126.81905179","items":[{"name":"스타코인","tel":"","addr":"경기도 화성시 우정읍 조암리 216-6번지","category":"레저업소 - 기타레져업소"}]},{"lat":"37.082285534","long":"126.81747301","items":[{"name":"스핑크스","tel":"031-358-0565","addr":"경기도 화성시 우정읍 조암리 349-14","category":"일반휴게음식 - 주점"}]},{"lat":"37.083504388","long":"126.81903333","items":[{"name":"시골밥상","tel":"031-351-3123","addr":"경기도 화성시 우정읍 조암리 270-35번지","category":"일반휴게음식 - 일반한식"}]},{"lat":"37.083566414","long":"126.81835838","items":[{"name":"신당명가","tel":"031-358-5810","addr":"경기도 화성시 우정읍 조암리 267-6","category":"일반휴게음식 - 스넥"}]},{"lat":"37.086536918","long":"126.8222764","items":[{"name":"신통치킨","tel":"031-351-8986","addr":"경기도 화성시 우정읍 조암리 802-13번지 101호","category":"일반휴게음식 - 일반한식"}]},{"lat":"37.08683781","long":"126.8187216","items":[{"name":"쌩큐마트(나들가게)","tel":"031-358-5695","addr":"경기도 화성시 우정읍 조암리 203-4","category":"유통업 영리 - 슈퍼마켓"},{"name":"한일모터","tel":"031-351-0715","addr":"경기도 화성시 우정읍 조암리 203-4","category":"기타 - 기계공구"}]},{"lat":"37.083894274","long":"126.81483737","items":[{"name":"씨유화성조암기산점","tel":"031-898-6568","addr":"경기도 화성시 우정읍 조암리 365-13번지 101호","category":"유통업 영리 - 편 의 점"}]},{"lat":"37.086454983","long":"126.82172549","items":[{"name":"씨유화성조암북로점","tel":"031-351-8343","addr":"경기도 화성시 우정읍 조암리 802-16번지 1층 102호","category":"유통업 영리 - 편 의 점"},{"name":"아이컴솔루션","tel":"031-351-3020","addr":"경기도 화성시 우정읍 조암리 802-16번지","category":"사무통신 - 컴퓨터"}]},{"lat":"37.083503218","long":"126.81827981","items":[{"name":"씨유화성조암중앙점","tel":"080-080-3663","addr":"경기도 화성시 우정읍 조암리 267-13번지 상건물 1층","category":"유통업 영리 - 편 의 점"}]},{"lat":"37.086538523","long":"126.82333363","items":[{"name":"아이비보습학원","tel":"031-358-8118","addr":"경기도 화성시 우정읍 조암리 801-1번지 1층","category":"학원 - 보습학원"}]},{"lat":"37.08716851","long":"126.82283726","items":[{"name":"앗싸다아이스크림","tel":"031-358-0848","addr":"경기도 화성시 우정읍 조암리 798-3번지 1층 102호","category":"음료식품 - 기타음료식품"}]},{"lat":"37.083286527","long":"126.81799917","items":[{"name":"야호만두","tel":"031-358-2624","addr":"경기도 화성시 우정읍 조암리 267-12번지","category":"일반휴게음식 - 일반한식"},{"name":"유진헤어샵","tel":"031-358-4469","addr":"경기도 화성시 우정읍 조암리 267-12번지","category":"보건위생 - 미용원"},{"name":"찬스 노래연습장","tel":"031-358-4611","addr":"경기도 화성시 우정읍 조암리 267-12번지","category":"레저업소 - 노 래 방"},{"name":"황금당","tel":"031-351-1102","addr":"경기도 화성시 우정읍 조암리 267-12번지","category":"신변잡화 - 귀금속"}]},{"lat":"37.08212082","long":"126.81586518","items":[{"name":"양평마트","tel":"031-358-5193","addr":"경기도 화성시 우정읍 조암리 340-9번지","category":"유통업 영리 - 슈퍼마켓"}]},{"lat":"37.08195054","long":"126.81645041","items":[{"name":"양평상회","tel":"031-3467-4919","addr":"경기도 화성시 우정읍 조암리 311-18번지","category":"음료식품 - 농·축·수산품"}]},{"lat":"37.087312712","long":"126.82285942","items":[{"name":"어부네꽃게마을","tel":"031-358-2008","addr":"경기도 화성시 우정읍 조암리 798-2번지 1층","category":"일반휴게음식 - 일반한식"}]},{"lat":"37.088307222","long":"126.81916794","items":[{"name":"에듀윤보습학원","tel":"031-351-1386","addr":"경기도 화성시 우정읍 조암리 148-4번지 2층","category":"학원 - 보습학원"},{"name":"에듀윤음악미술학원","tel":"031-358-9783","addr":"경기도 화성시 우정읍 조암리 148-4번지 1층","category":"학원 - 예·체능계학원"}]},{"lat":"37.082809792","long":"126.81852891","items":[{"name":"에스비에스(SBS)당구장","tel":"031-358-4939","addr":"경기도 화성시 우정읍 조암리 291-2번지 3층","category":"레저업소 - 당 구 장"}]},{"lat":"37.084199607","long":"126.81994263","items":[{"name":"엘레강스양품점","tel":"031-358-4074","addr":"경기도 화성시 우정읍 조암리 262-21번지","category":"의류 - 양품점"}]},{"lat":"37.082419829","long":"126.81692161","items":[{"name":"영환상회","tel":"031-351-1051","addr":"경기도 화성시 우정읍 조암리 345번지","category":"음료식품 - 미곡상"},{"name":"조암DC마트","tel":"031-358-0177","addr":"경기도 화성시 우정읍 조암리 345번지","category":"유통업 영리 - 슈퍼마켓"},{"name":"홍신마차","tel":"031-351-1081","addr":"경기도 화성시 우정읍 조암리 345번지 2층 2호","category":"일반휴게음식 - 중국식"}]},{"lat":"37.087703553","long":"126.81919189","items":[{"name":"오고야말행복","tel":"031-358-6414","addr":"경기도 화성시 우정읍 조암리 195-1번지 1층일부","category":"일반휴게음식 - 서양음식"}]},{"lat":"37.083423363","long":"126.81907851","items":[{"name":"옥카페","tel":"031-358-6364","addr":"경기도 화성시 우정읍 조암리 270-56번지","category":"일반휴게음식 - 서양음식"}]},{"lat":"37.083116115","long":"126.81850568","items":[{"name":"왕과비","tel":"031-358-0335","addr":"경기도 화성시 우정읍 조암리 270-46번지","category":"일반휴게음식 - 일반한식"}]},{"lat":"37.084343741","long":"126.81991979","items":[{"name":"왕소금구이","tel":"031-351-6788","addr":"경기도 화성시 우정읍 조암리 262-1","category":"일반휴게음식 - 일반한식"}]},{"lat":"37.082504168","long":"126.819002","items":[{"name":"왕십리곱창","tel":"031-351-8229","addr":"경기도 화성시 우정읍 조암리 290-5번지","category":"일반휴게음식 - 일반한식"},{"name":"조암애드광고","tel":"031-351-4338","addr":"경기도 화성시 우정읍 조암리 290-5","category":"유통업 영리 - 기타유통업"},{"name":"타바코스토리조암점","tel":"031-691-1316","addr":"경기도 화성시 우정읍 조암리 290-5번지 1층","category":"음료식품 - 기타음료식품"}]},{"lat":"37.087897763","long":"126.82244189","items":[{"name":"요거프레소(조암비발디점)","tel":"070-7404-1465","addr":"경기도 화성시 우정읍 조암리 185-39번지","category":"일반휴게음식 - 서양음식"}]},{"lat":"37.087586505","long":"126.82516445","items":[{"name":"요맛","tel":"031-358-1151","addr":"경기도 화성시 우정읍 조암리 794-2번지","category":"일반휴게음식 - 일반한식"}]},{"lat":"37.089009013","long":"126.81850265","items":[{"name":"우가돈가","tel":"031-351-1819","addr":"경기도 화성시 우정읍 조암리 147-1번지","category":"일반휴게음식 - 일반한식"},{"name":"우가돈가왕새우","tel":"031-351-1819","addr":"경기도 화성시 우정읍 조암리 147-1번지","category":"음료식품 - 농·축·수산품"}]},{"lat":"37.089170479","long":"126.82391229","items":[{"name":"우리홈마트","tel":"031-358-5599","addr":"경기도 화성시 우정읍 조암리 791번지 조암한라비발디 상가 107호","category":"유통업 영리 - 슈퍼마켓"}]},{"lat":"37.083703508","long":"126.81960642","items":[{"name":"우림관화로구이(조암점)","tel":"031-351-6259","addr":"경기도 화성시 우정읍 조암리 271-1번지 1층","category":"일반휴게음식 - 일반한식"}]},{"lat":"37.087977004","long":"126.82122699","items":[{"name":"우정분식","tel":"","addr":"경기도 화성시 우정읍 조암리 186-19번지","category":"일반휴게음식 - 스넥"}]},{"lat":"37.076146733","long":"126.7993939","items":[{"name":"우정식당","tel":"031-351-1110","addr":"경기도 화성시 우정읍 조암리 753-17번지 1층","category":"일반휴게음식 - 일반한식"}]},{"lat":"37.088202104","long":"126.81533286","items":[{"name":"우정어린이집[아이행복]","tel":"031-351-5544","addr":"경기도 화성시 우정읍 조암리 386번지 B동","category":"학원 - 유아원"}]},{"lat":"37.081399367","long":"126.80986142","items":[{"name":"우정자동차정비공업(주)","tel":"031-351-5100","addr":"경기도 화성시 우정읍 조암리 483","category":"자동차정비 유지 - 자동차정비"},{"name":"우정자동차정비공업(주)","tel":"031-351-5100","addr":"경기도 화성시 우정읍 조암리 483번지","category":"자동차정비 유지 - 자동차정비"}]},{"lat":"37.081364885","long":"126.7999985","items":[{"name":"우정초등학교병설유치원[아이행복]","tel":"031-351-6767","addr":"경기도 화성시 우정읍 조암리 631-1번지","category":"학원 - 유치원"}]},{"lat":"37.083034285","long":"126.81803352","items":[{"name":"운동화빠는날","tel":"031-351-1012","addr":"경기도 화성시 우정읍 조암리 350-4번지","category":"수리서비스 - 세탁소"}]},{"lat":"37.088173784","long":"126.82028175","items":[{"name":"원마트","tel":"031-358-1775","addr":"경기도 화성시 우정읍 조암리 149-5번지 1층 4호","category":"유통업 영리 - 슈퍼마켓"},{"name":"유신떡방앗간","tel":"031-351-1833","addr":"경기도 화성시 우정읍 조암리 149-5번지","category":"음료식품 - 제과점"},{"name":"천기킥복싱(CK GYM)","tel":"031-351-4399","addr":"경기도 화성시 우정읍 조암리 149-5번지 2층","category":"레저업소 - 헬스클럽"}]},{"lat":"37.084730846","long":"126.81969393","items":[{"name":"유성집","tel":"031-351-7209","addr":"경기도 화성시 우정읍 조암리 218-8번지","category":"일반휴게음식 - 일반한식"}]},{"lat":"37.086699877","long":"126.82278214","items":[{"name":"이자카야 감동","tel":"031-111-1111","addr":"경기도 화성시 우정읍 조암리 798-7번지","category":"일반휴게음식 - 일반한식"}]},{"lat":"37.082392568","long":"126.81677547","items":[{"name":"일품당구장","tel":"031-351-6503","addr":"경기도 화성시 우정읍 조암리 340-10번지 3층","category":"레저업소 - 당 구 장"},{"name":"터미널축산물판매장","tel":"031-351-0155","addr":"경기도 화성시 우정읍 조암리 340-10번지","category":"음료식품 - 정육점"}]},{"lat":"37.085976065","long":"126.82083812","items":[{"name":"일품양평해장국","tel":"031-358-0841","addr":"경기도 화성시 우정읍 조암리 804-3번지","category":"일반휴게음식 - 일반한식"},{"name":"임실엔치즈피자","tel":"031-358-9339","addr":"경기도 화성시 우정읍 조암리 804-3번지 1층","category":"일반휴게음식 - 서양음식"}]},{"lat":"37.088757922","long":"126.81927933","items":[{"name":"자연팜아그로","tel":"031-358-3040","addr":"경기도 화성시 우정읍 조암리 147","category":"농업 - 비료,사료,종자"}]},{"lat":"37.085617588","long":"126.82210988","items":[{"name":"자인스킨&바디","tel":"031-358-2939","addr":"경기도 화성시 우정읍 조암리 806-4번지","category":"회원제형태 - 기타4"}]},{"lat":"37.083232902","long":"126.81828046","items":[{"name":"장안상회","tel":"031-351-0097","addr":"경기도 화성시 우정읍 조암리 270-44","category":"음료식품 - 농·축·수산품"}]},{"lat":"37.08422728","long":"126.82035869","items":[{"name":"전주식당","tel":"031-358-3225","addr":"경기도 화성시 우정읍 조암리 261-5번지 1층","category":"일반휴게음식 - 일반한식"},{"name":"정카페","tel":"031-351-5577","addr":"경기도 화성시 우정읍 조암리 261-5번지","category":"일반휴게음식 - 서양음식"},{"name":"최일슈퍼","tel":"031-358-7533","addr":"경기도 화성시 우정읍 조암리 261-5번지 1층","category":"유통업 영리 - 슈퍼마켓"}]},{"lat":"37.088120309","long":"126.82066428","items":[{"name":"점핑스타","tel":"031-351-1847","addr":"경기도 화성시 우정읍 조암리 149-3번지 2층","category":"레저업소 - 기타레져업소"},{"name":"해피홈","tel":"031-351-5690","addr":"경기도 화성시 우정읍 조암리 149-3번지 1층","category":"일반휴게음식 - 일반한식"}]},{"lat":"37.081391711","long":"126.81633931","items":[{"name":"제비표페인트유리","tel":"031-358-7770","addr":"경기도 화성시 우정읍 조암리 311-8번지 1층","category":"건축자재 - 페인트"},{"name":"터미널식당","tel":"031-351-1161","addr":"경기도 화성시 우정읍 조암리 311-8","category":"일반휴게음식 - 일반한식"}]},{"lat":"37.086149174","long":"126.82208613","items":[{"name":"제일김밥분식","tel":"031-358-2811","addr":"경기도 화성시 우정읍 조암리 805-2번지","category":"일반휴게음식 - 스넥"},{"name":"크린위드협동조합","tel":"031-351-0029","addr":"경기도 화성시 우정읍 조암리 805-2번지","category":"수리서비스 - 세탁소"},{"name":"통하자 체인사업국","tel":"031-691-8223","addr":"경기도 화성시 우정읍 조암리 805-2번지 101호","category":"음료식품 - 기타음료식품"}]},{"lat":"37.084698095","long":"126.81602755","items":[{"name":"조암 냉.난방 전문점","tel":"","addr":"경기도 화성시 우정읍 조암리 360-13번지","category":"전기제품 - 냉열기기"}]},{"lat":"37.084260364","long":"126.81844667","items":[{"name":"조암가든","tel":"031-358-4768","addr":"경기도 화성시 우정읍 조암리 266-10번지","category":"일반휴게음식 - 일반한식"}]},{"lat":"37.08086809","long":"126.81569956","items":[{"name":"조암농원","tel":"","addr":"경기도 화성시 우정읍 조암리 298번지","category":"문화.취미 - 화원"}]},{"lat":"37.084316397","long":"126.81971742","items":[{"name":"조암다방","tel":"031-351-4474","addr":"경기도 화성시 우정읍 조암리 262-12번지","category":"일반휴게음식 - 서양음식"},{"name":"태원청과","tel":"","addr":"경기도 화성시 우정읍 조암리 262-12번지 1층 1호","category":"음료식품 - 농·축·수산품"},{"name":"포차BOOM","tel":"","addr":"경기도 화성시 우정읍 조암리 262-12번지","category":"일반휴게음식 - 일반한식"}]},{"lat":"37.088757225","long":"126.81882943","items":[{"name":"조암스크린골프연습장","tel":"031-358-0742","addr":"경기도 화성시 우정읍 조암리 147-7번지 2층","category":"레저업소 - 스크린골프"}]},{"lat":"37.081948305","long":"126.81503337","items":[{"name":"조암아기뜰어린이집[아이행복]","tel":"031-358-7989","addr":"경기도 화성시 우정읍 조암리 331-11번지 덕성빌라 101호","category":"학원 - 유아원"}]},{"lat":"37.087286396","long":"126.82333186","items":[{"name":"조암옥스포드학원","tel":"031-351-0865","addr":"경기도 화성시 우정읍 조암리 797-17번지 1층","category":"학원 - 외국어학원"}]},{"lat":"37.085452676","long":"126.82033326","items":[{"name":"조암정육점","tel":"031-358-5791","addr":"경기도 화성시 우정읍 조암리 221-2번지","category":"음료식품 - 정육점"}]},{"lat":"37.083036172","long":"126.81924814","items":[{"name":"조암정형외과","tel":"031-358-7700","addr":"경기도 화성시 우정읍 조암리 271-18번지","category":"의원 - 의원"}]},{"lat":"37.081786542","long":"126.81530368","items":[{"name":"조암종합상사","tel":"031-58-3436","addr":"경기도 화성시 우정읍 조암리 332-1번지","category":"자동차정비 유지 - 자동차부품"}]},{"lat":"37.084090543","long":"126.81933557","items":[{"name":"조암통닭","tel":"031-358-5592","addr":"경기도 화성시 우정읍 조암리 270-26","category":"일반휴게음식 - 스넥"}]},{"lat":"37.081308718","long":"126.81513616","items":[{"name":"조일세차장","tel":"031-358-3129","addr":"경기도 화성시 우정읍 조암리 327-5번지","category":"자동차정비 유지 - 세차장"}]},{"lat":"37.087450403","long":"126.81864139","items":[{"name":"좋은광고","tel":"031-358-6785","addr":"경기도 화성시 우정읍 조암리 201-4번지","category":"용역 서비스 - 종합용역"}]},{"lat":"37.077313881","long":"126.80220221","items":[{"name":"주식회사 다우스","tel":"031-366-8241","addr":"경기도 화성시 우정읍 조암리 250-31번지","category":"가구 - 일반가구"}]},{"lat":"37.076981612","long":"126.80286658","items":[{"name":"주식회사 리사이클빈","tel":"031-1111-1111","addr":"경기도 화성시 우정읍 조암리 250-35번지","category":"음료식품 - 농·축·수산품"}]},{"lat":"37.080176737","long":"126.80608582","items":[{"name":"중앙건철","tel":"031-351-1157","addr":"경기도 화성시 우정읍 조암리 493-5번지 외1필지","category":"건축자재 - 목재·석재·철물"}]},{"lat":"37.084003725","long":"126.82147265","items":[{"name":"지앤비영어TCC수학학원","tel":"031-351-0353","addr":"경기도 화성시 우정읍 조암리 256-7번지 2201호","category":"학원 - 보습학원"}]},{"lat":"37.085478215","long":"126.81936597","items":[{"name":"지짐이","tel":"031-351-2252","addr":"경기도 화성시 우정읍 조암리 219-15번지","category":"일반휴게음식 - 일반한식"}]},{"lat":"37.084066334","long":"126.82116884","items":[{"name":"진희네매운탕","tel":"031-351-3208","addr":"경기도 화성시 우정읍 조암리 256-15번지","category":"일반휴게음식 - 일반한식"}]},{"lat":"37.085787637","long":"126.82135593","items":[{"name":"청어람학원","tel":"031-358-0411","addr":"경기도 화성시 우정읍 조암리 807번지 1층","category":"학원 - 보습학원"}]},{"lat":"37.083558364","long":"126.81897696","items":[{"name":"카라","tel":"031-351-7498","addr":"경기도 화성시 우정읍 조암리 270-34번지","category":"일반휴게음식 - 일반한식"}]},{"lat":"37.08851004","long":"126.81633312","items":[{"name":"커피에반하다","tel":"031-351-9114","addr":"경기도 화성시 우정읍 조암리 385-3번지","category":"일반휴게음식 - 서양음식"}]},{"lat":"37.087563912","long":"126.822139","items":[{"name":"코스코아울렛","tel":"031-351-5850","addr":"경기도 화성시 우정읍 조암리 802-1번지","category":"의류 - 정장"}]},{"lat":"37.082730989","long":"126.81425543","items":[{"name":"토마토피부건강관리","tel":"031-358-8353","addr":"경기도 화성시 우정읍 조암리 338-4번지 102호","category":"회원제형태 - 기타4"}]},{"lat":"37.092284718","long":"126.8158627","items":[{"name":"토종흑염소","tel":"031-358-3949","addr":"경기도 화성시 우정읍 조암리 397-3번지 1층","category":"일반휴게음식 - 일반한식"}]},{"lat":"37.081427805","long":"126.81072732","items":[{"name":"파도수산","tel":"031-351-7716","addr":"경기도 화성시 우정읍 조암리 480번지","category":"일반휴게음식 - 일반한식"}]},{"lat":"37.086924422","long":"126.82230923","items":[{"name":"파인헤어샵","tel":"031-351-5283","addr":"경기도 화성시 우정읍 조암리 802-9번지 1층","category":"보건위생 - 미용원"}]},{"lat":"37.083623656","long":"126.81464685","items":[{"name":"푸우창의존중어린이집[아이행복]","tel":"031-358-0914","addr":"경기도 화성시 우정읍 조암리 365-19번지 동명주택 나동 102호","category":"학원 - 유아원"}]},{"lat":"37.083115117","long":"126.81786462","items":[{"name":"하나텔레콤","tel":"031-358-6016","addr":"경기도 화성시 우정읍 조암리 351-4번지","category":"사무통신 - 통신기기"}]},{"lat":"37.089837834","long":"126.82429313","items":[{"name":"한라키즈어린이집[아이행복]","tel":"031-8050-3871","addr":"경기도 화성시 우정읍 조암리 791번지 한라비발디 109동 104호","category":"학원 - 유아원"}]},{"lat":"37.086949411","long":"126.81518974","items":[{"name":"할리스커피 화성조암점","tel":"031-111-1111","addr":"경기도 화성시 우정읍 조암리 384-6번지 103호","category":"일반휴게음식 - 서양음식"}]},{"lat":"37.076982991","long":"126.7983908","items":[{"name":"향원","tel":"031-358-4108","addr":"경기도 화성시 우정읍 조암리 753-42번지","category":"일반휴게음식 - 중국식"}]},{"lat":"37.085253074","long":"126.81944524","items":[{"name":"홍익동물병원","tel":"031-358-6151","addr":"경기도 화성시 우정읍 조암리 216-15번지 1층","category":"기타의료기관 - 동물병원"}]},{"lat":"37.081788134","long":"126.81067017","items":[{"name":"화니헤어","tel":"","addr":"경기도 화성시 우정읍 조암리 455-14번지 1층","category":"보건위생 - 미용원"}]},{"lat":"37.081587638","long":"126.79853589","items":[{"name":"화성씨엔에스","tel":"031-111-1111","addr":"경기도 화성시 우정읍 조암리 637-5번지","category":"건축자재 - 기타건축자재"}]},{"lat":"37.081094434","long":"126.7999205","items":[{"name":"화성전기","tel":"031-351-4488","addr":"경기도 화성시 우정읍 조암리 709-1","category":"전기제품 - 기타전기제품"}]},{"lat":"37.082809355","long":"126.81824775","items":[{"name":"화진","tel":"031-358-6852","addr":"경기도 화성시 우정읍 조암리 350-5번지","category":"보건위생 - 화장품"}]},{"lat":"37.084091012","long":"126.81963923","items":[{"name":"흑산건어물","tel":"","addr":"경기도 화성시 우정읍 조암리 261-12번지","category":"음료식품 - 농·축·수산품"}]},{"lat":"37.083449505","long":"126.81850487","items":[{"name":"흥천종묘","tel":"031-351-1276","addr":"경기도 화성시 우정읍 조암리 270-9번지","category":"농업 - 비료,사료,종자"}]}]