[{"lat":"36.996376724","long":"126.95143123","items":[{"name":"(주)다드림식자재총판","tel":"031-683-1093","addr":"경기도 평택시 안중읍 금곡리 302번지","category":"음료식품 - 기타음료식품"}]},{"lat":"37.000767279","long":"126.95715784","items":[{"name":"(주)대원타일","tel":"031-686-8427","addr":"경기도 평택시 안중읍 금곡리 304-1번지 지하1층 1호","category":"건축자재 - 기타건축자재"},{"name":"삼국진순대국","tel":"031-684-8870","addr":"경기도 평택시 안중읍 금곡리 304-1번지 102호","category":"일반휴게음식 - 일반한식"},{"name":"주식회사대운펌프","tel":"031-684-7332","addr":"경기도 평택시 안중읍 금곡리 304-1번지 1층 101호","category":"기타 - 기계공구"},{"name":"한성건축세라믹","tel":"031-683-2449","addr":"경기도 평택시 안중읍 금곡리 304-1번지 1호 한성건축세라믹","category":"건축자재 - 기타건축자재"}]},{"lat":"37.000577968","long":"126.95693326","items":[{"name":"GS25 평택안중점","tel":"031-682-7288","addr":"경기도 평택시 안중읍 금곡리 304-26번지","category":"소매업 - 편의점"},{"name":"GS25평택안중점","tel":"02-2006-2485","addr":"경기도 평택시 안중읍 금곡리 304-26번지","category":"유통업 영리 - 편 의 점"},{"name":"대경닥트","tel":"031-684-1106","addr":"경기도 평택시 안중읍 금곡리 304-26번지 101호","category":"전기제품 - 기타전기제품"},{"name":"병천편의점","tel":"031-683-7182","addr":"경기도 평택시 안중읍 금곡리 304-26번지","category":"유통업 영리 - 슈퍼마켓"}]},{"lat":"36.99682692","long":"126.95065579","items":[{"name":"R(알)","tel":"031-682-1600","addr":"경기도 평택시 안중읍 금곡리 418-3번지","category":"숙박업 - 여관/기타숙박업"}]},{"lat":"36.99634955","long":"126.95110547","items":[{"name":"강남행복한요양원","tel":"031-683-9945","addr":"경기도 평택시 안중읍 금곡리 413-1번지","category":"기타의료기관 - 기타의료기관 및 기타"}]},{"lat":"36.99891032","long":"126.95523791","items":[{"name":"경기금속","tel":"031-683-0974","addr":"경기도 평택시 안중읍 금곡리 166-19번지","category":"기타 - 기계공구"},{"name":"봉보리국수","tel":"","addr":"경기도 평택시 안중읍 금곡리 166-19번지 2동 1층","category":"일반휴게음식 - 일반한식"},{"name":"안중우리소","tel":"031-684-8985","addr":"경기도 평택시 안중읍 금곡리 166-19","category":"일반휴게음식 - 일반한식"}]},{"lat":"37.000048662","long":"126.94207056","items":[{"name":"고려중기공업","tel":"031-682-8622","addr":"경기도 평택시 안중읍 금곡리 560-9","category":"기타 - 기계공구"}]},{"lat":"37.000713596","long":"126.95815774","items":[{"name":"공선생반값마트","tel":"031-684-1314","addr":"경기도 평택시 안중읍 금곡리 54-10번지 1층","category":"유통업 영리 - 슈퍼마켓"}]},{"lat":"37.000154805","long":"126.95782103","items":[{"name":"그린조이 평택안중점","tel":"031-682-5201","addr":"경기도 평택시 안중읍 금곡리 54-5번지 보아즈패션타운 107~108호","category":"레져용품 - 스포츠·레져용품"},{"name":"마코","tel":"031-682-0780","addr":"경기도 평택시 안중읍 금곡리 54-5번지 2동 102,103호","category":"소매업 - 의류"},{"name":"마코","tel":"031-682-5203","addr":"경기도 평택시 안중읍 금곡리 54-5번지 2동 102,103호","category":"의류 - 정장"},{"name":"제이자크갤러리카페","tel":"070-7739-8888","addr":"경기도 평택시 안중읍 금곡리 54-5번지 1동 104호 101,104호","category":"일반휴게음식 - 서양음식"},{"name":"평택쌀빵","tel":"031-681-4523","addr":"경기도 평택시 안중읍 금곡리 54-5번지 1층","category":"음식점 - 제과점"},{"name":"해본가해물찜코다리전문점","tel":"031-684-9300","addr":"경기도 평택시 안중읍 금곡리 54-5번지 2동 111호,112호,113호,114호","category":"일반휴게음식 - 일반한식"}]},{"lat":"37.000932332","long":"126.94329441","items":[{"name":"금곡대형세차장","tel":"031-683-5181","addr":"경기도 평택시 안중읍 금곡리 550-4번지","category":"자동차정비 유지 - 세차장"},{"name":"금곡주유소","tel":"031-681-4881~2","addr":"경기도 평택시 안중읍 금곡리 550-4번지","category":"도소매업 - 주유소"}]},{"lat":"36.998910827","long":"126.9565186","items":[{"name":"금곡산약초전시판매장","tel":"","addr":"경기도 평택시 안중읍 금곡리 67-4번지 1층","category":"건강식품 - 기타건강식품"},{"name":"옛날손짜장","tel":"031-681-0363","addr":"경기도 평택시 안중읍 금곡리 67-4번지 (주)하나전기 A동","category":"일반휴게음식 - 중국식"}]},{"lat":"36.997876685","long":"126.94129714","items":[{"name":"금곡산장","tel":"031-681-1043","addr":"경기도 평택시 안중읍 금곡리 582-1번지","category":"일반휴게음식 - 일반한식"}]},{"lat":"37.001689827","long":"126.94449592","items":[{"name":"금곡오일교환점","tel":"031-682-9365","addr":"경기도 평택시 안중읍 금곡리 549-5","category":"자동차정비 유지 - 자동차부품"},{"name":"금곡철물점","tel":"031-681-9045","addr":"경기도 평택시 안중읍 금곡리 549-5번지","category":"건축자재 - 목재·석재·철물"},{"name":"이쁜돼지랑쌈이랑","tel":"031-684-1874","addr":"경기도 평택시 안중읍 금곡리 549-5번지","category":"음식점 - 한식"},{"name":"이쁜돼지랑쌈이랑","tel":"031-681-1319","addr":"경기도 평택시 안중읍 금곡리 549-5번지 1층","category":"일반휴게음식 - 일반한식"}]},{"lat":"36.996159573","long":"126.9494093","items":[{"name":"길평어린이집","tel":"031-682-2470","addr":"경기도 평택시 안중읍 금곡리 407-2번지","category":"서비스업 - 교육"},{"name":"길평어린이집[아이행복]","tel":"031-684-6336","addr":"경기도 평택시 안중읍 금곡리 407-2번지","category":"학원 - 유아원"}]},{"lat":"36.993907645","long":"126.95109589","items":[{"name":"까사3353","tel":"031-681-0075","addr":"경기도 평택시 안중읍 금곡리 335-8번지 1,2층","category":"일반휴게음식 - 서양음식"}]},{"lat":"36.993491277","long":"126.9469623","items":[{"name":"꽃밭에는 꽃들이","tel":"031-681-3100","addr":"경기도 평택시 안중읍 금곡리 364-1번지","category":"문화.취미 - 화원"}]},{"lat":"36.995492741","long":"126.9493199","items":[{"name":"나눔중고","tel":"031-223-0019","addr":"경기도 평택시 안중읍 금곡리 410-8번지","category":"전기제품 - 가전제품"}]},{"lat":"37.004688316","long":"126.96090799","items":[{"name":"남원논두렁추어탕","tel":"031-683-4543","addr":"경기도 평택시 안중읍 금곡리 205-14번지","category":"일반휴게음식 - 일반한식"},{"name":"남원논두렁추어탕","tel":"031-682-6019","addr":"경기도 평택시 안중읍 금곡리 205-14번지","category":"음식점 - 한식"},{"name":"미래지게차렌탈","tel":"","addr":"경기도 평택시 안중읍 금곡리 205-14번지 지층 108호","category":"기타 - 기계공구"},{"name":"비엔에이(B&A)종합인테리어","tel":"031-684-3381","addr":"경기도 평택시 안중읍 금곡리 205-14번지 103~105호","category":"직물 - 카페트,커튼,천막,지물"},{"name":"애플시스템","tel":"031-683-8787","addr":"경기도 평택시 안중읍 금곡리 205-14번지","category":"사무통신 - 통신기기"},{"name":"에이스냉동","tel":"031-662-0674","addr":"경기도 평택시 안중읍 금곡리 205-14번지","category":"기타 - 기계공구"}]},{"lat":"36.997351333","long":"126.95490186","items":[{"name":"대신씨앤지","tel":"031-684-1872","addr":"경기도 평택시 안중읍 금곡리 163-7번지","category":"레저업소 - 스크린골프"},{"name":"씨유평택안중대로점","tel":"070-8676-6850","addr":"경기도 평택시 안중읍 금곡리 163-7번지","category":"유통업 영리 - 편 의 점"},{"name":"은영헤어샵","tel":"031-686-6777","addr":"경기도 평택시 안중읍 금곡리 163-7번지","category":"보건위생 - 미용원"}]},{"lat":"36.996242168","long":"126.95284678","items":[{"name":"두시경화훼유통","tel":"031-681-3041","addr":"경기도 평택시 안중읍 금곡리 325-3","category":"문화.취미 - 화원"}]},{"lat":"36.996771691","long":"126.94807205","items":[{"name":"드림창호산업","tel":"031-686-9891","addr":"경기도 평택시 안중읍 금곡리 492-5번지 A동","category":"건축자재 - 기타건축자재"}]},{"lat":"36.999911465","long":"126.95768636","items":[{"name":"링스골프 안중점","tel":"031-682-2115","addr":"경기도 평택시 안중읍 금곡리 54-3번지 103,104호","category":"도소매업 - 스포츠용품"},{"name":"링스골프안중점","tel":"031-682-0780","addr":"경기도 평택시 안중읍 금곡리 54-3번지 2(103-1,104호)","category":"레져용품 - 스포츠·레져용품"},{"name":"안중블랙야크","tel":"031-681-2077","addr":"경기도 평택시 안중읍 금곡리 54-3번지 보아즈아울렛","category":"레져용품 - 스포츠·레져용품"},{"name":"안중블랙야크","tel":"031-681-5031","addr":"경기도 평택시 안중읍 금곡리 54-3번지 보아즈아울렛","category":"소매업 - 의류"},{"name":"클라스마","tel":"031-682-5206","addr":"경기도 평택시 안중읍 금곡리 54-3번지","category":"레져용품 - 스포츠·레져용품"}]},{"lat":"37.000767816","long":"126.95857338","items":[{"name":"명품가구갤러리","tel":"031-683-4900","addr":"경기도 평택시 안중읍 금곡리 47-13","category":"가구 - 일반가구"}]},{"lat":"36.994412454","long":"126.95157859","items":[{"name":"미래주방","tel":"031-681-9579","addr":"경기도 평택시 안중읍 금곡리 337-6번지 2동","category":"주방용구 - 주방용구"},{"name":"분식연구소","tel":"031-682-1667","addr":"경기도 평택시 안중읍 금곡리 337-6번지","category":"음식점 - 분식"},{"name":"분식연구소","tel":"031-683-6566","addr":"경기도 평택시 안중읍 금곡리 337-6번지 금곡상가 102호","category":"일반휴게음식 - 스넥"},{"name":"엔(N)분의1","tel":"031-111-1111","addr":"경기도 평택시 안중읍 금곡리 337-6번지 1층(금곡상가1)","category":"일반휴게음식 - 주점"},{"name":"예그리나","tel":"031-682-7111","addr":"경기도 평택시 안중읍 금곡리 337-6번지 금곡상가 예그리나 1층 4호","category":"일반휴게음식 - 서양음식"}]},{"lat":"36.998658395","long":"126.95618173","items":[{"name":"발렌타인여관","tel":"031-682-2934","addr":"경기도 평택시 안중읍 금곡리 167-10번지 외3필지","category":"숙박업 - 여관/기타숙박업"}]},{"lat":"36.995771684","long":"126.94846594","items":[{"name":"보신가든","tel":"031-683-0147","addr":"경기도 평택시 안중읍 금곡리 400-2번지","category":"음식점 - 한식"}]},{"lat":"36.996660456","long":"126.94171378","items":[{"name":"비원자동차 ","tel":"","addr":"경기도 평택시 안중읍 금곡리 581-26번지","category":"서비스업 - 자동차정비"},{"name":"서해건설기계","tel":"031-682-1224","addr":"경기도 평택시 안중읍 금곡리 581-26","category":"자동차정비 유지 - 중장비수리"}]},{"lat":"37.004931779","long":"126.96140219","items":[{"name":"비케이인터내셔널","tel":"02-852-4713","addr":"경기도 평택시 안중읍 금곡리 44-3번지 외필지 2층","category":"의류 - 정장"}]},{"lat":"36.995655186","long":"126.94988147","items":[{"name":"사계절식물원","tel":"031-682-4705","addr":"경기도 평택시 안중읍 금곡리 410-6번지","category":"문화.취미 - 화원"}]},{"lat":"37.001211595","long":"126.94315938","items":[{"name":"삼인정비","tel":"031-682-0554","addr":"경기도 평택시 안중읍 금곡리 550-26번지 1층","category":"자동차정비 유지 - 자동차정비"},{"name":"안중오일랜드","tel":"031-8005-6265","addr":"경기도 평택시 안중읍 금곡리 550-26번지","category":"자동차정비 유지 - 윤활유 전문 판매"}]},{"lat":"37.002966703","long":"126.95932483","items":[{"name":"선유상사","tel":"031-682-7520","addr":"경기도 평택시 안중읍 금곡리 47-2번지 1층 2호","category":"자동차정비 유지 - 자동차부품"}]},{"lat":"36.993214411","long":"126.95246683","items":[{"name":"아우네정육점","tel":"031-683-0677","addr":"경기도 평택시 안중읍 금곡리 337-3번지 우림 상가 114호","category":"음료식품 - 정육점"},{"name":"엘림민헤어","tel":"031-681-9668","addr":"경기도 평택시 안중읍 금곡리 337-3번지 우림 상가동 104호","category":"보건위생 - 미용원"}]},{"lat":"37.001599179","long":"126.94340624","items":[{"name":"아재칼국수","tel":"031-682-5894","addr":"경기도 평택시 안중읍 금곡리 550-21번지 1층","category":"일반휴게음식 - 일반한식"}]},{"lat":"37.000992641","long":"126.95740486","items":[{"name":"안중고추장추어탕","tel":"031-682-1463","addr":"경기도 평택시 안중읍 금곡리 200-7번지 외5건","category":"일반휴게음식 - 일반한식"},{"name":"안중고추장추어탕","tel":"031-683-4543","addr":"경기도 평택시 안중읍 금곡리 200-7번지","category":"음식점 - 한식"}]},{"lat":"37.003380967","long":"126.95870668","items":[{"name":"안중백병원매점","tel":"031-645-9440","addr":"경기도 평택시 안중읍 금곡리 205-10번지","category":"음료식품 - 기타음료식품"},{"name":"이디야안중백병원점","tel":"031-681-2077","addr":"경기도 평택시 안중읍 금곡리 205-10번지","category":"음식점 - 커피"},{"name":"이디야안중백병원점","tel":"070-4236-9869","addr":"경기도 평택시 안중읍 금곡리 205-10번지 안중백병원 C동 1층","category":"일반휴게음식 - 서양음식"},{"name":"한중병원","tel":"031-683-7500","addr":"경기도 평택시 안중읍 금곡리 205-10번지","category":"병원 - 병원"}]},{"lat":"36.998495706","long":"126.95493485","items":[{"name":"안중전자","tel":"031-683-7723","addr":"경기도 평택시 안중읍 금곡리 168-7번지 101호","category":"자동차정비 유지 - 자동차부품"}]},{"lat":"36.996848765","long":"126.93996114","items":[{"name":"안중휴게소","tel":"031-682-6827","addr":"경기도 평택시 안중읍 금곡리 581-10","category":"유통업 영리 - 복지매장"}]},{"lat":"36.999850559","long":"126.94232911","items":[{"name":"영도중기모터스","tel":"031-682-3477","addr":"경기도 평택시 안중읍 금곡리 560-3번지 1층","category":"기타 - 기계공구"},{"name":"영진사","tel":"031-668-6553","addr":"경기도 평택시 안중읍 금곡리 560-3번지","category":"자동차정비 유지 - 자동차정비"}]},{"lat":"36.996438217","long":"126.94790378","items":[{"name":"오렌지유통","tel":"","addr":"경기도 평택시 안중읍 금곡리 387-1번지","category":"음료식품 - 기타음료식품"}]},{"lat":"37.001488713","long":"126.9586853","items":[{"name":"오성주유소","tel":"031-681-8565","addr":"경기도 평택시 안중읍 금곡리 47-8번지","category":"도소매업 - 주유소"},{"name":"오성해피카","tel":"031-681-0900","addr":"경기도 평택시 안중읍 금곡리 47-8번지","category":"자동차정비 유지 - 자동차부품"}]},{"lat":"37.001795139","long":"126.95885365","items":[{"name":"오성해피카","tel":"","addr":"경기도 평택시 안중읍 금곡리 47-14번지","category":"서비스업 - 자동차정비"}]},{"lat":"36.997883258","long":"126.95563174","items":[{"name":"오토(AUTO)911","tel":"031-682-3190","addr":"경기도 평택시 안중읍 금곡리 90-3","category":"자동차정비 유지 - 자동차정비"}]},{"lat":"36.993385049","long":"126.95115242","items":[{"name":"자연숲어린이집[아이행복]","tel":"031-683-2575","addr":"경기도 평택시 안중읍 금곡리 339번지","category":"학원 - 유아원"}]},{"lat":"36.998297379","long":"126.95471029","items":[{"name":"주주하우징","tel":"031-686-9100","addr":"경기도 평택시 안중읍 금곡리 169-1번지 외5필지(169-2, 169-4, 170-1, 170-2, 170-3)","category":"건축자재 - 기타건축자재"}]},{"lat":"36.993270993","long":"126.95879116","items":[{"name":"청바지","tel":"031-655-4136","addr":"경기도 평택시 안중읍 금곡리 77-20번지","category":"회원제형태 - 기타4"}]},{"lat":"36.998352079","long":"126.93724126","items":[{"name":"케이(K)모터스","tel":"031-682-9774","addr":"경기도 평택시 안중읍 금곡리 605-3번지 1층","category":"자동차정비 유지 - 자동차정비"}]},{"lat":"36.99721297","long":"126.94754374","items":[{"name":"토예미도예공방","tel":"031-682-2877","addr":"경기도 평택시 안중읍 금곡리 492-4","category":"문화.취미 - 민예·공예품"}]},{"lat":"36.995131821","long":"126.94824173","items":[{"name":"토이아울렛평택점","tel":"031-684-1949","addr":"경기도 평택시 안중읍 금곡리 396-5","category":"서적문구 - 완구점"}]},{"lat":"36.995356871","long":"126.94776975","items":[{"name":"평택약초농원","tel":"070-4102-6471","addr":"경기도 평택시 안중읍 금곡리 396-1번지 1층","category":"약국 - 한약방"}]},{"lat":"37.000716434","long":"126.94401359","items":[{"name":"프로방스 하우스","tel":"031-682-2221","addr":"경기도 평택시 안중읍 금곡리 552번지","category":"가구 - 일반가구"}]},{"lat":"36.998876803","long":"126.94116153","items":[{"name":"한성특수고무상사","tel":"031-684-7243","addr":"경기도 평택시 안중읍 금곡리 584-8번지","category":"기타 - 기계공구"}]}]