[{"lat":"37.510321619","long":"127.06113029","items":[{"name":"KOCES_사랑카드","tel":"02-1577-0016","addr":"서울특별시 강남구 삼성동 159-1번지 트레이드타워 901호","category":"유통업 영리 - 인터넷P/G"},{"name":"KOCES_사랑카드_A","tel":"02-1577-0016","addr":"서울특별시 강남구 삼성동 159-1번지 트레이드타워 901호","category":"유통업 영리 - 인터넷P/G"},{"name":"KOCES_사랑카드_B","tel":"02-1577-0016","addr":"서울특별시 강남구 삼성동 159-1번지 트레이드타워 901호","category":"유통업 영리 - 인터넷P/G"},{"name":"KOCES_사랑카드_C","tel":"02-1577-0016","addr":"서울특별시 강남구 삼성동 159-1번지 트레이드타워 901호","category":"유통업 영리 - 인터넷P/G"},{"name":"KOCES_사랑카드_D","tel":"02-1577-0016","addr":"서울특별시 강남구 삼성동 159-1번지 트레이드타워 901호","category":"유통업 영리 - 인터넷P/G"},{"name":"KOCES_땡큐페이","tel":"02-1577-0016","addr":"서울특별시 강남구 삼성동 159-1번지 트레이드타워 901호","category":"유통업 영리 - 인터넷P/G"},{"name":"KOCES_땡큐페이_A","tel":"02-1577-0016","addr":"서울특별시 강남구 삼성동 159-1번지 트레이드타워 901호","category":"유통업 영리 - 인터넷P/G"},{"name":"KOCES_땡큐페이_B","tel":"02-1577-0016","addr":"서울특별시 강남구 삼성동 159-1번지 트레이드타워 901호","category":"유통업 영리 - 인터넷P/G"},{"name":"KOCES_땡큐페이_C","tel":"02-1577-0016","addr":"서울특별시 강남구 삼성동 159-1번지 트레이드타워 901호","category":"유통업 영리 - 인터넷P/G"},{"name":"KOCES_땡큐페이_D","tel":"02-1577-0016","addr":"서울특별시 강남구 삼성동 159-1번지 트레이드타워 901호","category":"유통업 영리 - 인터넷P/G"}]},{"lat":"37.510569494","long":"127.05088326","items":[{"name":"베베양조","tel":"02-566-8923","addr":"서울특별시 강남구 삼성동 115-18번지 이원빌딩 1층","category":"일반휴게음식 - 서양음식"}]},{"lat":"37.511824101","long":"127.06538423","items":[{"name":"(주)에어패스","tel":"","addr":"서울특별시 강남구 삼성동 166-7번지 (주)에어패스","category":"기타"}]},{"lat":"37.51001392","long":"127.0638219","items":[{"name":"N 연천군청","tel":"02-1544-6030","addr":"서울특별시 강남구 삼성동 168-26번지 제일빌딩 3층","category":"유통업 영리 - 인터넷P/G"},{"name":"N 연천군청_A","tel":"02-1544-6030","addr":"서울특별시 강남구 삼성동 168-26번지 제일빌딩 3층","category":"유통업 영리 - 인터넷P/G"},{"name":"N 연천군청_B","tel":"02-1544-6030","addr":"서울특별시 강남구 삼성동 168-26번지 제일빌딩 3층","category":"유통업 영리 - 인터넷P/G"},{"name":"N 연천군청_C","tel":"02-1544-6030","addr":"서울특별시 강남구 삼성동 168-26번지 제일빌딩 3층","category":"유통업 영리 - 인터넷P/G"},{"name":"N 연천군청_D","tel":"02-1544-6030","addr":"서울특별시 강남구 삼성동 168-26번지 제일빌딩 3층","category":"유통업 영리 - 인터넷P/G"}]}]